# 
# Header Description:
# 
# Version: v3.1.0.3 Platform: 13 Manufacturer: samsung Model: SM-S135DL GNSS Hardware Model Name: MediaTek,MT6631,MTK_MNLD_default,MNL_VER_default
# 
# Raw,utcTimeMillis,TimeNanos,LeapSecond,TimeUncertaintyNanos,FullBiasNanos,BiasNanos,BiasUncertaintyNanos,DriftNanosPerSecond,DriftUncertaintyNanosPerSecond,HardwareClockDiscontinuityCount,Svid,TimeOffsetNanos,State,ReceivedSvTimeNanos,ReceivedSvTimeUncertaintyNanos,Cn0DbHz,PseudorangeRateMetersPerSecond,PseudorangeRateUncertaintyMetersPerSecond,AccumulatedDeltaRangeState,AccumulatedDeltaRangeMeters,AccumulatedDeltaRangeUncertaintyMeters,CarrierFrequencyHz,CarrierCycles,CarrierPhase,CarrierPhaseUncertainty,MultipathIndicator,SnrInDb,ConstellationType,AgcDb,BasebandCn0DbHz,FullInterSignalBiasNanos,FullInterSignalBiasUncertaintyNanos,SatelliteInterSignalBiasNanos,SatelliteInterSignalBiasUncertaintyNanos,CodeType,ChipsetElapsedRealtimeNanos,IsFullTracking
# 
# UncalAccel,utcTimeMillis,elapsedRealtimeNanos,UncalAccelXMps2,UncalAccelYMps2,UncalAccelZMps2,BiasXMps2,BiasYMps2,BiasZMps2
# 
# Accel,utcTimeMillis,elapsedRealtimeNanos,AccelXMps2,AccelYMps2,AccelZMps2
# 
# UncalGyro,utcTimeMillis,elapsedRealtimeNanos,UncalGyroXRadPerSec,UncalGyroYRadPerSec,UncalGyroZRadPerSec,DriftXRadPerSec,DriftYRadPerSec,DriftZRadPerSec
# 
# Gyro,utcTimeMillis,elapsedRealtimeNanos,GyroXRadPerSec,GyroYRadPerSec,GyroZRadPerSec
# 
# UncalMag,utcTimeMillis,elapsedRealtimeNanos,UncalMagXMicroT,UncalMagYMicroT,UncalMagZMicroT,BiasXMicroT,BiasYMicroT,BiasZMicroT
# 
# Mag,utcTimeMillis,elapsedRealtimeNanos,MagXMicroT,MagYMicroT,MagZMicroT
# 
# Pressure,utcTimeMillis,elapsedRealtimeNanos,PressureHpa
# 
# OrientationDeg,utcTimeMillis,elapsedRealtimeNanos,yawDeg,rollDeg,pitchDeg
# 
# Fix,Provider,LatitudeDegrees,LongitudeDegrees,AltitudeMeters,SpeedMps,AccuracyMeters,BearingDegrees,UnixTimeMillis,SpeedAccuracyMps,BearingAccuracyDegrees,elapsedRealtimeNanos,VerticalAccuracyMeters,MockLocation,NumberOfUsedSignals,VerticalSpeedAccuracyMps,SolutionType
# 
# Nav,Svid,Type,Status,MessageId,Sub-messageId,Data(Bytes)
# 
# Status,UnixTimeMillis,SignalCount,SignalIndex,ConstellationType,Svid,CarrierFrequencyHz,Cn0DbHz,AzimuthDegrees,ElevationDegrees,UsedInFix,HasAlmanacData,HasEphemerisData,BasebandCn0DbHz
# 
# Agc,utcTimeMillis,TimeNanos,LeapSecond,TimeUncertaintyNanos,FullBiasNanos,BiasNanos,BiasUncertaintyNanos,DriftNanosPerSecond,DriftUncertaintyNanosPerSecond,HardwareClockDiscontinuityCount,AgcDb,CarrierFrequencyHz,ConstellationType
# 
Fix,FLP,37.4259057000,-122.1579922000,2.936213545755427,0.011912767,64.866,,1732151328233,1.5,,30212081000000,16.842173,0,,,
Status,,26,0,1,17,1575420030,0.00,109.0,80.0,0,0,0,0.0
Status,,26,1,1,22,1575420030,0.00,3.0,68.0,0,0,0,0.0
Status,,26,2,1,14,1575420030,0.00,47.0,56.0,0,0,0,0.0
Status,,26,3,1,19,1575420030,18.60,199.0,56.0,1,0,0,13.6
Status,,26,4,1,13,1575420030,24.60,240.0,51.0,1,0,0,19.6
Status,,26,5,1,30,1575420030,29.90,128.0,40.0,1,0,0,24.9
Status,,26,6,1,15,1575420030,0.00,280.0,30.0,0,0,0,0.0
Status,,26,7,1,2,1575420030,0.00,51.0,18.0,0,0,0,0.0
Status,,26,8,1,24,1575420030,0.00,313.0,12.0,0,0,0,0.0
Status,,26,9,1,6,1575420030,0.00,164.0,8.0,0,0,0,0.0
Status,,26,10,1,7,1575420030,0.00,129.0,8.0,0,0,0,0.0
Status,,26,11,1,21,1575420030,0.00,36.0,7.0,0,0,0,0.0
Status,,26,12,3,20,1602000000,0.00,121.0,49.0,0,0,0,0.0
Status,,26,13,3,9,1602000000,0.00,75.0,36.0,0,0,0,0.0
Status,,26,14,3,19,1602000000,0.00,37.0,27.0,0,0,0,0.0
Status,,26,15,3,8,1602000000,0.00,251.0,26.0,0,0,0,0.0
Status,,26,16,3,11,1602000000,22.20,306.0,25.0,0,0,0,17.2
Status,,26,17,6,21,1575420030,0.00,334.0,68.0,0,0,0,0.0
Status,,26,18,6,19,1575420030,0.00,248.0,48.0,0,0,0,0.0
Status,,26,19,6,27,1575420030,0.00,61.0,36.0,0,0,0,0.0
Status,,26,20,6,29,1575420030,0.00,192.0,28.0,0,0,0,0.0
Status,,26,21,6,13,1575420030,0.00,123.0,25.0,0,0,0,0.0
Status,,26,22,6,15,1575420030,0.00,66.0,23.0,0,0,0,0.0
Status,,26,23,6,4,1575420030,0.00,314.0,21.0,0,0,0,0.0
Status,,26,24,6,26,1575420030,0.00,169.0,3.0,0,0,0,0.0
Status,,26,25,6,6,1575420030,0.00,329.0,2.0,0,0,0,0.0
Fix,FLP,37.4259041000,-122.1579928000,2.799312857617627,0.004776478,64.841,,1732151329233,1.5,,30213081000000,19.583475,0,,,
Fix,GPS,37.4259366667,-122.1579516667,23.7,0.0,45.3,0.0,1732151329000,2.4,179.9,30213081000000,82.7,0,,,
Status,1732151329000,26,0,1,17,1575420030,0.00,109.0,80.0,0,0,0,0.0
Status,1732151329000,26,1,1,22,1575420030,0.00,3.0,68.0,0,0,0,0.0
Status,1732151329000,26,2,1,14,1575420030,0.00,47.0,56.0,0,0,0,0.0
Status,1732151329000,26,3,1,19,1575420030,21.80,199.0,56.0,1,0,0,16.8
Status,1732151329000,26,4,1,13,1575420030,22.00,240.0,51.0,1,0,0,17.0
Status,1732151329000,26,5,1,30,1575420030,29.80,128.0,40.0,1,0,0,24.8
Status,1732151329000,26,6,1,15,1575420030,0.00,280.0,30.0,0,0,0,0.0
Status,1732151329000,26,7,1,2,1575420030,0.00,51.0,18.0,0,0,0,0.0
Status,1732151329000,26,8,1,24,1575420030,0.00,313.0,12.0,0,0,0,0.0
Status,1732151329000,26,9,1,6,1575420030,0.00,164.0,8.0,0,0,0,0.0
Status,1732151329000,26,10,1,7,1575420030,0.00,129.0,8.0,0,0,0,0.0
Status,1732151329000,26,11,1,21,1575420030,0.00,36.0,7.0,0,0,0,0.0
Status,1732151329000,26,12,3,20,1602000000,0.00,121.0,49.0,0,0,0,0.0
Status,1732151329000,26,13,3,9,1602000000,0.00,75.0,36.0,0,0,0,0.0
Status,1732151329000,26,14,3,19,1602000000,0.00,37.0,27.0,0,0,0,0.0
Status,1732151329000,26,15,3,8,1602000000,0.00,251.0,26.0,0,0,0,0.0
Status,1732151329000,26,16,3,11,1602000000,24.10,306.0,25.0,0,0,0,19.1
Status,1732151329000,26,17,6,21,1575420030,0.00,334.0,68.0,0,0,0,0.0
Status,1732151329000,26,18,6,19,1575420030,0.00,248.0,48.0,0,0,0,0.0
Status,1732151329000,26,19,6,27,1575420030,0.00,61.0,36.0,0,0,0,0.0
Status,1732151329000,26,20,6,29,1575420030,0.00,192.0,28.0,0,0,0,0.0
Status,1732151329000,26,21,6,13,1575420030,0.00,123.0,25.0,0,0,0,0.0
Status,1732151329000,26,22,6,15,1575420030,0.00,66.0,23.0,0,0,0,0.0
Status,1732151329000,26,23,6,4,1575420030,0.00,314.0,21.0,0,0,0,0.0
Status,1732151329000,26,24,6,26,1575420030,0.00,169.0,3.0,0,0,0,0.0
Status,1732151329000,26,25,6,6,1575420030,0.00,329.0,2.0,0,0,0,0.0
Fix,GPS,37.4259483333,-122.1579333333,23.7,0.0,44.6,0.0,1732151330000,2.4,179.9,30214081000000,83.4,0,,,
Fix,FLP,37.4259022000,-122.1579933000,3.1581636693330655,0.0021564334,64.717,,1732151330233,1.5,,30214081000000,22.779064,0,,,
Status,1732151330000,26,0,1,17,1575420030,0.00,109.0,80.0,0,0,0,0.0
Status,1732151330000,26,1,1,22,1575420030,0.00,3.0,68.0,0,0,0,0.0
Status,1732151330000,26,2,1,14,1575420030,0.00,47.0,56.0,0,0,0,0.0
Status,1732151330000,26,3,1,19,1575420030,21.80,199.0,56.0,1,0,0,16.8
Status,1732151330000,26,4,1,13,1575420030,24.50,240.0,51.0,1,0,0,19.5
Status,1732151330000,26,5,1,30,1575420030,29.70,128.0,40.0,1,0,0,24.7
Status,1732151330000,26,6,1,15,1575420030,0.00,280.0,30.0,0,0,0,0.0
Status,1732151330000,26,7,1,2,1575420030,0.00,51.0,18.0,0,0,0,0.0
Status,1732151330000,26,8,1,24,1575420030,0.00,313.0,12.0,0,0,0,0.0
Status,1732151330000,26,9,1,6,1575420030,0.00,164.0,8.0,0,0,0,0.0
Status,1732151330000,26,10,1,7,1575420030,25.60,129.0,8.0,1,0,0,20.6
Status,1732151330000,26,11,1,21,1575420030,0.00,36.0,7.0,0,0,0,0.0
Status,1732151330000,26,12,3,20,1602000000,0.00,121.0,49.0,0,0,0,0.0
Status,1732151330000,26,13,3,9,1602000000,0.00,75.0,36.0,0,0,0,0.0
Status,1732151330000,26,14,3,19,1602000000,0.00,37.0,27.0,0,0,0,0.0
Status,1732151330000,26,15,3,8,1602000000,0.00,251.0,26.0,0,0,0,0.0
Status,1732151330000,26,16,3,11,1602000000,22.20,306.0,25.0,0,0,0,17.2
Status,1732151330000,26,17,6,21,1575420030,0.00,334.0,68.0,0,0,0,0.0
Status,1732151330000,26,18,6,19,1575420030,0.00,248.0,48.0,0,0,0,0.0
Status,1732151330000,26,19,6,27,1575420030,0.00,61.0,36.0,0,0,0,0.0
Status,1732151330000,26,20,6,29,1575420030,24.50,192.0,28.0,1,0,0,19.5
Status,1732151330000,26,21,6,13,1575420030,0.00,123.0,25.0,0,0,0,0.0
Status,1732151330000,26,22,6,15,1575420030,0.00,66.0,23.0,0,0,0,0.0
Status,1732151330000,26,23,6,4,1575420030,0.00,314.0,21.0,0,0,0,0.0
Status,1732151330000,26,24,6,26,1575420030,0.00,169.0,3.0,0,0,0,0.0
Status,1732151330000,26,25,6,6,1575420030,0.00,329.0,2.0,0,0,0,0.0
Fix,GPS,37.4259150000,-122.1579666667,23.7,0.0,6.5,0.0,1732151331000,2.4,179.9,30215081000000,60.3,0,,,
Raw,1732151331000,18218000000,,706979.7182823059,-1416186530782000128,0.0,149.88406595881784,1381.4137881630895,0.0,0,30,0.0,16431,349748926812687,396,24.655000686645508,884.8390042983242,0.14999,16,0.0,0.0,1575420030,,,,0,6.442587256971359,1,6.0,24.655000686645508,0.0,0.0,0.0,66.7128,C,30215081000000,
Raw,1732151331000,18218000000,,706979.7182823059,-1416186530782000128,0.0,149.88406595881784,1381.4137881630895,0.0,0,13,0.0,16431,349748929397234,487,19.51300048828125,717.3023362628646,0.14999,16,0.0,0.0,1575420030,,,,0,1.3864539070544355,1,6.0,19.51300048828125,0.0,0.0,0.0,66.7128,C,30215081000000,
Raw,1732151331000,18218000000,,706979.7182823059,-1416186530782000128,0.0,149.88406595881784,1381.4137881630895,0.0,0,7,0.0,16431,349748918085716,396,20.57699966430664,1029.6782272604605,0.14999,16,0.0,0.0,1575420030,,,,0,3.269153086120121,1,6.0,20.57699966430664,0.0,0.0,0.0,66.7128,C,30215081000000,
Raw,1732151331000,18218000000,,706979.7182823059,-1416186530782000128,0.0,149.88406595881784,1381.4137881630895,0.0,0,29,0.0,16431,349748913190418,487,19.5,965.1328992013327,0.14999,16,0.0,0.0,1575420030,,,,0,3.4455223870638942,6,6.0,19.5,0.0,0.0,-9.008436167958047,66.7128,C,30215081000000,
Raw,1732151331000,18218000000,,706979.7182823059,-1416186530782000128,0.0,149.88406595881784,1381.4137881630895,0.0,0,19,0.0,16431,349748929763861,797,16.82900047302246,-23.112969147910384,0.14999,16,0.0,0.0,1575420030,,,,0,0.0,1,6.0,16.82900047302246,0.0,0.0,0.0,66.7128,C,30215081000000,
Raw,1732151331000,18218000000,,706979.7182823059,-1416186530782000128,0.0,149.88406595881784,1381.4137881630895,0.0,0,11,0.0,17,17802,797,17.0,-61.460955386844326,0.14999,16,0.0,0.0,1602000000,,,,0,0.0,3,6.0,17.0,0.0,0.0,108.67631620913818,66.7128,C,30215081000000,
Fix,FLP,37.4259107000,-122.1579769000,3.1581636693330655,0.025614861,6.5,,1732151331233,2.4,,30215081000000,22.57341,0,,,
Fix,FLP,37.4259126000,-122.1579727000,2.799312857617627,0.030827116,6.5,,1732151331604,2.4,,30215452000000,17.27257,0,,,
Fix,NLP,37.4256850000,-122.1580935000,5.400000095367432,,24.352,,1732151331605,,,30215452000000,25.844498,0,,,
Status,1732151331000,26,0,1,17,1575420030,0.00,109.0,80.0,0,0,0,0.0
Status,1732151331000,26,1,1,22,1575420030,0.00,3.0,68.0,0,0,0,0.0
Status,1732151331000,26,2,1,14,1575420030,0.00,47.0,56.0,0,0,0,0.0
Status,1732151331000,26,3,1,19,1575420030,21.90,199.0,56.0,1,0,0,16.9
Status,1732151331000,26,4,1,13,1575420030,27.10,240.0,51.0,1,0,0,22.1
Status,1732151331000,26,5,1,30,1575420030,27.20,128.0,40.0,1,0,0,22.2
Status,1732151331000,26,6,1,15,1575420030,0.00,280.0,30.0,0,0,0,0.0
Status,1732151331000,26,7,1,2,1575420030,0.00,51.0,18.0,0,0,0,0.0
Status,1732151331000,26,8,1,24,1575420030,0.00,313.0,12.0,0,0,0,0.0
Status,1732151331000,26,9,1,6,1575420030,0.00,164.0,8.0,0,0,0,0.0
Status,1732151331000,26,10,1,7,1575420030,27.10,129.0,8.0,1,0,0,22.1
Status,1732151331000,26,11,1,21,1575420030,0.00,36.0,7.0,0,0,0,0.0
Status,1732151331000,26,12,3,20,1602000000,0.00,121.0,49.0,0,0,0,0.0
Status,1732151331000,26,13,3,9,1602000000,0.00,75.0,36.0,0,0,0,0.0
Status,1732151331000,26,14,3,19,1602000000,0.00,37.0,27.0,0,0,0,0.0
Status,1732151331000,26,15,3,8,1602000000,0.00,251.0,26.0,0,0,0,0.0
Status,1732151331000,26,16,3,11,1602000000,23.40,306.0,25.0,0,0,0,18.4
Status,1732151331000,26,17,6,21,1575420030,0.00,334.0,68.0,0,0,0,0.0
Status,1732151331000,26,18,6,19,1575420030,0.00,248.0,48.0,0,0,0,0.0
Status,1732151331000,26,19,6,27,1575420030,0.00,61.0,36.0,0,0,0,0.0
Status,1732151331000,26,20,6,29,1575420030,20.80,192.0,28.0,1,0,0,15.799999
Status,1732151331000,26,21,6,13,1575420030,0.00,123.0,25.0,0,0,0,0.0
Status,1732151331000,26,22,6,15,1575420030,0.00,66.0,23.0,0,0,0,0.0
Status,1732151331000,26,23,6,4,1575420030,0.00,314.0,21.0,0,0,0,0.0
Status,1732151331000,26,24,6,26,1575420030,0.00,169.0,3.0,0,0,0,0.0
Status,1732151331000,26,25,6,6,1575420030,0.00,329.0,2.0,0,0,0,0.0
Fix,FLP,37.4259079000,-122.1579717000,2.86395802948814,0.013897329,6.5,,1732151332233,2.3,,30216081000000,15.879581,0,,,
Fix,GPS,37.4259000000,-122.1579700000,23.7,0.0,6.5,0.0,1732151332000,2.3,179.9,30216081000000,56.3,0,,,
Raw,1732151332000,19218000000,,706956.1603180824,-1416186530782000128,0.0,139.47386677882562,1376.3802016753434,0.0,0,30,0.0,16431,349749926809741,396,22.184999465942383,883.0953270211103,0.14999,16,0.0,0.0,1575420030,,,,0,5.8675758286649184,1,6.0,22.184999465942383,0.0,0.0,0.0,66.7128,C,30216081000000,
Raw,1732151332000,19218000000,,706956.1603180824,-1416186530782000128,0.0,139.47386677882562,1376.3802016753434,0.0,0,13,0.0,16431,349749929394814,487,22.06599998474121,716.341204548301,0.14999,16,0.0,0.0,1575420030,,,,0,5.667123325495651,1,6.0,22.06599998474121,0.0,0.0,0.0,66.7128,C,30216081000000,
Raw,1732151332000,19218000000,,706956.1603180824,-1416186530782000128,0.0,139.47386677882562,1376.3802016753434,0.0,0,7,0.0,16431,349749918082304,316,22.06599998474121,1028.4436413080816,0.14999,16,0.0,0.0,1575420030,,,,0,5.667123325495651,1,6.0,22.06599998474121,0.0,0.0,0.0,66.7128,C,30216081000000,
Raw,1732151332000,19218000000,,706956.1603180824,-1416186530782000128,0.0,139.47386677882562,1376.3802016753434,0.0,0,29,0.0,16431,349749913187195,1797,15.800000190734863,963.4221144827959,0.14999,16,0.0,0.0,1575420030,,,,0,0.0,6,6.0,15.800000190734863,0.0,0.0,-9.008436167958047,66.7128,C,30216081000000,
Raw,1732151332000,19218000000,,706956.1603180824,-1416186530782000128,0.0,139.47386677882562,1376.3802016753434,0.0,0,19,0.0,16431,349749929763941,797,16.884000778198242,-24.39104017786229,0.14999,16,0.0,0.0,1575420030,,,,0,0.0,1,6.0,16.884000778198242,0.0,0.0,0.0,66.7128,C,30216081000000,
Raw,1732151332000,19218000000,,706956.1603180824,-1416186530782000128,0.0,139.47386677882562,1376.3802016753434,0.0,0,11,0.0,17,18011,487,18.0,-63.38243833023936,0.14999,16,0.0,0.0,1602000000,,,,0,1.5860754566204989,3,6.0,18.0,0.0,0.0,108.67631620913818,66.7128,C,30216081000000,
Status,1732151332000,26,0,1,17,1575420030,0.00,109.0,80.0,0,0,0,0.0
Status,1732151332000,26,1,1,22,1575420030,0.00,3.0,68.0,0,0,0,0.0
Status,1732151332000,26,2,1,14,1575420030,0.00,47.0,56.0,0,0,0,0.0
Status,1732151332000,26,3,1,19,1575420030,21.90,199.0,56.0,1,0,0,16.9
Status,1732151332000,26,4,1,13,1575420030,27.10,240.0,51.0,1,0,0,22.1
Status,1732151332000,26,5,1,30,1575420030,27.20,128.0,40.0,1,0,0,22.2
Status,1732151332000,26,6,1,15,1575420030,0.00,280.0,30.0,0,0,0,0.0
Status,1732151332000,26,7,1,2,1575420030,23.10,51.0,18.0,1,0,0,18.1
Status,1732151332000,26,8,1,24,1575420030,0.00,313.0,12.0,0,0,0,0.0
Status,1732151332000,26,9,1,6,1575420030,0.00,164.0,8.0,0,0,0,0.0
Status,1732151332000,26,10,1,7,1575420030,29.50,129.0,8.0,1,0,0,24.5
Status,1732151332000,26,11,1,21,1575420030,0.00,36.0,7.0,0,0,0,0.0
Status,1732151332000,26,12,3,20,1602000000,0.00,121.0,49.0,0,0,0,0.0
Status,1732151332000,26,13,3,9,1602000000,0.00,75.0,36.0,0,0,0,0.0
Status,1732151332000,26,14,3,19,1602000000,0.00,37.0,27.0,0,0,0,0.0
Status,1732151332000,26,15,3,8,1602000000,0.00,251.0,26.0,0,0,0,0.0
Status,1732151332000,26,16,3,11,1602000000,22.20,306.0,25.0,0,0,0,17.2
Status,1732151332000,26,17,6,21,1575420030,0.00,334.0,68.0,0,0,0,0.0
Status,1732151332000,26,18,6,19,1575420030,0.00,248.0,48.0,0,0,0,0.0
Status,1732151332000,26,19,6,27,1575420030,0.00,61.0,36.0,0,0,0,0.0
Status,1732151332000,26,20,6,29,1575420030,0.00,192.0,28.0,0,0,0,0.0
Status,1732151332000,26,21,6,13,1575420030,0.00,123.0,25.0,0,0,0,0.0
Status,1732151332000,26,22,6,15,1575420030,0.00,66.0,23.0,0,0,0,0.0
Status,1732151332000,26,23,6,4,1575420030,0.00,314.0,21.0,0,0,0,0.0
Status,1732151332000,26,24,6,26,1575420030,0.00,169.0,3.0,0,0,0,0.0
Status,1732151332000,26,25,6,6,1575420030,0.00,329.0,2.0,0,0,0,0.0
Fix,GPS,37.4258666667,-122.1579800000,23.7,0.0,6.6,0.0,1732151333000,2.2,167.5,30217081000000,57.3,0,,,
Fix,FLP,37.4258917000,-122.1579748000,2.86395802948814,0.04037898,6.525,,1732151333233,2.2,,30217081000000,10.943333,0,,,
Raw,1732151333000,20218000000,,12323533.836198108,-1416186530782000128,0.0,135.9162603393015,1372.2036768592302,0.0,0,30,0.0,16431,349750926806798,487,22.184999465942383,881.7114237190308,0.14999,16,0.0,0.0,1575420030,,,,0,5.8675758286649184,1,6.0,22.184999465942383,0.0,0.0,0.0,66.7128,C,30217081000000,
Raw,1732151333000,20218000000,,12323533.836198108,-1416186530782000128,0.0,135.9162603393015,1372.2036768592302,0.0,0,13,0.0,16431,349750929392425,797,22.06599998474121,715.8934383328638,0.14999,16,0.0,0.0,1575420030,,,,0,5.667123325495651,1,6.0,22.06599998474121,0.0,0.0,0.0,66.7128,C,30217081000000,
Raw,1732151333000,20218000000,,12323533.836198108,-1416186530782000128,0.0,135.9162603393015,1372.2036768592302,0.0,0,7,0.0,16431,349750918078882,396,24.496999740600586,1028.2646834888387,0.14999,16,0.0,0.0,1575420030,,,,0,9.311996006787098,1,6.0,24.496999740600586,0.0,0.0,0.0,66.7128,C,30217081000000,
Raw,1732151333000,20218000000,,12323533.836198108,-1416186530782000128,0.0,135.9162603393015,1372.2036768592302,0.0,0,19,0.0,16431,349750929764023,1797,16.93600082397461,-25.2842496879261,0.14999,16,0.0,0.0,1575420030,,,,0,0.0,1,6.0,16.93600082397461,0.0,0.0,0.0,66.7128,C,30217081000000,
Raw,1732151333000,20218000000,,12323533.836198108,-1416186530782000128,0.0,135.9162603393015,1372.2036768592302,0.0,0,11,0.0,17,18222,797,17.0,-64.33296862572725,0.14999,16,0.0,0.0,1602000000,,,,0,0.0,3,6.0,17.0,0.0,0.0,108.67631620913818,66.7128,C,30217081000000,
Raw,1732151333000,20218000000,,12323533.836198108,-1416186530782000128,0.0,135.9162603393015,1372.2036768592302,0.0,0,2,0.0,16431,349750919194281,797,18.086999893188477,692.8952214729934,0.14999,16,0.0,0.0,1575420030,,,,0,0.0,1,6.0,18.086999893188477,0.0,0.0,0.0,66.7128,C,30217081000000,
Status,1732151333000,26,0,1,17,1575420030,0.00,109.0,80.0,0,0,0,0.0
Status,1732151333000,26,1,1,22,1575420030,0.00,3.0,68.0,0,0,0,0.0
Status,1732151333000,26,2,1,14,1575420030,0.00,47.0,56.0,0,0,0,0.0
Status,1732151333000,26,3,1,19,1575420030,16.60,199.0,56.0,1,0,0,11.6
Status,1732151333000,26,4,1,13,1575420030,27.10,240.0,51.0,1,0,0,22.1
Status,1732151333000,26,5,1,30,1575420030,23.20,128.0,40.0,1,0,0,18.2
Status,1732151333000,26,6,1,15,1575420030,0.00,280.0,30.0,0,0,0,0.0
Status,1732151333000,26,7,1,2,1575420030,23.10,51.0,18.0,1,0,0,18.1
Status,1732151333000,26,8,1,24,1575420030,0.00,313.0,13.0,0,0,0,0.0
Status,1732151333000,26,9,1,6,1575420030,0.00,164.0,8.0,0,0,0,0.0
Status,1732151333000,26,10,1,7,1575420030,29.40,129.0,8.0,1,0,0,24.4
Status,1732151333000,26,11,1,21,1575420030,0.00,36.0,7.0,0,0,0,0.0
Status,1732151333000,26,12,3,20,1602000000,0.00,121.0,49.0,0,0,0,0.0
Status,1732151333000,26,13,3,9,1602000000,0.00,75.0,36.0,0,0,0,0.0
Status,1732151333000,26,14,3,19,1602000000,0.00,37.0,27.0,0,0,0,0.0
Status,1732151333000,26,15,3,8,1602000000,0.00,251.0,26.0,0,0,0,0.0
Status,1732151333000,26,16,3,11,1602000000,21.50,306.0,25.0,0,0,0,16.5
Status,1732151333000,26,17,6,21,1575420030,0.00,334.0,68.0,0,0,0,0.0
Status,1732151333000,26,18,6,19,1575420030,0.00,248.0,48.0,0,0,0,0.0
Status,1732151333000,26,19,6,27,1575420030,0.00,61.0,36.0,0,0,0,0.0
Status,1732151333000,26,20,6,29,1575420030,0.00,192.0,28.0,0,0,0,0.0
Status,1732151333000,26,21,6,13,1575420030,0.00,123.0,25.0,0,0,0,0.0
Status,1732151333000,26,22,6,15,1575420030,0.00,66.0,23.0,0,0,0,0.0
Status,1732151333000,26,23,6,4,1575420030,0.00,314.0,21.0,0,0,0,0.0
Status,1732151333000,26,24,6,26,1575420030,0.00,169.0,3.0,0,0,0,0.0
Status,1732151333000,26,25,6,6,1575420030,0.00,329.0,2.0,0,0,0,0.0
Fix,GPS,37.4255583333,-122.1580866667,23.7,0.0,6.3,0.0,1732151334000,2.1,67.4,30218081000000,79.0,0,,,
Raw,1732151334000,21218000000,,996481.1431313592,-1416186530782000128,0.0,189.35387886446205,1370.0886309223397,0.0,0,30,0.0,16431,349751926803855,797,18.235000610351562,881.2411716301477,0.14999,16,0.0,0.0,1575420030,,,,0,0.0,1,6.0,18.235000610351562,0.0,0.0,0.0,66.7128,C,30218081000000,
Raw,1732151334000,21218000000,,996481.1431313592,-1416186530782000128,0.0,189.35387886446205,1370.0886309223397,0.0,0,13,0.0,16431,349751929390038,487,22.06599998474121,715.3419769324447,0.14999,16,0.0,0.0,1575420030,,,,0,5.667123325495651,1,6.0,22.06599998474121,0.0,0.0,0.0,66.7128,C,30218081000000,
Raw,1732151334000,21218000000,,996481.1431313592,-1416186530782000128,0.0,189.35387886446205,1370.0886309223397,0.0,0,7,0.0,16431,349751918075476,316,24.384000778198242,1026.5226787146084,0.14999,16,0.0,0.0,1575420030,,,,0,9.177675449039775,1,6.0,24.384000778198242,0.0,0.0,0.0,66.7128,C,30218081000000,
Raw,1732151334000,21218000000,,996481.1431313592,-1416186530782000128,0.0,189.35387886446205,1370.0886309223397,0.0,0,19,0.0,16431,349751929764146,487,11.600000381469727,-25.842865684441612,0.14999,16,0.0,0.0,1575420030,,,,0,0.0,1,6.0,11.600000381469727,0.0,0.0,0.0,66.7128,C,30218081000000,
Raw,1732151334000,21218000000,,996481.1431313592,-1416186530782000128,0.0,189.35387886446205,1370.0886309223397,0.0,0,11,0.0,17,18437,797,16.0,-65.13565388222455,0.14999,16,0.0,0.0,1602000000,,,,0,0.0,3,6.0,16.0,0.0,0.0,108.67631620913818,66.7128,C,30218081000000,
Raw,1732151334000,21218000000,,996481.1431313592,-1416186530782000128,0.0,189.35387886446205,1370.0886309223397,0.0,0,2,0.0,16431,349751919192027,797,18.086999893188477,692.2555355401905,0.14999,16,0.0,0.0,1575420030,,,,0,0.0,1,6.0,18.086999893188477,0.0,0.0,0.0,66.7128,C,30218081000000,
Fix,FLP,37.4257496000,-122.1580205000,2.86395802948814,0.5054731,6.48,180.0,1732151334234,2.1,67.4,30218081000000,11.617158,0,,,
Status,1732151334000,27,0,1,17,1575420030,0.00,109.0,80.0,0,0,0,0.0
Status,1732151334000,27,1,1,22,1575420030,0.00,3.0,68.0,0,0,0,0.0
Status,1732151334000,27,2,1,14,1575420030,0.00,47.0,56.0,0,0,0,0.0
Status,1732151334000,27,3,1,19,1575420030,24.20,199.0,56.0,1,0,0,19.2
Status,1732151334000,27,4,1,13,1575420030,23.10,240.0,51.0,1,0,0,18.1
Status,1732151334000,27,5,1,30,1575420030,23.20,128.0,40.0,1,0,0,18.2
Status,1732151334000,27,6,1,15,1575420030,0.00,280.0,30.0,0,0,0,0.0
Status,1732151334000,27,7,1,2,1575420030,23.10,51.0,18.0,1,0,0,18.1
Status,1732151334000,27,8,1,24,1575420030,0.00,313.0,13.0,0,0,0,0.0
Status,1732151334000,27,9,1,6,1575420030,0.00,164.0,8.0,0,0,0,0.0
Status,1732151334000,27,10,1,7,1575420030,30.30,129.0,8.0,1,0,0,25.3
Status,1732151334000,27,11,1,21,1575420030,0.00,36.0,7.0,0,0,0,0.0
Status,1732151334000,27,12,3,20,1602000000,0.00,121.0,49.0,0,0,0,0.0
Status,1732151334000,27,13,3,9,1602000000,0.00,75.0,36.0,0,0,0,0.0
Status,1732151334000,27,14,3,19,1602000000,0.00,37.0,27.0,0,0,0,0.0
Status,1732151334000,27,15,3,8,1602000000,0.00,251.0,26.0,0,0,0,0.0
Status,1732151334000,27,16,3,11,1602000000,21.50,306.0,25.0,0,0,0,16.5
Status,1732151334000,27,17,3,17,1602000000,28.30,0.0,0.0,0,0,0,23.3
Status,1732151334000,27,18,6,21,1575420030,0.00,334.0,68.0,0,0,0,0.0
Status,1732151334000,27,19,6,19,1575420030,0.00,248.0,48.0,0,0,0,0.0
Status,1732151334000,27,20,6,27,1575420030,0.00,61.0,36.0,0,0,0,0.0
Status,1732151334000,27,21,6,29,1575420030,0.00,192.0,28.0,0,0,0,0.0
Status,1732151334000,27,22,6,13,1575420030,0.00,123.0,25.0,0,0,0,0.0
Status,1732151334000,27,23,6,15,1575420030,0.00,66.0,23.0,0,0,0,0.0
Status,1732151334000,27,24,6,4,1575420030,0.00,314.0,21.0,0,0,0,0.0
Status,1732151334000,27,25,6,26,1575420030,0.00,169.0,3.0,0,0,0,0.0
Status,1732151334000,27,26,6,6,1575420030,0.00,329.0,2.0,0,0,0,0.0
Fix,GPS,37.4253766667,-122.1581483333,23.7,0.0,6.1,0.0,1732151335000,2.0,52.1,30219081000000,61.9,0,,,
Fix,FLP,37.4255835000,-122.1580744000,2.9474118865835983,1.0109352,6.416,180.0,1732151335234,2.0,52.1,30219081000000,11.416236,0,,,
Raw,1732151335000,22218000000,,996275.3757801339,-1416186530782000128,0.0,163.06562716906697,1368.35629425387,0.0,0,30,0.0,16431,349752926800917,797,18.235000610351562,880.3895888610085,0.14999,16,0.0,0.0,1575420030,,,,0,0.0,1,6.0,18.235000610351562,0.0,0.0,0.0,66.7128,C,30219081000000,
Raw,1732151335000,22218000000,,996275.3757801339,-1416186530782000128,0.0,163.06562716906697,1368.35629425387,0.0,0,13,0.0,16431,349752929387684,797,18.086999893188477,714.5510688548765,0.14999,16,0.0,0.0,1575420030,,,,0,0.0,1,6.0,18.086999893188477,0.0,0.0,0.0,66.7128,C,30219081000000,
Raw,1732151335000,22218000000,,996275.3757801339,-1416186530782000128,0.0,163.06562716906697,1368.35629425387,0.0,0,7,0.0,16431,349752918072038,316,25.260000228881836,1026.449553167493,0.14999,16,0.0,0.0,1575420030,,,,0,10.396535383331152,1,6.0,25.260000228881836,0.0,0.0,0.0,66.7128,C,30219081000000,
Raw,1732151335000,22218000000,,996275.3757801339,-1416186530782000128,0.0,163.06562716906697,1368.35629425387,0.0,0,19,0.0,16431,349752929764209,797,19.15999984741211,-25.976573006295542,0.14999,16,0.0,0.0,1575420030,,,,0,0.8148075538332833,1,6.0,19.15999984741211,0.0,0.0,0.0,66.7128,C,30219081000000,
Raw,1732151335000,22218000000,,996275.3757801339,-1416186530782000128,0.0,163.06562716906697,1368.35629425387,0.0,0,11,0.0,17,18656,797,17.0,-66.05849749859368,0.14999,16,0.0,0.0,1602000000,,,,0,0.0,3,6.0,17.0,0.0,0.0,108.67631620913818,66.7128,C,30219081000000,
Raw,1732151335000,22218000000,,996275.3757801339,-1416186530782000128,0.0,163.06562716906697,1368.35629425387,0.0,0,2,0.0,16431,349752919189719,1797,18.086999893188477,691.9420806060181,0.14999,16,0.0,0.0,1575420030,,,,0,0.0,1,6.0,18.086999893188477,0.0,0.0,0.0,66.7128,C,30219081000000,
Status,1732151335000,27,0,1,17,1575420030,0.00,109.0,80.0,0,0,0,0.0
Status,1732151335000,27,1,1,22,1575420030,0.00,3.0,68.0,0,0,0,0.0
Status,1732151335000,27,2,1,14,1575420030,0.00,47.0,56.0,0,0,0,0.0
Status,1732151335000,27,3,1,19,1575420030,24.20,199.0,56.0,1,0,0,19.2
Status,1732151335000,27,4,1,13,1575420030,23.10,240.0,51.0,1,0,0,18.1
Status,1732151335000,27,5,1,30,1575420030,18.30,128.0,40.0,1,0,0,13.299999
Status,1732151335000,27,6,1,15,1575420030,0.00,280.0,30.0,0,0,0,0.0
Status,1732151335000,27,7,1,2,1575420030,23.10,51.0,18.0,1,0,0,18.1
Status,1732151335000,27,8,1,24,1575420030,0.00,313.0,13.0,0,0,0,0.0
Status,1732151335000,27,9,1,6,1575420030,0.00,164.0,8.0,0,0,0,0.0
Status,1732151335000,27,10,1,7,1575420030,30.10,129.0,8.0,1,0,0,25.1
Status,1732151335000,27,11,1,21,1575420030,0.00,36.0,7.0,0,0,0,0.0
Status,1732151335000,27,12,3,20,1602000000,0.00,121.0,49.0,0,0,0,0.0
Status,1732151335000,27,13,3,9,1602000000,0.00,75.0,36.0,0,0,0,0.0
Status,1732151335000,27,14,3,19,1602000000,0.00,37.0,27.0,0,0,0,0.0
Status,1732151335000,27,15,3,8,1602000000,0.00,251.0,26.0,0,0,0,0.0
Status,1732151335000,27,16,3,11,1602000000,21.50,306.0,25.0,0,0,0,16.5
Status,1732151335000,27,17,3,17,1602000000,23.70,0.0,0.0,0,0,0,18.7
Status,1732151335000,27,18,6,21,1575420030,0.00,334.0,68.0,0,0,0,0.0
Status,1732151335000,27,19,6,19,1575420030,0.00,248.0,48.0,0,0,0,0.0
Status,1732151335000,27,20,6,27,1575420030,0.00,61.0,36.0,0,0,0,0.0
Status,1732151335000,27,21,6,29,1575420030,0.00,192.0,28.0,0,0,0,0.0
Status,1732151335000,27,22,6,13,1575420030,0.00,123.0,25.0,0,0,0,0.0
Status,1732151335000,27,23,6,15,1575420030,0.00,66.0,23.0,0,0,0,0.0
Status,1732151335000,27,24,6,4,1575420030,0.00,314.0,21.0,0,0,0,0.0
Status,1732151335000,27,25,6,26,1575420030,0.00,169.0,3.0,0,0,0,0.0
Status,1732151335000,27,26,6,6,1575420030,0.00,329.0,2.0,0,0,0,0.0
Fix,GPS,37.4252483333,-122.1581933333,23.7,0.0,5.9,0.0,1732151336000,2.0,48.5,30220081000000,63.4,0,,,
Fix,FLP,37.4254279000,-122.1581259000,3.6243223395799102,1.4424534,6.342,180.0,1732151336233,2.0,48.5,30220081000000,14.832291,0,,,
Raw,1732151336000,23218000000,,996137.4678745253,-1416186530782000128,0.0,164.1670310139828,1366.8425463866042,0.0,0,30,0.0,16431,349753926797992,1797,13.300000190734863,880.2037551961664,0.14999,16,0.0,0.0,1575420030,,,,0,0.0,1,6.0,13.300000190734863,0.0,0.0,0.0,66.7128,C,30220081000000,
Raw,1732151336000,23218000000,,996137.4678745253,-1416186530782000128,0.0,164.1670310139828,1366.8425463866042,0.0,0,13,0.0,16431,349753929385301,797,18.086999893188477,714.2114578323775,0.14999,16,0.0,0.0,1575420030,,,,0,0.0,1,6.0,18.086999893188477,0.0,0.0,0.0,66.7128,C,30220081000000,
Raw,1732151336000,23218000000,,996137.4678745253,-1416186530782000128,0.0,164.1670310139828,1366.8425463866042,0.0,0,7,0.0,16431,349753918068620,487,25.14299964904785,1026.2398398767186,0.14999,16,0.0,0.0,1575420030,,,,0,6.981884625358354,1,6.0,25.14299964904785,0.0,0.0,0.0,66.7128,C,30220081000000,
Raw,1732151336000,23218000000,,996137.4678745253,-1416186530782000128,0.0,164.1670310139828,1366.8425463866042,0.0,0,19,0.0,16431,349753929764296,797,19.15999984741211,-26.400459595800495,0.14999,16,0.0,0.0,1575420030,,,,0,0.8148075538332833,1,6.0,19.15999984741211,0.0,0.0,0.0,66.7128,C,30220081000000,
Raw,1732151336000,23218000000,,996137.4678745253,-1416186530782000128,0.0,164.1670310139828,1366.8425463866042,0.0,0,11,0.0,17,18876,797,17.0,-65.31680517381837,0.14999,16,0.0,0.0,1602000000,,,,0,0.0,3,6.0,17.0,0.0,0.0,108.67631620913818,66.7128,C,30220081000000,
Raw,1732151336000,23218000000,,996137.4678745253,-1416186530782000128,0.0,164.1670310139828,1366.8425463866042,0.0,0,2,0.0,16431,349753919187413,1797,18.086999893188477,690.6657749958821,0.14999,16,0.0,0.0,1575420030,,,,0,0.0,1,6.0,18.086999893188477,0.0,0.0,0.0,66.7128,C,30220081000000,
Fix,FLP,37.4253543000,-122.1581513000,3.754097407344136,1.5974159,6.216,180.0,1732151336776,2.0,48.5,30220623000000,27.862202,0,,,
Fix,NLP,37.4256994000,-122.1581105000,5.400000095367432,,22.125,,1732151336775,,,30220623000000,17.129553,0,,,
Status,1732151336000,27,0,1,17,1575420030,0.00,109.0,80.0,0,0,0,0.0
Status,1732151336000,27,1,1,22,1575420030,0.00,3.0,68.0,0,0,0,0.0
Status,1732151336000,27,2,1,14,1575420030,0.00,47.0,56.0,0,0,0,0.0
Status,1732151336000,27,3,1,19,1575420030,24.20,199.0,56.0,1,0,0,19.2
Status,1732151336000,27,4,1,13,1575420030,23.00,240.0,51.0,1,0,0,18.0
Status,1732151336000,27,5,1,30,1575420030,18.30,128.0,40.0,1,0,0,13.299999
Status,1732151336000,27,6,1,15,1575420030,0.00,280.0,30.0,0,0,0,0.0
Status,1732151336000,27,7,1,2,1575420030,17.40,51.0,18.0,1,0,0,12.4
Status,1732151336000,27,8,1,24,1575420030,0.00,313.0,13.0,0,0,0,0.0
Status,1732151336000,27,9,1,6,1575420030,0.00,164.0,8.0,0,0,0,0.0
Status,1732151336000,27,10,1,7,1575420030,30.00,129.0,8.0,1,0,0,25.0
Status,1732151336000,27,11,1,21,1575420030,0.00,36.0,7.0,0,0,0,0.0
Status,1732151336000,27,12,3,20,1602000000,0.00,121.0,49.0,0,0,0,0.0
Status,1732151336000,27,13,3,9,1602000000,0.00,75.0,36.0,0,0,0,0.0
Status,1732151336000,27,14,3,19,1602000000,0.00,37.0,27.0,0,0,0,0.0
Status,1732151336000,27,15,3,8,1602000000,0.00,251.0,26.0,0,0,0,0.0
Status,1732151336000,27,16,3,11,1602000000,21.50,306.0,25.0,0,0,0,16.5
Status,1732151336000,27,17,3,17,1602000000,26.30,0.0,0.0,0,0,0,21.3
Status,1732151336000,27,18,6,21,1575420030,0.00,334.0,68.0,0,0,0,0.0
Status,1732151336000,27,19,6,19,1575420030,0.00,248.0,48.0,0,0,0,0.0
Status,1732151336000,27,20,6,27,1575420030,0.00,61.0,36.0,0,0,0,0.0
Status,1732151336000,27,21,6,29,1575420030,20.60,192.0,28.0,1,0,0,15.6
Status,1732151336000,27,22,6,13,1575420030,0.00,123.0,25.0,0,0,0,0.0
Status,1732151336000,27,23,6,15,1575420030,0.00,66.0,23.0,0,0,0,0.0
Status,1732151336000,27,24,6,4,1575420030,0.00,314.0,21.0,0,0,0,0.0
Status,1732151336000,27,25,6,26,1575420030,0.00,169.0,3.0,0,0,0,0.0
Status,1732151336000,27,26,6,6,1575420030,0.00,329.0,2.0,0,0,0,0.0
Fix,GPS,37.4252450000,-122.1581900000,23.7,0.0,6.1,0.0,1732151336999,2.0,53.8,30221081000000,66.0,0,,,
Raw,1732151337000,24218000000,,12328750.778647007,-1416186530782000128,0.0,167.29860979423074,1368.1590171120697,0.0,0,30,0.0,16431,349754926795055,1797,13.300000190734863,881.0846067675182,0.14999,16,0.0,0.0,1575420030,,,,0,0.0,1,6.0,13.300000190734863,0.0,0.0,0.0,66.7128,C,30221081000000,
Raw,1732151337000,24218000000,,12328750.778647007,-1416186530782000128,0.0,167.29860979423074,1368.1590171120697,0.0,0,13,0.0,16431,349754929382914,797,18.01099967956543,715.1938675015655,0.14999,16,0.0,0.0,1575420030,,,,0,0.0,1,6.0,18.01099967956543,0.0,0.0,0.0,66.7128,C,30221081000000,
Raw,1732151337000,24218000000,,12328750.778647007,-1416186530782000128,0.0,167.29860979423074,1368.1590171120697,0.0,0,7,0.0,16431,349754918065196,797,25.0310001373291,1026.4345006406406,0.14999,16,0.0,0.0,1575420030,,,,0,6.981884625358354,1,6.0,25.0310001373291,0.0,0.0,0.0,66.7128,C,30221081000000,
Raw,1732151337000,24218000000,,12328750.778647007,-1416186530782000128,0.0,167.29860979423074,1368.1590171120697,0.0,0,29,0.0,16431,349754913171151,487,15.600000381469727,961.4699318336291,0.14999,16,0.0,0.0,1575420030,,,,0,0.0,6,6.0,15.600000381469727,0.0,0.0,-8.722725906952613,66.7128,C,30221081000000,
Raw,1732151337000,24218000000,,12328750.778647007,-1416186530782000128,0.0,167.29860979423074,1368.1590171120697,0.0,0,19,0.0,16431,349754929764384,797,19.15999984741211,-25.93057917424711,0.14999,16,0.0,0.0,1575420030,,,,0,0.8148075538332833,1,6.0,19.15999984741211,0.0,0.0,0.0,66.7128,C,30221081000000,
Raw,1732151337000,24218000000,,12328750.778647007,-1416186530782000128,0.0,167.29860979423074,1368.1590171120697,0.0,0,11,0.0,17,19092,797,17.0,-64.03764404846055,0.14999,16,0.0,0.0,1602000000,,,,0,0.0,3,6.0,17.0,0.0,0.0,108.67631620913818,66.7128,C,30221081000000,
Raw,1732151337000,24218000000,,12328750.778647007,-1416186530782000128,0.0,167.29860979423074,1368.1590171120697,0.0,0,2,0.0,16431,349754919185109,797,12.399999618530273,691.0570013187911,0.14999,16,0.0,0.0,1575420030,,,,0,0.0,1,6.0,12.399999618530273,0.0,0.0,0.0,66.7128,C,30221081000000,
Fix,FLP,37.4253136000,-122.1581640000,5.400000095367432,1.6429955,6.2,180.0,1732151337233,2.0,53.8,30221081000000,26.310478,0,,,
Status,1732151336999,27,0,1,17,1575420030,0.00,109.0,80.0,0,0,0,0.0
Status,1732151336999,27,1,1,22,1575420030,0.00,3.0,68.0,0,0,0,0.0
Status,1732151336999,27,2,1,14,1575420030,0.00,47.0,56.0,0,0,0,0.0
Status,1732151336999,27,3,1,19,1575420030,19.90,199.0,56.0,1,0,0,14.9
Status,1732151336999,27,4,1,13,1575420030,22.90,240.0,51.0,1,0,0,17.9
Status,1732151336999,27,5,1,30,1575420030,18.30,128.0,40.0,1,0,0,13.299999
Status,1732151336999,27,6,1,15,1575420030,0.00,280.0,30.0,0,0,0,0.0
Status,1732151336999,27,7,1,2,1575420030,0.00,51.0,18.0,0,0,0,0.0
Status,1732151336999,27,8,1,24,1575420030,0.00,313.0,13.0,0,0,0,0.0
Status,1732151336999,27,9,1,6,1575420030,0.00,164.0,8.0,0,0,0,0.0
Status,1732151336999,27,10,1,7,1575420030,29.90,129.0,8.0,1,0,0,24.9
Status,1732151336999,27,11,1,21,1575420030,0.00,36.0,7.0,0,0,0,0.0
Status,1732151336999,27,12,3,20,1602000000,0.00,121.0,49.0,0,0,0,0.0
Status,1732151336999,27,13,3,9,1602000000,0.00,75.0,36.0,0,0,0,0.0
Status,1732151336999,27,14,3,19,1602000000,0.00,37.0,27.0,0,0,0,0.0
Status,1732151336999,27,15,3,8,1602000000,0.00,251.0,26.0,0,0,0,0.0
Status,1732151336999,27,16,3,11,1602000000,21.60,306.0,25.0,0,0,0,16.6
Status,1732151336999,27,17,3,17,1602000000,25.40,0.0,0.0,0,0,0,20.4
Status,1732151336999,27,18,6,21,1575420030,0.00,334.0,68.0,0,0,0,0.0
Status,1732151336999,27,19,6,19,1575420030,0.00,248.0,48.0,0,0,0,0.0
Status,1732151336999,27,20,6,27,1575420030,0.00,61.0,36.0,0,0,0,0.0
Status,1732151336999,27,21,6,29,1575420030,20.60,192.0,28.0,1,0,0,15.6
Status,1732151336999,27,22,6,13,1575420030,0.00,123.0,25.0,0,0,0,0.0
Status,1732151336999,27,23,6,15,1575420030,0.00,66.0,23.0,0,0,0,0.0
Status,1732151336999,27,24,6,4,1575420030,0.00,314.0,21.0,0,0,0,0.0
Status,1732151336999,27,25,6,26,1575420030,0.00,169.0,3.0,0,0,0,0.0
Status,1732151336999,27,26,6,6,1575420030,0.00,329.0,2.0,0,0,0,0.0
Fix,GPS,37.4252433333,-122.1581900000,23.8,0.0,6.1,0.0,1732151337996,2.0,61.4,30222081000000,67.5,0,,,
Raw,1732151337999,25218000000,,12035516.250378788,-1416186530781000192,0.0,169.5947005033914,1370.2691761345422,0.0,0,30,0.0,16431,349755925792115,797,13.300000190734863,881.8898240372793,0.14999,16,0.0,0.0,1575420030,,,,0,0.0,1,6.0,13.300000190734863,0.0,0.0,0.0,66.7128,C,30222081000000,
Raw,1732151337999,25218000000,,12035516.250378788,-1416186530781000192,0.0,169.5947005033914,1370.2691761345422,0.0,0,13,0.0,16431,349755928380527,797,17.93899917602539,715.9207558815956,0.14999,16,0.0,0.0,1575420030,,,,0,0.0,1,6.0,17.93899917602539,0.0,0.0,0.0,66.7128,C,30222081000000,
Raw,1732151337999,25218000000,,12035516.250378788,-1416186530781000192,0.0,169.5947005033914,1370.2691761345422,0.0,0,7,0.0,16431,349755917061771,797,24.924999237060547,1027.3254801467265,0.14999,16,0.0,0.0,1575420030,,,,0,6.981884625358354,1,6.0,24.924999237060547,0.0,0.0,0.0,66.7128,C,30222081000000,
Raw,1732151337999,25218000000,,12035516.250378788,-1416186530781000192,0.0,169.5947005033914,1370.2691761345422,0.0,0,29,0.0,16431,349755912167941,487,15.600000381469727,962.8094208898112,0.14999,16,0.0,0.0,1575420030,,,,0,0.0,6,6.0,15.600000381469727,0.0,0.0,-8.722725906952613,66.7128,C,30222081000000,
Raw,1732151337999,25218000000,,12035516.250378788,-1416186530781000192,0.0,169.5947005033914,1370.2691761345422,0.0,0,19,0.0,16431,349755928764481,797,14.899999618530273,-25.06561638123931,0.14999,16,0.0,0.0,1575420030,,,,0,0.0,1,6.0,14.899999618530273,0.0,0.0,0.0,66.7128,C,30222081000000,
Raw,1732151337999,25218000000,,12035516.250378788,-1416186530781000192,0.0,169.5947005033914,1370.2691761345422,0.0,0,11,0.0,17,19267,487,19.0,-63.65405104865683,0.14999,16,0.0,0.0,1602000000,,,,0,2.2067601314198737,3,6.0,19.0,0.0,0.0,108.67631620913818,66.7128,C,30222081000000,
Fix,FLP,37.4252775000,-122.1581739000,5.400000095367432,1.6467105,6.142,180.0,1732151338233,2.0,61.4,30222081000000,25.104515,0,,,
Status,1732151337996,27,0,1,17,1575420030,0.00,109.0,80.0,0,0,0,0.0
Status,1732151337996,27,1,1,22,1575420030,0.00,3.0,68.0,0,0,0,0.0
Status,1732151337996,27,2,1,14,1575420030,0.00,47.0,56.0,0,0,0,0.0
Status,1732151337996,27,3,1,19,1575420030,19.90,199.0,56.0,1,0,0,14.9
Status,1732151337996,27,4,1,13,1575420030,22.90,240.0,51.0,1,0,0,17.9
Status,1732151337996,27,5,1,30,1575420030,19.00,128.0,40.0,1,0,0,14.0
Status,1732151337996,27,6,1,15,1575420030,0.00,280.0,30.0,0,0,0,0.0
Status,1732151337996,27,7,1,2,1575420030,0.00,51.0,18.0,0,0,0,0.0
Status,1732151337996,27,8,1,24,1575420030,0.00,313.0,13.0,0,0,0,0.0
Status,1732151337996,27,9,1,6,1575420030,0.00,164.0,8.0,0,0,0,0.0
Status,1732151337996,27,10,1,7,1575420030,21.10,129.0,8.0,1,0,0,16.1
Status,1732151337996,27,11,1,21,1575420030,0.00,36.0,7.0,0,0,0,0.0
Status,1732151337996,27,12,3,20,1602000000,0.00,121.0,49.0,0,0,0,0.0
Status,1732151337996,27,13,3,9,1602000000,0.00,75.0,36.0,0,0,0,0.0
Status,1732151337996,27,14,3,19,1602000000,0.00,37.0,27.0,0,0,0,0.0
Status,1732151337996,27,15,3,8,1602000000,0.00,251.0,26.0,0,0,0,0.0
Status,1732151337996,27,16,3,11,1602000000,21.30,306.0,25.0,0,0,0,16.3
Status,1732151337996,27,17,3,17,1602000000,30.80,0.0,0.0,0,0,0,25.8
Status,1732151337996,27,18,6,21,1575420030,0.00,334.0,68.0,0,0,0,0.0
Status,1732151337996,27,19,6,19,1575420030,0.00,248.0,48.0,0,0,0,0.0
Status,1732151337996,27,20,6,27,1575420030,0.00,61.0,36.0,0,0,0,0.0
Status,1732151337996,27,21,6,29,1575420030,21.50,192.0,28.0,1,0,0,16.5
Status,1732151337996,27,22,6,13,1575420030,0.00,123.0,25.0,0,0,0,0.0
Status,1732151337996,27,23,6,15,1575420030,0.00,66.0,23.0,0,0,0,0.0
Status,1732151337996,27,24,6,4,1575420030,0.00,314.0,21.0,0,0,0,0.0
Status,1732151337996,27,25,6,26,1575420030,0.00,169.0,3.0,0,0,0,0.0
Status,1732151337996,27,26,6,6,1575420030,0.00,329.0,2.0,0,0,0,0.0
Fix,GPS,37.4252566667,-122.1581883333,23.8,0.0,6.0,0.0,1732151338996,2.0,74.9,30223081000000,68.8,0,,,
Raw,1732151338997,26218000000,,11767254.832007816,-1416186530779999744,0.0,171.82351699031875,1371.5623179656359,0.0,0,30,0.0,16431,349756924789160,1797,14.0,882.5184993254403,0.14999,16,0.0,0.0,1575420030,,,,0,0.0,1,6.0,14.0,0.0,0.0,0.0,66.7128,C,30223081000000,
Raw,1732151338997,26218000000,,11767254.832007816,-1416186530779999744,0.0,171.82351699031875,1371.5623179656359,0.0,0,13,0.0,16431,349756927378138,797,17.8700008392334,716.1998780461885,0.14999,16,0.0,0.0,1575420030,,,,0,0.0,1,6.0,17.8700008392334,0.0,0.0,0.0,66.7128,C,30223081000000,
Raw,1732151338997,26218000000,,11767254.832007816,-1416186530779999744,0.0,171.82351699031875,1371.5623179656359,0.0,0,7,0.0,16431,349756916058342,797,16.07200050354004,1027.3239005605753,0.14999,16,0.0,0.0,1575420030,,,,0,0.0,1,6.0,16.07200050354004,0.0,0.0,0.0,66.7128,C,30223081000000,
Raw,1732151338997,26218000000,,11767254.832007816,-1416186530779999744,0.0,171.82351699031875,1371.5623179656359,0.0,0,29,0.0,16431,349756911164724,487,16.5,963.0297266994817,0.14999,16,0.0,0.0,1575420030,,,,0,0.0,6,6.0,16.5,0.0,0.0,-8.722725906952613,66.7128,C,30223081000000,
Raw,1732151338997,26218000000,,11767254.832007816,-1416186530779999744,0.0,171.82351699031875,1371.5623179656359,0.0,0,19,0.0,16431,349756927764563,797,14.899999618530273,-24.423282318712406,0.14999,16,0.0,0.0,1575420030,,,,0,0.0,1,6.0,14.899999618530273,0.0,0.0,0.0,66.7128,C,30223081000000,
Raw,1732151338997,26218000000,,11767254.832007816,-1416186530779999744,0.0,171.82351699031875,1371.5623179656359,0.0,0,11,0.0,17,19479,797,17.0,-63.47477294822451,0.14999,16,0.0,0.0,1602000000,,,,0,0.0,3,6.0,17.0,0.0,0.0,108.67631620913818,66.7128,C,30223081000000,
Fix,FLP,37.4252608000,-122.1581798000,5.400000095367432,1.5897856,6.057,180.0,1732151339233,2.0,74.9,30223081000000,24.320944,0,,,
Status,1732151338996,27,0,1,17,1575420030,0.00,109.0,80.0,0,0,0,0.0
Status,1732151338996,27,1,1,22,1575420030,0.00,3.0,68.0,0,0,0,0.0
Status,1732151338996,27,2,1,14,1575420030,0.00,47.0,56.0,0,0,0,0.0
Status,1732151338996,27,3,1,19,1575420030,20.00,199.0,56.0,1,0,0,15.0
Status,1732151338996,27,4,1,13,1575420030,22.90,240.0,51.0,1,0,0,17.9
Status,1732151338996,27,5,1,30,1575420030,19.00,128.0,40.0,1,0,0,14.0
Status,1732151338996,27,6,1,15,1575420030,0.00,280.0,30.0,0,0,0,0.0
Status,1732151338996,27,7,1,2,1575420030,0.00,51.0,18.0,0,0,0,0.0
Status,1732151338996,27,8,1,24,1575420030,0.00,313.0,13.0,0,0,0,0.0
Status,1732151338996,27,9,1,6,1575420030,0.00,164.0,8.0,0,0,0,0.0
Status,1732151338996,27,10,1,7,1575420030,21.10,129.0,8.0,1,0,0,16.1
Status,1732151338996,27,11,1,21,1575420030,0.00,36.0,7.0,0,0,0,0.0
Status,1732151338996,27,12,3,20,1602000000,0.00,121.0,49.0,0,0,0,0.0
Status,1732151338996,27,13,3,9,1602000000,0.00,75.0,36.0,0,0,0,0.0
Status,1732151338996,27,14,3,19,1602000000,0.00,37.0,27.0,0,0,0,0.0
Status,1732151338996,27,15,3,8,1602000000,0.00,251.0,26.0,0,0,0,0.0
Status,1732151338996,27,16,3,11,1602000000,21.30,306.0,25.0,0,0,0,16.3
Status,1732151338996,27,17,3,17,1602000000,23.80,0.0,0.0,0,0,0,18.8
Status,1732151338996,27,18,6,21,1575420030,0.00,334.0,68.0,0,0,0,0.0
Status,1732151338996,27,19,6,19,1575420030,0.00,248.0,48.0,0,0,0,0.0
Status,1732151338996,27,20,6,27,1575420030,0.00,61.0,36.0,0,0,0,0.0
Status,1732151338996,27,21,6,29,1575420030,21.50,192.0,28.0,1,0,0,16.5
Status,1732151338996,27,22,6,13,1575420030,0.00,123.0,25.0,0,0,0,0.0
Status,1732151338996,27,23,6,15,1575420030,0.00,66.0,23.0,0,0,0,0.0
Status,1732151338996,27,24,6,4,1575420030,0.00,314.0,21.0,0,0,0,0.0
Status,1732151338996,27,25,6,26,1575420030,0.00,169.0,3.0,0,0,0,0.0
Status,1732151338996,27,26,6,6,1575420030,0.00,329.0,2.0,0,0,0,0.0
Fix,GPS,37.4252666667,-122.1581900000,23.7,0.0,6.0,0.0,1732151339996,2.0,84.8,30224081000000,70.5,0,,,
Raw,1732151339996,27218000000,,11516947.501060884,-1416186530778999808,0.0,174.30597014677068,1375.754331182611,0.0,0,30,0.0,16431,349757923786214,1797,14.0,884.1763214494971,0.14999,16,0.0,0.0,1575420030,,,,0,0.0,1,6.0,14.0,0.0,0.0,0.0,66.7128,C,30224081000000,
Raw,1732151339996,27218000000,,11516947.501060884,-1416186530778999808,0.0,174.30597014677068,1375.754331182611,0.0,0,13,0.0,16431,349757926375736,396,17.891000747680664,717.7314261949851,0.14999,16,0.0,0.0,1575420030,,,,0,0.0,1,6.0,17.891000747680664,0.0,0.0,0.0,66.7128,C,30224081000000,
Raw,1732151339996,27218000000,,11516947.501060884,-1416186530778999808,0.0,174.30597014677068,1375.754331182611,0.0,0,7,0.0,16431,349757915054913,797,16.07200050354004,1028.7898494256826,0.14999,16,0.0,0.0,1575420030,,,,0,0.0,1,6.0,16.07200050354004,0.0,0.0,0.0,66.7128,C,30224081000000,
Raw,1732151339996,27218000000,,11516947.501060884,-1416186530778999808,0.0,174.30597014677068,1375.754331182611,0.0,0,29,0.0,16431,349757910161511,487,16.5,963.5672505750376,0.14999,16,0.0,0.0,1575420030,,,,0,0.0,6,6.0,16.5,0.0,0.0,-8.722725906952613,66.7128,C,30224081000000,
Raw,1732151339996,27218000000,,11516947.501060884,-1416186530778999808,0.0,174.30597014677068,1375.754331182611,0.0,0,19,0.0,16431,349757926764638,797,14.96399974822998,-23.29833822859043,0.14999,16,0.0,0.0,1575420030,,,,0,0.0,1,6.0,14.96399974822998,0.0,0.0,0.0,66.7128,C,30224081000000,
Raw,1732151339996,27218000000,,11516947.501060884,-1416186530778999808,0.0,174.30597014677068,1375.754331182611,0.0,0,11,0.0,17,19688,487,19.0,-62.52360302648636,0.14999,16,0.0,0.0,1602000000,,,,0,0.0,3,6.0,19.0,0.0,0.0,108.67631620913818,66.7128,C,30224081000000,
Fix,FLP,37.4252559000,-122.1581841000,5.400000095367432,1.5009332,6.014,180.0,1732151340233,2.0,84.8,30224081000000,24.331615,0,,,
Status,1732151339996,27,0,1,17,1575420030,0.00,109.0,80.0,0,0,0,0.0
Status,1732151339996,27,1,1,22,1575420030,0.00,3.0,68.0,0,0,0,0.0
Status,1732151339996,27,2,1,14,1575420030,0.00,47.0,56.0,0,0,0,0.0
Status,1732151339996,27,3,1,19,1575420030,20.00,199.0,56.0,1,0,0,15.0
Status,1732151339996,27,4,1,13,1575420030,29.10,240.0,51.0,1,0,0,24.1
Status,1732151339996,27,5,1,30,1575420030,19.40,128.0,40.0,1,0,0,14.4
Status,1732151339996,27,6,1,15,1575420030,0.00,280.0,30.0,0,0,0,0.0
Status,1732151339996,27,7,1,2,1575420030,0.00,51.0,18.0,0,0,0,0.0
Status,1732151339996,27,8,1,24,1575420030,0.00,313.0,13.0,0,0,0,0.0
Status,1732151339996,27,9,1,6,1575420030,0.00,164.0,8.0,0,0,0,0.0
Status,1732151339996,27,10,1,7,1575420030,24.60,129.0,8.0,1,0,0,19.6
Status,1732151339996,27,11,1,21,1575420030,0.00,36.0,7.0,0,0,0,0.0
Status,1732151339996,27,12,3,20,1602000000,0.00,121.0,49.0,0,0,0,0.0
Status,1732151339996,27,13,3,9,1602000000,0.00,75.0,36.0,0,0,0,0.0
Status,1732151339996,27,14,3,19,1602000000,0.00,37.0,27.0,0,0,0,0.0
Status,1732151339996,27,15,3,8,1602000000,22.90,251.0,26.0,1,0,0,17.9
Status,1732151339996,27,16,3,11,1602000000,29.10,306.0,25.0,0,0,0,24.1
Status,1732151339996,27,17,3,17,1602000000,28.30,0.0,0.0,0,0,0,23.3
Status,1732151339996,27,18,6,21,1575420030,0.00,334.0,68.0,0,0,0,0.0
Status,1732151339996,27,19,6,19,1575420030,0.00,248.0,48.0,0,0,0,0.0
Status,1732151339996,27,20,6,27,1575420030,0.00,61.0,36.0,0,0,0,0.0
Status,1732151339996,27,21,6,29,1575420030,21.50,192.0,28.0,1,0,0,16.5
Status,1732151339996,27,22,6,13,1575420030,0.00,123.0,25.0,0,0,0,0.0
Status,1732151339996,27,23,6,15,1575420030,0.00,66.0,23.0,0,0,0,0.0
Status,1732151339996,27,24,6,4,1575420030,0.00,314.0,21.0,0,0,0,0.0
Status,1732151339996,27,25,6,26,1575420030,0.00,169.0,3.0,0,0,0,0.0
Status,1732151339996,27,26,6,6,1575420030,0.00,329.0,2.0,0,0,0,0.0
Fix,GPS,37.4252833333,-122.1581900000,23.7,0.0,6.0,0.0,1732151340995,2.0,103.5,30225081000000,71.5,0,,,
Raw,1732151340996,28218000000,,11301465.929473115,-1416186530778999808,0.0,175.29095790331644,1376.7184361881407,0.0,0,30,0.0,16431,349758923783243,797,14.399999618530273,884.1730693603623,0.14999,16,0.0,0.0,1575420030,,,,0,0.0,1,6.0,14.399999618530273,0.0,0.0,0.0,66.7128,C,30225081000000,
Raw,1732151340996,28218000000,,11301465.929473115,-1416186530778999808,0.0,175.29095790331644,1376.7184361881407,0.0,0,13,0.0,16431,349758926373338,487,24.14900016784668,717.9363078104736,0.14999,16,0.0,0.0,1575420030,,,,0,8.808988182050967,1,6.0,24.14900016784668,0.0,0.0,0.0,66.7128,C,30225081000000,
Raw,1732151340996,28218000000,,11301465.929473115,-1416186530778999808,0.0,175.29095790331644,1376.7184361881407,0.0,0,7,0.0,16431,349758915051458,487,19.631000518798828,1028.3204335882913,0.14999,16,0.0,0.0,1575420030,,,,0,1.6049783795067558,1,6.0,19.631000518798828,0.0,0.0,0.0,66.7128,C,30225081000000,
Raw,1732151340996,28218000000,,11301465.929473115,-1416186530778999808,0.0,175.29095790331644,1376.7184361881407,0.0,0,29,0.0,16431,349758910158296,487,16.469999313354492,964.2109783900509,0.14999,16,0.0,0.0,1575420030,,,,0,0.0,6,6.0,16.469999313354492,0.0,0.0,2.646296261186895,66.7128,C,30225081000000,
Raw,1732151340996,28218000000,,11301465.929473115,-1416186530778999808,0.0,175.29095790331644,1376.7184361881407,0.0,0,19,0.0,16431,349758926764714,797,15.02400016784668,-22.729501380508598,0.14999,16,0.0,0.0,1575420030,,,,0,0.0,1,6.0,15.02400016784668,0.0,0.0,0.0,66.7128,C,30225081000000,
Raw,1732151340996,28218000000,,11301465.929473115,-1416186530778999808,0.0,175.29095790331644,1376.7184361881407,0.0,0,8,0.0,17,471294,487,5.0,944.500050318375,0.14999,16,0.0,0.0,1605374980,,,,0,0.7007430172095139,3,6.0,18.0,0.0,0.0,107.03421364410224,66.7128,C,30225081000000,
Raw,1732151340996,28218000000,,11301465.929473115,-1416186530778999808,0.0,175.29095790331644,1376.7184361881407,0.0,0,11,0.0,17,19872,316,17.899999618530273,-62.36104658373962,0.14999,16,0.0,0.0,1602000000,,,,0,9.983967147822257,3,6.0,17.899999618530273,0.0,0.0,107.03421364410224,66.7128,C,30225081000000,
Fix,FLP,37.4252608000,-122.1581866000,5.400000095367432,1.3886678,6.0,180.0,1732151341233,2.0,103.5,30225081000000,20.04185,0,,,
Fix,FLP,37.4252662000,-122.1581878000,5.400000095367432,1.3066543,6.014,180.0,1732151341626,2.0,103.5,30225474000000,12.951687,0,,,
Fix,NLP,37.4256836000,-122.1581089000,5.400000095367432,,22.091,,1732151341626,,,30225474000000,23.101856,0,,,
Status,1732151340995,27,0,1,17,1575420030,0.00,109.0,80.0,0,0,0,0.0
Status,1732151340995,27,1,1,22,1575420030,0.00,3.0,68.0,0,0,0,0.0
Status,1732151340995,27,2,1,14,1575420030,0.00,47.0,56.0,0,0,0,0.0
Status,1732151340995,27,3,1,19,1575420030,20.10,199.0,56.0,1,0,0,15.1
Status,1732151340995,27,4,1,13,1575420030,24.70,240.0,51.0,1,0,0,19.7
Status,1732151340995,27,5,1,30,1575420030,19.40,128.0,40.0,1,0,0,14.4
Status,1732151340995,27,6,1,15,1575420030,28.90,280.0,30.0,1,0,0,23.9
Status,1732151340995,27,7,1,2,1575420030,0.00,51.0,18.0,0,0,0,0.0
Status,1732151340995,27,8,1,24,1575420030,0.00,313.0,13.0,0,0,0,0.0
Status,1732151340995,27,9,1,6,1575420030,0.00,164.0,8.0,0,0,0,0.0
Status,1732151340995,27,10,1,7,1575420030,0.00,129.0,8.0,0,0,0,0.0
Status,1732151340995,27,11,1,21,1575420030,0.00,36.0,7.0,0,0,0,0.0
Status,1732151340995,27,12,3,20,1602000000,0.00,121.0,49.0,0,0,0,0.0
Status,1732151340995,27,13,3,9,1602000000,0.00,75.0,36.0,0,0,0,0.0
Status,1732151340995,27,14,3,19,1602000000,0.00,37.0,27.0,0,0,0,0.0
Status,1732151340995,27,15,3,8,1602000000,22.90,251.0,26.0,1,0,0,17.9
Status,1732151340995,27,16,3,11,1602000000,24.60,306.0,25.0,0,0,0,19.6
Status,1732151340995,27,17,3,17,1602000000,27.20,0.0,0.0,0,0,0,22.2
Status,1732151340995,27,18,6,21,1575420030,0.00,334.0,68.0,0,0,0,0.0
Status,1732151340995,27,19,6,19,1575420030,0.00,248.0,48.0,0,0,0,0.0
Status,1732151340995,27,20,6,27,1575420030,0.00,61.0,36.0,0,0,0,0.0
Status,1732151340995,27,21,6,29,1575420030,18.50,192.0,28.0,1,0,0,13.5
Status,1732151340995,27,22,6,13,1575420030,0.00,123.0,25.0,0,0,0,0.0
Status,1732151340995,27,23,6,15,1575420030,0.00,66.0,23.0,0,0,0,0.0
Status,1732151340995,27,24,6,4,1575420030,0.00,314.0,21.0,0,0,0,0.0
Status,1732151340995,27,25,6,26,1575420030,0.00,169.0,3.0,0,0,0,0.0
Status,1732151340995,27,26,6,6,1575420030,0.00,329.0,2.0,0,0,0,0.0
Fix,GPS,37.4252966667,-122.1582133333,23.7,0.0,6.0,0.0,1732151341995,2.0,107.6,30226081000000,83.0,0,,,
Raw,1732151341995,29218000000,,11206928.027522294,-1416186530777999872,0.0,176.26043454261193,1379.3304120111602,0.0,0,30,0.0,16431,349759922780292,1797,14.399999618530273,885.2575017115488,0.14999,16,0.0,0.0,1575420030,,,,0,0.0,1,6.0,14.399999618530273,0.0,0.0,0.0,66.7128,C,30226081000000,
Raw,1732151341995,29218000000,,11206928.027522294,-1416186530777999872,0.0,176.26043454261193,1379.3304120111602,0.0,0,13,0.0,16431,349759925370940,797,19.68899917602539,718.741153412905,0.14999,16,0.0,0.0,1575420030,,,,0,1.7122129469489171,1,6.0,19.68899917602539,0.0,0.0,0.0,66.7128,C,30226081000000,
Raw,1732151341995,29218000000,,11206928.027522294,-1416186530777999872,0.0,176.26043454261193,1379.3304120111602,0.0,0,29,0.0,16431,349759909155081,1797,13.5,963.6334073597213,0.14999,16,0.0,0.0,1575420030,,,,0,0.0,6,6.0,13.5,0.0,0.0,3.2068491985877663,66.7128,C,30226081000000,
Raw,1732151341995,29218000000,,11206928.027522294,-1416186530777999872,0.0,176.26043454261193,1379.3304120111602,0.0,0,15,0.0,16431,349759921001959,396,23.875999450683594,514.5008499018013,0.14999,16,0.0,0.0,1575420030,,,,0,8.423954966626212,1,6.0,23.875999450683594,0.0,0.0,0.0,66.7128,C,30226081000000,
Raw,1732151341995,29218000000,,11206928.027522294,-1416186530777999872,0.0,176.26043454261193,1379.3304120111602,0.0,0,19,0.0,16431,349759925764788,797,15.081000328063965,-21.865932339987115,0.14999,16,0.0,0.0,1575420030,,,,0,0.0,1,6.0,15.081000328063965,0.0,0.0,0.0,66.7128,C,30226081000000,
Raw,1732151341995,29218000000,,11206928.027522294,-1416186530777999872,0.0,176.26043454261193,1379.3304120111602,0.0,0,8,0.0,17,468147,487,5.0,941.7269905068848,0.14999,16,0.0,0.0,1605374980,,,,0,0.7007430172095139,3,6.0,19.0,0.0,0.0,94.30002394139001,66.7128,C,30226081000000,
Raw,1732151341995,29218000000,,11206928.027522294,-1416186530777999872,0.0,176.26043454261193,1379.3304120111602,0.0,0,11,0.0,17,20081,487,17.899999618530273,-61.09965793062139,0.14999,16,0.0,0.0,1602000000,,,,0,3.5883785142858544,3,6.0,17.899999618530273,0.0,0.0,94.30002394139001,66.7128,C,30226081000000,
Fix,FLP,37.4252730000,-122.1581967000,5.400000095367432,1.2179645,6.028,180.0,1732151342233,2.0,107.6,30226081000000,13.179318,0,,,
Status,1732151341995,27,0,1,17,1575420030,0.00,109.0,80.0,0,0,0,0.0
Status,1732151341995,27,1,1,22,1575420030,0.00,3.0,68.0,0,0,0,0.0
Status,1732151341995,27,2,1,14,1575420030,0.00,47.0,56.0,0,0,0,0.0
Status,1732151341995,27,3,1,19,1575420030,20.10,199.0,56.0,1,0,0,15.1
Status,1732151341995,27,4,1,13,1575420030,24.70,240.0,51.0,1,0,0,19.7
Status,1732151341995,27,5,1,30,1575420030,19.40,128.0,40.0,1,0,0,14.4
Status,1732151341995,27,6,1,15,1575420030,29.10,280.0,30.0,1,0,0,24.1
Status,1732151341995,27,7,1,2,1575420030,0.00,51.0,18.0,0,0,0,0.0
Status,1732151341995,27,8,1,24,1575420030,0.00,313.0,13.0,0,0,0,0.0
Status,1732151341995,27,9,1,6,1575420030,0.00,164.0,8.0,0,0,0,0.0
Status,1732151341995,27,10,1,7,1575420030,0.00,129.0,8.0,0,0,0,0.0
Status,1732151341995,27,11,1,21,1575420030,0.00,36.0,7.0,0,0,0,0.0
Status,1732151341995,27,12,3,20,1602000000,0.00,121.0,49.0,0,0,0,0.0
Status,1732151341995,27,13,3,9,1602000000,0.00,75.0,36.0,0,0,0,0.0
Status,1732151341995,27,14,3,19,1602000000,0.00,37.0,27.0,0,0,0,0.0
Status,1732151341995,27,15,3,8,1602000000,20.30,251.0,26.0,1,0,0,15.299999
Status,1732151341995,27,16,3,11,1602000000,24.50,306.0,25.0,0,0,0,19.5
Status,1732151341995,27,17,3,17,1602000000,28.30,0.0,0.0,0,0,0,23.3
Status,1732151341995,27,18,6,21,1575420030,0.00,334.0,68.0,0,0,0,0.0
Status,1732151341995,27,19,6,19,1575420030,0.00,248.0,48.0,0,0,0,0.0
Status,1732151341995,27,20,6,27,1575420030,0.00,61.0,36.0,0,0,0,0.0
Status,1732151341995,27,21,6,29,1575420030,18.50,192.0,28.0,1,0,0,13.5
Status,1732151341995,27,22,6,13,1575420030,0.00,123.0,25.0,0,0,0,0.0
Status,1732151341995,27,23,6,15,1575420030,0.00,66.0,23.0,0,0,0,0.0
Status,1732151341995,27,24,6,4,1575420030,0.00,314.0,21.0,0,0,0,0.0
Status,1732151341995,27,25,6,26,1575420030,0.00,169.0,3.0,0,0,0,0.0
Status,1732151341995,27,26,6,6,1575420030,0.00,329.0,2.0,0,0,0,0.0
Fix,GPS,37.4253000000,-122.1582266667,23.7,0.0,6.0,0.0,1732151342994,2.0,109.9,30227081000000,84.3,0,,,
Raw,1732151342995,30218000000,,11135197.570580645,-1416186530777999872,0.0,177.98111242718167,1380.701778423211,0.0,0,30,0.0,16431,349760922777338,797,14.399999618530273,885.5516764029938,0.14999,16,0.0,0.0,1575420030,,,,0,0.0,1,6.0,14.399999618530273,0.0,0.0,0.0,66.7128,C,30227081000000,
Raw,1732151342995,30218000000,,11135197.570580645,-1416186530777999872,0.0,177.98111242718167,1380.701778423211,0.0,0,13,0.0,16431,349760925368543,797,19.68899917602539,719.2023925690432,0.14999,16,0.0,0.0,1575420030,,,,0,1.7122129469489171,1,6.0,19.68899917602539,0.0,0.0,0.0,66.7128,C,30227081000000,
Raw,1732151342995,30218000000,,11135197.570580645,-1416186530777999872,0.0,177.98111242718167,1380.701778423211,0.0,0,29,0.0,16431,349760909151864,797,13.5,964.3323277731927,0.14999,16,0.0,0.0,1575420030,,,,0,0.0,6,6.0,13.5,0.0,0.0,3.4263122990581514,66.7128,C,30227081000000,
Raw,1732151342995,30218000000,,11135197.570580645,-1416186530777999872,0.0,177.98111242718167,1380.701778423211,0.0,0,15,0.0,16431,349760921000248,487,24.08799934387207,515.6932980706772,0.14999,16,0.0,0.0,1575420030,,,,0,8.714318147999256,1,6.0,24.08799934387207,0.0,0.0,0.0,66.7128,C,30227081000000,
Raw,1732151342995,30218000000,,11135197.570580645,-1416186530777999872,0.0,177.98111242718167,1380.701778423211,0.0,0,19,0.0,16431,349760925764853,487,15.140999794006348,-21.608088130018626,0.14999,16,0.0,0.0,1575420030,,,,0,0.0,1,6.0,15.140999794006348,0.0,0.0,0.0,66.7128,C,30227081000000,
Raw,1732151342995,30218000000,,11135197.570580645,-1416186530777999872,0.0,177.98111242718167,1380.701778423211,0.0,0,8,0.0,17,465005,797,5.0,945.4673204249214,0.14999,16,0.0,0.0,1605374980,,,,0,0.0,3,6.0,16.0,0.0,0.0,83.09494441049401,66.7128,C,30227081000000,
Raw,1732151342995,30218000000,,11135197.570580645,-1416186530777999872,0.0,177.98111242718167,1380.701778423211,0.0,0,11,0.0,17,20288,487,15.300000190734863,-61.12684204625779,0.14999,16,0.0,0.0,1602000000,,,,0,3.4596963141776573,3,6.0,15.300000190734863,0.0,0.0,83.09494441049401,66.7128,C,30227081000000,
Fix,FLP,37.4252780000,-122.1582085000,5.400000095367432,1.1266491,6.014,180.0,1732151343233,2.0,109.9,30227081000000,13.780989,0,,,
Status,1732151342994,27,0,1,17,1575420030,0.00,109.0,80.0,0,0,0,0.0
Status,1732151342994,27,1,1,22,1575420030,0.00,3.0,68.0,0,0,0,0.0
Status,1732151342994,27,2,1,14,1575420030,0.00,47.0,56.0,0,0,0,0.0
Status,1732151342994,27,3,1,19,1575420030,28.50,199.0,56.0,1,0,0,23.5
Status,1732151342994,27,4,1,13,1575420030,24.70,240.0,51.0,1,0,0,19.7
Status,1732151342994,27,5,1,30,1575420030,17.90,128.0,40.0,1,0,0,12.9
Status,1732151342994,27,6,1,15,1575420030,27.60,280.0,30.0,1,0,0,22.6
Status,1732151342994,27,7,1,2,1575420030,19.70,51.0,18.0,1,0,0,14.700001
Status,1732151342994,27,8,1,24,1575420030,0.00,313.0,13.0,0,0,0,0.0
Status,1732151342994,27,9,1,6,1575420030,0.00,164.0,8.0,0,0,0,0.0
Status,1732151342994,27,10,1,7,1575420030,0.00,129.0,8.0,0,0,0,0.0
Status,1732151342994,27,11,1,21,1575420030,0.00,36.0,7.0,0,0,0,0.0
Status,1732151342994,27,12,3,20,1602000000,0.00,121.0,49.0,0,0,0,0.0
Status,1732151342994,27,13,3,9,1602000000,0.00,75.0,36.0,0,0,0,0.0
Status,1732151342994,27,14,3,19,1602000000,0.00,37.0,27.0,0,0,0,0.0
Status,1732151342994,27,15,3,8,1602000000,25.10,251.0,26.0,1,0,0,20.1
Status,1732151342994,27,16,3,11,1602000000,25.70,306.0,25.0,0,0,0,20.7
Status,1732151342994,27,17,3,17,1602000000,29.30,0.0,0.0,0,0,0,24.3
Status,1732151342994,27,18,6,21,1575420030,0.00,334.0,68.0,0,0,0,0.0
Status,1732151342994,27,19,6,19,1575420030,0.00,248.0,48.0,0,0,0,0.0
Status,1732151342994,27,20,6,27,1575420030,0.00,61.0,36.0,0,0,0,0.0
Status,1732151342994,27,21,6,29,1575420030,19.40,192.0,28.0,1,0,0,14.4
Status,1732151342994,27,22,6,13,1575420030,0.00,123.0,25.0,0,0,0,0.0
Status,1732151342994,27,23,6,15,1575420030,0.00,66.0,23.0,0,0,0,0.0
Status,1732151342994,27,24,6,4,1575420030,0.00,314.0,21.0,0,0,0,0.0
Status,1732151342994,27,25,6,26,1575420030,0.00,169.0,3.0,0,0,0,0.0
Status,1732151342994,27,26,6,6,1575420030,0.00,329.0,2.0,0,0,0,0.0
Fix,GPS,37.4253316667,-122.1582316667,23.7,0.0,6.0,0.0,1732151343994,2.0,140.9,30228081000000,69.8,0,,,
Raw,1732151343994,31218000000,,11072404.963569831,-1416186530776999936,0.0,152.53180985610777,1381.8606496346374,0.0,0,30,0.0,16431,349761921774361,1797,12.899999618530273,885.4945325510549,0.14999,16,0.0,0.0,1575420030,,,,0,0.0,1,6.0,12.899999618530273,0.0,0.0,0.0,66.7128,C,30228081000000,
