# 
# Header Description:
# 
# Version: v3.1.0.3 Platform: 13 Manufacturer: samsung Model: SM-S135DL GNSS Hardware Model Name: MediaTek,MT6631,MTK_MNLD_default,MNL_VER_default
# 
# Raw,utcTimeMillis,TimeNanos,LeapSecond,TimeUncertaintyNanos,FullBiasNanos,BiasNanos,BiasUncertaintyNanos,DriftNanosPerSecond,DriftUncertaintyNanosPerSecond,HardwareClockDiscontinuityCount,Svid,TimeOffsetNanos,State,ReceivedSvTimeNanos,ReceivedSvTimeUncertaintyNanos,Cn0DbHz,PseudorangeRateMetersPerSecond,PseudorangeRateUncertaintyMetersPerSecond,AccumulatedDeltaRangeState,AccumulatedDeltaRangeMeters,AccumulatedDeltaRangeUncertaintyMeters,CarrierFrequencyHz,CarrierCycles,CarrierPhase,CarrierPhaseUncertainty,MultipathIndicator,SnrInDb,ConstellationType,AgcDb,BasebandCn0DbHz,FullInterSignalBiasNanos,FullInterSignalBiasUncertaintyNanos,SatelliteInterSignalBiasNanos,SatelliteInterSignalBiasUncertaintyNanos,CodeType,ChipsetElapsedRealtimeNanos,IsFullTracking
# 
# UncalAccel,utcTimeMillis,elapsedRealtimeNanos,UncalAccelXMps2,UncalAccelYMps2,UncalAccelZMps2,BiasXMps2,BiasYMps2,BiasZMps2
# 
# Accel,utcTimeMillis,elapsedRealtimeNanos,AccelXMps2,AccelYMps2,AccelZMps2
# 
# UncalGyro,utcTimeMillis,elapsedRealtimeNanos,UncalGyroXRadPerSec,UncalGyroYRadPerSec,UncalGyroZRadPerSec,DriftXRadPerSec,DriftYRadPerSec,DriftZRadPerSec
# 
# Gyro,utcTimeMillis,elapsedRealtimeNanos,GyroXRadPerSec,GyroYRadPerSec,GyroZRadPerSec
# 
# UncalMag,utcTimeMillis,elapsedRealtimeNanos,UncalMagXMicroT,UncalMagYMicroT,UncalMagZMicroT,BiasXMicroT,BiasYMicroT,BiasZMicroT
# 
# Mag,utcTimeMillis,elapsedRealtimeNanos,MagXMicroT,MagYMicroT,MagZMicroT
# 
# Pressure,utcTimeMillis,elapsedRealtimeNanos,PressureHpa
# 
# OrientationDeg,utcTimeMillis,elapsedRealtimeNanos,yawDeg,rollDeg,pitchDeg
# 
# Fix,Provider,LatitudeDegrees,LongitudeDegrees,AltitudeMeters,SpeedMps,AccuracyMeters,BearingDegrees,UnixTimeMillis,SpeedAccuracyMps,BearingAccuracyDegrees,elapsedRealtimeNanos,VerticalAccuracyMeters,MockLocation,NumberOfUsedSignals,VerticalSpeedAccuracyMps,SolutionType
# 
# Nav,Svid,Type,Status,MessageId,Sub-messageId,Data(Bytes)
# 
# Status,UnixTimeMillis,SignalCount,SignalIndex,ConstellationType,Svid,CarrierFrequencyHz,Cn0DbHz,AzimuthDegrees,ElevationDegrees,UsedInFix,HasAlmanacData,HasEphemerisData,BasebandCn0DbHz
# 
# Agc,utcTimeMillis,TimeNanos,LeapSecond,TimeUncertaintyNanos,FullBiasNanos,BiasNanos,BiasUncertaintyNanos,DriftNanosPerSecond,DriftUncertaintyNanosPerSecond,HardwareClockDiscontinuityCount,AgcDb,CarrierFrequencyHz,ConstellationType
# 
Fix,FLP,37.4254587000,-122.1583884000,5.400000095367432,0.11062514,20.437,180.0,1732152496242,1.9,117.9,31380090000000,16.643278,0,,,
Status,,27,0,1,17,1575420030,0.00,65.0,76.0,0,0,0,0.0
Status,,27,1,1,19,1575420030,0.00,202.0,66.0,0,0,0,0.0
Status,,27,2,1,22,1575420030,0.00,23.0,64.0,0,0,0,0.0
Status,,27,3,1,14,1575420030,0.00,58.0,50.0,0,0,0,0.0
Status,,27,4,2,133,1575420030,0.00,191.0,45.0,0,0,0,0.0
Status,,27,5,1,13,1575420030,31.40,229.0,44.0,1,0,0,26.4
Status,,27,6,1,30,1575420030,31.40,134.0,32.0,1,0,0,26.4
Status,,27,7,1,15,1575420030,19.60,270.0,29.0,1,0,0,14.6
Status,,27,8,1,24,1575420030,21.70,313.0,20.0,1,0,0,16.7
Status,,27,9,1,6,1575420030,35.30,160.0,16.0,1,0,0,30.3
Status,,27,10,1,2,1575420030,22.40,44.0,15.0,1,0,0,17.4
Status,,27,11,1,21,1575420030,0.00,31.0,2.0,0,0,0,0.0
Status,,27,12,1,12,1575420030,0.00,270.0,1.0,0,0,0,0.0
Status,,27,13,3,20,1602000000,0.00,105.0,56.0,0,0,0,0.0
Status,,27,14,3,11,1602000000,0.00,315.0,31.0,0,0,0,0.0
Status,,27,15,3,9,1602000000,0.00,86.0,30.0,0,0,0,0.0
Status,,27,16,3,19,1602000000,0.00,30.0,20.0,0,0,0,0.0
Status,,27,17,3,8,1602000000,0.00,243.0,19.0,0,0,0,0.0
Status,,27,18,6,21,1575420030,0.00,353.0,68.0,0,0,0,0.0
Status,,27,19,6,19,1575420030,0.00,239.0,43.0,0,0,0,0.0
Status,,27,20,6,27,1575420030,0.00,67.0,32.0,0,0,0,0.0
Status,,27,21,6,13,1575420030,0.00,117.0,31.0,0,0,0,0.0
Status,,27,22,6,4,1575420030,0.00,308.0,24.0,0,0,0,0.0
Status,,27,23,6,15,1575420030,0.00,58.0,23.0,0,0,0,0.0
Status,,27,24,6,29,1575420030,0.00,190.0,21.0,0,0,0,0.0
Status,,27,25,6,26,1575420030,0.00,166.0,9.0,0,0,0,0.0
Status,,27,26,6,6,1575420030,0.00,325.0,7.0,0,0,0,0.0
Fix,GPS,37.4253466667,-122.1584616667,22.3,0.0,5.4,0.0,1732152497001,1.8,87.6,31381090000000,72.4,0,,,
Raw,1732152497000,19375000000,,12357102.892828612,-1416187695625999872,0.0,125.13654282875224,1059.7477045313854,0.0,0,15,0.0,16431,350914924997563,797,14.600000381469727,553.368471946116,0.14999,16,0.0,0.0,1575420030,,,,0,0.0,1,6.0,14.600000381469727,0.0,0.0,0.0,66.7128,C,31381090000000,
Raw,1732152497000,19375000000,,12357102.892828612,-1416187695625999872,0.0,125.13654282875224,1059.7477045313854,0.0,0,13,0.0,16431,350914928604878,316,26.35700035095215,742.5413354534016,0.14999,16,0.0,0.0,1575420030,,,,0,11.87563952169862,1,6.0,26.35700035095215,0.0,0.0,0.0,66.7128,C,31381090000000,
Raw,1732152497000,19375000000,,12357102.892828612,-1416187695625999872,0.0,125.13654282875224,1059.7477045313854,0.0,0,2,0.0,16431,350914918523008,797,17.426000595092773,708.3615069799789,0.14999,16,0.0,0.0,1575420030,,,,0,0.0,1,6.0,17.426000595092773,0.0,0.0,0.0,66.7128,C,31381090000000,
Raw,1732152497000,19375000000,,12357102.892828612,-1416187695625999872,0.0,125.13654282875224,1059.7477045313854,0.0,0,6,0.0,16431,350914920414238,74,30.29599952697754,-342.0473018451156,0.14999,16,0.0,0.0,1575420030,,,,0,16.89013706875033,1,6.0,30.29599952697754,0.0,0.0,0.0,66.7128,C,31381090000000,
Raw,1732152497000,19375000000,,12357102.892828612,-1416187695625999872,0.0,125.13654282875224,1059.7477045313854,0.0,0,24,0.0,16431,350914922592916,797,16.70400047302246,-305.17144502057914,0.14999,16,0.0,0.0,1575420030,,,,0,0.0,1,6.0,16.70400047302246,0.0,0.0,0.0,66.7128,C,31381090000000,
Raw,1732152497000,19375000000,,12357102.892828612,-1416187695625999872,0.0,125.13654282875224,1059.7477045313854,0.0,0,30,0.0,16431,350914925460175,316,26.424999237060547,867.820171438415,0.14999,16,0.0,0.0,1575420030,,,,0,11.976835497086668,1,6.0,26.424999237060547,0.0,0.0,0.0,66.7128,C,31381090000000,
Fix,FLP,37.4254024000,-122.1584239000,5.400000095367432,0.2507432,20.408,180.0,1732152497242,1.8,87.6,31381090000000,16.667135,0,,,
Fix,FLP,37.4253750000,-122.1584413000,5.400000095367432,0.30723208,20.394,180.0,1732152498229,1.8,87.6,31382076000000,16.509077,0,,,
Fix,NLP,37.4256965000,-122.1580755000,5.400000095367432,,22.506,,1732152498228,,,31382076000000,27.642113,0,,,
Status,1732152497001,28,0,1,17,1575420030,0.00,65.0,76.0,0,0,0,0.0
Status,1732152497001,28,1,1,19,1575420030,0.00,202.0,66.0,0,0,0,0.0
Status,1732152497001,28,2,1,22,1575420030,0.00,23.0,64.0,0,0,0,0.0
Status,1732152497001,28,3,1,14,1575420030,0.00,58.0,50.0,0,0,0,0.0
Status,1732152497001,28,4,2,133,1575420030,0.00,191.0,45.0,0,0,0,0.0
Status,1732152497001,28,5,1,13,1575420030,32.70,229.0,44.0,1,0,0,27.7
Status,1732152497001,28,6,1,30,1575420030,30.80,134.0,32.0,1,0,0,25.8
Status,1732152497001,28,7,1,15,1575420030,19.60,270.0,29.0,1,0,0,14.6
Status,1732152497001,28,8,1,24,1575420030,19.10,313.0,20.0,1,0,0,14.1
Status,1732152497001,28,9,1,6,1575420030,33.20,160.0,16.0,1,0,0,28.2
Status,1732152497001,28,10,1,2,1575420030,19.50,44.0,15.0,1,0,0,14.5
Status,1732152497001,28,11,1,21,1575420030,0.00,31.0,2.0,0,0,0,0.0
Status,1732152497001,28,12,1,12,1575420030,0.00,270.0,1.0,0,0,0,0.0
Status,1732152497001,28,13,3,20,1602000000,0.00,105.0,56.0,0,0,0,0.0
Status,1732152497001,28,14,3,11,1602000000,0.00,315.0,31.0,0,0,0,0.0
Status,1732152497001,28,15,3,9,1602000000,27.80,86.0,30.0,1,0,0,22.8
Status,1732152497001,28,16,3,19,1602000000,0.00,30.0,20.0,0,0,0,0.0
Status,1732152497001,28,17,3,8,1602000000,0.00,243.0,19.0,0,0,0,0.0
Status,1732152497001,28,18,3,17,1602000000,34.90,0.0,0.0,0,0,0,29.900002
Status,1732152497001,28,19,6,21,1575420030,0.00,353.0,68.0,0,0,0,0.0
Status,1732152497001,28,20,6,19,1575420030,0.00,239.0,43.0,0,0,0,0.0
Status,1732152497001,28,21,6,27,1575420030,0.00,67.0,32.0,0,0,0,0.0
Status,1732152497001,28,22,6,13,1575420030,0.00,117.0,31.0,0,0,0,0.0
Status,1732152497001,28,23,6,4,1575420030,0.00,308.0,24.0,0,0,0,0.0
Status,1732152497001,28,24,6,15,1575420030,0.00,58.0,23.0,0,0,0,0.0
Status,1732152497001,28,25,6,29,1575420030,0.00,190.0,21.0,0,0,0,0.0
Status,1732152497001,28,26,6,26,1575420030,0.00,166.0,9.0,0,0,0,0.0
Status,1732152497001,28,27,6,6,1575420030,0.00,325.0,7.0,0,0,0,0.0
Fix,GPS,37.4252716667,-122.1585166667,22.3,0.0,5.1,0.0,1732152498001,1.6,73.6,31382090000000,72.5,0,,,
Raw,1732152498002,20375000000,,996561.8239468853,-1416187695627000064,0.0,121.61543014170876,1057.920547106025,0.0,0,15,0.0,16431,350915925995717,797,14.600000381469727,553.0623109832885,0.14999,16,0.0,0.0,1575420030,,,,0,0.0,1,6.0,14.600000381469727,0.0,0.0,0.0,66.7128,C,31382090000000,
Raw,1732152498002,20375000000,,996561.8239468853,-1416187695627000064,0.0,121.61543014170876,1057.920547106025,0.0,0,13,0.0,16431,350915929602405,487,27.702999114990234,741.8396275349577,0.14999,16,0.0,0.0,1575420030,,,,0,13.649433176925928,1,6.0,27.702999114990234,0.0,0.0,0.0,66.7128,C,31382090000000,
Raw,1732152498002,20375000000,,996561.8239468853,-1416187695627000064,0.0,121.61543014170876,1057.920547106025,0.0,0,2,0.0,16431,350915919520691,797,14.5,707.7323671076558,0.14999,16,0.0,0.0,1575420030,,,,0,0.0,1,6.0,14.5,0.0,0.0,0.0,66.7128,C,31382090000000,
Raw,1732152498002,20375000000,,996561.8239468853,-1416187695627000064,0.0,121.61543014170876,1057.920547106025,0.0,0,6,0.0,16431,350915921415377,235,28.201000213623047,-342.5886353108008,0.14999,16,0.0,0.0,1575420030,,,,0,14.289174221014726,1,6.0,28.201000213623047,0.0,0.0,0.0,66.7128,C,31382090000000,
Raw,1732152498002,20375000000,,996561.8239468853,-1416187695627000064,0.0,121.61543014170876,1057.920547106025,0.0,0,9,0.0,17,597538,396,5.0,709.4038539889735,0.14999,16,0.0,0.0,1600875010,,,,0,8.238179090696267,3,6.0,22.0,0.0,0.0,82.49501545675672,66.7128,C,31382090000000,
Raw,1732152498002,20375000000,,996561.8239468853,-1416187695627000064,0.0,121.61543014170876,1057.920547106025,0.0,0,24,0.0,16431,350915923593905,797,14.100000381469727,-305.5477117334683,0.14999,16,0.0,0.0,1575420030,,,,0,0.0,1,6.0,14.100000381469727,0.0,0.0,0.0,66.7128,C,31382090000000,
Raw,1732152498002,20375000000,,996561.8239468853,-1416187695627000064,0.0,121.61543014170876,1057.920547106025,0.0,0,30,0.0,16431,350915926457233,316,25.7549991607666,866.7302569941157,0.14999,16,0.0,0.0,1575420030,,,,0,11.057958635982011,1,6.0,25.7549991607666,0.0,0.0,0.0,66.7128,C,31382090000000,
Status,1732152498001,28,0,1,17,1575420030,0.00,65.0,76.0,0,0,0,0.0
Status,1732152498001,28,1,1,19,1575420030,0.00,202.0,66.0,0,0,0,0.0
Status,1732152498001,28,2,1,22,1575420030,0.00,23.0,64.0,0,0,0,0.0
Status,1732152498001,28,3,1,14,1575420030,0.00,58.0,50.0,0,0,0,0.0
Status,1732152498001,28,4,2,133,1575420030,0.00,191.0,45.0,0,0,0,0.0
Status,1732152498001,28,5,1,13,1575420030,30.50,229.0,44.0,1,0,0,25.5
Status,1732152498001,28,6,1,30,1575420030,30.20,134.0,32.0,1,0,0,25.2
Status,1732152498001,28,7,1,15,1575420030,19.60,270.0,29.0,1,0,0,14.6
Status,1732152498001,28,8,1,24,1575420030,19.10,313.0,20.0,1,0,0,14.1
Status,1732152498001,28,9,1,6,1575420030,33.50,160.0,16.0,1,0,0,28.5
Status,1732152498001,28,10,1,2,1575420030,19.50,44.0,15.0,1,0,0,14.5
Status,1732152498001,28,11,1,21,1575420030,0.00,31.0,2.0,0,0,0,0.0
Status,1732152498001,28,12,1,12,1575420030,0.00,270.0,1.0,0,0,0,0.0
Status,1732152498001,28,13,3,20,1602000000,0.00,105.0,56.0,0,0,0,0.0
Status,1732152498001,28,14,3,11,1602000000,0.00,315.0,31.0,0,0,0,0.0
Status,1732152498001,28,15,3,9,1602000000,21.80,86.0,30.0,1,0,0,16.8
Status,1732152498001,28,16,3,19,1602000000,0.00,30.0,20.0,0,0,0,0.0
Status,1732152498001,28,17,3,8,1602000000,0.00,243.0,19.0,0,0,0,0.0
Status,1732152498001,28,18,3,17,1602000000,30.30,0.0,0.0,0,0,0,25.3
Status,1732152498001,28,19,6,21,1575420030,0.00,353.0,68.0,0,0,0,0.0
Status,1732152498001,28,20,6,19,1575420030,0.00,239.0,43.0,0,0,0,0.0
Status,1732152498001,28,21,6,27,1575420030,0.00,67.0,32.0,0,0,0,0.0
Status,1732152498001,28,22,6,13,1575420030,0.00,117.0,31.0,0,0,0,0.0
Status,1732152498001,28,23,6,4,1575420030,0.00,308.0,24.0,0,0,0,0.0
Status,1732152498001,28,24,6,15,1575420030,0.00,58.0,23.0,0,0,0,0.0
Status,1732152498001,28,25,6,29,1575420030,0.00,190.0,21.0,0,0,0,0.0
Status,1732152498001,28,26,6,26,1575420030,0.00,166.0,9.0,0,0,0,0.0
Status,1732152498001,28,27,6,6,1575420030,0.00,325.0,7.0,0,0,0,0.0
Fix,GPS,37.4252233333,-122.1585583333,22.3,0.0,4.9,0.0,1732152499001,1.5,66.5,31383090000000,73.5,0,,,
Raw,1732152499002,21375000000,,996406.1954487194,-1416187695627000064,0.0,121.60713379351581,1054.9904932496045,0.0,0,15,0.0,16431,350916925993872,797,14.600000381469727,552.2807875057948,0.14999,16,0.0,0.0,1575420030,,,,0,0.0,1,6.0,14.600000381469727,0.0,0.0,0.0,66.7128,C,31383090000000,
Raw,1732152499002,21375000000,,996406.1954487194,-1416187695627000064,0.0,121.60713379351581,1054.9904932496045,0.0,0,13,0.0,16431,350916929599933,396,25.52400016784668,741.429492636651,0.14999,16,0.0,0.0,1575420030,,,,0,10.75449057768888,1,6.0,25.52400016784668,0.0,0.0,0.0,66.7128,C,31383090000000,
Raw,1732152499002,21375000000,,996406.1954487194,-1416187695627000064,0.0,121.60713379351581,1054.9904932496045,0.0,0,2,0.0,16431,350916919518329,1797,14.5,708.032953060538,0.14999,16,0.0,0.0,1575420030,,,,0,0.0,1,6.0,14.5,0.0,0.0,0.0,66.7128,C,31383090000000,
Raw,1732152499002,21375000000,,996406.1954487194,-1416187695627000064,0.0,121.60713379351581,1054.9904932496045,0.0,0,6,0.0,16431,350916921416521,235,28.527000427246094,-343.311807017534,0.14999,16,0.0,0.0,1575420030,,,,0,14.715407276563512,1,6.0,28.527000427246094,0.0,0.0,0.0,66.7128,C,31383090000000,
Raw,1732152499002,21375000000,,996406.1954487194,-1416187695627000064,0.0,121.60713379351581,1054.9904932496045,0.0,0,9,0.0,17,595089,487,5.0,708.0497737574922,0.14999,16,0.0,0.0,1600875010,,,,0,0.0,3,6.0,18.0,0.0,0.0,80.03595427984963,66.7128,C,31383090000000,
Raw,1732152499002,21375000000,,996406.1954487194,-1416187695627000064,0.0,121.60713379351581,1054.9904932496045,0.0,0,24,0.0,16431,350916923594927,797,14.100000381469727,-307.2372184973807,0.14999,16,0.0,0.0,1575420030,,,,0,0.0,1,6.0,14.100000381469727,0.0,0.0,0.0,66.7128,C,31383090000000,
Raw,1732152499002,21375000000,,996406.1954487194,-1416187695627000064,0.0,121.60713379351581,1054.9904932496045,0.0,0,30,0.0,16431,350916926454346,316,25.211000442504883,865.955330611724,0.14999,16,0.0,0.0,1575420030,,,,0,10.319115682445448,1,6.0,25.211000442504883,0.0,0.0,0.0,66.7128,C,31383090000000,
Fix,FLP,37.4252849000,-122.1585075000,5.400000095367432,0.4901738,11.547,180.0,1732152499243,1.5,66.5,31383090000000,14.413366,0,,,
Status,1732152499001,28,0,1,17,1575420030,0.00,65.0,76.0,0,0,0,0.0
Status,1732152499001,28,1,1,19,1575420030,0.00,202.0,66.0,0,0,0,0.0
Status,1732152499001,28,2,1,22,1575420030,0.00,23.0,64.0,0,0,0,0.0
Status,1732152499001,28,3,1,14,1575420030,0.00,58.0,50.0,0,0,0,0.0
Status,1732152499001,28,4,2,133,1575420030,0.00,191.0,45.0,0,0,0,0.0
Status,1732152499001,28,5,1,13,1575420030,29.50,229.0,44.0,1,0,0,24.5
Status,1732152499001,28,6,1,30,1575420030,0.00,134.0,32.0,0,0,0,0.0
Status,1732152499001,28,7,1,15,1575420030,24.40,270.0,29.0,1,0,0,19.4
Status,1732152499001,28,8,1,24,1575420030,0.00,313.0,20.0,0,0,0,0.0
Status,1732152499001,28,9,1,6,1575420030,31.40,160.0,16.0,1,0,0,26.4
Status,1732152499001,28,10,1,2,1575420030,19.50,44.0,15.0,1,0,0,14.5
Status,1732152499001,28,11,1,21,1575420030,0.00,31.0,2.0,0,0,0,0.0
Status,1732152499001,28,12,1,12,1575420030,0.00,270.0,1.0,0,0,0,0.0
Status,1732152499001,28,13,3,20,1602000000,0.00,105.0,56.0,0,0,0,0.0
Status,1732152499001,28,14,3,11,1602000000,0.00,315.0,31.0,0,0,0,0.0
Status,1732152499001,28,15,3,9,1602000000,21.10,86.0,30.0,1,0,0,16.1
Status,1732152499001,28,16,3,19,1602000000,0.00,30.0,20.0,0,0,0,0.0
Status,1732152499001,28,17,3,8,1602000000,0.00,243.0,19.0,0,0,0,0.0
Status,1732152499001,28,18,3,17,1602000000,27.50,0.0,0.0,0,0,0,22.5
Status,1732152499001,28,19,6,21,1575420030,0.00,353.0,68.0,0,0,0,0.0
Status,1732152499001,28,20,6,19,1575420030,0.00,239.0,43.0,0,0,0,0.0
Status,1732152499001,28,21,6,27,1575420030,0.00,67.0,32.0,0,0,0,0.0
Status,1732152499001,28,22,6,13,1575420030,0.00,117.0,31.0,0,0,0,0.0
Status,1732152499001,28,23,6,4,1575420030,0.00,308.0,24.0,0,0,0,0.0
Status,1732152499001,28,24,6,15,1575420030,0.00,58.0,23.0,0,0,0,0.0
Status,1732152499001,28,25,6,29,1575420030,0.00,190.0,21.0,0,0,0,0.0
Status,1732152499001,28,26,6,26,1575420030,0.00,166.0,9.0,0,0,0,0.0
Status,1732152499001,28,27,6,6,1575420030,0.00,325.0,7.0,0,0,0,0.0
Fix,GPS,37.4251766667,-122.1586116667,22.3,0.0,4.9,0.0,1732152500001,1.5,61.7,31384090000000,74.6,0,,,
Raw,1732152500002,22375000000,,996359.0795202727,-1416187695627000064,0.0,122.28345158922644,1052.6975846186524,0.0,0,15,0.0,16431,350917925992056,797,19.413000106811523,551.2809559305279,0.14999,16,0.0,0.0,1575420030,,,,0,1.212065483295632,1,6.0,19.413000106811523,0.0,0.0,0.0,66.7128,C,31384090000000,
Raw,1732152500002,22375000000,,996359.0795202727,-1416187695627000064,0.0,122.28345158922644,1052.6975846186524,0.0,0,13,0.0,16431,350917929597462,396,24.452999114990234,741.3775521273276,0.14999,16,0.0,0.0,1575420030,,,,0,9.240076298926514,1,6.0,24.452999114990234,0.0,0.0,0.0,66.7128,C,31384090000000,
Raw,1732152500002,22375000000,,996359.0795202727,-1416187695627000064,0.0,122.28345158922644,1052.6975846186524,0.0,0,2,0.0,16431,350917919515968,797,14.5,707.4657887154398,0.14999,16,0.0,0.0,1575420030,,,,0,0.0,1,6.0,14.5,0.0,0.0,0.0,66.7128,C,31384090000000,
Raw,1732152500002,22375000000,,996359.0795202727,-1416187695627000064,0.0,122.28345158922644,1052.6975846186524,0.0,0,6,0.0,16431,350917921417664,316,26.424999237060547,-343.5939489791806,0.14999,16,0.0,0.0,1575420030,,,,0,11.976835497086668,1,6.0,26.424999237060547,0.0,0.0,0.0,66.7128,C,31384090000000,
Raw,1732152500002,22375000000,,996359.0795202727,-1416187695627000064,0.0,122.28345158922644,1052.6975846186524,0.0,0,9,0.0,17,592724,797,5.0,709.0490234296149,0.14999,16,0.0,0.0,1600875010,,,,0,0.0,3,6.0,16.0,0.0,0.0,80.03595427984963,66.7128,C,31384090000000,
Fix,FLP,37.4252310000,-122.1585563000,5.400000095367432,0.58814186,11.462,180.0,1732152500242,1.5,61.7,31384090000000,12.281135,0,,,
Status,1732152500001,28,0,1,17,1575420030,0.00,65.0,76.0,0,0,0,0.0
Status,1732152500001,28,1,1,19,1575420030,22.30,202.0,66.0,1,0,0,17.3
Status,1732152500001,28,2,1,22,1575420030,0.00,23.0,64.0,0,0,0,0.0
Status,1732152500001,28,3,1,14,1575420030,0.00,58.0,50.0,0,0,0,0.0
Status,1732152500001,28,4,2,133,1575420030,0.00,191.0,45.0,0,0,0,0.0
Status,1732152500001,28,5,1,13,1575420030,29.50,229.0,44.0,1,0,0,24.5
Status,1732152500001,28,6,1,30,1575420030,0.00,134.0,32.0,0,0,0,0.0
Status,1732152500001,28,7,1,15,1575420030,24.40,270.0,29.0,1,0,0,19.4
Status,1732152500001,28,8,1,24,1575420030,0.00,313.0,20.0,0,0,0,0.0
Status,1732152500001,28,9,1,6,1575420030,30.30,160.0,16.0,1,0,0,25.3
Status,1732152500001,28,10,1,2,1575420030,24.30,44.0,15.0,1,0,0,19.3
Status,1732152500001,28,11,1,21,1575420030,0.00,31.0,2.0,0,0,0,0.0
Status,1732152500001,28,12,1,12,1575420030,0.00,270.0,1.0,0,0,0,0.0
Status,1732152500001,28,13,3,20,1602000000,0.00,105.0,56.0,0,0,0,0.0
Status,1732152500001,28,14,3,11,1602000000,0.00,315.0,31.0,0,0,0,0.0
Status,1732152500001,28,15,3,9,1602000000,0.00,86.0,30.0,0,0,0,0.0
Status,1732152500001,28,16,3,19,1602000000,0.00,30.0,20.0,0,0,0,0.0
Status,1732152500001,28,17,3,8,1602000000,0.00,243.0,19.0,0,0,0,0.0
Status,1732152500001,28,18,3,17,1602000000,28.70,0.0,0.0,0,0,0,23.7
Status,1732152500001,28,19,6,21,1575420030,0.00,353.0,68.0,0,0,0,0.0
Status,1732152500001,28,20,6,19,1575420030,0.00,239.0,43.0,0,0,0,0.0
Status,1732152500001,28,21,6,27,1575420030,0.00,67.0,32.0,0,0,0,0.0
Status,1732152500001,28,22,6,13,1575420030,0.00,117.0,31.0,0,0,0,0.0
Status,1732152500001,28,23,6,4,1575420030,0.00,308.0,24.0,0,0,0,0.0
Status,1732152500001,28,24,6,15,1575420030,0.00,58.0,23.0,0,0,0,0.0
Status,1732152500001,28,25,6,29,1575420030,0.00,190.0,21.0,0,0,0,0.0
Status,1732152500001,28,26,6,26,1575420030,0.00,166.0,9.0,0,0,0,0.0
Status,1732152500001,28,27,6,6,1575420030,0.00,325.0,7.0,0,0,0,0.0
Fix,GPS,37.4251283333,-122.1586683333,22.3,0.0,4.7,0.0,1732152501001,1.5,56.8,31385090000000,68.4,0,,,
Fix,FLP,37.4251786000,-122.1586095000,5.400000095367432,0.6736292,5.114,180.0,1732152501242,1.5,56.8,31385090000000,14.595841,0,,,
Raw,1732152501002,23375000000,,996307.4813242967,-1416187695627000064,0.0,115.41392259194114,1048.2394622669497,0.0,0,15,0.0,16431,350918925990220,487,19.413000106811523,549.9361241564815,0.14999,16,0.0,0.0,1575420030,,,,0,1.212065483295632,1,6.0,19.413000106811523,0.0,0.0,0.0,66.7128,C,31385090000000,
Raw,1732152501002,23375000000,,996307.4813242967,-1416187695627000064,0.0,115.41392259194114,1048.2394622669497,0.0,0,13,0.0,16431,350918929594992,487,24.452999114990234,740.351099879572,0.14999,16,0.0,0.0,1575420030,,,,0,9.240076298926514,1,6.0,24.452999114990234,0.0,0.0,0.0,66.7128,C,31385090000000,
Raw,1732152501002,23375000000,,996307.4813242967,-1416187695627000064,0.0,115.41392259194114,1048.2394622669497,0.0,0,19,0.0,16431,350918932889261,797,17.341999053955078,-13.876130066139263,0.14999,16,0.0,0.0,1575420030,,,,0,0.0,1,6.0,17.341999053955078,0.0,0.0,0.0,66.7128,C,31385090000000,
Raw,1732152501002,23375000000,,996307.4813242967,-1416187695627000064,0.0,115.41392259194114,1048.2394622669497,0.0,0,2,0.0,16431,350918919513622,396,19.292999267578125,706.4712998580369,0.14999,16,0.0,0.0,1575420030,,,,0,0.9772974178707479,1,6.0,19.292999267578125,0.0,0.0,0.0,66.7128,C,31385090000000,
Raw,1732152501002,23375000000,,996307.4813242967,-1416187695627000064,0.0,115.41392259194114,1048.2394622669497,0.0,0,6,0.0,16431,350918921418809,396,25.291000366210938,-344.31312526211974,0.14999,16,0.0,0.0,1575420030,,,,0,10.44003489243222,1,6.0,25.291000366210938,0.0,0.0,0.0,66.7128,C,31385090000000,
Status,1732152501001,28,0,1,17,1575420030,0.00,65.0,76.0,0,0,0,0.0
Status,1732152501001,28,1,1,19,1575420030,22.30,202.0,66.0,1,0,0,17.3
Status,1732152501001,28,2,1,22,1575420030,0.00,23.0,64.0,0,0,0,0.0
Status,1732152501001,28,3,1,14,1575420030,0.00,58.0,50.0,0,0,0,0.0
Status,1732152501001,28,4,2,133,1575420030,0.00,191.0,45.0,0,0,0,0.0
Status,1732152501001,28,5,1,13,1575420030,24.70,229.0,44.0,1,0,0,19.7
Status,1732152501001,28,6,1,30,1575420030,0.00,134.0,32.0,0,0,0,0.0
Status,1732152501001,28,7,1,15,1575420030,24.40,270.0,29.0,1,0,0,19.4
Status,1732152501001,28,8,1,24,1575420030,0.00,313.0,20.0,0,0,0,0.0
Status,1732152501001,28,9,1,6,1575420030,28.70,160.0,16.0,1,0,0,23.7
Status,1732152501001,28,10,1,2,1575420030,30.80,44.0,15.0,1,0,0,25.8
Status,1732152501001,28,11,1,21,1575420030,0.00,31.0,2.0,0,0,0,0.0
Status,1732152501001,28,12,1,12,1575420030,0.00,270.0,1.0,0,0,0,0.0
Status,1732152501001,28,13,3,20,1602000000,0.00,105.0,56.0,0,0,0,0.0
Status,1732152501001,28,14,3,11,1602000000,0.00,315.0,31.0,0,0,0,0.0
Status,1732152501001,28,15,3,9,1602000000,23.10,86.0,30.0,1,0,0,18.1
Status,1732152501001,28,16,3,19,1602000000,0.00,30.0,20.0,0,0,0,0.0
Status,1732152501001,28,17,3,8,1602000000,0.00,243.0,19.0,0,0,0,0.0
Status,1732152501001,28,18,3,17,1602000000,25.30,0.0,0.0,0,0,0,20.3
Status,1732152501001,28,19,6,21,1575420030,0.00,353.0,68.0,0,0,0,0.0
Status,1732152501001,28,20,6,19,1575420030,0.00,239.0,43.0,0,0,0,0.0
Status,1732152501001,28,21,6,27,1575420030,0.00,67.0,32.0,0,0,0,0.0
Status,1732152501001,28,22,6,13,1575420030,0.00,117.0,31.0,0,0,0,0.0
Status,1732152501001,28,23,6,4,1575420030,0.00,308.0,24.0,0,0,0,0.0
Status,1732152501001,28,24,6,15,1575420030,0.00,58.0,23.0,0,0,0,0.0
Status,1732152501001,28,25,6,29,1575420030,0.00,190.0,21.0,0,0,0,0.0
Status,1732152501001,28,26,6,26,1575420030,0.00,166.0,9.0,0,0,0,0.0
Status,1732152501001,28,27,6,6,1575420030,0.00,325.0,7.0,0,0,0,0.0
Fix,GPS,37.4251216667,-122.1586716667,22.3,0.0,4.8,0.0,1732152502001,1.5,61.4,31386090000000,74.2,0,,,
Fix,FLP,37.4251480000,-122.1586392000,5.400000095367432,0.6971701,5.028,180.0,1732152502242,1.5,61.4,31386090000000,14.535409,0,,,
Raw,1732152502002,24375000000,,996275.6884964731,-1416187695627000064,0.0,115.6189263737457,1047.7899753734328,0.0,0,15,0.0,16431,350919925988386,487,19.393999099731445,550.2186377854578,0.14999,16,0.0,0.0,1575420030,,,,0,0.4878220302067371,1,6.0,19.393999099731445,0.0,0.0,0.0,66.7128,C,31386090000000,
Raw,1732152502002,24375000000,,996275.6884964731,-1416187695627000064,0.0,115.6189263737457,1047.7899753734328,0.0,0,13,0.0,16431,350919929592522,487,19.708999633789062,741.6117025450287,0.14999,16,0.0,0.0,1575420030,,,,0,1.6633820412704585,1,6.0,19.708999633789062,0.0,0.0,0.0,66.7128,C,31386090000000,
Raw,1732152502002,24375000000,,996275.6884964731,-1416187695627000064,0.0,115.6189263737457,1047.7899753734328,0.0,0,19,0.0,16431,350919932889306,797,17.341999053955078,-13.391731389520086,0.14999,16,0.0,0.0,1575420030,,,,0,0.0,1,6.0,17.341999053955078,0.0,0.0,0.0,66.7128,C,31386090000000,
Raw,1732152502002,24375000000,,996275.6884964731,-1416187695627000064,0.0,115.6189263737457,1047.7899753734328,0.0,0,2,0.0,16431,350919919511296,396,25.7549991607666,706.87534870382,0.14999,16,0.0,0.0,1575420030,,,,0,11.057958635982011,1,6.0,25.7549991607666,0.0,0.0,0.0,66.7128,C,31386090000000,
Raw,1732152502002,24375000000,,996275.6884964731,-1416187695627000064,0.0,115.6189263737457,1047.7899753734328,0.0,0,6,0.0,16431,350919921419958,487,23.714000701904297,-344.21258924944016,0.14999,16,0.0,0.0,1575420030,,,,0,8.165169638413296,1,6.0,23.714000701904297,0.0,0.0,0.0,66.7128,C,31386090000000,
Raw,1732152502002,24375000000,,996275.6884964731,-1416187695627000064,0.0,115.6189263737457,1047.7899753734328,0.0,0,9,0.0,17,588003,487,5.0,705.7088338914589,0.14999,16,0.0,0.0,1600875010,,,,0,1.0216242205976593,3,6.0,20.0,0.0,0.0,77.40688731571696,66.7128,C,31386090000000,
Status,1732152502001,28,0,1,17,1575420030,0.00,65.0,76.0,0,0,0,0.0
Status,1732152502001,28,1,1,19,1575420030,22.30,202.0,66.0,1,0,0,17.3
Status,1732152502001,28,2,1,22,1575420030,0.00,23.0,64.0,0,0,0,0.0
Status,1732152502001,28,3,1,14,1575420030,0.00,58.0,50.0,0,0,0,0.0
Status,1732152502001,28,4,2,133,1575420030,0.00,191.0,45.0,0,0,0,0.0
Status,1732152502001,28,5,1,13,1575420030,24.70,229.0,44.0,1,0,0,19.7
Status,1732152502001,28,6,1,30,1575420030,23.80,134.0,32.0,1,0,0,18.8
Status,1732152502001,28,7,1,15,1575420030,24.50,270.0,29.0,1,0,0,19.5
Status,1732152502001,28,8,1,24,1575420030,0.00,313.0,20.0,0,0,0,0.0
Status,1732152502001,28,9,1,6,1575420030,25.80,160.0,16.0,1,0,0,20.8
Status,1732152502001,28,10,1,2,1575420030,23.20,44.0,15.0,1,0,0,18.2
Status,1732152502001,28,11,1,21,1575420030,0.00,31.0,2.0,0,0,0,0.0
Status,1732152502001,28,12,1,12,1575420030,0.00,270.0,1.0,0,0,0,0.0
Status,1732152502001,28,13,3,20,1602000000,0.00,105.0,56.0,0,0,0,0.0
Status,1732152502001,28,14,3,11,1602000000,0.00,315.0,31.0,0,0,0,0.0
Status,1732152502001,28,15,3,9,1602000000,19.70,86.0,30.0,1,0,0,14.700001
Status,1732152502001,28,16,3,19,1602000000,0.00,30.0,20.0,0,0,0,0.0
Status,1732152502001,28,17,3,8,1602000000,0.00,243.0,19.0,0,0,0,0.0
Status,1732152502001,28,18,3,17,1602000000,23.50,0.0,0.0,0,0,0,18.5
Status,1732152502001,28,19,6,21,1575420030,0.00,353.0,68.0,0,0,0,0.0
Status,1732152502001,28,20,6,19,1575420030,0.00,239.0,43.0,0,0,0,0.0
Status,1732152502001,28,21,6,27,1575420030,0.00,67.0,32.0,0,0,0,0.0
Status,1732152502001,28,22,6,13,1575420030,0.00,117.0,31.0,0,0,0,0.0
Status,1732152502001,28,23,6,4,1575420030,0.00,308.0,24.0,0,0,0,0.0
Status,1732152502001,28,24,6,15,1575420030,0.00,58.0,23.0,0,0,0,0.0
Status,1732152502001,28,25,6,29,1575420030,0.00,190.0,21.0,0,0,0,0.0
Status,1732152502001,28,26,6,26,1575420030,0.00,166.0,9.0,0,0,0,0.0
Status,1732152502001,28,27,6,6,1575420030,0.00,325.0,7.0,0,0,0,0.0
Fix,GPS,37.4251100000,-122.1586700000,22.400000000000002,0.0,5.1,0.0,1732152503001,2.6,132.6,31387090000000,68.4,0,,,
Fix,FLP,37.4251266000,-122.1586536000,5.400000095367432,0.7226972,4.916,180.0,1732152503242,2.6,132.6,31387090000000,14.262551,0,,,
Raw,1732152503002,25375000000,,12577949.008977404,-1416187695627000064,0.0,109.79883452502654,1047.1737745230403,0.0,0,15,0.0,16431,350920925986543,487,19.461999893188477,550.3497434360038,0.14999,16,0.0,0.0,1575420030,,,,0,3.5353617293115276,1,6.0,19.461999893188477,0.0,0.0,0.0,66.7128,C,31387090000000,
Raw,1732152503002,25375000000,,12577949.008977404,-1416187695627000064,0.0,109.79883452502654,1047.1737745230403,0.0,0,13,0.0,16431,350920929590049,487,19.708999633789062,740.7444632896267,0.14999,16,0.0,0.0,1575420030,,,,0,1.6633820412704585,1,6.0,19.708999633789062,0.0,0.0,0.0,66.7128,C,31387090000000,
Raw,1732152503002,25375000000,,12577949.008977404,-1416187695627000064,0.0,109.79883452502654,1047.1737745230403,0.0,0,19,0.0,16431,350920932889374,797,17.26799964904785,-13.3490361050226,0.14999,16,0.0,0.0,1575420030,,,,0,0.0,1,6.0,17.26799964904785,0.0,0.0,0.0,66.7128,C,31387090000000,
Raw,1732152503002,25375000000,,12577949.008977404,-1416187695627000064,0.0,109.79883452502654,1047.1737745230403,0.0,0,2,0.0,16431,350920919508931,797,18.216999053955078,706.2271144224344,0.14999,16,0.0,0.0,1575420030,,,,0,0.0,1,6.0,18.216999053955078,0.0,0.0,0.0,66.7128,C,31387090000000,
Raw,1732152503002,25375000000,,12577949.008977404,-1416187695627000064,0.0,109.79883452502654,1047.1737745230403,0.0,0,6,0.0,16431,350920921421106,487,20.767000198364258,-344.42992172047303,0.14999,16,0.0,0.0,1575420030,,,,0,3.5353617293115276,1,6.0,20.767000198364258,0.0,0.0,0.0,66.7128,C,31387090000000,
Raw,1732152503002,25375000000,,12577949.008977404,-1416187695627000064,0.0,109.79883452502654,1047.1737745230403,0.0,0,9,0.0,17,585645,797,5.0,706.4354570173302,0.14999,16,0.0,0.0,1600875010,,,,0,0.0,3,6.0,16.0,0.0,0.0,74.80691996319352,66.7128,C,31387090000000,
Raw,1732152503002,25375000000,,12577949.008977404,-1416187695627000064,0.0,109.79883452502654,1047.1737745230403,0.0,0,30,0.0,16431,350920926442809,487,18.844999313354492,864.9388204650375,0.14999,16,0.0,0.0,1575420030,,,,0,0.10171892629900459,1,6.0,18.844999313354492,0.0,0.0,0.0,66.7128,C,31387090000000,
Fix,NLP,37.4256996000,-122.1581155000,5.400000095367432,,26.051,,1732152503409,,,31387257000000,17.510143,0,,,
Fix,FLP,37.4251201000,-122.1586593000,5.400000095367432,0.7229681,4.916,180.0,1732152503409,2.6,132.6,31387257000000,13.874873,0,,,
Status,1732152503001,27,0,1,17,1575420030,0.00,65.0,76.0,0,0,0,0.0
Status,1732152503001,27,1,1,19,1575420030,22.20,202.0,66.0,1,0,0,17.2
Status,1732152503001,27,2,1,22,1575420030,0.00,23.0,64.0,0,0,0,0.0
Status,1732152503001,27,3,1,14,1575420030,0.00,58.0,50.0,0,0,0,0.0
Status,1732152503001,27,4,1,13,1575420030,25.70,229.0,44.0,1,0,0,20.7
Status,1732152503001,27,5,1,30,1575420030,24.90,134.0,32.0,1,0,0,19.9
Status,1732152503001,27,6,1,15,1575420030,24.50,270.0,29.0,1,0,0,19.5
Status,1732152503001,27,7,1,24,1575420030,0.00,313.0,20.0,0,0,0,0.0
Status,1732152503001,27,8,1,6,1575420030,26.20,160.0,16.0,1,0,0,21.2
Status,1732152503001,27,9,1,2,1575420030,23.20,44.0,15.0,1,0,0,18.2
Status,1732152503001,27,10,1,21,1575420030,0.00,31.0,2.0,0,0,0,0.0
Status,1732152503001,27,11,1,12,1575420030,0.00,270.0,1.0,0,0,0,0.0
Status,1732152503001,27,12,3,20,1602000000,0.00,105.0,56.0,0,0,0,0.0
Status,1732152503001,27,13,3,11,1602000000,0.00,315.0,31.0,0,0,0,0.0
Status,1732152503001,27,14,3,9,1602000000,19.70,86.0,30.0,1,0,0,14.700001
Status,1732152503001,27,15,3,19,1602000000,0.00,30.0,20.0,0,0,0,0.0
Status,1732152503001,27,16,3,8,1602000000,0.00,243.0,19.0,0,0,0,0.0
Status,1732152503001,27,17,3,17,1602000000,26.30,0.0,0.0,0,0,0,21.3
Status,1732152503001,27,18,6,21,1575420030,0.00,353.0,68.0,0,0,0,0.0
Status,1732152503001,27,19,6,19,1575420030,0.00,239.0,43.0,0,0,0,0.0
Status,1732152503001,27,20,6,27,1575420030,0.00,67.0,32.0,0,0,0,0.0
Status,1732152503001,27,21,6,13,1575420030,0.00,117.0,31.0,0,0,0,0.0
Status,1732152503001,27,22,6,4,1575420030,0.00,308.0,24.0,0,0,0,0.0
Status,1732152503001,27,23,6,15,1575420030,0.00,58.0,23.0,0,0,0,0.0
Status,1732152503001,27,24,6,29,1575420030,0.00,190.0,21.0,0,0,0,0.0
Status,1732152503001,27,25,6,26,1575420030,0.00,166.0,9.0,0,0,0,0.0
Status,1732152503001,27,26,6,6,1575420030,0.00,325.0,7.0,0,0,0,0.0
Fix,GPS,37.4251100000,-122.1586683333,22.3,0.0,5.1,0.0,1732152504001,2.9,179.9,31388090000000,69.1,0,,,
Fix,FLP,37.4251128000,-122.1586630000,5.400000095367432,0.7166479,4.942,180.0,1732152504242,2.9,179.9,31388090000000,14.90372,0,,,
Raw,1732152504002,26375000000,,12390563.541128175,-1416187695627000064,0.0,110.76074011037292,1047.2839309139938,0.0,0,15,0.0,16431,350921925984708,396,19.527000427246094,550.4194310603197,0.14999,16,0.0,0.0,1575420030,,,,0,3.5353617293115276,1,6.0,19.527000427246094,0.0,0.0,0.0,66.7128,C,31388090000000,
Raw,1732152504002,26375000000,,12390563.541128175,-1416187695627000064,0.0,110.76074011037292,1047.2839309139938,0.0,0,13,0.0,16431,350921929587575,487,20.667999267578125,740.8056025653597,0.14999,16,0.0,0.0,1575420030,,,,0,3.3562648762529985,1,6.0,20.667999267578125,0.0,0.0,0.0,66.7128,C,31388090000000,
Raw,1732152504002,26375000000,,12390563.541128175,-1416187695627000064,0.0,110.76074011037292,1047.2839309139938,0.0,0,19,0.0,16431,350921932889416,1797,17.197999954223633,-12.121000789329441,0.14999,16,0.0,0.0,1575420030,,,,0,0.0,1,6.0,17.197999954223633,0.0,0.0,0.0,66.7128,C,31388090000000,
Raw,1732152504002,26375000000,,12390563.541128175,-1416187695627000064,0.0,110.76074011037292,1047.2839309139938,0.0,0,2,0.0,16431,350921919506574,797,18.216999053955078,706.6306522256391,0.14999,16,0.0,0.0,1575420030,,,,0,0.0,1,6.0,18.216999053955078,0.0,0.0,0.0,66.7128,C,31388090000000,
Raw,1732152504002,26375000000,,12390563.541128175,-1416187695627000064,0.0,110.76074011037292,1047.2839309139938,0.0,0,6,0.0,16431,350921921422251,797,21.238000869750977,-344.392615612256,0.14999,16,0.0,0.0,1575420030,,,,0,4.298515769165824,1,6.0,21.238000869750977,0.0,0.0,0.0,66.7128,C,31388090000000,
Raw,1732152504002,26375000000,,12390563.541128175,-1416187695627000064,0.0,110.76074011037292,1047.2839309139938,0.0,0,9,0.0,17,583286,797,5.0,709.0157394910485,0.14999,16,0.0,0.0,1600875010,,,,0,0.0,3,6.0,17.0,0.0,0.0,72.19213601827265,66.7128,C,31388090000000,
Raw,1732152504002,26375000000,,12390563.541128175,-1416187695627000064,0.0,110.76074011037292,1047.2839309139938,0.0,0,30,0.0,16431,350921926439889,797,19.878000259399414,864.3562319257572,0.14999,16,0.0,0.0,1575420030,,,,0,1.9871172631359642,1,6.0,19.878000259399414,0.0,0.0,0.0,66.7128,C,31388090000000,
Status,1732152504001,27,0,1,17,1575420030,0.00,65.0,76.0,0,0,0,0.0
Status,1732152504001,27,1,1,19,1575420030,22.10,202.0,66.0,1,0,0,17.1
Status,1732152504001,27,2,1,22,1575420030,0.00,23.0,64.0,0,0,0,0.0
Status,1732152504001,27,3,1,14,1575420030,0.00,58.0,50.0,0,0,0,0.0
Status,1732152504001,27,4,1,13,1575420030,25.60,229.0,44.0,1,0,0,20.6
Status,1732152504001,27,5,1,30,1575420030,0.00,134.0,32.0,0,0,0,0.0
Status,1732152504001,27,6,1,15,1575420030,24.60,270.0,29.0,1,0,0,19.6
Status,1732152504001,27,7,1,24,1575420030,0.00,313.0,20.0,0,0,0,0.0
Status,1732152504001,27,8,1,6,1575420030,26.20,160.0,16.0,1,0,0,21.2
Status,1732152504001,27,9,1,2,1575420030,23.20,44.0,15.0,1,0,0,18.2
Status,1732152504001,27,10,1,21,1575420030,0.00,31.0,2.0,0,0,0,0.0
Status,1732152504001,27,11,1,12,1575420030,0.00,270.0,1.0,0,0,0,0.0
Status,1732152504001,27,12,3,20,1602000000,0.00,105.0,56.0,0,0,0,0.0
Status,1732152504001,27,13,3,11,1602000000,0.00,315.0,31.0,0,0,0,0.0
Status,1732152504001,27,14,3,9,1602000000,21.50,86.0,30.0,1,0,0,16.5
Status,1732152504001,27,15,3,19,1602000000,0.00,30.0,20.0,0,0,0,0.0
Status,1732152504001,27,16,3,8,1602000000,0.00,243.0,19.0,0,0,0,0.0
Status,1732152504001,27,17,3,17,1602000000,23.00,0.0,0.0,0,0,0,18.0
Status,1732152504001,27,18,6,21,1575420030,0.00,353.0,68.0,0,0,0,0.0
Status,1732152504001,27,19,6,19,1575420030,0.00,239.0,43.0,0,0,0,0.0
Status,1732152504001,27,20,6,27,1575420030,0.00,67.0,32.0,0,0,0,0.0
Status,1732152504001,27,21,6,13,1575420030,0.00,117.0,31.0,0,0,0,0.0
Status,1732152504001,27,22,6,4,1575420030,0.00,308.0,24.0,0,0,0,0.0
Status,1732152504001,27,23,6,15,1575420030,0.00,58.0,23.0,0,0,0,0.0
Status,1732152504001,27,24,6,29,1575420030,0.00,190.0,21.0,0,0,0,0.0
Status,1732152504001,27,25,6,26,1575420030,0.00,166.0,9.0,0,0,0,0.0
Status,1732152504001,27,26,6,6,1575420030,0.00,325.0,7.0,0,0,0,0.0
Fix,GPS,37.4251150000,-122.1586666667,22.3,0.0,5.1,0.0,1732152505001,3.1,179.9,31389090000000,69.9,0,,,
Raw,1732152505002,27375000000,,12243430.086556748,-1416187695627000064,0.0,111.85211708047888,1047.8735318979793,0.0,0,15,0.0,16431,350922925982859,487,19.610000610351562,550.5785046774246,0.14999,16,0.0,0.0,1575420030,,,,0,4.216957520757036,1,6.0,19.610000610351562,0.0,0.0,0.0,66.7128,C,31389090000000,
Raw,1732152505002,27375000000,,12243430.086556748,-1416187695627000064,0.0,111.85211708047888,1047.8735318979793,0.0,0,13,0.0,16431,350922929585104,487,20.625,741.2835667513338,0.14999,16,0.0,0.0,1575420030,,,,0,1.8805405930346253,1,6.0,20.625,0.0,0.0,0.0,66.7128,C,31389090000000,
Raw,1732152505002,27375000000,,12243430.086556748,-1416187695627000064,0.0,111.85211708047888,1047.8735318979793,0.0,0,19,0.0,16431,350922932889457,1797,17.131000518798828,-12.353292870382134,0.14999,16,0.0,0.0,1575420030,,,,0,0.0,1,6.0,17.131000518798828,0.0,0.0,0.0,66.7128,C,31389090000000,
Raw,1732152505002,27375000000,,12243430.086556748,-1416187695627000064,0.0,111.85211708047888,1047.8735318979793,0.0,0,2,0.0,16431,350922919504216,1797,18.216999053955078,706.8449184412021,0.14999,16,0.0,0.0,1575420030,,,,0,0.0,1,6.0,18.216999053955078,0.0,0.0,0.0,66.7128,C,31389090000000,
Raw,1732152505002,27375000000,,12243430.086556748,-1416187695627000064,0.0,111.85211708047888,1047.8735318979793,0.0,0,6,0.0,16431,350922921423399,487,21.238000869750977,-343.67534412438147,0.14999,16,0.0,0.0,1575420030,,,,0,4.298515769165824,1,6.0,21.238000869750977,0.0,0.0,0.0,66.7128,C,31389090000000,
Raw,1732152505002,27375000000,,12243430.086556748,-1416187695627000064,0.0,111.85211708047888,1047.8735318979793,0.0,0,9,0.0,17,580914,487,5.0,705.9807289225768,0.14999,16,0.0,0.0,1600875010,,,,0,0.0,3,6.0,18.0,0.0,0.0,71.40067195731633,66.7128,C,31389090000000,
Fix,FLP,37.4251105000,-122.1586647000,5.400000095367432,0.695119,4.971,180.0,1732152505242,3.1,179.9,31389090000000,14.438255,0,,,
Status,1732152505001,27,0,1,17,1575420030,0.00,65.0,76.0,0,0,0,0.0
Status,1732152505001,27,1,1,19,1575420030,18.40,202.0,66.0,1,0,0,13.4
Status,1732152505001,27,2,1,22,1575420030,0.00,23.0,64.0,0,0,0,0.0
Status,1732152505001,27,3,1,14,1575420030,0.00,58.0,50.0,0,0,0,0.0
Status,1732152505001,27,4,1,13,1575420030,25.60,229.0,44.0,1,0,0,20.6
Status,1732152505001,27,5,1,30,1575420030,0.00,134.0,32.0,0,0,0,0.0
Status,1732152505001,27,6,1,15,1575420030,24.60,270.0,29.0,1,0,0,19.6
Status,1732152505001,27,7,1,24,1575420030,0.00,313.0,20.0,0,0,0,0.0
Status,1732152505001,27,8,1,6,1575420030,21.90,160.0,16.0,1,0,0,16.9
Status,1732152505001,27,9,1,2,1575420030,18.20,44.0,15.0,1,0,0,13.200001
Status,1732152505001,27,10,1,21,1575420030,0.00,31.0,2.0,0,0,0,0.0
Status,1732152505001,27,11,1,12,1575420030,0.00,270.0,1.0,0,0,0,0.0
Status,1732152505001,27,12,3,20,1602000000,0.00,105.0,56.0,0,0,0,0.0
Status,1732152505001,27,13,3,11,1602000000,0.00,315.0,31.0,0,0,0,0.0
Status,1732152505001,27,14,3,9,1602000000,19.30,86.0,30.0,1,0,0,14.299999
Status,1732152505001,27,15,3,19,1602000000,0.00,30.0,20.0,0,0,0,0.0
Status,1732152505001,27,16,3,8,1602000000,0.00,243.0,19.0,0,0,0,0.0
Status,1732152505001,27,17,3,17,1602000000,27.20,0.0,0.0,0,0,0,22.2
Status,1732152505001,27,18,6,21,1575420030,0.00,353.0,68.0,0,0,0,0.0
Status,1732152505001,27,19,6,19,1575420030,0.00,239.0,43.0,0,0,0,0.0
Status,1732152505001,27,20,6,27,1575420030,0.00,67.0,32.0,0,0,0,0.0
Status,1732152505001,27,21,6,13,1575420030,0.00,117.0,31.0,0,0,0,0.0
Status,1732152505001,27,22,6,4,1575420030,0.00,308.0,24.0,0,0,0,0.0
Status,1732152505001,27,23,6,15,1575420030,0.00,58.0,23.0,0,0,0,0.0
Status,1732152505001,27,24,6,29,1575420030,0.00,190.0,21.0,0,0,0,0.0
Status,1732152505001,27,25,6,26,1575420030,0.00,166.0,9.0,0,0,0,0.0
Status,1732152505001,27,26,6,6,1575420030,0.00,325.0,7.0,0,0,0,0.0
Fix,GPS,37.4251216667,-122.1586550000,22.3,0.0,5.0,0.0,1732152506001,3.3,179.9,31390090000000,53.2,0,,,
Raw,1732152506003,28375000000,,12111596.38312182,-1416187695628000000,0.0,110.25267785477784,1049.9110506682612,0.0,0,15,0.0,16431,350923926981038,797,19.60300064086914,551.8810592927194,0.14999,16,0.0,0.0,1575420030,,,,0,1.3271120610774574,1,6.0,19.60300064086914,0.0,0.0,0.0,66.7128,C,31390090000000,
Raw,1732152506003,28375000000,,12111596.38312182,-1416187695628000000,0.0,110.25267785477784,1049.9110506682612,0.0,0,13,0.0,16431,350923930582628,487,20.61400032043457,742.3951308175871,0.14999,16,0.0,0.0,1575420030,,,,0,2.891668061883502,1,6.0,20.61400032043457,0.0,0.0,0.0,66.7128,C,31390090000000,
Raw,1732152506003,28375000000,,12111596.38312182,-1416187695628000000,0.0,110.25267785477784,1049.9110506682612,0.0,0,19,0.0,16431,350923933889479,797,13.399999618530273,-11.627705326005946,0.14999,16,0.0,0.0,1575420030,,,,0,0.0,1,6.0,13.399999618530273,0.0,0.0,0.0,66.7128,C,31390090000000,
Raw,1732152506003,28375000000,,12111596.38312182,-1416187695628000000,0.0,110.25267785477784,1049.9110506682612,0.0,0,2,0.0,16431,350923920501857,797,13.199999809265137,707.572224946978,0.14999,16,0.0,0.0,1575420030,,,,0,0.0,1,6.0,13.199999809265137,0.0,0.0,0.0,66.7128,C,31390090000000,
Raw,1732152506003,28375000000,,12111596.38312182,-1416187695628000000,0.0,110.25267785477784,1049.9110506682612,0.0,0,6,0.0,16431,350923922424558,487,16.89299964904785,-342.689310698729,0.14999,16,0.0,0.0,1575420030,,,,0,0.0,1,6.0,16.89299964904785,0.0,0.0,0.0,66.7128,C,31390090000000,
Raw,1732152506003,28375000000,,12111596.38312182,-1416187695628000000,0.0,110.25267785477784,1049.9110506682612,0.0,0,9,0.0,17,578574,797,5.0,705.1660496625313,0.14999,16,0.0,0.0,1600875010,,,,0,0.0,3,6.0,16.0,0.0,0.0,70.59318293722258,66.7128,C,31390090000000,
Fix,FLP,37.4251128000,-122.1586601000,5.400000095367432,0.66165775,4.985,180.0,1732152506242,3.3,179.9,31390090000000,11.912328,0,,,
Status,1732152506001,28,0,1,17,1575420030,0.00,65.0,76.0,0,0,0,0.0
Status,1732152506001,28,1,1,19,1575420030,18.40,202.0,66.0,1,0,0,13.4
Status,1732152506001,28,2,1,22,1575420030,0.00,23.0,64.0,0,0,0,0.0
Status,1732152506001,28,3,1,14,1575420030,0.00,58.0,50.0,0,0,0,0.0
Status,1732152506001,28,4,2,135,1575420030,0.00,197.0,45.0,0,0,0,0.0
Status,1732152506001,28,5,1,13,1575420030,29.40,229.0,44.0,1,0,0,24.4
Status,1732152506001,28,6,1,30,1575420030,0.00,134.0,32.0,0,0,0,0.0
Status,1732152506001,28,7,1,15,1575420030,27.20,270.0,29.0,1,0,0,22.2
Status,1732152506001,28,8,1,24,1575420030,0.00,313.0,20.0,0,0,0,0.0
Status,1732152506001,28,9,1,6,1575420030,22.00,160.0,16.0,1,0,0,17.0
Status,1732152506001,28,10,1,2,1575420030,18.20,44.0,15.0,1,0,0,13.200001
Status,1732152506001,28,11,1,21,1575420030,0.00,31.0,2.0,0,0,0,0.0
Status,1732152506001,28,12,1,12,1575420030,0.00,270.0,1.0,0,0,0,0.0
Status,1732152506001,28,13,3,20,1602000000,0.00,105.0,56.0,0,0,0,0.0
Status,1732152506001,28,14,3,11,1602000000,0.00,315.0,31.0,0,0,0,0.0
Status,1732152506001,28,15,3,9,1602000000,0.00,86.0,30.0,0,0,0,0.0
Status,1732152506001,28,16,3,19,1602000000,0.00,30.0,20.0,0,0,0,0.0
Status,1732152506001,28,17,3,8,1602000000,0.00,243.0,19.0,0,0,0,0.0
Status,1732152506001,28,18,3,17,1602000000,34.10,0.0,0.0,0,0,0,29.099998
Status,1732152506001,28,19,6,21,1575420030,0.00,353.0,68.0,0,0,0,0.0
Status,1732152506001,28,20,6,19,1575420030,0.00,239.0,43.0,0,0,0,0.0
Status,1732152506001,28,21,6,27,1575420030,0.00,67.0,32.0,0,0,0,0.0
Status,1732152506001,28,22,6,13,1575420030,0.00,117.0,31.0,0,0,0,0.0
Status,1732152506001,28,23,6,4,1575420030,0.00,308.0,24.0,0,0,0,0.0
Status,1732152506001,28,24,6,15,1575420030,0.00,58.0,23.0,0,0,0,0.0
Status,1732152506001,28,25,6,29,1575420030,0.00,190.0,21.0,0,0,0,0.0
Status,1732152506001,28,26,6,26,1575420030,0.00,166.0,9.0,0,0,0,0.0
Status,1732152506001,28,27,6,6,1575420030,0.00,325.0,7.0,0,0,0,0.0
Fix,GPS,37.4251166667,-122.1586450000,22.3,0.0,5.1,0.0,1732152507001,3.4,179.9,31391090000000,53.8,0,,,
Raw,1732152507003,29375000000,,12057471.43912473,-1416187695628000000,0.0,111.68649550366999,1052.5175883261068,0.0,0,15,0.0,16431,350924926979187,487,22.173999786376953,553.2428483886827,0.14999,16,0.0,0.0,1575420030,,,,0,5.786914634580768,1,6.0,22.173999786376953,0.0,0.0,0.0,66.7128,C,31391090000000,
Raw,1732152507003,29375000000,,12057471.43912473,-1416187695628000000,0.0,111.68649550366999,1052.5175883261068,0.0,0,13,0.0,16431,350924930580149,487,24.395000457763672,742.973259348911,0.14999,16,0.0,0.0,1575420030,,,,0,9.147672346191609,1,6.0,24.395000457763672,0.0,0.0,0.0,66.7128,C,31391090000000,
Raw,1732152507003,29375000000,,12057471.43912473,-1416187695628000000,0.0,111.68649550366999,1052.5175883261068,0.0,0,19,0.0,16431,350924933889516,797,13.399999618530273,-10.750477511118563,0.14999,16,0.0,0.0,1575420030,,,,0,0.0,1,6.0,13.399999618530273,0.0,0.0,0.0,66.7128,C,31391090000000,
Raw,1732152507003,29375000000,,12057471.43912473,-1416187695628000000,0.0,111.68649550366999,1052.5175883261068,0.0,0,2,0.0,16431,350924920499494,1797,13.199999809265137,708.5797221609198,0.14999,16,0.0,0.0,1575420030,,,,0,0.0,1,6.0,13.199999809265137,0.0,0.0,0.0,66.7128,C,31391090000000,
Raw,1732152507003,29375000000,,12057471.43912473,-1416187695628000000,0.0,111.68649550366999,1052.5175883261068,0.0,0,6,0.0,16431,350924922425705,487,17.006000518798828,-342.4657063415077,0.14999,16,0.0,0.0,1575420030,,,,0,0.7360071898431357,1,6.0,17.006000518798828,0.0,0.0,0.0,66.7128,C,31391090000000,
Fix,FLP,37.4251117000,-122.1586530000,5.400000095367432,0.6393757,5.042,180.0,1732152507243,3.4,179.9,31391090000000,14.92956,0,,,
Status,1732152507001,28,0,1,17,1575420030,0.00,65.0,76.0,0,0,0,0.0
Status,1732152507001,28,1,1,19,1575420030,18.40,202.0,66.0,1,0,0,13.4
Status,1732152507001,28,2,1,22,1575420030,0.00,23.0,64.0,0,0,0,0.0
Status,1732152507001,28,3,1,14,1575420030,0.00,58.0,50.0,0,0,0,0.0
Status,1732152507001,28,4,2,135,1575420030,0.00,197.0,45.0,0,0,0,0.0
Status,1732152507001,28,5,1,13,1575420030,29.40,229.0,44.0,1,0,0,24.4
Status,1732152507001,28,6,1,30,1575420030,0.00,134.0,32.0,0,0,0,0.0
Status,1732152507001,28,7,1,15,1575420030,27.20,270.0,29.0,1,0,0,22.2
Status,1732152507001,28,8,1,24,1575420030,0.00,313.0,20.0,0,0,0,0.0
Status,1732152507001,28,9,1,6,1575420030,30.20,160.0,16.0,1,0,0,25.2
Status,1732152507001,28,10,1,2,1575420030,17.60,44.0,15.0,1,0,0,12.6
Status,1732152507001,28,11,1,21,1575420030,0.00,31.0,2.0,0,0,0,0.0
Status,1732152507001,28,12,1,12,1575420030,0.00,270.0,1.0,0,0,0,0.0
Status,1732152507001,28,13,3,20,1602000000,0.00,105.0,56.0,0,0,0,0.0
Status,1732152507001,28,14,3,11,1602000000,0.00,315.0,31.0,0,0,0,0.0
Status,1732152507001,28,15,3,9,1602000000,0.00,86.0,30.0,0,0,0,0.0
Status,1732152507001,28,16,3,19,1602000000,0.00,30.0,20.0,0,0,0,0.0
Status,1732152507001,28,17,3,8,1602000000,24.90,243.0,19.0,1,0,0,19.9
Status,1732152507001,28,18,3,17,1602000000,29.00,0.0,0.0,0,0,0,24.0
Status,1732152507001,28,19,6,21,1575420030,0.00,353.0,68.0,0,0,0,0.0
Status,1732152507001,28,20,6,19,1575420030,0.00,239.0,43.0,0,0,0,0.0
Status,1732152507001,28,21,6,27,1575420030,0.00,67.0,32.0,0,0,0,0.0
Status,1732152507001,28,22,6,13,1575420030,0.00,117.0,31.0,0,0,0,0.0
Status,1732152507001,28,23,6,4,1575420030,0.00,308.0,24.0,0,0,0,0.0
Status,1732152507001,28,24,6,15,1575420030,0.00,58.0,23.0,0,0,0,0.0
Status,1732152507001,28,25,6,29,1575420030,0.00,190.0,21.0,0,0,0,0.0
Status,1732152507001,28,26,6,26,1575420030,0.00,166.0,9.0,0,0,0,0.0
Status,1732152507001,28,27,6,6,1575420030,0.00,325.0,7.0,0,0,0,0.0
Fix,GPS,37.4251200000,-122.1586483333,22.3,0.0,5.1,0.0,1732152508001,3.7,179.9,31392090000000,56.3,0,,,
Raw,1732152508003,30375000000,,12022172.018750384,-1416187695628000000,0.0,117.59850885445333,1056.2267846732639,0.0,0,15,0.0,16431,350925926977356,396,22.180999755859375,554.0508531634164,0.14999,16,0.0,0.0,1575420030,,,,0,6.056266128576916,1,6.0,22.180999755859375,0.0,0.0,0.0,66.7128,C,31392090000000,
Raw,1732152508003,30375000000,,12022172.018750384,-1416187695628000000,0.0,117.59850885445333,1056.2267846732639,0.0,0,13,0.0,16431,350925930577667,487,24.395000457763672,744.5299415008775,0.14999,16,0.0,0.0,1575420030,,,,0,9.147672346191609,1,6.0,24.395000457763672,0.0,0.0,0.0,66.7128,C,31392090000000,
Raw,1732152508003,30375000000,,12022172.018750384,-1416187695628000000,0.0,117.59850885445333,1056.2267846732639,0.0,0,19,0.0,16431,350925933889551,1797,13.399999618530273,-9.880683042824865,0.14999,16,0.0,0.0,1575420030,,,,0,0.0,1,6.0,13.399999618530273,0.0,0.0,0.0,66.7128,C,31392090000000,
Raw,1732152508003,30375000000,,12022172.018750384,-1416187695628000000,0.0,117.59850885445333,1056.2267846732639,0.0,0,2,0.0,16431,350925920497130,1797,12.600000381469727,709.3959500753227,0.14999,16,0.0,0.0,1575420030,,,,0,0.0,1,6.0,12.600000381469727,0.0,0.0,0.0,66.7128,C,31392090000000,
Raw,1732152508003,30375000000,,12022172.018750384,-1416187695628000000,0.0,117.59850885445333,1056.2267846732639,0.0,0,6,0.0,16431,350925922426812,316,25.18400001525879,-341.21142202065556,0.14999,16,0.0,0.0,1575420030,,,,0,10.278432284236384,1,6.0,25.18400001525879,0.0,0.0,0.0,66.7128,C,31392090000000,
Raw,1732152508003,30375000000,,12022172.018750384,-1416187695628000000,0.0,117.59850885445333,1056.2267846732639,0.0,0,8,0.0,17,848619,487,5.0,940.2600371250863,0.14999,16,0.0,0.0,1605374980,,,,0,4.00624431621785,3,6.0,19.0,0.0,0.0,68.50088859943712,66.7128,C,31392090000000,
Fix,FLP,37.4251128000,-122.1586508000,5.400000095367432,0.6117483,5.085,180.0,1732152508243,3.7,179.9,31392090000000,17.204344,0,,,
Fix,NLP,37.4256800000,-122.1580890000,5.400000095367432,,26.306,,1732152508278,,,31392125000000,27.84526,0,,,
Status,1732152508001,28,0,1,17,1575420030,0.00,65.0,76.0,0,0,0,0.0
Status,1732152508001,28,1,1,19,1575420030,16.50,202.0,66.0,1,0,0,11.5
Status,1732152508001,28,2,1,22,1575420030,0.00,23.0,64.0,0,0,0,0.0
Status,1732152508001,28,3,1,14,1575420030,0.00,58.0,50.0,0,0,0,0.0
Status,1732152508001,28,4,2,135,1575420030,0.00,197.0,45.0,0,0,0,0.0
Status,1732152508001,28,5,1,13,1575420030,26.40,229.0,44.0,1,0,0,21.4
Status,1732152508001,28,6,1,30,1575420030,0.00,134.0,32.0,0,0,0,0.0
Status,1732152508001,28,7,1,15,1575420030,27.20,270.0,29.0,1,0,0,22.2
Status,1732152508001,28,8,1,24,1575420030,23.80,313.0,20.0,1,0,0,18.8
Status,1732152508001,28,9,1,6,1575420030,30.20,160.0,16.0,1,0,0,25.2
Status,1732152508001,28,10,1,2,1575420030,17.60,44.0,15.0,1,0,0,12.6
Status,1732152508001,28,11,1,21,1575420030,0.00,31.0,2.0,0,0,0,0.0
Status,1732152508001,28,12,1,12,1575420030,0.00,270.0,1.0,0,0,0,0.0
Status,1732152508001,28,13,3,20,1602000000,0.00,105.0,56.0,0,0,0,0.0
Status,1732152508001,28,14,3,11,1602000000,0.00,315.0,31.0,0,0,0,0.0
Status,1732152508001,28,15,3,9,1602000000,0.00,86.0,30.0,0,0,0,0.0
Status,1732152508001,28,16,3,19,1602000000,0.00,30.0,20.0,0,0,0,0.0
Status,1732152508001,28,17,3,8,1602000000,0.00,243.0,19.0,0,0,0,0.0
Status,1732152508001,28,18,3,17,1602000000,28.30,0.0,0.0,0,0,0,23.3
Status,1732152508001,28,19,6,21,1575420030,0.00,353.0,68.0,0,0,0,0.0
Status,1732152508001,28,20,6,19,1575420030,0.00,239.0,43.0,0,0,0,0.0
Status,1732152508001,28,21,6,27,1575420030,0.00,67.0,32.0,0,0,0,0.0
Status,1732152508001,28,22,6,13,1575420030,0.00,117.0,31.0,0,0,0,0.0
Status,1732152508001,28,23,6,4,1575420030,0.00,308.0,24.0,0,0,0,0.0
Status,1732152508001,28,24,6,15,1575420030,0.00,58.0,23.0,0,0,0,0.0
Status,1732152508001,28,25,6,29,1575420030,0.00,190.0,21.0,0,0,0,0.0
Status,1732152508001,28,26,6,26,1575420030,0.00,166.0,9.0,0,0,0,0.0
Status,1732152508001,28,27,6,6,1575420030,0.00,325.0,7.0,0,0,0,0.0
Fix,GPS,37.4251300000,-122.1586466667,22.3,0.0,5.2,0.0,1732152509003,3.7,179.9,31393090000000,55.2,0,,,
Fix,FLP,37.4251185000,-122.1586486000,7.179279398566644,0.5644471,5.1,180.0,1732152509243,3.7,179.9,31393090000000,17.92857,0,,,
Raw,1732152509003,31375000000,,11949308.2777953,-1416187695628000000,0.0,137.70375436552948,1058.9709166989312,0.0,0,15,0.0,16431,350926926975494,396,22.233999252319336,554.8343743528071,0.14999,16,0.0,0.0,1575420030,,,,0,7.461254632190892,1,6.0,22.233999252319336,0.0,0.0,0.0,66.7128,C,31393090000000,
Raw,1732152509003,31375000000,,11949308.2777953,-1416187695628000000,0.0,137.70375436552948,1058.9709166989312,0.0,0,13,0.0,16431,350926930575173,487,21.41699981689453,744.7229762202323,0.14999,16,0.0,0.0,1575420030,,,,0,4.617299791194779,1,6.0,21.41699981689453,0.0,0.0,0.0,66.7128,C,31393090000000,
Raw,1732152509003,31375000000,,11949308.2777953,-1416187695628000000,0.0,137.70375436552948,1058.9709166989312,0.0,0,19,0.0,16431,350926933889593,797,11.5,-8.656085649931285,0.14999,16,0.0,0.0,1575420030,,,,0,0.0,1,6.0,11.5,0.0,0.0,0.0,66.7128,C,31393090000000,
Raw,1732152509003,31375000000,,11949308.2777953,-1416187695628000000,0.0,137.70375436552948,1058.9709166989312,0.0,0,2,0.0,16431,350926920494762,1797,12.600000381469727,710.5628925736991,0.14999,16,0.0,0.0,1575420030,,,,0,0.0,1,6.0,12.600000381469727,0.0,0.0,0.0,66.7128,C,31393090000000,
Raw,1732152509003,31375000000,,11949308.2777953,-1416187695628000000,0.0,137.70375436552948,1058.9709166989312,0.0,0,6,0.0,16431,350926922427950,487,25.18400001525879,-340.7661181012776,0.14999,16,0.0,0.0,1575420030,,,,0,10.278432284236384,1,6.0,25.18400001525879,0.0,0.0,0.0,66.7128,C,31393090000000,
Raw,1732152509003,31375000000,,11949308.2777953,-1416187695628000000,0.0,137.70375436552948,1058.9709166989312,0.0,0,24,0.0,16431,350926924605211,797,18.844999313354492,-305.3235034168362,0.14999,16,0.0,0.0,1575420030,,,,0,0.10171892629900459,1,6.0,18.844999313354492,0.0,0.0,0.0,66.7128,C,31393090000000,
Status,1732152509003,28,0,1,17,1575420030,0.00,65.0,76.0,0,0,0,0.0
Status,1732152509003,28,1,1,19,1575420030,16.50,202.0,66.0,1,0,0,11.5
Status,1732152509003,28,2,1,22,1575420030,0.00,23.0,64.0,0,0,0,0.0
Status,1732152509003,28,3,1,14,1575420030,0.00,58.0,50.0,0,0,0,0.0
Status,1732152509003,28,4,2,135,1575420030,0.00,197.0,45.0,0,0,0,0.0
Status,1732152509003,28,5,1,13,1575420030,29.00,229.0,44.0,1,0,0,24.0
Status,1732152509003,28,6,1,30,1575420030,0.00,134.0,32.0,0,0,0,0.0
Status,1732152509003,28,7,1,15,1575420030,27.30,270.0,29.0,1,0,0,22.3
Status,1732152509003,28,8,1,24,1575420030,0.00,313.0,20.0,0,0,0,0.0
Status,1732152509003,28,9,1,6,1575420030,30.20,160.0,16.0,1,0,0,25.2
Status,1732152509003,28,10,1,2,1575420030,17.60,44.0,15.0,1,0,0,12.6
Status,1732152509003,28,11,1,21,1575420030,0.00,31.0,2.0,0,0,0,0.0
Status,1732152509003,28,12,1,12,1575420030,0.00,270.0,1.0,0,0,0,0.0
Status,1732152509003,28,13,3,20,1602000000,0.00,105.0,56.0,0,0,0,0.0
Status,1732152509003,28,14,3,11,1602000000,0.00,315.0,31.0,0,0,0,0.0
Status,1732152509003,28,15,3,9,1602000000,0.00,86.0,30.0,0,0,0,0.0
Status,1732152509003,28,16,3,19,1602000000,0.00,30.0,20.0,0,0,0,0.0
Status,1732152509003,28,17,3,8,1602000000,0.00,243.0,19.0,0,0,0,0.0
Status,1732152509003,28,18,3,17,1602000000,24.60,0.0,0.0,0,0,0,19.6
Status,1732152509003,28,19,6,21,1575420030,0.00,353.0,68.0,0,0,0,0.0
Status,1732152509003,28,20,6,19,1575420030,0.00,239.0,43.0,0,0,0,0.0
Status,1732152509003,28,21,6,27,1575420030,0.00,67.0,32.0,0,0,0,0.0
Status,1732152509003,28,22,6,13,1575420030,0.00,117.0,31.0,0,0,0,0.0
Status,1732152509003,28,23,6,4,1575420030,0.00,308.0,24.0,0,0,0,0.0
Status,1732152509003,28,24,6,15,1575420030,0.00,58.0,23.0,0,0,0,0.0
Status,1732152509003,28,25,6,29,1575420030,0.00,190.0,21.0,0,0,0,0.0
Status,1732152509003,28,26,6,26,1575420030,0.00,166.0,9.0,0,0,0,0.0
Status,1732152509003,28,27,6,6,1575420030,0.00,325.0,7.0,0,0,0,0.0
Fix,GPS,37.4251316667,-122.1586533333,22.3,0.0,5.3,0.0,1732152510003,4.1,179.9,31394090000000,55.7,0,,,
Raw,1732152510003,32375000000,,11927349.753408406,-1416187695628999936,0.0,139.6864797879605,1060.508075200739,0.0,0,15,0.0,16431,350927927973651,396,22.325000762939453,554.7137218459084,0.14999,16,0.0,0.0,1575420030,,,,0,8.670305542697765,1,6.0,22.325000762939453,0.0,0.0,0.0,66.7128,C,31394090000000,
Raw,1732152510003,32375000000,,11927349.753408406,-1416187695628999936,0.0,139.6864797879605,1060.508075200739,0.0,0,13,0.0,16431,350927931572671,487,23.996999740600586,744.7560081541579,0.14999,16,0.0,0.0,1575420030,,,,0,8.571601189187518,1,6.0,23.996999740600586,0.0,0.0,0.0,66.7128,C,31394090000000,
Raw,1732152510003,32375000000,,11927349.753408406,-1416187695628999936,0.0,139.6864797879605,1060.508075200739,0.0,0,19,0.0,16431,350927934889620,797,11.5,-7.951311476017419,0.14999,16,0.0,0.0,1575420030,,,,0,0.0,1,6.0,11.5,0.0,0.0,0.0,66.7128,C,31394090000000,
Raw,1732152510003,32375000000,,11927349.753408406,-1416187695628999936,0.0,139.6864797879605,1060.508075200739,0.0,0,2,0.0,16431,350927921492390,1797,12.600000381469727,711.4451843559534,0.14999,16,0.0,0.0,1575420030,,,,0,0.0,1,6.0,12.600000381469727,0.0,0.0,0.0,66.7128,C,31394090000000,
Raw,1732152510003,32375000000,,11927349.753408406,-1416187695628999936,0.0,139.6864797879605,1060.508075200739,0.0,0,6,0.0,16431,350927923429086,797,25.18400001525879,-340.5225366250857,0.14999,16,0.0,0.0,1575420030,,,,0,10.278432284236384,1,6.0,25.18400001525879,0.0,0.0,0.0,66.7128,C,31394090000000,
Fix,FLP,37.4251218000,-122.1586507000,7.515795406668308,0.5327193,5.128,180.0,1732152510242,4.1,179.9,31394090000000,19.797382,0,,,
Status,1732152510003,28,0,1,17,1575420030,0.00,65.0,76.0,0,0,0,0.0
Status,1732152510003,28,1,1,19,1575420030,18.40,202.0,66.0,1,0,0,13.4
Status,1732152510003,28,2,1,22,1575420030,0.00,23.0,64.0,0,0,0,0.0
Status,1732152510003,28,3,1,14,1575420030,0.00,58.0,50.0,0,0,0,0.0
Status,1732152510003,28,4,2,135,1575420030,0.00,197.0,45.0,0,0,0,0.0
Status,1732152510003,28,5,1,13,1575420030,27.80,229.0,44.0,1,0,0,22.8
Status,1732152510003,28,6,1,30,1575420030,0.00,134.0,32.0,0,0,0,0.0
Status,1732152510003,28,7,1,15,1575420030,29.80,270.0,29.0,1,0,0,24.8
Status,1732152510003,28,8,1,24,1575420030,0.00,313.0,20.0,0,0,0,0.0
Status,1732152510003,28,9,1,6,1575420030,23.80,160.0,16.0,1,0,0,18.8
Status,1732152510003,28,10,1,2,1575420030,17.80,44.0,15.0,1,0,0,12.799999
Status,1732152510003,28,11,1,21,1575420030,0.00,31.0,2.0,0,0,0,0.0
Status,1732152510003,28,12,1,12,1575420030,0.00,270.0,1.0,0,0,0,0.0
Status,1732152510003,28,13,3,20,1602000000,0.00,105.0,56.0,0,0,0,0.0
Status,1732152510003,28,14,3,11,1602000000,0.00,315.0,31.0,0,0,0,0.0
Status,1732152510003,28,15,3,9,1602000000,0.00,86.0,30.0,0,0,0,0.0
Status,1732152510003,28,16,3,19,1602000000,0.00,30.0,20.0,0,0,0,0.0
Status,1732152510003,28,17,3,8,1602000000,0.00,243.0,19.0,0,0,0,0.0
Status,1732152510003,28,18,3,17,1602000000,28.70,0.0,0.0,0,0,0,23.7
Status,1732152510003,28,19,6,21,1575420030,0.00,353.0,68.0,0,0,0,0.0
Status,1732152510003,28,20,6,19,1575420030,0.00,239.0,43.0,0,0,0,0.0
Status,1732152510003,28,21,6,27,1575420030,0.00,67.0,32.0,0,0,0,0.0
Status,1732152510003,28,22,6,13,1575420030,0.00,117.0,31.0,0,0,0,0.0
Status,1732152510003,28,23,6,4,1575420030,0.00,308.0,24.0,0,0,0,0.0
Status,1732152510003,28,24,6,15,1575420030,0.00,58.0,23.0,0,0,0,0.0
Status,1732152510003,28,25,6,29,1575420030,0.00,190.0,21.0,0,0,0,0.0
Status,1732152510003,28,26,6,26,1575420030,0.00,166.0,9.0,0,0,0,0.0
Status,1732152510003,28,27,6,6,1575420030,0.00,325.0,7.0,0,0,0,0.0
Fix,GPS,37.4251283333,-122.1586550000,22.3,0.0,5.4,0.0,1732152511003,4.3,179.9,31395090000000,56.3,0,,,
Raw,1732152511003,33375000000,,11878006.450715981,-1416187695628999936,0.0,142.07348676681227,1064.6902103623736,0.0,0,15,0.0,16431,350928927971793,396,24.799999237060547,555.863288896622,0.14999,16,0.0,0.0,1575420030,,,,0,9.731440128741255,1,6.0,24.799999237060547,0.0,0.0,0.0,66.7128,C,31395090000000,
Raw,1732152511003,33375000000,,11878006.450715981,-1416187695628999936,0.0,142.07348676681227,1064.6902103623736,0.0,0,13,0.0,16431,350928931570220,396,22.820999145507812,746.0373777316609,0.14999,16,0.0,0.0,1575420030,,,,0,6.817560964762867,1,6.0,22.820999145507812,0.0,0.0,0.0,66.7128,C,31395090000000,
