# 
# Header Description:
# 
# Version: v3.1.0.3 Platform: 13 Manufacturer: samsung Model: SM-S135DL GNSS Hardware Model Name: MediaTek,MT6631,MTK_MNLD_default,MNL_VER_default
# 
# Raw,utcTimeMillis,TimeNanos,LeapSecond,TimeUncertaintyNanos,FullBiasNanos,BiasNanos,BiasUncertaintyNanos,DriftNanosPerSecond,DriftUncertaintyNanosPerSecond,HardwareClockDiscontinuityCount,Svid,TimeOffsetNanos,State,ReceivedSvTimeNanos,ReceivedSvTimeUncertaintyNanos,Cn0DbHz,PseudorangeRateMetersPerSecond,PseudorangeRateUncertaintyMetersPerSecond,AccumulatedDeltaRangeState,AccumulatedDeltaRangeMeters,AccumulatedDeltaRangeUncertaintyMeters,CarrierFrequencyHz,CarrierCycles,CarrierPhase,CarrierPhaseUncertainty,MultipathIndicator,SnrInDb,ConstellationType,AgcDb,BasebandCn0DbHz,FullInterSignalBiasNanos,FullInterSignalBiasUncertaintyNanos,SatelliteInterSignalBiasNanos,SatelliteInterSignalBiasUncertaintyNanos,CodeType,ChipsetElapsedRealtimeNanos,IsFullTracking
# 
# UncalAccel,utcTimeMillis,elapsedRealtimeNanos,UncalAccelXMps2,UncalAccelYMps2,UncalAccelZMps2,BiasXMps2,BiasYMps2,BiasZMps2
# 
# Accel,utcTimeMillis,elapsedRealtimeNanos,AccelXMps2,AccelYMps2,AccelZMps2
# 
# UncalGyro,utcTimeMillis,elapsedRealtimeNanos,UncalGyroXRadPerSec,UncalGyroYRadPerSec,UncalGyroZRadPerSec,DriftXRadPerSec,DriftYRadPerSec,DriftZRadPerSec
# 
# Gyro,utcTimeMillis,elapsedRealtimeNanos,GyroXRadPerSec,GyroYRadPerSec,GyroZRadPerSec
# 
# UncalMag,utcTimeMillis,elapsedRealtimeNanos,UncalMagXMicroT,UncalMagYMicroT,UncalMagZMicroT,BiasXMicroT,BiasYMicroT,BiasZMicroT
# 
# Mag,utcTimeMillis,elapsedRealtimeNanos,MagXMicroT,MagYMicroT,MagZMicroT
# 
# Pressure,utcTimeMillis,elapsedRealtimeNanos,PressureHpa
# 
# OrientationDeg,utcTimeMillis,elapsedRealtimeNanos,yawDeg,rollDeg,pitchDeg
# 
# Fix,Provider,LatitudeDegrees,LongitudeDegrees,AltitudeMeters,SpeedMps,AccuracyMeters,BearingDegrees,UnixTimeMillis,SpeedAccuracyMps,BearingAccuracyDegrees,elapsedRealtimeNanos,VerticalAccuracyMeters,MockLocation,NumberOfUsedSignals,VerticalSpeedAccuracyMps,SolutionType
# 
# Nav,Svid,Type,Status,MessageId,Sub-messageId,Data(Bytes)
# 
# Status,UnixTimeMillis,SignalCount,SignalIndex,ConstellationType,Svid,CarrierFrequencyHz,Cn0DbHz,AzimuthDegrees,ElevationDegrees,UsedInFix,HasAlmanacData,HasEphemerisData,BasebandCn0DbHz
# 
# Agc,utcTimeMillis,TimeNanos,LeapSecond,TimeUncertaintyNanos,FullBiasNanos,BiasNanos,BiasUncertaintyNanos,DriftNanosPerSecond,DriftUncertaintyNanosPerSecond,HardwareClockDiscontinuityCount,AgcDb,CarrierFrequencyHz,ConstellationType
# 
Fix,GPS,37.4249733333,-122.1584816667,-0.8000000000000007,0.0,6.1,0.0,1732151195707,2.2,179.9,30079796000000,80.8,0,,,
Raw,1732151195706,14514000000,,707059.9821427129,-1416186399192999936,0.0,191.5435040133,1412.776045540364,0.0,0,13,0.0,16431,349613636719867,487,23.517000198364258,713.1054223176532,0.14999,16,0.0,0.0,1575420030,,,,0,7.889845459679577,1,6.0,23.517000198364258,0.0,0.0,0.0,66.7128,C,30079796000000,
Raw,1732151195706,14514000000,,707059.9821427129,-1416186399192999936,0.0,191.5435040133,1412.776045540364,0.0,0,15,0.0,16431,349613632250777,797,17.06800079345703,506.6332564917953,0.14999,16,0.0,0.0,1575420030,,,,0,0.0,1,6.0,17.06800079345703,0.0,0.0,0.0,66.7128,C,30079796000000,
Raw,1732151195706,14514000000,,707059.9821427129,-1416186399192999936,0.0,191.5435040133,1412.776045540364,0.0,0,30,0.0,16431,349613634211111,487,18.517000198364258,884.7280616004134,0.14999,16,0.0,0.0,1575420030,,,,0,0.0,1,6.0,18.517000198364258,0.0,0.0,0.0,66.7128,C,30079796000000,
Raw,1732151195706,14514000000,,707059.9821427129,-1416186399192999936,0.0,191.5435040133,1412.776045540364,0.0,0,7,0.0,16431,349613625550898,487,21.288000106811523,1034.5637013923283,0.14999,16,0.0,0.0,1575420030,,,,0,4.368020278565953,1,6.0,21.288000106811523,0.0,0.0,0.0,66.7128,C,30079796000000,
Raw,1732151195706,14514000000,,707059.9821427129,-1416186399192999936,0.0,191.5435040133,1412.776045540364,0.0,0,11,0.0,17,991768,797,17.0,-50.76809492316398,0.14999,16,0.0,0.0,1602000000,,,,0,0.0,3,6.0,17.0,0.0,0.0,108.67631620913818,66.7128,C,30079796000000,
Fix,FLP,37.4249672000,-122.1584843000,2.520843997447214,0.0017366225,17.482,,1732151195948,2.2,,30079796000000,10.067602,0,,,
Status,1732151195707,26,0,1,17,1575420030,0.00,115.0,80.0,0,0,0,0.0
Status,1732151195707,26,1,1,22,1575420030,0.00,0.0,68.0,0,0,0,0.0
Status,1732151195707,26,2,1,14,1575420030,0.00,46.0,56.0,0,0,0,0.0
Status,1732151195707,26,3,1,19,1575420030,0.00,198.0,55.0,0,0,0,0.0
Status,1732151195707,26,4,1,13,1575420030,28.50,242.0,51.0,1,0,0,23.5
Status,1732151195707,26,5,1,30,1575420030,23.50,127.0,41.0,1,0,0,18.5
Status,1732151195707,26,6,1,15,1575420030,22.10,281.0,30.0,1,0,0,17.1
Status,1732151195707,26,7,1,2,1575420030,0.00,52.0,19.0,0,0,0,0.0
Status,1732151195707,26,8,1,24,1575420030,0.00,312.0,12.0,0,0,0,0.0
Status,1732151195707,26,9,1,7,1575420030,25.90,129.0,9.0,1,0,0,20.9
Status,1732151195707,26,10,1,21,1575420030,0.00,37.0,7.0,0,0,0,0.0
Status,1732151195707,26,11,1,6,1575420030,0.00,164.0,7.0,0,0,0,0.0
Status,1732151195707,26,12,3,20,1602000000,0.00,122.0,48.0,0,0,0,0.0
Status,1732151195707,26,13,3,9,1602000000,0.00,74.0,36.0,0,0,0,0.0
Status,1732151195707,26,14,3,8,1602000000,0.00,252.0,27.0,0,0,0,0.0
Status,1732151195707,26,15,3,19,1602000000,0.00,38.0,27.0,0,0,0,0.0
Status,1732151195707,26,16,3,11,1602000000,24.60,305.0,24.0,0,0,0,19.6
Status,1732151195707,26,17,6,21,1575420030,0.00,332.0,68.0,0,0,0,0.0
Status,1732151195707,26,18,6,19,1575420030,0.00,249.0,49.0,0,0,0,0.0
Status,1732151195707,26,19,6,27,1575420030,0.00,61.0,37.0,0,0,0,0.0
Status,1732151195707,26,20,6,29,1575420030,0.00,192.0,29.0,0,0,0,0.0
Status,1732151195707,26,21,6,13,1575420030,0.00,123.0,25.0,0,0,0,0.0
Status,1732151195707,26,22,6,15,1575420030,0.00,67.0,23.0,0,0,0,0.0
Status,1732151195707,26,23,6,4,1575420030,0.00,314.0,21.0,0,0,0,0.0
Status,1732151195707,26,24,6,26,1575420030,0.00,169.0,3.0,0,0,0,0.0
Status,1732151195707,26,25,6,6,1575420030,0.00,329.0,2.0,0,0,0,0.0
Fix,GPS,37.4249716667,-122.1584800000,-0.8000000000000007,0.0,6.0,0.0,1732151196707,2.2,179.9,30080796000000,81.2,0,,,
Raw,1732151196706,15514000000,,707057.3761732192,-1416186399192999936,0.0,174.9542941295603,1412.4697478587016,0.0,0,13,0.0,16431,349614636717488,487,23.517000198364258,712.7953123894479,0.14999,16,0.0,0.0,1575420030,,,,0,7.889845459679577,1,6.0,23.517000198364258,0.0,0.0,0.0,66.7128,C,30080796000000,
Raw,1732151196706,15514000000,,707057.3761732192,-1416186399192999936,0.0,174.9542941295603,1412.4697478587016,0.0,0,15,0.0,16431,349614632249086,487,17.06800079345703,506.83539706072736,0.14999,16,0.0,0.0,1575420030,,,,0,0.0,1,6.0,17.06800079345703,0.0,0.0,0.0,66.7128,C,30080796000000,
Raw,1732151196706,15514000000,,707057.3761732192,-1416186399192999936,0.0,174.9542941295603,1412.4697478587016,0.0,0,30,0.0,16431,349614634208170,487,18.503000259399414,884.0306278562608,0.14999,16,0.0,0.0,1575420030,,,,0,0.0,1,6.0,18.503000259399414,0.0,0.0,0.0,66.7128,C,30080796000000,
Raw,1732151196706,15514000000,,707057.3761732192,-1416186399192999936,0.0,174.9542941295603,1412.4697478587016,0.0,0,7,0.0,16431,349614625547443,797,20.9060001373291,1033.2958512139428,0.14999,16,0.0,0.0,1575420030,,,,0,0.3833990272870773,1,6.0,20.9060001373291,0.0,0.0,0.0,66.7128,C,30080796000000,
Raw,1732151196706,15514000000,,707057.3761732192,-1416186399192999936,0.0,174.9542941295603,1412.4697478587016,0.0,0,11,0.0,17,991938,487,20.0,-52.27098817334777,0.14999,16,0.0,0.0,1602000000,,,,0,3.5441110522755164,3,6.0,20.0,0.0,0.0,108.67631620913818,66.7128,C,30080796000000,
Fix,FLP,37.4249697000,-122.1584820000,2.56668556389907,0.013683185,13.655,,1732151196949,2.2,,30080796000000,11.317425,0,,,
Status,1732151196707,26,0,1,17,1575420030,0.00,115.0,80.0,0,0,0,0.0
Status,1732151196707,26,1,1,22,1575420030,0.00,0.0,68.0,0,0,0,0.0
Status,1732151196707,26,2,1,14,1575420030,0.00,46.0,56.0,0,0,0,0.0
Status,1732151196707,26,3,1,19,1575420030,0.00,198.0,55.0,0,0,0,0.0
Status,1732151196707,26,4,1,13,1575420030,25.50,242.0,51.0,1,0,0,20.5
Status,1732151196707,26,5,1,30,1575420030,23.60,127.0,41.0,1,0,0,18.6
Status,1732151196707,26,6,1,15,1575420030,24.90,281.0,30.0,1,0,0,19.9
Status,1732151196707,26,7,1,2,1575420030,0.00,52.0,19.0,0,0,0,0.0
Status,1732151196707,26,8,1,24,1575420030,0.00,312.0,12.0,0,0,0,0.0
Status,1732151196707,26,9,1,7,1575420030,0.00,129.0,9.0,0,0,0,0.0
Status,1732151196707,26,10,1,21,1575420030,0.00,37.0,7.0,0,0,0,0.0
Status,1732151196707,26,11,1,6,1575420030,0.00,164.0,7.0,0,0,0,0.0
Status,1732151196707,26,12,3,20,1602000000,0.00,122.0,48.0,0,0,0,0.0
Status,1732151196707,26,13,3,9,1602000000,0.00,74.0,36.0,0,0,0,0.0
Status,1732151196707,26,14,3,8,1602000000,0.00,252.0,27.0,0,0,0,0.0
Status,1732151196707,26,15,3,19,1602000000,0.00,38.0,27.0,0,0,0,0.0
Status,1732151196707,26,16,3,11,1602000000,24.50,305.0,24.0,0,0,0,19.5
Status,1732151196707,26,17,6,21,1575420030,0.00,332.0,68.0,0,0,0,0.0
Status,1732151196707,26,18,6,19,1575420030,0.00,249.0,49.0,0,0,0,0.0
Status,1732151196707,26,19,6,27,1575420030,0.00,61.0,37.0,0,0,0,0.0
Status,1732151196707,26,20,6,29,1575420030,0.00,192.0,29.0,0,0,0,0.0
Status,1732151196707,26,21,6,13,1575420030,0.00,123.0,25.0,0,0,0,0.0
Status,1732151196707,26,22,6,15,1575420030,0.00,67.0,23.0,0,0,0,0.0
Status,1732151196707,26,23,6,4,1575420030,0.00,314.0,21.0,0,0,0,0.0
Status,1732151196707,26,24,6,26,1575420030,0.00,169.0,3.0,0,0,0,0.0
Status,1732151196707,26,25,6,6,1575420030,0.00,329.0,2.0,0,0,0,0.0
Fix,GPS,37.4249633333,-122.1584716667,-0.6999999999999993,0.0,34.7,0.0,1732151198000,2.3,179.9,30082089000000,81.7,0,,,
Fix,FLP,37.4249697000,-122.1584818000,2.097917934719945,0.012007095,18.916,,1732151198241,2.3,,30082089000000,10.133914,0,,,
Status,1732151198000,26,0,1,17,1575420030,0.00,115.0,80.0,0,0,0,0.0
Status,1732151198000,26,1,1,22,1575420030,0.00,0.0,68.0,0,0,0,0.0
Status,1732151198000,26,2,1,14,1575420030,0.00,46.0,56.0,0,0,0,0.0
Status,1732151198000,26,3,1,19,1575420030,0.00,198.0,55.0,0,0,0,0.0
Status,1732151198000,26,4,1,13,1575420030,25.50,242.0,51.0,1,0,0,20.5
Status,1732151198000,26,5,1,30,1575420030,23.70,127.0,41.0,1,0,0,18.7
Status,1732151198000,26,6,1,15,1575420030,24.90,281.0,30.0,1,0,0,19.9
Status,1732151198000,26,7,1,2,1575420030,0.00,52.0,19.0,0,0,0,0.0
Status,1732151198000,26,8,1,24,1575420030,0.00,312.0,12.0,0,0,0,0.0
Status,1732151198000,26,9,1,7,1575420030,27.10,129.0,9.0,1,0,0,22.1
Status,1732151198000,26,10,1,21,1575420030,0.00,37.0,7.0,0,0,0,0.0
Status,1732151198000,26,11,1,6,1575420030,0.00,164.0,7.0,0,0,0,0.0
Status,1732151198000,26,12,3,20,1602000000,0.00,122.0,48.0,0,0,0,0.0
Status,1732151198000,26,13,3,9,1602000000,0.00,74.0,36.0,0,0,0,0.0
Status,1732151198000,26,14,3,8,1602000000,0.00,252.0,27.0,0,0,0,0.0
Status,1732151198000,26,15,3,19,1602000000,0.00,38.0,27.0,0,0,0,0.0
Status,1732151198000,26,16,3,11,1602000000,24.60,305.0,24.0,0,0,0,19.6
Status,1732151198000,26,17,6,21,1575420030,0.00,332.0,68.0,0,0,0,0.0
Status,1732151198000,26,18,6,19,1575420030,0.00,249.0,49.0,0,0,0,0.0
Status,1732151198000,26,19,6,27,1575420030,0.00,61.0,37.0,0,0,0,0.0
Status,1732151198000,26,20,6,29,1575420030,0.00,192.0,29.0,0,0,0,0.0
Status,1732151198000,26,21,6,13,1575420030,0.00,123.0,25.0,0,0,0,0.0
Status,1732151198000,26,22,6,15,1575420030,0.00,67.0,23.0,0,0,0,0.0
Status,1732151198000,26,23,6,4,1575420030,0.00,314.0,21.0,0,0,0,0.0
Status,1732151198000,26,24,6,26,1575420030,0.00,169.0,3.0,0,0,0,0.0
Status,1732151198000,26,25,6,6,1575420030,0.00,329.0,2.0,0,0,0,0.0
Fix,GPS,37.4249616667,-122.1584683333,-0.6999999999999993,0.0,5.8,0.0,1732151199000,2.3,179.9,30083089000000,85.3,0,,,
Fix,FLP,37.4249649000,-122.1584742000,1.8748606476080978,0.010877236,16.293,,1732151199241,2.3,,30083089000000,11.5482435,0,,,
Raw,1732151198999,17807000000,,707054.8223231153,-1416186399192999936,0.0,159.91502532049319,1406.384658969183,0.0,0,13,0.0,16431,349616929712021,487,20.5049991607666,711.6531322269118,0.14999,16,0.0,0.0,1575420030,,,,0,3.0427308196924203,1,6.0,20.5049991607666,0.0,0.0,0.0,66.7128,C,30083089000000,
Raw,1732151198999,17807000000,,707054.8223231153,-1416186399192999936,0.0,159.91502532049319,1406.384658969183,0.0,0,15,0.0,16431,349616925245159,797,19.913000106811523,505.1135552391324,0.14999,16,0.0,0.0,1575420030,,,,0,2.0316033508435427,1,6.0,19.913000106811523,0.0,0.0,0.0,66.7128,C,30083089000000,
Raw,1732151198999,17807000000,,707054.8223231153,-1416186399192999936,0.0,159.91502532049319,1406.384658969183,0.0,0,30,0.0,16431,349616927201440,487,18.674999237060547,882.2229308815088,0.14999,16,0.0,0.0,1575420030,,,,0,2.9467531620570457,1,6.0,18.674999237060547,0.0,0.0,0.0,66.7128,C,30083089000000,
Raw,1732151198999,17807000000,,707054.8223231153,-1416186399192999936,0.0,159.91502532049319,1406.384658969183,0.0,0,11,0.0,17,992354,396,21.0,-54.657799213812936,0.14999,16,0.0,0.0,1602000000,,,,0,4.322834654780653,3,6.0,21.0,0.0,0.0,108.67631620913818,66.7128,C,30083089000000,
Raw,1732151198999,17807000000,,707054.8223231153,-1416186399192999936,0.0,159.91502532049319,1406.384658969183,0.0,0,7,0.0,16431,349616918539467,396,22.110000610351562,1032.3571124559926,0.14999,16,0.0,0.0,1575420030,,,,0,5.73033667651525,1,6.0,22.110000610351562,0.0,0.0,0.0,66.7128,C,30083089000000,
Fix,FLP,37.4249635000,-122.1584718000,2.03384365720237,0.016536828,14.544,,1732151199668,2.3,,30083516000000,9.332472,0,,,
Fix,NLP,37.4257108000,-122.1580834000,5.400000095367432,,23.603,,1732151199668,,,30083516000000,25.87828,0,,,
Status,1732151199000,26,0,1,17,1575420030,0.00,115.0,80.0,0,0,0,0.0
Status,1732151199000,26,1,1,22,1575420030,0.00,1.0,68.0,0,0,0,0.0
Status,1732151199000,26,2,1,14,1575420030,0.00,46.0,56.0,0,0,0,0.0
Status,1732151199000,26,3,1,19,1575420030,0.00,198.0,55.0,0,0,0,0.0
Status,1732151199000,26,4,1,13,1575420030,21.80,242.0,51.0,1,0,0,16.8
Status,1732151199000,26,5,1,30,1575420030,23.80,127.0,41.0,1,0,0,18.8
Status,1732151199000,26,6,1,15,1575420030,24.90,281.0,30.0,1,0,0,19.9
Status,1732151199000,26,7,1,2,1575420030,0.00,52.0,19.0,0,0,0,0.0
Status,1732151199000,26,8,1,24,1575420030,0.00,312.0,12.0,0,0,0,0.0
Status,1732151199000,26,9,1,7,1575420030,27.40,129.0,9.0,1,0,0,22.4
Status,1732151199000,26,10,1,21,1575420030,17.80,37.0,7.0,1,0,0,12.799999
Status,1732151199000,26,11,1,6,1575420030,0.00,164.0,7.0,0,0,0,0.0
Status,1732151199000,26,12,3,20,1602000000,0.00,122.0,48.0,0,0,0,0.0
Status,1732151199000,26,13,3,9,1602000000,0.00,74.0,36.0,0,0,0,0.0
Status,1732151199000,26,14,3,8,1602000000,0.00,252.0,27.0,0,0,0,0.0
Status,1732151199000,26,15,3,19,1602000000,0.00,38.0,27.0,0,0,0,0.0
Status,1732151199000,26,16,3,11,1602000000,22.90,305.0,24.0,0,0,0,17.9
Status,1732151199000,26,17,6,21,1575420030,0.00,332.0,68.0,0,0,0,0.0
Status,1732151199000,26,18,6,19,1575420030,0.00,249.0,49.0,0,0,0,0.0
Status,1732151199000,26,19,6,27,1575420030,0.00,61.0,37.0,0,0,0,0.0
Status,1732151199000,26,20,6,29,1575420030,0.00,192.0,29.0,0,0,0,0.0
Status,1732151199000,26,21,6,13,1575420030,0.00,123.0,25.0,0,0,0,0.0
Status,1732151199000,26,22,6,15,1575420030,0.00,67.0,23.0,0,0,0,0.0
Status,1732151199000,26,23,6,4,1575420030,0.00,314.0,21.0,0,0,0,0.0
Status,1732151199000,26,24,6,26,1575420030,0.00,169.0,3.0,0,0,0,0.0
Status,1732151199000,26,25,6,6,1575420030,0.00,329.0,2.0,0,0,0,0.0
Fix,GPS,37.4249683333,-122.1584533333,-0.8000000000000007,0.0,5.9,0.0,1732151200000,2.2,179.9,30084089000000,84.6,0,,,
Fix,FLP,37.4249653000,-122.1584650000,3.0147173681726738,0.0076164342,10.716,,1732151200241,2.2,,30084089000000,14.678048,0,,,
Raw,1732151199999,18807000000,,12199822.418481255,-1416186399192999936,0.0,156.47316057293693,1402.2527540996962,0.0,0,21,0.0,16431,349617916154574,797,12.800000190734863,894.4687189767798,0.14999,16,0.0,0.0,1575420030,,,,0,0.0,1,6.0,12.800000190734863,0.0,0.0,0.0,66.7128,C,30084089000000,
Raw,1732151199999,18807000000,,12199822.418481255,-1416186399192999936,0.0,156.47316057293693,1402.2527540996962,0.0,0,13,0.0,16431,349617929709613,797,16.788999557495117,711.4209795211077,0.14999,16,0.0,0.0,1575420030,,,,0,0.0,1,6.0,16.788999557495117,0.0,0.0,0.0,66.7128,C,30084089000000,
Raw,1732151199999,18807000000,,12199822.418481255,-1416186399192999936,0.0,156.47316057293693,1402.2527540996962,0.0,0,15,0.0,16431,349617925243476,487,19.913000106811523,504.33830364782716,0.14999,16,0.0,0.0,1575420030,,,,0,2.0316033508435427,1,6.0,19.913000106811523,0.0,0.0,0.0,66.7128,C,30084089000000,
Raw,1732151199999,18807000000,,12199822.418481255,-1416186399192999936,0.0,156.47316057293693,1402.2527540996962,0.0,0,30,0.0,16431,349617927198499,797,18.76099967956543,881.5414788325327,0.14999,16,0.0,0.0,1575420030,,,,0,2.9467531620570457,1,6.0,18.76099967956543,0.0,0.0,0.0,66.7128,C,30084089000000,
Raw,1732151199999,18807000000,,12199822.418481255,-1416186399192999936,0.0,156.47316057293693,1402.2527540996962,0.0,0,11,0.0,17,992540,487,18.0,-55.79309012044972,0.14999,16,0.0,0.0,1602000000,,,,0,0.7421218607314026,3,6.0,18.0,0.0,0.0,108.67631620913818,66.7128,C,30084089000000,
Raw,1732151199999,18807000000,,12199822.418481255,-1416186399192999936,0.0,156.47316057293693,1402.2527540996962,0.0,0,7,0.0,16431,349617918536040,396,22.35300064086914,1031.6135919629592,0.14999,16,0.0,0.0,1575420030,,,,0,6.073697179255527,1,6.0,22.35300064086914,0.0,0.0,0.0,66.7128,C,30084089000000,
Status,1732151200000,26,0,1,17,1575420030,0.00,115.0,80.0,0,0,0,0.0
Status,1732151200000,26,1,1,22,1575420030,0.00,1.0,68.0,0,0,0,0.0
Status,1732151200000,26,2,1,14,1575420030,0.00,46.0,56.0,0,0,0,0.0
Status,1732151200000,26,3,1,19,1575420030,0.00,198.0,55.0,0,0,0,0.0
Status,1732151200000,26,4,1,13,1575420030,21.80,242.0,51.0,1,0,0,16.8
Status,1732151200000,26,5,1,30,1575420030,23.80,127.0,41.0,1,0,0,18.8
Status,1732151200000,26,6,1,15,1575420030,25.00,281.0,30.0,1,0,0,20.0
Status,1732151200000,26,7,1,2,1575420030,0.00,52.0,19.0,0,0,0,0.0
Status,1732151200000,26,8,1,24,1575420030,0.00,312.0,12.0,0,0,0,0.0
Status,1732151200000,26,9,1,7,1575420030,27.90,129.0,9.0,1,0,0,22.9
Status,1732151200000,26,10,1,21,1575420030,17.80,37.0,7.0,1,0,0,12.799999
Status,1732151200000,26,11,1,6,1575420030,0.00,164.0,7.0,0,0,0,0.0
Status,1732151200000,26,12,3,20,1602000000,0.00,122.0,48.0,0,0,0,0.0
Status,1732151200000,26,13,3,9,1602000000,0.00,74.0,36.0,0,0,0,0.0
Status,1732151200000,26,14,3,8,1602000000,0.00,252.0,27.0,0,0,0,0.0
Status,1732151200000,26,15,3,19,1602000000,0.00,38.0,27.0,0,0,0,0.0
Status,1732151200000,26,16,3,11,1602000000,23.00,305.0,24.0,0,0,0,18.0
Status,1732151200000,26,17,6,21,1575420030,0.00,332.0,68.0,0,0,0,0.0
Status,1732151200000,26,18,6,19,1575420030,0.00,249.0,49.0,0,0,0,0.0
Status,1732151200000,26,19,6,27,1575420030,0.00,61.0,37.0,0,0,0,0.0
Status,1732151200000,26,20,6,29,1575420030,0.00,192.0,29.0,0,0,0,0.0
Status,1732151200000,26,21,6,13,1575420030,0.00,123.0,25.0,0,0,0,0.0
Status,1732151200000,26,22,6,15,1575420030,0.00,67.0,23.0,0,0,0,0.0
Status,1732151200000,26,23,6,4,1575420030,0.00,314.0,21.0,0,0,0,0.0
Status,1732151200000,26,24,6,26,1575420030,0.00,169.0,3.0,0,0,0,0.0
Status,1732151200000,26,25,6,6,1575420030,0.00,329.0,2.0,0,0,0,0.0
Fix,GPS,37.4249883333,-122.1584583333,-0.6999999999999993,0.0,5.9,0.0,1732151201000,2.1,115.2,30085089000000,85.7,0,,,
Raw,1732151200999,19807000000,,996518.5648532893,-1416186399192999936,0.0,155.9867935223556,1399.0711718781702,0.0,0,21,0.0,16431,349618916151591,797,12.800000190734863,893.8168144805135,0.14999,16,0.0,0.0,1575420030,,,,0,0.0,1,6.0,12.800000190734863,0.0,0.0,0.0,66.7128,C,30085089000000,
Raw,1732151200999,19807000000,,996518.5648532893,-1416186399192999936,0.0,155.9867935223556,1399.0711718781702,0.0,0,13,0.0,16431,349618929707241,797,16.788999557495117,710.0897136045947,0.14999,16,0.0,0.0,1575420030,,,,0,0.0,1,6.0,16.788999557495117,0.0,0.0,0.0,66.7128,C,30085089000000,
Raw,1732151200999,19807000000,,996518.5648532893,-1416186399192999936,0.0,155.9867935223556,1399.0711718781702,0.0,0,15,0.0,16431,349618925241864,487,19.954999923706055,503.23398709450265,0.14999,16,0.0,0.0,1575420030,,,,0,3.507327634061916,1,6.0,19.954999923706055,0.0,0.0,0.0,66.7128,C,30085089000000,
Raw,1732151200999,19807000000,,996518.5648532893,-1416186399192999936,0.0,155.9867935223556,1399.0711718781702,0.0,0,30,0.0,16431,349618927195561,797,18.843000411987305,880.4878948697101,0.14999,16,0.0,0.0,1575420030,,,,0,2.9467531620570457,1,6.0,18.843000411987305,0.0,0.0,0.0,66.7128,C,30085089000000,
Raw,1732151200999,19807000000,,996518.5648532893,-1416186399192999936,0.0,155.9867935223556,1399.0711718781702,0.0,0,11,0.0,17,992728,487,19.0,-56.159276148728274,0.14999,16,0.0,0.0,1602000000,,,,0,0.9176003468815042,3,6.0,19.0,0.0,0.0,108.67631620913818,66.7128,C,30085089000000,
Raw,1732151200999,19807000000,,996518.5648532893,-1416186399192999936,0.0,155.9867935223556,1399.0711718781702,0.0,0,7,0.0,16431,349618918532600,487,22.922000885009766,1031.2990684852139,0.14999,16,0.0,0.0,1575420030,,,,0,6.968623722571784,1,6.0,22.922000885009766,0.0,0.0,0.0,66.7128,C,30085089000000,
Fix,FLP,37.4249750000,-122.1584623000,3.0147173681726738,0.03438004,10.683,,1732151201241,2.1,,30085089000000,15.498174,0,,,
Status,1732151201000,26,0,1,17,1575420030,0.00,115.0,80.0,0,0,0,0.0
Status,1732151201000,26,1,1,22,1575420030,0.00,1.0,68.0,0,0,0,0.0
Status,1732151201000,26,2,1,14,1575420030,0.00,46.0,56.0,0,0,0,0.0
Status,1732151201000,26,3,1,19,1575420030,0.00,198.0,55.0,0,0,0,0.0
Status,1732151201000,26,4,1,13,1575420030,21.70,242.0,51.0,1,0,0,16.7
Status,1732151201000,26,5,1,30,1575420030,23.90,127.0,41.0,1,0,0,18.9
Status,1732151201000,26,6,1,15,1575420030,25.00,281.0,30.0,1,0,0,20.0
Status,1732151201000,26,7,1,2,1575420030,0.00,52.0,19.0,0,0,0,0.0
Status,1732151201000,26,8,1,24,1575420030,0.00,312.0,12.0,0,0,0,0.0
Status,1732151201000,26,9,1,7,1575420030,0.00,129.0,9.0,0,0,0,0.0
Status,1732151201000,26,10,1,21,1575420030,17.80,37.0,7.0,1,0,0,12.799999
Status,1732151201000,26,11,1,6,1575420030,0.00,164.0,7.0,0,0,0,0.0
Status,1732151201000,26,12,3,20,1602000000,0.00,122.0,48.0,0,0,0,0.0
Status,1732151201000,26,13,3,9,1602000000,0.00,74.0,36.0,0,0,0,0.0
Status,1732151201000,26,14,3,8,1602000000,0.00,252.0,27.0,0,0,0,0.0
Status,1732151201000,26,15,3,19,1602000000,0.00,38.0,27.0,0,0,0,0.0
Status,1732151201000,26,16,3,11,1602000000,23.40,305.0,24.0,0,0,0,18.4
Status,1732151201000,26,17,6,21,1575420030,0.00,332.0,68.0,0,0,0,0.0
Status,1732151201000,26,18,6,19,1575420030,0.00,249.0,49.0,0,0,0,0.0
Status,1732151201000,26,19,6,27,1575420030,0.00,61.0,37.0,0,0,0,0.0
Status,1732151201000,26,20,6,29,1575420030,0.00,192.0,29.0,0,0,0,0.0
Status,1732151201000,26,21,6,13,1575420030,0.00,123.0,25.0,0,0,0,0.0
Status,1732151201000,26,22,6,15,1575420030,0.00,67.0,23.0,0,0,0,0.0
Status,1732151201000,26,23,6,4,1575420030,0.00,314.0,21.0,0,0,0,0.0
Status,1732151201000,26,24,6,26,1575420030,0.00,169.0,3.0,0,0,0,0.0
Status,1732151201000,26,25,6,6,1575420030,0.00,329.0,2.0,0,0,0,0.0
Fix,GPS,37.4249383333,-122.1585066667,-0.8000000000000007,0.0,5.6,0.0,1732151202000,1.9,109.0,30086089000000,84.7,0,,,
Raw,1732151201999,20807000000,,996428.1898312465,-1416186399192999936,0.0,153.00270396282002,1397.6215262621893,0.0,0,21,0.0,16431,349619916148607,1797,12.770000457763672,894.0066435691498,0.14999,16,0.0,0.0,1575420030,,,,0,0.0,1,6.0,12.770000457763672,0.0,0.0,0.0,66.7128,C,30086089000000,
Raw,1732151201999,20807000000,,996428.1898312465,-1416186399192999936,0.0,153.00270396282002,1397.6215262621893,0.0,0,13,0.0,16431,349619929704826,797,16.746999740600586,709.6270806959702,0.14999,16,0.0,0.0,1575420030,,,,0,0.0,1,6.0,16.746999740600586,0.0,0.0,0.0,66.7128,C,30086089000000,
Raw,1732151201999,20807000000,,996428.1898312465,-1416186399192999936,0.0,153.00270396282002,1397.6215262621893,0.0,0,15,0.0,16431,349619925240190,487,19.964000701904297,502.99955792630425,0.14999,16,0.0,0.0,1575420030,,,,0,2.4502814875564027,1,6.0,19.964000701904297,0.0,0.0,0.0,66.7128,C,30086089000000,
Raw,1732151201999,20807000000,,996428.1898312465,-1416186399192999936,0.0,153.00270396282002,1397.6215262621893,0.0,0,30,0.0,16431,349619927192561,487,18.871999740600586,880.9417006792546,0.14999,16,0.0,0.0,1575420030,,,,0,1.2465373678900722,1,6.0,18.871999740600586,0.0,0.0,0.0,66.7128,C,30086089000000,
Raw,1732151201999,20807000000,,996428.1898312465,-1416186399192999936,0.0,153.00270396282002,1397.6215262621893,0.0,0,11,0.0,17,992914,487,19.0,-56.04999143511102,0.14999,16,0.0,0.0,1602000000,,,,0,1.5860754566204989,3,6.0,19.0,0.0,0.0,108.67631620913818,66.7128,C,30086089000000,
Fix,FLP,37.4249581000,-122.1584820000,3.09358712128806,0.037405863,10.616,,1732151202241,1.9,,30086089000000,15.424089,0,,,
Status,1732151202000,26,0,1,17,1575420030,0.00,115.0,80.0,0,0,0,0.0
Status,1732151202000,26,1,1,22,1575420030,0.00,1.0,68.0,0,0,0,0.0
Status,1732151202000,26,2,1,14,1575420030,0.00,46.0,56.0,0,0,0,0.0
Status,1732151202000,26,3,1,19,1575420030,0.00,198.0,55.0,0,0,0,0.0
Status,1732151202000,26,4,1,13,1575420030,21.70,242.0,51.0,1,0,0,16.7
Status,1732151202000,26,5,1,30,1575420030,23.90,127.0,41.0,1,0,0,18.9
Status,1732151202000,26,6,1,15,1575420030,24.90,281.0,30.0,1,0,0,19.9
Status,1732151202000,26,7,1,2,1575420030,0.00,52.0,19.0,0,0,0,0.0
Status,1732151202000,26,8,1,24,1575420030,0.00,312.0,12.0,0,0,0,0.0
Status,1732151202000,26,9,1,7,1575420030,0.00,129.0,9.0,0,0,0,0.0
Status,1732151202000,26,10,1,21,1575420030,17.70,37.0,7.0,1,0,0,12.700001
Status,1732151202000,26,11,1,6,1575420030,0.00,164.0,7.0,0,0,0,0.0
Status,1732151202000,26,12,3,20,1602000000,0.00,122.0,48.0,0,0,0,0.0
Status,1732151202000,26,13,3,9,1602000000,0.00,74.0,36.0,0,0,0,0.0
Status,1732151202000,26,14,3,8,1602000000,0.00,252.0,27.0,0,0,0,0.0
Status,1732151202000,26,15,3,19,1602000000,0.00,38.0,27.0,0,0,0,0.0
Status,1732151202000,26,16,3,11,1602000000,26.30,305.0,24.0,0,0,0,21.3
Status,1732151202000,26,17,6,21,1575420030,0.00,332.0,68.0,0,0,0,0.0
Status,1732151202000,26,18,6,19,1575420030,0.00,249.0,49.0,0,0,0,0.0
Status,1732151202000,26,19,6,27,1575420030,0.00,61.0,37.0,0,0,0,0.0
Status,1732151202000,26,20,6,29,1575420030,0.00,192.0,29.0,0,0,0,0.0
Status,1732151202000,26,21,6,13,1575420030,0.00,123.0,25.0,0,0,0,0.0
Status,1732151202000,26,22,6,15,1575420030,0.00,67.0,23.0,0,0,0,0.0
Status,1732151202000,26,23,6,4,1575420030,0.00,314.0,21.0,0,0,0,0.0
Status,1732151202000,26,24,6,26,1575420030,0.00,169.0,3.0,0,0,0,0.0
Status,1732151202000,26,25,6,6,1575420030,0.00,329.0,2.0,0,0,0,0.0
Fix,GPS,37.4249133333,-122.1585416667,-0.8000000000000007,0.0,5.4,0.0,1732151203000,1.9,95.6,30087089000000,85.1,0,,,
Raw,1732151202999,21807000000,,996371.2754575034,-1416186399192999936,0.0,152.1236218903385,1397.1593426777515,0.0,0,21,0.0,16431,349620916145624,1797,12.741000175476074,894.0296869435901,0.14999,16,0.0,0.0,1575420030,,,,0,0.0,1,6.0,12.741000175476074,0.0,0.0,0.0,66.7128,C,30087089000000,
Raw,1732151202999,21807000000,,996371.2754575034,-1416186399192999936,0.0,152.1236218903385,1397.1593426777515,0.0,0,13,0.0,16431,349620929702460,797,16.707000732421875,709.580482904511,0.14999,16,0.0,0.0,1575420030,,,,0,0.0,1,6.0,16.707000732421875,0.0,0.0,0.0,66.7128,C,30087089000000,
Raw,1732151202999,21807000000,,996371.2754575034,-1416186399192999936,0.0,152.1236218903385,1397.1593426777515,0.0,0,15,0.0,16431,349620925238518,487,19.87299919128418,502.54946879005655,0.14999,16,0.0,0.0,1575420030,,,,0,0.0,1,6.0,19.87299919128418,0.0,0.0,0.0,66.7128,C,30087089000000,
Raw,1732151202999,21807000000,,996371.2754575034,-1416186399192999936,0.0,152.1236218903385,1397.1593426777515,0.0,0,30,0.0,16431,349620927189623,797,18.899999618530273,881.0927834487712,0.14999,16,0.0,0.0,1575420030,,,,0,1.2465373678900722,1,6.0,18.899999618530273,0.0,0.0,0.0,66.7128,C,30087089000000,
Raw,1732151202999,21807000000,,996371.2754575034,-1416186399192999936,0.0,152.1236218903385,1397.1593426777515,0.0,0,11,0.0,17,993106,487,20.0,-56.13177221996674,0.14999,16,0.0,0.0,1602000000,,,,0,6.213956807072233,3,6.0,20.0,0.0,0.0,108.67631620913818,66.7128,C,30087089000000,
Fix,FLP,37.4249364000,-122.1585095000,3.214172941818701,0.11843305,9.871,180.0,1732151203241,1.9,95.6,30087089000000,14.880096,0,,,
Status,1732151203000,26,0,1,17,1575420030,0.00,115.0,80.0,0,0,0,0.0
Status,1732151203000,26,1,1,22,1575420030,0.00,1.0,68.0,0,0,0,0.0
Status,1732151203000,26,2,1,14,1575420030,0.00,46.0,56.0,0,0,0,0.0
Status,1732151203000,26,3,1,19,1575420030,0.00,198.0,55.0,0,0,0,0.0
Status,1732151203000,26,4,1,13,1575420030,21.70,242.0,51.0,1,0,0,16.7
Status,1732151203000,26,5,1,30,1575420030,23.90,127.0,41.0,1,0,0,18.9
Status,1732151203000,26,6,1,15,1575420030,24.80,281.0,30.0,1,0,0,19.8
Status,1732151203000,26,7,1,2,1575420030,0.00,52.0,19.0,0,0,0,0.0
Status,1732151203000,26,8,1,24,1575420030,0.00,312.0,12.0,0,0,0,0.0
Status,1732151203000,26,9,1,7,1575420030,22.70,129.0,9.0,1,0,0,17.7
Status,1732151203000,26,10,1,21,1575420030,17.70,37.0,7.0,1,0,0,12.700001
Status,1732151203000,26,11,1,6,1575420030,0.00,164.0,7.0,0,0,0,0.0
Status,1732151203000,26,12,3,20,1602000000,0.00,122.0,48.0,0,0,0,0.0
Status,1732151203000,26,13,3,9,1602000000,0.00,74.0,36.0,0,0,0,0.0
Status,1732151203000,26,14,3,8,1602000000,0.00,252.0,27.0,0,0,0,0.0
Status,1732151203000,26,15,3,19,1602000000,0.00,38.0,27.0,0,0,0,0.0
Status,1732151203000,26,16,3,11,1602000000,25.70,305.0,24.0,0,0,0,20.7
Status,1732151203000,26,17,6,21,1575420030,0.00,332.0,68.0,0,0,0,0.0
Status,1732151203000,26,18,6,19,1575420030,0.00,249.0,49.0,0,0,0,0.0
Status,1732151203000,26,19,6,27,1575420030,0.00,61.0,37.0,0,0,0,0.0
Status,1732151203000,26,20,6,29,1575420030,0.00,192.0,29.0,0,0,0,0.0
Status,1732151203000,26,21,6,13,1575420030,0.00,123.0,25.0,0,0,0,0.0
Status,1732151203000,26,22,6,15,1575420030,0.00,67.0,23.0,0,0,0,0.0
Status,1732151203000,26,23,6,4,1575420030,0.00,314.0,21.0,0,0,0,0.0
Status,1732151203000,26,24,6,26,1575420030,0.00,169.0,3.0,0,0,0,0.0
Status,1732151203000,26,25,6,6,1575420030,0.00,329.0,2.0,0,0,0,0.0
Fix,GPS,37.4249350000,-122.1585450000,-0.8000000000000007,0.0,5.4,0.0,1732151204000,1.8,75.6,30088089000000,82.4,0,,,
Fix,FLP,37.4249353000,-122.1585256000,3.2756766739591843,0.11226686,5.685,180.0,1732151204241,1.8,75.6,30088089000000,13.69628,0,,,
Raw,1732151203999,22807000000,,996335.1046009302,-1416186399192999936,0.0,146.15347047990244,1397.6166385178356,0.0,0,21,0.0,16431,349621916142643,797,12.713000297546387,894.0496640625607,0.14999,16,0.0,0.0,1575420030,,,,0,0.0,1,6.0,12.713000297546387,0.0,0.0,0.0,66.7128,C,30088089000000,
Raw,1732151203999,22807000000,,996335.1046009302,-1416186399192999936,0.0,146.15347047990244,1397.6166385178356,0.0,0,13,0.0,16431,349621929700094,797,16.66900062561035,709.8076645597805,0.14999,16,0.0,0.0,1575420030,,,,0,0.0,1,6.0,16.66900062561035,0.0,0.0,0.0,66.7128,C,30088089000000,
Raw,1732151203999,22807000000,,996335.1046009302,-1416186399192999936,0.0,146.15347047990244,1397.6166385178356,0.0,0,15,0.0,16431,349621925236835,487,19.834999084472656,503.8747880292946,0.14999,16,0.0,0.0,1575420030,,,,0,0.6388847880156545,1,6.0,19.834999084472656,0.0,0.0,0.0,66.7128,C,30088089000000,
Raw,1732151203999,22807000000,,996335.1046009302,-1416186399192999936,0.0,146.15347047990244,1397.6166385178356,0.0,0,30,0.0,16431,349621927186685,797,18.927000045776367,881.0104591352462,0.14999,16,0.0,0.0,1575420030,,,,0,1.2465373678900722,1,6.0,18.927000045776367,0.0,0.0,0.0,66.7128,C,30088089000000,
Raw,1732151203999,22807000000,,996335.1046009302,-1416186399192999936,0.0,146.15347047990244,1397.6166385178356,0.0,0,7,0.0,16431,349621918522236,797,17.68000030517578,1030.7552262650531,0.14999,16,0.0,0.0,1575420030,,,,0,0.0,1,6.0,17.68000030517578,0.0,0.0,0.0,66.7128,C,30088089000000,
Raw,1732151203999,22807000000,,996335.1046009302,-1416186399192999936,0.0,146.15347047990244,1397.6166385178356,0.0,0,11,0.0,17,993293,396,22.0,-55.55446384151037,0.14999,16,0.0,0.0,1602000000,,,,0,5.214477307835462,3,6.0,22.0,0.0,0.0,108.67631620913818,66.7128,C,30088089000000,
Fix,FLP,37.4249349000,-122.1585335000,3.359133068090963,0.10557192,5.6,180.0,1732151204846,1.8,75.6,30088694000000,14.527962,0,,,
Fix,NLP,37.4257191000,-122.1580904000,5.400000095367432,,17.105,,1732151204846,,,30088694000000,5.316884,0,,,
Status,1732151204000,26,0,1,17,1575420030,0.00,115.0,80.0,0,0,0,0.0
Status,1732151204000,26,1,1,22,1575420030,0.00,1.0,68.0,0,0,0,0.0
Status,1732151204000,26,2,1,14,1575420030,0.00,46.0,56.0,0,0,0,0.0
Status,1732151204000,26,3,1,19,1575420030,0.00,198.0,55.0,0,0,0,0.0
Status,1732151204000,26,4,1,13,1575420030,21.70,242.0,51.0,1,0,0,16.7
Status,1732151204000,26,5,1,30,1575420030,17.80,127.0,41.0,1,0,0,12.799999
Status,1732151204000,26,6,1,15,1575420030,24.90,281.0,30.0,1,0,0,19.9
Status,1732151204000,26,7,1,2,1575420030,0.00,52.0,19.0,0,0,0,0.0
Status,1732151204000,26,8,1,24,1575420030,0.00,312.0,12.0,0,0,0,0.0
Status,1732151204000,26,9,1,7,1575420030,22.70,129.0,9.0,1,0,0,17.7
Status,1732151204000,26,10,1,21,1575420030,19.10,37.0,7.0,1,0,0,14.1
Status,1732151204000,26,11,1,6,1575420030,0.00,164.0,7.0,0,0,0,0.0
Status,1732151204000,26,12,3,20,1602000000,0.00,122.0,48.0,0,0,0,0.0
Status,1732151204000,26,13,3,9,1602000000,0.00,74.0,36.0,0,0,0,0.0
Status,1732151204000,26,14,3,8,1602000000,0.00,252.0,27.0,0,0,0,0.0
Status,1732151204000,26,15,3,19,1602000000,0.00,38.0,27.0,0,0,0,0.0
Status,1732151204000,26,16,3,11,1602000000,24.50,305.0,24.0,0,0,0,19.5
Status,1732151204000,26,17,6,21,1575420030,0.00,332.0,68.0,0,0,0,0.0
Status,1732151204000,26,18,6,19,1575420030,0.00,249.0,49.0,0,0,0,0.0
Status,1732151204000,26,19,6,27,1575420030,0.00,61.0,37.0,0,0,0,0.0
Status,1732151204000,26,20,6,29,1575420030,0.00,192.0,29.0,0,0,0,0.0
Status,1732151204000,26,21,6,13,1575420030,0.00,123.0,25.0,0,0,0,0.0
Status,1732151204000,26,22,6,15,1575420030,0.00,67.0,23.0,0,0,0,0.0
Status,1732151204000,26,23,6,4,1575420030,0.00,314.0,21.0,0,0,0,0.0
Status,1732151204000,26,24,6,26,1575420030,0.00,169.0,3.0,0,0,0,0.0
Status,1732151204000,26,25,6,6,1575420030,0.00,329.0,2.0,0,0,0,0.0
Fix,GPS,37.4249516667,-122.1585500000,-0.8000000000000007,0.0,5.4,0.0,1732151205000,1.8,73.2,30089089000000,83.1,0,,,
Raw,1732151204999,23807000000,,996309.0449059929,-1416186399192999936,0.0,146.4980870414202,1399.6422038193912,0.0,0,21,0.0,16431,349622916139677,1797,14.100000381469727,895.1370697523846,0.14999,16,0.0,0.0,1575420030,,,,0,0.0,1,6.0,14.100000381469727,0.0,0.0,0.0,66.7128,C,30089089000000,
Raw,1732151204999,23807000000,,996309.0449059929,-1416186399192999936,0.0,146.4980870414202,1399.6422038193912,0.0,0,13,0.0,16431,349622929697747,797,16.670000076293945,710.2769410219232,0.14999,16,0.0,0.0,1575420030,,,,0,0.0,1,6.0,16.670000076293945,0.0,0.0,0.0,66.7128,C,30089089000000,
Raw,1732151204999,23807000000,,996309.0449059929,-1416186399192999936,0.0,146.4980870414202,1399.6422038193912,0.0,0,15,0.0,16431,349622925235134,487,19.902999877929688,505.15230155825196,0.14999,16,0.0,0.0,1575420030,,,,0,4.202569759246154,1,6.0,19.902999877929688,0.0,0.0,0.0,66.7128,C,30089089000000,
Raw,1732151204999,23807000000,,996309.0449059929,-1416186399192999936,0.0,146.4980870414202,1399.6422038193912,0.0,0,30,0.0,16431,349622927183720,1797,12.800000190734863,881.1967573842504,0.14999,16,0.0,0.0,1575420030,,,,0,0.0,1,6.0,12.800000190734863,0.0,0.0,0.0,66.7128,C,30089089000000,
Raw,1732151204999,23807000000,,996309.0449059929,-1416186399192999936,0.0,146.4980870414202,1399.6422038193912,0.0,0,7,0.0,16431,349622918518795,797,17.68000030517578,1032.2562976928157,0.14999,16,0.0,0.0,1575420030,,,,0,0.0,1,6.0,17.68000030517578,0.0,0.0,0.0,66.7128,C,30089089000000,
Raw,1732151204999,23807000000,,996309.0449059929,-1416186399192999936,0.0,146.4980870414202,1399.6422038193912,0.0,0,11,0.0,17,993474,487,19.0,-55.13258464186917,0.14999,16,0.0,0.0,1602000000,,,,0,3.4596963141776573,3,6.0,19.0,0.0,0.0,108.67631620913818,66.7128,C,30089089000000,
Fix,FLP,37.4249408000,-122.1585394000,3.0669125941600237,0.07817383,5.571,,1732151205241,1.8,,30089089000000,9.516458,0,,,
Status,1732151205000,26,0,1,17,1575420030,0.00,115.0,80.0,0,0,0,0.0
Status,1732151205000,26,1,1,22,1575420030,0.00,1.0,68.0,0,0,0,0.0
Status,1732151205000,26,2,1,14,1575420030,0.00,46.0,56.0,0,0,0,0.0
Status,1732151205000,26,3,1,19,1575420030,0.00,198.0,55.0,0,0,0,0.0
Status,1732151205000,26,4,1,13,1575420030,24.60,242.0,51.0,1,0,0,19.6
Status,1732151205000,26,5,1,30,1575420030,17.80,127.0,41.0,1,0,0,12.799999
Status,1732151205000,26,6,1,15,1575420030,25.50,281.0,30.0,1,0,0,20.5
Status,1732151205000,26,7,1,2,1575420030,0.00,52.0,19.0,0,0,0,0.0
Status,1732151205000,26,8,1,24,1575420030,0.00,312.0,12.0,0,0,0,0.0
Status,1732151205000,26,9,1,7,1575420030,24.20,129.0,9.0,1,0,0,19.2
Status,1732151205000,26,10,1,21,1575420030,19.10,37.0,7.0,1,0,0,14.1
Status,1732151205000,26,11,1,6,1575420030,0.00,164.0,7.0,0,0,0,0.0
Status,1732151205000,26,12,3,20,1602000000,0.00,122.0,48.0,0,0,0,0.0
Status,1732151205000,26,13,3,9,1602000000,0.00,74.0,36.0,0,0,0,0.0
Status,1732151205000,26,14,3,8,1602000000,24.10,252.0,27.0,1,0,0,19.1
Status,1732151205000,26,15,3,19,1602000000,0.00,38.0,27.0,0,0,0,0.0
Status,1732151205000,26,16,3,11,1602000000,27.40,305.0,24.0,0,0,0,22.4
Status,1732151205000,26,17,6,21,1575420030,0.00,332.0,68.0,0,0,0,0.0
Status,1732151205000,26,18,6,19,1575420030,0.00,249.0,49.0,0,0,0,0.0
Status,1732151205000,26,19,6,27,1575420030,0.00,61.0,37.0,0,0,0,0.0
Status,1732151205000,26,20,6,29,1575420030,0.00,192.0,29.0,0,0,0,0.0
Status,1732151205000,26,21,6,13,1575420030,0.00,123.0,25.0,0,0,0,0.0
Status,1732151205000,26,22,6,15,1575420030,0.00,67.0,23.0,0,0,0,0.0
Status,1732151205000,26,23,6,4,1575420030,0.00,314.0,21.0,0,0,0,0.0
Status,1732151205000,26,24,6,26,1575420030,0.00,169.0,3.0,0,0,0,0.0
Status,1732151205000,26,25,6,6,1575420030,0.00,329.0,2.0,0,0,0,0.0
Fix,GPS,37.4249750000,-122.1585533333,-0.8000000000000007,0.0,5.4,0.0,1732151206000,1.8,68.3,30090089000000,73.3,0,,,
Fix,FLP,37.4249554000,-122.1585453000,5.400000095367432,0.023079526,5.5,,1732151206242,1.8,,30090089000000,13.075531,0,,,
Raw,1732151205999,24807000000,,996270.6850350451,-1416186399192999936,0.0,127.45376886666823,1400.8849814376845,0.0,0,21,0.0,16431,349623916136692,1797,14.100000381469727,895.2817412604642,0.14999,16,0.0,0.0,1575420030,,,,0,0.0,1,6.0,14.100000381469727,0.0,0.0,0.0,66.7128,C,30090089000000,
Raw,1732151205999,24807000000,,996270.6850350451,-1416186399192999936,0.0,127.45376886666823,1400.8849814376845,0.0,0,13,0.0,16431,349623929695344,487,19.62299919128418,710.5883517857825,0.14999,16,0.0,0.0,1575420030,,,,0,1.5917174767201852,1,6.0,19.62299919128418,0.0,0.0,0.0,66.7128,C,30090089000000,
Raw,1732151205999,24807000000,,996270.6850350451,-1416186399192999936,0.0,127.45376886666823,1400.8849814376845,0.0,0,15,0.0,16431,349623925233436,487,20.5049991607666,505.79045436331995,0.14999,16,0.0,0.0,1575420030,,,,0,3.0427308196924203,1,6.0,20.5049991607666,0.0,0.0,0.0,66.7128,C,30090089000000,
Raw,1732151205999,24807000000,,996270.6850350451,-1416186399192999936,0.0,127.45376886666823,1400.8849814376845,0.0,0,30,0.0,16431,349623927180781,797,12.800000190734863,881.6003881042876,0.14999,16,0.0,0.0,1575420030,,,,0,0.0,1,6.0,12.800000190734863,0.0,0.0,0.0,66.7128,C,30090089000000,
Raw,1732151205999,24807000000,,996270.6850350451,-1416186399192999936,0.0,127.45376886666823,1400.8849814376845,0.0,0,7,0.0,16431,349623918515323,487,19.194000244140625,1032.3383432558435,0.14999,16,0.0,0.0,1575420030,,,,0,0.763863773555685,1,6.0,19.194000244140625,0.0,0.0,0.0,66.7128,C,30090089000000,
Raw,1732151205999,24807000000,,996270.6850350451,-1416186399192999936,0.0,127.45376886666823,1400.8849814376845,0.0,0,8,0.0,17,895127,487,5.0,939.6934254695359,0.14999,16,0.0,0.0,1605374980,,,,0,2.7745117539796524,3,6.0,19.0,0.0,0.0,108.60846469306581,66.7128,C,30090089000000,
Raw,1732151205999,24807000000,,996270.6850350451,-1416186399192999936,0.0,127.45376886666823,1400.8849814376845,0.0,0,11,0.0,17,993660,396,19.100000381469727,-54.54837743742777,0.14999,16,0.0,0.0,1602000000,,,,0,7.686730218973601,3,6.0,19.100000381469727,0.0,0.0,108.60846469306581,66.7128,C,30090089000000,
Status,1732151206000,27,0,1,17,1575420030,0.00,115.0,80.0,0,0,0,0.0
Status,1732151206000,27,1,1,22,1575420030,0.00,1.0,68.0,0,0,0,0.0
Status,1732151206000,27,2,1,14,1575420030,0.00,46.0,56.0,0,0,0,0.0
Status,1732151206000,27,3,1,19,1575420030,0.00,198.0,55.0,0,0,0,0.0
Status,1732151206000,27,4,1,13,1575420030,24.70,242.0,51.0,1,0,0,19.7
Status,1732151206000,27,5,2,133,1575420030,0.00,191.0,45.0,0,0,0,0.0
Status,1732151206000,27,6,1,30,1575420030,17.80,127.0,41.0,1,0,0,12.799999
Status,1732151206000,27,7,1,15,1575420030,26.10,281.0,30.0,1,0,0,21.1
Status,1732151206000,27,8,1,2,1575420030,0.00,52.0,19.0,0,0,0,0.0
Status,1732151206000,27,9,1,24,1575420030,0.00,312.0,12.0,0,0,0,0.0
Status,1732151206000,27,10,1,7,1575420030,24.20,129.0,9.0,1,0,0,19.2
Status,1732151206000,27,11,1,21,1575420030,19.10,37.0,7.0,1,0,0,14.1
Status,1732151206000,27,12,1,6,1575420030,0.00,164.0,7.0,0,0,0,0.0
Status,1732151206000,27,13,3,20,1602000000,0.00,122.0,48.0,0,0,0,0.0
Status,1732151206000,27,14,3,9,1602000000,0.00,74.0,36.0,0,0,0,0.0
Status,1732151206000,27,15,3,8,1602000000,23.20,252.0,27.0,1,0,0,18.2
Status,1732151206000,27,16,3,19,1602000000,0.00,38.0,27.0,0,0,0,0.0
Status,1732151206000,27,17,3,11,1602000000,31.70,305.0,24.0,0,0,0,26.7
Status,1732151206000,27,18,6,21,1575420030,0.00,332.0,68.0,0,0,0,0.0
Status,1732151206000,27,19,6,19,1575420030,0.00,249.0,49.0,0,0,0,0.0
Status,1732151206000,27,20,6,27,1575420030,0.00,61.0,37.0,0,0,0,0.0
Status,1732151206000,27,21,6,29,1575420030,30.40,192.0,29.0,1,0,0,25.4
Status,1732151206000,27,22,6,13,1575420030,0.00,123.0,25.0,0,0,0,0.0
Status,1732151206000,27,23,6,15,1575420030,0.00,67.0,23.0,0,0,0,0.0
Status,1732151206000,27,24,6,4,1575420030,0.00,314.0,21.0,0,0,0,0.0
Status,1732151206000,27,25,6,26,1575420030,0.00,169.0,3.0,0,0,0,0.0
Status,1732151206000,27,26,6,6,1575420030,0.00,329.0,2.0,0,0,0,0.0
Fix,GPS,37.4249966667,-122.1585583333,-0.8000000000000007,0.0,5.6,0.0,1732151207000,1.8,63.5,30091089000000,73.1,0,,,
Raw,1732151206999,25807000000,,10766436.625967423,-1416186399192999936,0.0,126.69682888974515,1404.5612048396563,0.0,0,21,0.0,16431,349624916133702,1797,14.100000381469727,896.8281561024481,0.14999,16,0.0,0.0,1575420030,,,,0,0.0,1,6.0,14.100000381469727,0.0,0.0,0.0,66.7128,C,30091089000000,
Raw,1732151206999,25807000000,,10766436.625967423,-1416186399192999936,0.0,126.69682888974515,1404.5612048396563,0.0,0,13,0.0,16431,349624929693007,487,19.650999069213867,711.7464671850787,0.14999,16,0.0,0.0,1575420030,,,,0,2.5518719981419027,1,6.0,19.650999069213867,0.0,0.0,0.0,66.7128,C,30091089000000,
Raw,1732151206999,25807000000,,10766436.625967423,-1416186399192999936,0.0,126.69682888974515,1404.5612048396563,0.0,0,15,0.0,16431,349624925231735,487,21.051000595092773,506.7935844861379,0.14999,16,0.0,0.0,1575420030,,,,0,4.0339064085089,1,6.0,21.051000595092773,0.0,0.0,0.0,66.7128,C,30091089000000,
Raw,1732151206999,25807000000,,10766436.625967423,-1416186399192999936,0.0,126.69682888974515,1404.5612048396563,0.0,0,30,0.0,16431,349624927177839,797,12.800000190734863,882.6616841642011,0.14999,16,0.0,0.0,1575420030,,,,0,0.0,1,6.0,12.800000190734863,0.0,0.0,0.0,66.7128,C,30091089000000,
Raw,1732151206999,25807000000,,10766436.625967423,-1416186399192999936,0.0,126.69682888974515,1404.5612048396563,0.0,0,7,0.0,16431,349624918511878,487,19.194000244140625,1033.4505577399239,0.14999,16,0.0,0.0,1575420030,,,,0,0.763863773555685,1,6.0,19.194000244140625,0.0,0.0,0.0,66.7128,C,30091089000000,
Raw,1732151206999,25807000000,,10766436.625967423,-1416186399192999936,0.0,126.69682888974515,1404.5612048396563,0.0,0,29,0.0,16431,349624913590152,487,25.399999618530273,970.0260854302915,0.14999,16,0.0,0.0,1575420030,,,,0,11.538210292879173,6,6.0,25.399999618530273,0.0,0.0,-7.6883511266793745,66.7128,C,30091089000000,
Raw,1732151206999,25807000000,,10766436.625967423,-1416186399192999936,0.0,126.69682888974515,1404.5612048396563,0.0,0,8,0.0,17,891993,487,5.0,940.2427123399955,0.14999,16,0.0,0.0,1605374980,,,,0,1.2674149900882141,3,6.0,20.0,0.0,0.0,108.52124726534137,66.7128,C,30091089000000,
Raw,1732151206999,25807000000,,10766436.625967423,-1416186399192999936,0.0,126.69682888974515,1404.5612048396563,0.0,0,11,0.0,17,993839,235,18.200000762939453,-53.769815228083424,0.14999,16,0.0,0.0,1602000000,,,,0,13.175958725204918,3,6.0,18.200000762939453,0.0,0.0,108.52124726534137,66.7128,C,30091089000000,
Fix,FLP,37.4249735000,-122.1585508000,5.400000095367432,0.03764987,5.457,,1732151207241,1.8,,30091089000000,13.095901,0,,,
Status,1732151207000,27,0,1,17,1575420030,0.00,115.0,80.0,0,0,0,0.0
Status,1732151207000,27,1,1,22,1575420030,0.00,1.0,68.0,0,0,0,0.0
Status,1732151207000,27,2,1,14,1575420030,0.00,46.0,56.0,0,0,0,0.0
Status,1732151207000,27,3,1,19,1575420030,0.00,198.0,55.0,0,0,0,0.0
Status,1732151207000,27,4,1,13,1575420030,24.70,242.0,51.0,1,0,0,19.7
Status,1732151207000,27,5,2,133,1575420030,0.00,191.0,45.0,0,0,0,0.0
Status,1732151207000,27,6,1,30,1575420030,21.60,127.0,41.0,1,0,0,16.6
Status,1732151207000,27,7,1,15,1575420030,30.00,281.0,30.0,1,0,0,25.0
Status,1732151207000,27,8,1,2,1575420030,0.00,52.0,19.0,0,0,0,0.0
Status,1732151207000,27,9,1,24,1575420030,0.00,312.0,12.0,0,0,0,0.0
Status,1732151207000,27,10,1,7,1575420030,25.50,129.0,9.0,1,0,0,20.5
Status,1732151207000,27,11,1,21,1575420030,17.20,37.0,7.0,1,0,0,12.200001
Status,1732151207000,27,12,1,6,1575420030,0.00,164.0,7.0,0,0,0,0.0
Status,1732151207000,27,13,3,20,1602000000,0.00,122.0,48.0,0,0,0,0.0
Status,1732151207000,27,14,3,9,1602000000,0.00,74.0,36.0,0,0,0,0.0
Status,1732151207000,27,15,3,8,1602000000,0.00,252.0,27.0,0,0,0,0.0
Status,1732151207000,27,16,3,19,1602000000,0.00,38.0,27.0,0,0,0,0.0
Status,1732151207000,27,17,3,11,1602000000,34.50,305.0,24.0,0,0,0,29.5
Status,1732151207000,27,18,6,21,1575420030,0.00,332.0,68.0,0,0,0,0.0
Status,1732151207000,27,19,6,19,1575420030,0.00,249.0,49.0,0,0,0,0.0
Status,1732151207000,27,20,6,27,1575420030,0.00,61.0,37.0,0,0,0,0.0
Status,1732151207000,27,21,6,29,1575420030,30.40,192.0,29.0,1,0,0,25.4
Status,1732151207000,27,22,6,13,1575420030,0.00,123.0,25.0,0,0,0,0.0
Status,1732151207000,27,23,6,15,1575420030,0.00,67.0,23.0,0,0,0,0.0
Status,1732151207000,27,24,6,4,1575420030,0.00,314.0,21.0,0,0,0,0.0
Status,1732151207000,27,25,6,26,1575420030,0.00,169.0,3.0,0,0,0,0.0
Status,1732151207000,27,26,6,6,1575420030,0.00,329.0,2.0,0,0,0,0.0
Fix,GPS,37.4250200000,-122.1585616667,-0.8000000000000007,0.0,5.6,0.0,1732151208002,1.8,61.4,30092089000000,72.7,0,,,
Raw,1732151208000,26807000000,,10518605.174517099,-1416186399193999872,0.0,125.05322306193105,1406.2753844462054,0.0,0,21,0.0,16431,349625917130710,1797,12.199999809265137,897.0947344946642,0.14999,16,0.0,0.0,1575420030,,,,0,0.0,1,6.0,12.199999809265137,0.0,0.0,0.0,66.7128,C,30092089000000,
Raw,1732151208000,26807000000,,10518605.174517099,-1416186399193999872,0.0,125.05322306193105,1406.2753844462054,0.0,0,13,0.0,16431,349625930690609,487,19.701000213623047,712.5007195722568,0.14999,16,0.0,0.0,1575420030,,,,0,3.324460045264521,1,6.0,19.701000213623047,0.0,0.0,0.0,66.7128,C,30092089000000,
Raw,1732151208000,26807000000,,10518605.174517099,-1416186399193999872,0.0,125.05322306193105,1406.2753844462054,0.0,0,15,0.0,16431,349625926230033,396,25.01799964904785,507.44149355861003,0.14999,16,0.0,0.0,1575420030,,,,0,10.054506321788523,1,6.0,25.01799964904785,0.0,0.0,0.0,66.7128,C,30092089000000,
Raw,1732151208000,26807000000,,10518605.174517099,-1416186399193999872,0.0,125.05322306193105,1406.2753844462054,0.0,0,30,0.0,16431,349625928174891,797,16.58799934387207,883.0814824130796,0.14999,16,0.0,0.0,1575420030,,,,0,0.0,1,6.0,16.58799934387207,0.0,0.0,0.0,66.7128,C,30092089000000,
Raw,1732151208000,26807000000,,10518605.174517099,-1416186399193999872,0.0,125.05322306193105,1406.2753844462054,0.0,0,7,0.0,16431,349625919508407,487,20.5049991607666,1032.7759815365469,0.14999,16,0.0,0.0,1575420030,,,,0,3.0427308196924203,1,6.0,20.5049991607666,0.0,0.0,0.0,66.7128,C,30092089000000,
Raw,1732151208000,26807000000,,10518605.174517099,-1416186399193999872,0.0,125.05322306193105,1406.2753844462054,0.0,0,29,0.0,16431,349625914586916,797,25.399999618530273,970.9461479049249,0.14999,16,0.0,0.0,1575420030,,,,0,11.538210292879173,6,6.0,25.399999618530273,0.0,0.0,-6.619556962396525,66.7128,C,30092089000000,
Raw,1732151208000,26807000000,,10518605.174517099,-1416186399193999872,0.0,125.05322306193105,1406.2753844462054,0.0,0,11,0.0,17,994018,235,29.0,-53.174825752566065,0.14999,16,0.0,0.0,1602000000,,,,0,16.369975582555156,3,6.0,29.0,0.0,0.0,108.52124726534137,66.7128,C,30092089000000,
Fix,FLP,37.4249947000,-122.1585556000,5.400000095367432,0.101901,5.457,0.0,1732151208241,1.8,61.4,30092089000000,13.822168,0,,,
Status,1732151208002,27,0,1,17,1575420030,0.00,115.0,80.0,0,0,0,0.0
Status,1732151208002,27,1,1,22,1575420030,0.00,1.0,68.0,0,0,0,0.0
Status,1732151208002,27,2,1,14,1575420030,0.00,46.0,56.0,0,0,0,0.0
Status,1732151208002,27,3,1,19,1575420030,0.00,198.0,55.0,0,0,0,0.0
Status,1732151208002,27,4,1,13,1575420030,24.70,242.0,51.0,1,0,0,19.7
Status,1732151208002,27,5,2,133,1575420030,0.00,191.0,45.0,0,0,0,0.0
Status,1732151208002,27,6,1,30,1575420030,21.60,127.0,41.0,1,0,0,16.6
Status,1732151208002,27,7,1,15,1575420030,29.60,281.0,30.0,1,0,0,24.6
Status,1732151208002,27,8,1,2,1575420030,0.00,52.0,19.0,0,0,0,0.0
Status,1732151208002,27,9,1,24,1575420030,0.00,312.0,12.0,0,0,0,0.0
Status,1732151208002,27,10,1,7,1575420030,25.50,129.0,9.0,1,0,0,20.5
Status,1732151208002,27,11,1,21,1575420030,17.20,37.0,7.0,1,0,0,12.200001
Status,1732151208002,27,12,1,6,1575420030,0.00,164.0,7.0,0,0,0,0.0
Status,1732151208002,27,13,3,20,1602000000,0.00,122.0,48.0,0,0,0,0.0
Status,1732151208002,27,14,3,9,1602000000,0.00,74.0,36.0,0,0,0,0.0
Status,1732151208002,27,15,3,8,1602000000,0.00,252.0,27.0,0,0,0,0.0
Status,1732151208002,27,16,3,19,1602000000,0.00,38.0,27.0,0,0,0,0.0
Status,1732151208002,27,17,3,11,1602000000,32.80,305.0,24.0,0,0,0,27.8
Status,1732151208002,27,18,6,21,1575420030,0.00,332.0,68.0,0,0,0,0.0
Status,1732151208002,27,19,6,19,1575420030,0.00,249.0,49.0,0,0,0,0.0
Status,1732151208002,27,20,6,27,1575420030,0.00,61.0,37.0,0,0,0,0.0
Status,1732151208002,27,21,6,29,1575420030,18.90,192.0,29.0,1,0,0,13.9
Status,1732151208002,27,22,6,13,1575420030,0.00,123.0,25.0,0,0,0,0.0
Status,1732151208002,27,23,6,15,1575420030,0.00,67.0,23.0,0,0,0,0.0
Status,1732151208002,27,24,6,4,1575420030,0.00,314.0,21.0,0,0,0,0.0
Status,1732151208002,27,25,6,26,1575420030,0.00,169.0,3.0,0,0,0,0.0
Status,1732151208002,27,26,6,6,1575420030,0.00,329.0,2.0,0,0,0,0.0
Fix,GPS,37.4250533333,-122.1585583333,-0.8000000000000007,0.0,5.5,0.0,1732151209003,1.8,57.1,30093089000000,69.0,0,,,
Fix,FLP,37.4250223000,-122.1585568000,5.400000095367432,0.17998423,5.471,0.0,1732151209241,1.8,57.1,30093089000000,13.232872,0,,,
Raw,1732151209002,27807000000,,10285410.515564071,-1416186399195000064,0.0,117.8387593916175,1409.858683041439,0.0,0,21,0.0,16431,349626918127716,797,12.199999809265137,898.581310896569,0.14999,16,0.0,0.0,1575420030,,,,0,0.0,1,6.0,12.199999809265137,0.0,0.0,0.0,66.7128,C,30093089000000,
Raw,1732151209002,27807000000,,10285410.515564071,-1416186399195000064,0.0,117.8387593916175,1409.858683041439,0.0,0,13,0.0,16431,349626931688230,797,19.749000549316406,713.9697346928341,0.14999,16,0.0,0.0,1575420030,,,,0,3.324460045264521,1,6.0,19.749000549316406,0.0,0.0,0.0,66.7128,C,30093089000000,
Raw,1732151209002,27807000000,,10285410.515564071,-1416186399195000064,0.0,117.8387593916175,1409.858683041439,0.0,0,15,0.0,16431,349626927228336,316,24.59000015258789,508.6117346045373,0.14999,16,0.0,0.0,1575420030,,,,0,9.436974992327128,1,6.0,24.59000015258789,0.0,0.0,0.0,66.7128,C,30093089000000,
Raw,1732151209002,27807000000,,10285410.515564071,-1416186399195000064,0.0,117.8387593916175,1409.858683041439,0.0,0,30,0.0,16431,349626929171945,797,16.58799934387207,884.3213646249064,0.14999,16,0.0,0.0,1575420030,,,,0,0.0,1,6.0,16.58799934387207,0.0,0.0,0.0,66.7128,C,30093089000000,
Raw,1732151209002,27807000000,,10285410.515564071,-1416186399195000064,0.0,117.8387593916175,1409.858683041439,0.0,0,7,0.0,16431,349626920504973,396,20.527000427246094,1033.601083008446,0.14999,16,0.0,0.0,1575420030,,,,0,3.8619029732705474,1,6.0,20.527000427246094,0.0,0.0,0.0,66.7128,C,30093089000000,
Raw,1732151209002,27807000000,,10285410.515564071,-1416186399195000064,0.0,117.8387593916175,1409.858683041439,0.0,0,29,0.0,16431,349626915583671,797,13.899999618530273,972.467196451658,0.14999,16,0.0,0.0,1575420030,,,,0,0.0,6,6.0,13.899999618530273,0.0,0.0,5.9149986532765455,66.7128,C,30093089000000,
Raw,1732151209002,27807000000,,10285410.515564071,-1416186399195000064,0.0,117.8387593916175,1409.858683041439,0.0,0,11,0.0,17,994202,235,29.0,-52.5469869003385,0.14999,16,0.0,0.0,1602000000,,,,0,14.48727640348947,3,6.0,29.0,0.0,0.0,108.52124726534137,66.7128,C,30093089000000,
Fix,FLP,37.4250349000,-122.1585574000,5.400000095367432,0.20748307,5.485,0.0,1732151209710,1.8,57.1,30093558000000,12.488078,0,,,
Fix,NLP,37.4257223000,-122.1580944000,5.400000095367432,,15.033,,1732151209710,,,30093558000000,7.1162753,0,,,
Status,1732151209003,27,0,1,17,1575420030,0.00,115.0,80.0,0,0,0,0.0
Status,1732151209003,27,1,1,22,1575420030,0.00,1.0,68.0,0,0,0,0.0
Status,1732151209003,27,2,1,14,1575420030,0.00,46.0,56.0,0,0,0,0.0
Status,1732151209003,27,3,1,19,1575420030,0.00,198.0,55.0,0,0,0,0.0
Status,1732151209003,27,4,1,13,1575420030,24.70,242.0,51.0,1,0,0,19.7
Status,1732151209003,27,5,2,133,1575420030,0.00,191.0,45.0,0,0,0,0.0
Status,1732151209003,27,6,1,30,1575420030,18.40,127.0,41.0,1,0,0,13.4
Status,1732151209003,27,7,1,15,1575420030,28.20,281.0,30.0,1,0,0,23.2
Status,1732151209003,27,8,1,2,1575420030,0.00,52.0,19.0,0,0,0,0.0
Status,1732151209003,27,9,1,24,1575420030,0.00,312.0,12.0,0,0,0,0.0
Status,1732151209003,27,10,1,7,1575420030,28.40,129.0,9.0,1,0,0,23.4
Status,1732151209003,27,11,1,21,1575420030,22.50,37.0,7.0,1,0,0,17.5
Status,1732151209003,27,12,1,6,1575420030,0.00,164.0,7.0,0,0,0,0.0
Status,1732151209003,27,13,3,20,1602000000,0.00,122.0,48.0,0,0,0,0.0
Status,1732151209003,27,14,3,9,1602000000,0.00,74.0,36.0,0,0,0,0.0
Status,1732151209003,27,15,3,8,1602000000,25.60,252.0,27.0,1,0,0,20.6
Status,1732151209003,27,16,3,19,1602000000,0.00,38.0,27.0,0,0,0,0.0
Status,1732151209003,27,17,3,11,1602000000,33.80,305.0,24.0,0,0,0,28.8
Status,1732151209003,27,18,6,21,1575420030,0.00,332.0,68.0,0,0,0,0.0
Status,1732151209003,27,19,6,19,1575420030,0.00,249.0,49.0,0,0,0,0.0
Status,1732151209003,27,20,6,27,1575420030,0.00,61.0,37.0,0,0,0,0.0
Status,1732151209003,27,21,6,29,1575420030,18.90,192.0,29.0,1,0,0,13.9
Status,1732151209003,27,22,6,13,1575420030,0.00,123.0,25.0,0,0,0,0.0
Status,1732151209003,27,23,6,15,1575420030,0.00,67.0,23.0,0,0,0,0.0
Status,1732151209003,27,24,6,4,1575420030,0.00,314.0,21.0,0,0,0,0.0
Status,1732151209003,27,25,6,26,1575420030,0.00,169.0,3.0,0,0,0,0.0
Status,1732151209003,27,26,6,6,1575420030,0.00,329.0,2.0,0,0,0,0.0
Fix,GPS,37.4250783333,-122.1585516667,-0.8000000000000007,0.0,5.5,0.0,1732151210003,1.8,55.6,30094089000000,69.8,0,,,
Raw,1732151210003,28807000000,,10172056.26300312,-1416186399196000000,0.0,118.3042837760331,1410.9887462677236,0.0,0,21,0.0,16431,349627919124699,797,17.507999420166016,898.9521419747615,0.14999,16,0.0,0.0,1575420030,,,,0,0.0,1,6.0,17.507999420166016,0.0,0.0,0.0,66.7128,C,30094089000000,
Raw,1732151210003,28807000000,,10172056.26300312,-1416186399196000000,0.0,118.3042837760331,1410.9887462677236,0.0,0,13,0.0,16431,349627932685832,797,19.687000274658203,714.004578504992,0.14999,16,0.0,0.0,1575420030,,,,0,0.0,1,6.0,19.687000274658203,0.0,0.0,0.0,66.7128,C,30094089000000,
Raw,1732151210003,28807000000,,10172056.26300312,-1416186399196000000,0.0,118.3042837760331,1410.9887462677236,0.0,0,15,0.0,16431,349627928226643,396,23.209999084472656,508.71408249544913,0.14999,16,0.0,0.0,1575420030,,,,0,7.3837281543841735,1,6.0,23.209999084472656,0.0,0.0,0.0,66.7128,C,30094089000000,
Raw,1732151210003,28807000000,,10172056.26300312,-1416186399196000000,0.0,118.3042837760331,1410.9887462677236,0.0,0,30,0.0,16431,349627930169004,1797,13.399999618530273,884.7929175494434,0.14999,16,0.0,0.0,1575420030,,,,0,0.0,1,6.0,13.399999618530273,0.0,0.0,0.0,66.7128,C,30094089000000,
Raw,1732151210003,28807000000,,10172056.26300312,-1416186399196000000,0.0,118.3042837760331,1410.9887462677236,0.0,0,7,0.0,16431,349627921501540,487,23.384000778198242,1033.8317025865151,0.14999,16,0.0,0.0,1575420030,,,,0,7.668536936676378,1,6.0,23.384000778198242,0.0,0.0,0.0,66.7128,C,30094089000000,
Raw,1732151210003,28807000000,,10172056.26300312,-1416186399196000000,0.0,118.3042837760331,1410.9887462677236,0.0,0,29,0.0,16431,349627916580428,797,13.899999618530273,972.2733719392277,0.14999,16,0.0,0.0,1575420030,,,,0,0.0,6,6.0,13.899999618530273,0.0,0.0,14.557352152787137,66.7128,C,30094089000000,
Raw,1732151210003,28807000000,,10172056.26300312,-1416186399196000000,0.0,118.3042837760331,1410.9887462677236,0.0,0,8,0.0,17,882568,797,5.0,941.2843878393531,0.14999,16,0.0,0.0,1605374980,,,,0,5.176668252556739,3,6.0,15.0,0.0,0.0,108.32525946990421,66.7128,C,30094089000000,
Raw,1732151210003,28807000000,,10172056.26300312,-1416186399196000000,0.0,118.3042837760331,1410.9887462677236,0.0,0,11,0.0,17,994376,235,20.600000381469727,-52.47320144361114,0.14999,16,0.0,0.0,1602000000,,,,0,15.626343974902658,3,6.0,20.600000381469727,0.0,0.0,108.32525946990421,66.7128,C,30094089000000,
Fix,FLP,37.4250517000,-122.1585553000,5.400000095367432,0.24524455,5.5,0.0000000005227305,1732151210241,1.8,55.6,30094089000000,13.128008,0,,,
Status,1732151210003,27,0,1,17,1575420030,0.00,115.0,80.0,0,0,0,0.0
Status,1732151210003,27,1,1,22,1575420030,0.00,1.0,68.0,0,0,0,0.0
Status,1732151210003,27,2,1,14,1575420030,0.00,46.0,56.0,0,0,0,0.0
Status,1732151210003,27,3,1,19,1575420030,0.00,198.0,55.0,0,0,0,0.0
Status,1732151210003,27,4,1,13,1575420030,24.60,242.0,51.0,1,0,0,19.6
Status,1732151210003,27,5,2,133,1575420030,0.00,191.0,45.0,0,0,0,0.0
Status,1732151210003,27,6,1,30,1575420030,18.40,127.0,41.0,1,0,0,13.4
Status,1732151210003,27,7,1,15,1575420030,26.50,281.0,30.0,1,0,0,21.5
Status,1732151210003,27,8,1,2,1575420030,0.00,52.0,19.0,0,0,0,0.0
Status,1732151210003,27,9,1,24,1575420030,0.00,312.0,12.0,0,0,0,0.0
Status,1732151210003,27,10,1,7,1575420030,28.40,129.0,9.0,1,0,0,23.4
Status,1732151210003,27,11,1,21,1575420030,22.50,37.0,7.0,1,0,0,17.5
Status,1732151210003,27,12,1,6,1575420030,0.00,164.0,7.0,0,0,0,0.0
Status,1732151210003,27,13,3,20,1602000000,0.00,122.0,48.0,0,0,0,0.0
Status,1732151210003,27,14,3,9,1602000000,0.00,74.0,36.0,0,0,0,0.0
Status,1732151210003,27,15,3,8,1602000000,0.00,252.0,27.0,0,0,0,0.0
Status,1732151210003,27,16,3,19,1602000000,0.00,38.0,27.0,0,0,0,0.0
Status,1732151210003,27,17,3,11,1602000000,38.20,305.0,24.0,0,0,0,33.2
Status,1732151210003,27,18,6,21,1575420030,0.00,332.0,68.0,0,0,0,0.0
Status,1732151210003,27,19,6,19,1575420030,0.00,249.0,49.0,0,0,0,0.0
Status,1732151210003,27,20,6,27,1575420030,0.00,61.0,37.0,0,0,0,0.0
Status,1732151210003,27,21,6,29,1575420030,17.10,192.0,29.0,1,0,0,12.1
Status,1732151210003,27,22,6,13,1575420030,0.00,123.0,25.0,0,0,0,0.0
Status,1732151210003,27,23,6,15,1575420030,0.00,67.0,23.0,0,0,0,0.0
Status,1732151210003,27,24,6,4,1575420030,0.00,314.0,21.0,0,0,0,0.0
Status,1732151210003,27,25,6,26,1575420030,0.00,169.0,3.0,0,0,0,0.0
Status,1732151210003,27,26,6,6,1575420030,0.00,329.0,2.0,0,0,0,0.0
Fix,GPS,37.4250933333,-122.1585450000,-0.8000000000000007,0.0,5.5,0.0,1732151211003,1.8,56.3,30095089000000,70.5,0,,,
Raw,1732151211003,29807000000,,10085913.335418198,-1416186399196999936,0.0,118.91588496605458,1410.7598768859439,0.0,0,21,0.0,16431,349628920121700,797,17.507999420166016,898.6123451185977,0.14999,16,0.0,0.0,1575420030,,,,0,0.0,1,6.0,17.507999420166016,0.0,0.0,0.0,66.7128,C,30095089000000,
Raw,1732151211003,29807000000,,10085913.335418198,-1416186399196999936,0.0,118.91588496605458,1410.7598768859439,0.0,0,13,0.0,16431,349628933683451,487,19.628000259399414,713.9269464915042,0.14999,16,0.0,0.0,1575420030,,,,0,0.0,1,6.0,19.628000259399414,0.0,0.0,0.0,66.7128,C,30095089000000,
