# 
# Header Description:
# 
# Version: v3.1.0.3 Platform: 13 Manufacturer: samsung Model: SM-S135DL GNSS Hardware Model Name: MediaTek,MT6631,MTK_MNLD_default,MNL_VER_default
# 
# Raw,utcTimeMillis,TimeNanos,LeapSecond,TimeUncertaintyNanos,FullBiasNanos,BiasNanos,BiasUncertaintyNanos,DriftNanosPerSecond,DriftUncertaintyNanosPerSecond,HardwareClockDiscontinuityCount,Svid,TimeOffsetNanos,State,ReceivedSvTimeNanos,ReceivedSvTimeUncertaintyNanos,Cn0DbHz,PseudorangeRateMetersPerSecond,PseudorangeRateUncertaintyMetersPerSecond,AccumulatedDeltaRangeState,AccumulatedDeltaRangeMeters,AccumulatedDeltaRangeUncertaintyMeters,CarrierFrequencyHz,CarrierCycles,CarrierPhase,CarrierPhaseUncertainty,MultipathIndicator,SnrInDb,ConstellationType,AgcDb,BasebandCn0DbHz,FullInterSignalBiasNanos,FullInterSignalBiasUncertaintyNanos,SatelliteInterSignalBiasNanos,SatelliteInterSignalBiasUncertaintyNanos,CodeType,ChipsetElapsedRealtimeNanos,IsFullTracking
# 
# UncalAccel,utcTimeMillis,elapsedRealtimeNanos,UncalAccelXMps2,UncalAccelYMps2,UncalAccelZMps2,BiasXMps2,BiasYMps2,BiasZMps2
# 
# Accel,utcTimeMillis,elapsedRealtimeNanos,AccelXMps2,AccelYMps2,AccelZMps2
# 
# UncalGyro,utcTimeMillis,elapsedRealtimeNanos,UncalGyroXRadPerSec,UncalGyroYRadPerSec,UncalGyroZRadPerSec,DriftXRadPerSec,DriftYRadPerSec,DriftZRadPerSec
# 
# Gyro,utcTimeMillis,elapsedRealtimeNanos,GyroXRadPerSec,GyroYRadPerSec,GyroZRadPerSec
# 
# UncalMag,utcTimeMillis,elapsedRealtimeNanos,UncalMagXMicroT,UncalMagYMicroT,UncalMagZMicroT,BiasXMicroT,BiasYMicroT,BiasZMicroT
# 
# Mag,utcTimeMillis,elapsedRealtimeNanos,MagXMicroT,MagYMicroT,MagZMicroT
# 
# Pressure,utcTimeMillis,elapsedRealtimeNanos,PressureHpa
# 
# OrientationDeg,utcTimeMillis,elapsedRealtimeNanos,yawDeg,rollDeg,pitchDeg
# 
# Fix,Provider,LatitudeDegrees,LongitudeDegrees,AltitudeMeters,SpeedMps,AccuracyMeters,BearingDegrees,UnixTimeMillis,SpeedAccuracyMps,BearingAccuracyDegrees,elapsedRealtimeNanos,VerticalAccuracyMeters,MockLocation,NumberOfUsedSignals,VerticalSpeedAccuracyMps,SolutionType
# 
# Nav,Svid,Type,Status,MessageId,Sub-messageId,Data(Bytes)
# 
# Status,UnixTimeMillis,SignalCount,SignalIndex,ConstellationType,Svid,CarrierFrequencyHz,Cn0DbHz,AzimuthDegrees,ElevationDegrees,UsedInFix,HasAlmanacData,HasEphemerisData,BasebandCn0DbHz
# 
# Agc,utcTimeMillis,TimeNanos,LeapSecond,TimeUncertaintyNanos,FullBiasNanos,BiasNanos,BiasUncertaintyNanos,DriftNanosPerSecond,DriftUncertaintyNanosPerSecond,HardwareClockDiscontinuityCount,AgcDb,CarrierFrequencyHz,ConstellationType
# 
Fix,FLP,37.4256115000,-122.1581695000,3.5067748782757833,1.0267241,6.285,0.0000000140104195,1732152597243,1.7,132.0,31481091000000,16.871086,0,,,
Status,,27,0,1,17,1575420030,0.00,63.0,75.0,0,0,0,0.0
Status,,27,1,1,19,1575420030,0.00,202.0,67.0,0,0,0,0.0
Status,,27,2,1,22,1575420030,0.00,24.0,64.0,0,0,0,0.0
Status,,27,3,1,14,1575420030,0.00,58.0,49.0,0,0,0,0.0
Status,,27,4,1,13,1575420030,31.90,229.0,44.0,1,0,0,26.9
Status,,27,5,2,138,1575420030,0.00,156.0,43.0,0,0,0,0.0
Status,,27,6,1,30,1575420030,27.80,134.0,32.0,1,0,0,22.8
Status,,27,7,1,15,1575420030,23.70,269.0,29.0,1,0,0,18.7
Status,,27,8,1,24,1575420030,23.40,313.0,21.0,1,0,0,18.4
Status,,27,9,1,6,1575420030,30.20,159.0,16.0,1,0,0,25.2
Status,,27,10,1,2,1575420030,0.00,43.0,15.0,0,0,0,0.0
Status,,27,11,1,21,1575420030,0.00,31.0,2.0,0,0,0,0.0
Status,,27,12,1,12,1575420030,0.00,270.0,2.0,0,0,0,0.0
Status,,27,13,3,20,1602000000,0.00,104.0,57.0,0,0,0,0.0
Status,,27,14,3,11,1602000000,0.00,315.0,32.0,0,0,0,0.0
Status,,27,15,3,9,1602000000,0.00,87.0,30.0,0,0,0,0.0
Status,,27,16,3,19,1602000000,0.00,30.0,19.0,0,0,0,0.0
Status,,27,17,3,8,1602000000,25.10,242.0,18.0,1,0,0,20.1
Status,,27,18,6,21,1575420030,0.00,354.0,68.0,0,0,0,0.0
Status,,27,19,6,19,1575420030,0.00,238.0,43.0,0,0,0,0.0
Status,,27,20,6,13,1575420030,0.00,117.0,32.0,0,0,0,0.0
Status,,27,21,6,27,1575420030,0.00,68.0,31.0,0,0,0,0.0
Status,,27,22,6,4,1575420030,0.00,308.0,25.0,0,0,0,0.0
Status,,27,23,6,15,1575420030,0.00,58.0,23.0,0,0,0,0.0
Status,,27,24,6,29,1575420030,0.00,190.0,21.0,0,0,0,0.0
Status,,27,25,6,26,1575420030,0.00,166.0,10.0,0,0,0,0.0
Status,,27,26,6,6,1575420030,0.00,325.0,7.0,0,0,0,0.0
Fix,GPS,37.4255950000,-122.1581500000,22.2,0.0,5.5,0.0,1732152598000,1.7,131.0,31482091000000,80.4,0,,,
Raw,1732152598000,28768000000,,705913.1470879097,-1416187787232000000,0.0,143.58707405806882,1101.8456380851376,0.0,0,6,0.0,16431,351015920527111,396,25.239999771118164,-327.7627326128614,0.14999,16,0.0,0.0,1575420030,,,,0,10.37400078014862,1,6.0,25.239999771118164,0.0,0.0,0.0,66.7128,C,31482091000000,
Raw,1732152598000,28768000000,,705913.1470879097,-1416187787232000000,0.0,143.58707405806882,1101.8456380851376,0.0,0,13,0.0,16431,351015928350952,316,26.909000396728516,765.7815077448964,0.14999,16,0.0,0.0,1575420030,,,,0,12.651302942101667,1,6.0,26.909000396728516,0.0,0.0,0.0,66.7128,C,31482091000000,
Raw,1732152598000,28768000000,,705913.1470879097,-1416187787232000000,0.0,143.58707405806882,1101.8456380851376,0.0,0,24,0.0,16431,351015922692987,797,18.39699935913086,-287.12471970201176,0.14999,16,0.0,0.0,1575420030,,,,0,0.0,1,6.0,18.39699935913086,0.0,0.0,0.0,66.7128,C,31482091000000,
Raw,1732152598000,28768000000,,705913.1470879097,-1416187787232000000,0.0,143.58707405806882,1101.8456380851376,0.0,0,15,0.0,16431,351015924807395,797,18.7450008392334,577.0524614876701,0.14999,16,0.0,0.0,1575420030,,,,0,0.0,1,6.0,18.7450008392334,0.0,0.0,0.0,66.7128,C,31482091000000,
Raw,1732152598000,28768000000,,705913.1470879097,-1416187787232000000,0.0,143.58707405806882,1101.8456380851376,0.0,0,30,0.0,16431,351015925164768,487,22.815000534057617,886.5200556304864,0.14999,16,0.0,0.0,1575420030,,,,0,5.405784131145509,1,6.0,22.815000534057617,0.0,0.0,0.0,66.7128,C,31482091000000,
Raw,1732152598000,28768000000,,705913.1470879097,-1416187787232000000,0.0,143.58707405806882,1101.8456380851376,0.0,0,8,0.0,17,563256,487,5.0,959.055058188601,0.14999,16,0.0,0.0,1605374980,,,,0,4.299659025454155,3,6.0,20.0,0.0,0.0,-20.721271010707337,66.7128,C,31482091000000,
Fix,FLP,37.4256082000,-122.1581607000,3.089395871776543,0.9400184,6.057,0.000000012027789,1732152598243,1.7,131.0,31482091000000,17.07327,0,,,
Status,1732152598000,27,0,1,17,1575420030,0.00,63.0,75.0,0,0,0,0.0
Status,1732152598000,27,1,1,19,1575420030,0.00,202.0,67.0,0,0,0,0.0
Status,1732152598000,27,2,1,22,1575420030,0.00,24.0,64.0,0,0,0,0.0
Status,1732152598000,27,3,1,14,1575420030,0.00,58.0,49.0,0,0,0,0.0
Status,1732152598000,27,4,1,13,1575420030,29.90,229.0,44.0,1,0,0,24.9
Status,1732152598000,27,5,2,138,1575420030,0.00,156.0,43.0,0,0,0,0.0
Status,1732152598000,27,6,1,30,1575420030,27.90,134.0,32.0,1,0,0,22.9
Status,1732152598000,27,7,1,15,1575420030,23.70,269.0,29.0,1,0,0,18.7
Status,1732152598000,27,8,1,24,1575420030,23.40,313.0,21.0,1,0,0,18.4
Status,1732152598000,27,9,1,6,1575420030,30.20,159.0,16.0,1,0,0,25.2
Status,1732152598000,27,10,1,2,1575420030,0.00,43.0,15.0,0,0,0,0.0
Status,1732152598000,27,11,1,21,1575420030,0.00,31.0,2.0,0,0,0,0.0
Status,1732152598000,27,12,1,12,1575420030,0.00,270.0,2.0,0,0,0,0.0
Status,1732152598000,27,13,3,20,1602000000,0.00,104.0,57.0,0,0,0,0.0
Status,1732152598000,27,14,3,11,1602000000,0.00,315.0,32.0,0,0,0,0.0
Status,1732152598000,27,15,3,9,1602000000,0.00,87.0,30.0,0,0,0,0.0
Status,1732152598000,27,16,3,19,1602000000,0.00,30.0,19.0,0,0,0,0.0
Status,1732152598000,27,17,3,8,1602000000,25.00,242.0,18.0,1,0,0,20.0
Status,1732152598000,27,18,6,21,1575420030,0.00,354.0,68.0,0,0,0,0.0
Status,1732152598000,27,19,6,19,1575420030,0.00,238.0,43.0,0,0,0,0.0
Status,1732152598000,27,20,6,13,1575420030,0.00,117.0,32.0,0,0,0,0.0
Status,1732152598000,27,21,6,27,1575420030,0.00,68.0,31.0,0,0,0,0.0
Status,1732152598000,27,22,6,4,1575420030,0.00,308.0,25.0,0,0,0,0.0
Status,1732152598000,27,23,6,15,1575420030,0.00,58.0,23.0,0,0,0,0.0
Status,1732152598000,27,24,6,29,1575420030,0.00,190.0,21.0,0,0,0,0.0
Status,1732152598000,27,25,6,26,1575420030,0.00,166.0,10.0,0,0,0,0.0
Status,1732152598000,27,26,6,6,1575420030,0.00,325.0,7.0,0,0,0,0.0
Fix,GPS,37.4255950000,-122.1581433333,22.2,0.0,5.4,0.0,1732152599000,1.6,143.9,31483091000000,81.4,0,,,
Raw,1732152599000,29768000000,,705887.1916317521,-1416187787232000000,0.0,143.77484892046655,1100.826477619417,0.0,0,6,0.0,16431,351016920528206,487,25.239999771118164,-328.19818734800276,0.14999,16,0.0,0.0,1575420030,,,,0,10.37400078014862,1,6.0,25.239999771118164,0.0,0.0,0.0,66.7128,C,31483091000000,
Raw,1732152599000,29768000000,,705887.1916317521,-1416187787232000000,0.0,143.77484892046655,1100.826477619417,0.0,0,13,0.0,16431,351016928348399,797,24.854000091552734,765.6857569490866,0.14999,16,0.0,0.0,1575420030,,,,0,9.82833073205179,1,6.0,24.854000091552734,0.0,0.0,0.0,66.7128,C,31483091000000,
Raw,1732152599000,29768000000,,705887.1916317521,-1416187787232000000,0.0,143.77484892046655,1100.826477619417,0.0,0,24,0.0,16431,351016922693946,487,18.389999389648438,-287.6998748946982,0.14999,16,0.0,0.0,1575420030,,,,0,0.0,1,6.0,18.389999389648438,0.0,0.0,0.0,66.7128,C,31483091000000,
Raw,1732152599000,29768000000,,705887.1916317521,-1416187787232000000,0.0,143.77484892046655,1100.826477619417,0.0,0,15,0.0,16431,351016924805476,487,18.72800064086914,577.0472581450546,0.14999,16,0.0,0.0,1575420030,,,,0,0.0,1,6.0,18.72800064086914,0.0,0.0,0.0,66.7128,C,31483091000000,
Raw,1732152599000,29768000000,,705887.1916317521,-1416187787232000000,0.0,143.77484892046655,1100.826477619417,0.0,0,30,0.0,16431,351016925161817,396,22.881000518798828,886.7571793868249,0.14999,16,0.0,0.0,1575420030,,,,0,8.818807601892006,1,6.0,22.881000518798828,0.0,0.0,0.0,66.7128,C,31483091000000,
Raw,1732152599000,29768000000,,705887.1916317521,-1416187787232000000,0.0,143.77484892046655,1100.826477619417,0.0,0,8,0.0,17,560081,487,5.0,958.9867620621112,0.14999,16,0.0,0.0,1605374980,,,,0,2.7027630711513426,3,6.0,19.0,0.0,0.0,-27.560291915854545,66.7128,C,31483091000000,
Fix,FLP,37.4256059000,-122.1581527000,3.02425418415051,0.8580625,5.871,0.000000014324251,1732152599243,1.6,143.9,31483091000000,17.352861,0,,,
Fix,NLP,37.4256781000,-122.1581376000,-0.4000000059604645,,21.807,,1732152599368,,,31483216000000,20.824064,0,,,
Status,1732152599000,27,0,1,17,1575420030,0.00,63.0,75.0,0,0,0,0.0
Status,1732152599000,27,1,1,19,1575420030,0.00,202.0,67.0,0,0,0,0.0
Status,1732152599000,27,2,1,22,1575420030,0.00,24.0,64.0,0,0,0,0.0
Status,1732152599000,27,3,1,14,1575420030,0.00,58.0,49.0,0,0,0,0.0
Status,1732152599000,27,4,1,13,1575420030,29.90,229.0,44.0,1,0,0,24.9
Status,1732152599000,27,5,2,138,1575420030,0.00,156.0,43.0,0,0,0,0.0
Status,1732152599000,27,6,1,30,1575420030,27.90,134.0,32.0,1,0,0,22.9
Status,1732152599000,27,7,1,15,1575420030,23.70,269.0,29.0,1,0,0,18.7
Status,1732152599000,27,8,1,24,1575420030,23.40,313.0,21.0,1,0,0,18.4
Status,1732152599000,27,9,1,6,1575420030,25.80,159.0,16.0,1,0,0,20.8
Status,1732152599000,27,10,1,2,1575420030,0.00,43.0,15.0,0,0,0,0.0
Status,1732152599000,27,11,1,21,1575420030,0.00,31.0,2.0,0,0,0,0.0
Status,1732152599000,27,12,1,12,1575420030,0.00,270.0,2.0,0,0,0,0.0
Status,1732152599000,27,13,3,20,1602000000,0.00,104.0,57.0,0,0,0,0.0
Status,1732152599000,27,14,3,11,1602000000,0.00,315.0,32.0,0,0,0,0.0
Status,1732152599000,27,15,3,9,1602000000,0.00,87.0,30.0,0,0,0,0.0
Status,1732152599000,27,16,3,19,1602000000,0.00,30.0,19.0,0,0,0,0.0
Status,1732152599000,27,17,3,8,1602000000,25.20,242.0,18.0,1,0,0,20.2
Status,1732152599000,27,18,6,21,1575420030,0.00,354.0,68.0,0,0,0,0.0
Status,1732152599000,27,19,6,19,1575420030,0.00,238.0,43.0,0,0,0,0.0
Status,1732152599000,27,20,6,13,1575420030,0.00,117.0,32.0,0,0,0,0.0
Status,1732152599000,27,21,6,27,1575420030,0.00,68.0,31.0,0,0,0,0.0
Status,1732152599000,27,22,6,4,1575420030,0.00,308.0,25.0,0,0,0,0.0
Status,1732152599000,27,23,6,15,1575420030,0.00,58.0,23.0,0,0,0,0.0
Status,1732152599000,27,24,6,29,1575420030,0.00,190.0,21.0,0,0,0,0.0
Status,1732152599000,27,25,6,26,1575420030,0.00,166.0,10.0,0,0,0,0.0
Status,1732152599000,27,26,6,6,1575420030,0.00,325.0,7.0,0,0,0,0.0
Fix,GPS,37.4255933333,-122.1581266667,22.2,0.0,5.4,0.0,1732152600000,1.6,170.7,31484091000000,82.3,0,,,
Raw,1732152600000,30768000000,,705841.5350462219,-1416187787232000000,0.0,144.8055683877569,1097.6153259915702,0.0,0,6,0.0,16431,351017920529303,396,20.764999389648438,-328.5430481715336,0.14999,16,0.0,0.0,1575420030,,,,0,3.566135506898503,1,6.0,20.764999389648438,0.0,0.0,0.0,66.7128,C,31484091000000,
Raw,1732152600000,30768000000,,705841.5350462219,-1416187787232000000,0.0,144.8055683877569,1097.6153259915702,0.0,0,13,0.0,16431,351017928345848,797,24.854000091552734,764.5735424650063,0.14999,16,0.0,0.0,1575420030,,,,0,9.82833073205179,1,6.0,24.854000091552734,0.0,0.0,0.0,66.7128,C,31484091000000,
Raw,1732152600000,30768000000,,705841.5350462219,-1416187787232000000,0.0,144.8055683877569,1097.6153259915702,0.0,0,24,0.0,16431,351017922694902,487,18.430999755859375,-289.0497706361116,0.14999,16,0.0,0.0,1575420030,,,,0,0.8721640289493777,1,6.0,18.430999755859375,0.0,0.0,0.0,66.7128,C,31484091000000,
Raw,1732152600000,30768000000,,705841.5350462219,-1416187787232000000,0.0,144.8055683877569,1097.6153259915702,0.0,0,15,0.0,16431,351017924803554,797,18.711000442504883,575.8685152089607,0.14999,16,0.0,0.0,1575420030,,,,0,0.0,1,6.0,18.711000442504883,0.0,0.0,0.0,66.7128,C,31484091000000,
Raw,1732152600000,30768000000,,705841.5350462219,-1416187787232000000,0.0,144.8055683877569,1097.6153259915702,0.0,0,30,0.0,16431,351017925158902,487,22.864999771118164,885.978907998466,0.14999,16,0.0,0.0,1575420030,,,,0,6.488696220463264,1,6.0,22.864999771118164,0.0,0.0,0.0,66.7128,C,31484091000000,
Raw,1732152600000,30768000000,,705841.5350462219,-1416187787232000000,0.0,144.8055683877569,1097.6153259915702,0.0,0,8,0.0,17,556830,396,5.0,957.939159662591,0.14999,16,0.0,0.0,1605374980,,,,0,7.665379292494345,3,6.0,23.0,0.0,0.0,-22.53728013156589,66.7128,C,31484091000000,
Fix,FLP,37.4256021000,-122.1581405000,3.704415934017833,0.7416686,5.614,0.000000040783767,1732152600243,1.6,170.7,31484091000000,18.078997,0,,,
Status,1732152600000,27,0,1,17,1575420030,0.00,63.0,75.0,0,0,0,0.0
Status,1732152600000,27,1,1,19,1575420030,0.00,202.0,67.0,0,0,0,0.0
Status,1732152600000,27,2,1,22,1575420030,0.00,24.0,64.0,0,0,0,0.0
Status,1732152600000,27,3,1,14,1575420030,0.00,58.0,49.0,0,0,0,0.0
Status,1732152600000,27,4,1,13,1575420030,33.40,229.0,44.0,1,0,0,28.400002
Status,1732152600000,27,5,2,138,1575420030,0.00,156.0,43.0,0,0,0,0.0
Status,1732152600000,27,6,1,30,1575420030,27.80,134.0,32.0,1,0,0,22.8
Status,1732152600000,27,7,1,15,1575420030,23.70,269.0,29.0,1,0,0,18.7
Status,1732152600000,27,8,1,24,1575420030,23.50,313.0,21.0,1,0,0,18.5
Status,1732152600000,27,9,1,6,1575420030,30.60,159.0,16.0,1,0,0,25.6
Status,1732152600000,27,10,1,2,1575420030,0.00,43.0,15.0,0,0,0,0.0
Status,1732152600000,27,11,1,21,1575420030,0.00,31.0,2.0,0,0,0,0.0
Status,1732152600000,27,12,1,12,1575420030,0.00,270.0,2.0,0,0,0,0.0
Status,1732152600000,27,13,3,20,1602000000,0.00,104.0,57.0,0,0,0,0.0
Status,1732152600000,27,14,3,11,1602000000,0.00,315.0,32.0,0,0,0,0.0
Status,1732152600000,27,15,3,9,1602000000,0.00,87.0,30.0,0,0,0,0.0
Status,1732152600000,27,16,3,19,1602000000,0.00,30.0,19.0,0,0,0,0.0
Status,1732152600000,27,17,3,8,1602000000,25.30,242.0,18.0,1,0,0,20.3
Status,1732152600000,27,18,6,21,1575420030,0.00,354.0,68.0,0,0,0,0.0
Status,1732152600000,27,19,6,19,1575420030,0.00,238.0,43.0,0,0,0,0.0
Status,1732152600000,27,20,6,13,1575420030,0.00,117.0,32.0,0,0,0,0.0
Status,1732152600000,27,21,6,27,1575420030,0.00,68.0,31.0,0,0,0,0.0
Status,1732152600000,27,22,6,4,1575420030,0.00,308.0,25.0,0,0,0,0.0
Status,1732152600000,27,23,6,15,1575420030,0.00,58.0,23.0,0,0,0,0.0
Status,1732152600000,27,24,6,29,1575420030,0.00,190.0,21.0,0,0,0,0.0
Status,1732152600000,27,25,6,26,1575420030,0.00,166.0,10.0,0,0,0,0.0
Status,1732152600000,27,26,6,6,1575420030,0.00,325.0,7.0,0,0,0,0.0
Fix,GPS,37.4255916667,-122.1581150000,22.2,0.0,5.3,0.0,1732152601000,1.6,179.9,31485091000000,83.1,0,,,
Raw,1732152601000,31768000000,,705766.4831248022,-1416187787232000000,0.0,145.53006099061247,1092.922018642024,0.0,0,6,0.0,16431,351018920530399,396,25.579999923706055,-330.1346205940742,0.14999,16,0.0,0.0,1575420030,,,,0,10.848974117207353,1,6.0,25.579999923706055,0.0,0.0,0.0,66.7128,C,31485091000000,
Raw,1732152601000,31768000000,,705766.4831248022,-1416187787232000000,0.0,145.53006099061247,1092.922018642024,0.0,0,13,0.0,16431,351018928343282,235,28.35300064086914,762.8046847262062,0.14999,16,0.0,0.0,1575420030,,,,0,14.504578020839151,1,6.0,28.35300064086914,0.0,0.0,0.0,66.7128,C,31485091000000,
Raw,1732152601000,31768000000,,705766.4831248022,-1416187787232000000,0.0,145.53006099061247,1092.922018642024,0.0,0,24,0.0,16431,351018922695869,797,18.469999313354492,-290.0142008982262,0.14999,16,0.0,0.0,1575420030,,,,0,0.8721640289493777,1,6.0,18.469999313354492,0.0,0.0,0.0,66.7128,C,31485091000000,
Raw,1732152601000,31768000000,,705766.4831248022,-1416187787232000000,0.0,145.53006099061247,1092.922018642024,0.0,0,15,0.0,16431,351018924801636,487,18.69499969482422,574.0529203034529,0.14999,16,0.0,0.0,1575420030,,,,0,0.0,1,6.0,18.69499969482422,0.0,0.0,0.0,66.7128,C,31485091000000,
Raw,1732152601000,31768000000,,705766.4831248022,-1416187787232000000,0.0,145.53006099061247,1092.922018642024,0.0,0,30,0.0,16431,351018925155934,396,22.775999069213867,884.8105717476034,0.14999,16,0.0,0.0,1575420030,,,,0,4.084850188786498,1,6.0,22.775999069213867,0.0,0.0,0.0,66.7128,C,31485091000000,
Raw,1732152601000,31768000000,,705766.4831248022,-1416187787232000000,0.0,145.53006099061247,1092.922018642024,0.0,0,8,0.0,17,553619,487,5.0,957.2585691577585,0.14999,16,0.0,0.0,1605374980,,,,0,7.931294640533003,3,6.0,19.0,0.0,0.0,-16.768293065730827,66.7128,C,31485091000000,
Fix,FLP,37.4256006000,-122.1581291000,5.400000095367432,0.6817795,5.5,0.00000007418224,1732152601243,1.6,179.9,31485091000000,20.808163,0,,,
Status,1732152601000,27,0,1,17,1575420030,0.00,63.0,75.0,0,0,0,0.0
Status,1732152601000,27,1,1,19,1575420030,0.00,202.0,67.0,0,0,0,0.0
Status,1732152601000,27,2,1,22,1575420030,0.00,24.0,64.0,0,0,0,0.0
Status,1732152601000,27,3,1,14,1575420030,0.00,58.0,49.0,0,0,0,0.0
Status,1732152601000,27,4,1,13,1575420030,30.20,229.0,44.0,1,0,0,25.2
Status,1732152601000,27,5,2,138,1575420030,0.00,156.0,43.0,0,0,0,0.0
Status,1732152601000,27,6,1,30,1575420030,27.70,134.0,32.0,1,0,0,22.7
Status,1732152601000,27,7,1,15,1575420030,23.70,269.0,29.0,1,0,0,18.7
Status,1732152601000,27,8,1,24,1575420030,23.50,313.0,21.0,1,0,0,18.5
Status,1732152601000,27,9,1,6,1575420030,32.30,159.0,16.0,1,0,0,27.3
Status,1732152601000,27,10,1,2,1575420030,0.00,43.0,15.0,0,0,0,0.0
Status,1732152601000,27,11,1,21,1575420030,0.00,31.0,2.0,0,0,0,0.0
Status,1732152601000,27,12,1,12,1575420030,0.00,270.0,2.0,0,0,0,0.0
Status,1732152601000,27,13,3,20,1602000000,0.00,104.0,57.0,0,0,0,0.0
Status,1732152601000,27,14,3,11,1602000000,0.00,315.0,32.0,0,0,0,0.0
Status,1732152601000,27,15,3,9,1602000000,0.00,87.0,30.0,0,0,0,0.0
Status,1732152601000,27,16,3,19,1602000000,0.00,30.0,19.0,0,0,0,0.0
Status,1732152601000,27,17,3,8,1602000000,22.60,242.0,18.0,1,0,0,17.6
Status,1732152601000,27,18,6,21,1575420030,0.00,354.0,68.0,0,0,0,0.0
Status,1732152601000,27,19,6,19,1575420030,0.00,238.0,43.0,0,0,0,0.0
Status,1732152601000,27,20,6,13,1575420030,0.00,117.0,32.0,0,0,0,0.0
Status,1732152601000,27,21,6,27,1575420030,0.00,68.0,31.0,0,0,0,0.0
Status,1732152601000,27,22,6,4,1575420030,0.00,308.0,25.0,0,0,0,0.0
Status,1732152601000,27,23,6,15,1575420030,0.00,58.0,23.0,0,0,0,0.0
Status,1732152601000,27,24,6,29,1575420030,0.00,190.0,21.0,0,0,0,0.0
Status,1732152601000,27,25,6,26,1575420030,0.00,166.0,10.0,0,0,0,0.0
Status,1732152601000,27,26,6,6,1575420030,0.00,325.0,7.0,0,0,0,0.0
Fix,GPS,37.4255933333,-122.1581033333,22.2,0.0,5.2,0.0,1732152602000,1.6,179.9,31486091000000,84.6,0,,,
Raw,1732152602000,32768000000,,705749.3358455335,-1416187787232000000,0.0,147.54131465330207,1088.4513256742675,0.0,0,6,0.0,16431,351019920531501,316,27.253000259399414,-329.5546337261018,0.14999,16,0.0,0.0,1575420030,,,,0,13.078814374828424,1,6.0,27.253000259399414,0.0,0.0,0.0,66.7128,C,31486091000000,
Raw,1732152602000,32768000000,,705749.3358455335,-1416187787232000000,0.0,147.54131465330207,1088.4513256742675,0.0,0,13,0.0,16431,351019928340723,396,25.21299934387207,761.5217355625522,0.14999,16,0.0,0.0,1575420030,,,,0,10.333221880654373,1,6.0,25.21299934387207,0.0,0.0,0.0,66.7128,C,31486091000000,
Raw,1732152602000,32768000000,,705749.3358455335,-1416187787232000000,0.0,147.54131465330207,1088.4513256742675,0.0,0,24,0.0,16431,351019922696838,797,18.506999969482422,-291.31847447492083,0.14999,16,0.0,0.0,1575420030,,,,0,0.8721640289493777,1,6.0,18.506999969482422,0.0,0.0,0.0,66.7128,C,31486091000000,
Raw,1732152602000,32768000000,,705749.3358455335,-1416187787232000000,0.0,147.54131465330207,1088.4513256742675,0.0,0,15,0.0,16431,351019924799707,797,18.697999954223633,572.8429573116656,0.14999,16,0.0,0.0,1575420030,,,,0,0.11086919276342844,1,6.0,18.697999954223633,0.0,0.0,0.0,66.7128,C,31486091000000,
Raw,1732152602000,32768000000,,705749.3358455335,-1416187787232000000,0.0,147.54131465330207,1088.4513256742675,0.0,0,30,0.0,16431,351019925153003,487,22.665000915527344,883.8139458030549,0.14999,16,0.0,0.0,1575420030,,,,0,3.2022754103781215,1,6.0,22.665000915527344,0.0,0.0,0.0,66.7128,C,31486091000000,
Raw,1732152602000,32768000000,,705749.3358455335,-1416187787232000000,0.0,147.54131465330207,1088.4513256742675,0.0,0,8,0.0,17,550422,487,5.0,955.9588455436266,0.14999,16,0.0,0.0,1605374980,,,,0,0.12393348991186581,3,6.0,19.0,0.0,0.0,-12.836969798805027,66.7128,C,31486091000000,
Fix,FLP,37.4256000000,-122.1581171000,5.400000095367432,0.6291327,5.4,0.00000009089333,1732152602243,1.6,179.9,31486091000000,15.564903,0,,,
Status,1732152602000,27,0,1,17,1575420030,0.00,63.0,75.0,0,0,0,0.0
Status,1732152602000,27,1,1,19,1575420030,19.40,202.0,67.0,1,0,0,14.4
Status,1732152602000,27,2,1,22,1575420030,0.00,24.0,64.0,0,0,0,0.0
Status,1732152602000,27,3,1,14,1575420030,0.00,58.0,49.0,0,0,0,0.0
Status,1732152602000,27,4,1,13,1575420030,28.80,229.0,44.0,1,0,0,23.8
Status,1732152602000,27,5,2,138,1575420030,0.00,156.0,43.0,0,0,0,0.0
Status,1732152602000,27,6,1,30,1575420030,27.70,134.0,32.0,1,0,0,22.7
Status,1732152602000,27,7,1,15,1575420030,23.70,269.0,29.0,1,0,0,18.7
Status,1732152602000,27,8,1,24,1575420030,23.40,313.0,21.0,1,0,0,18.4
Status,1732152602000,27,9,1,6,1575420030,31.80,159.0,16.0,1,0,0,26.8
Status,1732152602000,27,10,1,2,1575420030,0.00,43.0,15.0,0,0,0,0.0
Status,1732152602000,27,11,1,21,1575420030,0.00,31.0,2.0,0,0,0,0.0
Status,1732152602000,27,12,1,12,1575420030,0.00,270.0,2.0,0,0,0,0.0
Status,1732152602000,27,13,3,20,1602000000,0.00,104.0,57.0,0,0,0,0.0
Status,1732152602000,27,14,3,11,1602000000,0.00,315.0,32.0,0,0,0,0.0
Status,1732152602000,27,15,3,9,1602000000,0.00,87.0,30.0,0,0,0,0.0
Status,1732152602000,27,16,3,19,1602000000,0.00,30.0,19.0,0,0,0,0.0
Status,1732152602000,27,17,3,8,1602000000,22.60,242.0,18.0,1,0,0,17.6
Status,1732152602000,27,18,6,21,1575420030,0.00,354.0,68.0,0,0,0,0.0
Status,1732152602000,27,19,6,19,1575420030,0.00,238.0,43.0,0,0,0,0.0
Status,1732152602000,27,20,6,13,1575420030,0.00,117.0,32.0,0,0,0,0.0
Status,1732152602000,27,21,6,27,1575420030,0.00,68.0,31.0,0,0,0,0.0
Status,1732152602000,27,22,6,4,1575420030,0.00,308.0,25.0,0,0,0,0.0
Status,1732152602000,27,23,6,15,1575420030,0.00,58.0,23.0,0,0,0,0.0
Status,1732152602000,27,24,6,29,1575420030,0.00,190.0,21.0,0,0,0,0.0
Status,1732152602000,27,25,6,26,1575420030,0.00,166.0,10.0,0,0,0,0.0
Status,1732152602000,27,26,6,6,1575420030,0.00,325.0,7.0,0,0,0,0.0
Fix,GPS,37.4255900000,-122.1580983333,22.3,0.0,5.2,0.0,1732152603000,1.6,179.9,31487091000000,51.6,0,,,
Raw,1732152603000,33768000000,,968968.8807981954,-1416187787232000000,0.0,120.79920690369528,1086.6538574542346,0.0,0,6,0.0,16431,351020920532598,316,26.777999877929688,-330.24821142170896,0.14999,16,0.0,0.0,1575420030,,,,0,12.461439871425082,1,6.0,26.777999877929688,0.0,0.0,0.0,66.7128,C,31487091000000,
Raw,1732152603000,33768000000,,968968.8807981954,-1416187787232000000,0.0,120.79920690369528,1086.6538574542346,0.0,0,13,0.0,16431,351020928338188,487,23.83099937438965,761.6970696253308,0.14999,16,0.0,0.0,1575420030,,,,0,8.369437243709786,1,6.0,23.83099937438965,0.0,0.0,0.0,66.7128,C,31487091000000,
Raw,1732152603000,33768000000,,968968.8807981954,-1416187787232000000,0.0,120.79920690369528,1086.6538574542346,0.0,0,24,0.0,16431,351020922697799,797,18.398000717163086,-291.3757112436922,0.14999,16,0.0,0.0,1575420030,,,,0,0.0,1,6.0,18.398000717163086,0.0,0.0,0.0,66.7128,C,31487091000000,
Raw,1732152603000,33768000000,,968968.8807981954,-1416187787232000000,0.0,120.79920690369528,1086.6538574542346,0.0,0,15,0.0,16431,351020924797796,797,18.700000762939453,572.4650645542091,0.14999,16,0.0,0.0,1575420030,,,,0,0.11086919276342844,1,6.0,18.700000762939453,0.0,0.0,0.0,66.7128,C,31487091000000,
Raw,1732152603000,33768000000,,968968.8807981954,-1416187787232000000,0.0,120.79920690369528,1086.6538574542346,0.0,0,30,0.0,16431,351020925150042,487,22.68899917602539,883.1938188634766,0.14999,16,0.0,0.0,1575420030,,,,0,7.33677319152501,1,6.0,22.68899917602539,0.0,0.0,0.0,66.7128,C,31487091000000,
Raw,1732152603000,33768000000,,968968.8807981954,-1416187787232000000,0.0,120.79920690369528,1086.6538574542346,0.0,0,8,0.0,17,547234,797,5.0,955.4346340200091,0.14999,16,0.0,0.0,1605374980,,,,0,0.12393348991186581,3,6.0,17.0,0.0,0.0,-9.18691842654354,66.7128,C,31487091000000,
Raw,1732152603000,33768000000,,968968.8807981954,-1416187787232000000,0.0,120.79920690369528,1086.6538574542346,0.0,0,19,0.0,16431,351020931888844,797,14.399999618530273,9.688902700707763,0.14999,16,0.0,0.0,1575420030,,,,0,0.0,1,6.0,14.399999618530273,0.0,0.0,0.0,66.7128,C,31487091000000,
Fix,FLP,37.4255979000,-122.1581084000,3.759396678747546,0.5767372,5.342,0.000000072285715,1732152603243,1.6,179.9,31487091000000,15.394289,0,,,
Status,1732152603000,26,0,1,17,1575420030,0.00,63.0,75.0,0,0,0,0.0
Status,1732152603000,26,1,1,19,1575420030,19.40,202.0,67.0,1,0,0,14.4
Status,1732152603000,26,2,1,22,1575420030,0.00,24.0,64.0,0,0,0,0.0
Status,1732152603000,26,3,1,14,1575420030,0.00,58.0,49.0,0,0,0,0.0
Status,1732152603000,26,4,1,13,1575420030,25.90,229.0,44.0,1,0,0,20.9
Status,1732152603000,26,5,1,30,1575420030,27.70,134.0,32.0,1,0,0,22.7
Status,1732152603000,26,6,1,15,1575420030,23.80,269.0,29.0,1,0,0,18.8
Status,1732152603000,26,7,1,24,1575420030,23.30,313.0,21.0,1,0,0,18.3
Status,1732152603000,26,8,1,6,1575420030,28.30,159.0,16.0,1,0,0,23.3
Status,1732152603000,26,9,1,2,1575420030,0.00,43.0,15.0,0,0,0,0.0
Status,1732152603000,26,10,1,21,1575420030,0.00,31.0,2.0,0,0,0,0.0
Status,1732152603000,26,11,1,12,1575420030,0.00,270.0,2.0,0,0,0,0.0
Status,1732152603000,26,12,3,20,1602000000,0.00,104.0,57.0,0,0,0,0.0
Status,1732152603000,26,13,3,11,1602000000,0.00,315.0,32.0,0,0,0,0.0
Status,1732152603000,26,14,3,9,1602000000,0.00,87.0,30.0,0,0,0,0.0
Status,1732152603000,26,15,3,19,1602000000,0.00,30.0,19.0,0,0,0,0.0
Status,1732152603000,26,16,3,8,1602000000,22.50,242.0,18.0,1,0,0,17.5
Status,1732152603000,26,17,6,21,1575420030,0.00,354.0,68.0,0,0,0,0.0
Status,1732152603000,26,18,6,19,1575420030,0.00,238.0,43.0,0,0,0,0.0
Status,1732152603000,26,19,6,13,1575420030,0.00,117.0,32.0,0,0,0,0.0
Status,1732152603000,26,20,6,27,1575420030,0.00,68.0,31.0,0,0,0,0.0
Status,1732152603000,26,21,6,4,1575420030,0.00,308.0,25.0,0,0,0,0.0
Status,1732152603000,26,22,6,15,1575420030,0.00,58.0,23.0,0,0,0,0.0
Status,1732152603000,26,23,6,29,1575420030,0.00,190.0,21.0,0,0,0,0.0
Status,1732152603000,26,24,6,26,1575420030,0.00,166.0,10.0,0,0,0,0.0
Status,1732152603000,26,25,6,6,1575420030,0.00,325.0,7.0,0,0,0,0.0
Fix,GPS,37.4255850000,-122.1580950000,22.3,0.0,5.2,0.0,1732152604000,1.6,179.9,31488091000000,52.1,0,,,
Raw,1732152604000,34768000000,,695800.7345868588,-1416187787232000000,0.0,121.4937588511858,1083.9358890831434,0.0,0,6,0.0,16431,351021920533703,396,23.29800033569336,-331.3637244533402,0.14999,16,0.0,0.0,1575420030,,,,0,7.5646128681448355,1,6.0,23.29800033569336,0.0,0.0,0.0,66.7128,C,31488091000000,
Raw,1732152604000,34768000000,,695800.7345868588,-1416187787232000000,0.0,121.4937588511858,1083.9358890831434,0.0,0,13,0.0,16431,351021928335649,487,20.86199951171875,761.6976271263253,0.14999,16,0.0,0.0,1575420030,,,,0,3.742504807842275,1,6.0,20.86199951171875,0.0,0.0,0.0,66.7128,C,31488091000000,
Raw,1732152604000,34768000000,,695800.7345868588,-1416187787232000000,0.0,121.4937588511858,1083.9358890831434,0.0,0,24,0.0,16431,351021922698771,797,18.295000076293945,-291.9602510364532,0.14999,16,0.0,0.0,1575420030,,,,0,0.0,1,6.0,18.295000076293945,0.0,0.0,0.0,66.7128,C,31488091000000,
Raw,1732152604000,34768000000,,695800.7345868588,-1416187787232000000,0.0,121.4937588511858,1083.9358890831434,0.0,0,15,0.0,16431,351021924795890,487,18.76300048828125,572.4608832967501,0.14999,16,0.0,0.0,1575420030,,,,0,2.2197727025998084,1,6.0,18.76300048828125,0.0,0.0,0.0,66.7128,C,31488091000000,
Raw,1732152604000,34768000000,,695800.7345868588,-1416187787232000000,0.0,121.4937588511858,1083.9358890831434,0.0,0,30,0.0,16431,351021925147098,797,22.711999893188477,882.2072279368297,0.14999,16,0.0,0.0,1575420030,,,,0,7.33677319152501,1,6.0,22.711999893188477,0.0,0.0,0.0,66.7128,C,31488091000000,
Raw,1732152604000,34768000000,,695800.7345868588,-1416187787232000000,0.0,121.4937588511858,1083.9358890831434,0.0,0,8,0.0,17,544030,797,5.0,954.3509231210362,0.14999,16,0.0,0.0,1605374980,,,,0,0.0,3,6.0,17.0,0.0,0.0,-3.7828532312077785,66.7128,C,31488091000000,
Raw,1732152604000,34768000000,,695800.7345868588,-1416187787232000000,0.0,121.4937588511858,1083.9358890831434,0.0,0,19,0.0,16431,351021931888811,797,14.399999618530273,9.353472935667675,0.14999,16,0.0,0.0,1575420030,,,,0,0.0,1,6.0,14.399999618530273,0.0,0.0,0.0,66.7128,C,31488091000000,
Fix,FLP,37.4255942000,-122.1581022000,5.400000095367432,0.52430964,5.3,0.000000056477084,1732152604243,1.6,179.9,31488091000000,14.074971,0,,,
Fix,FLP,37.4255915000,-122.1580995000,5.400000095367432,0.48760313,5.25,0.000000037992514,1732152604575,1.6,179.9,31488423000000,14.890845,0,,,
Fix,NLP,37.4257034000,-122.1581084000,5.400000095367432,,21.276,,1732152604575,,,31488423000000,18.05547,0,,,
Status,1732152604000,26,0,1,17,1575420030,0.00,63.0,75.0,0,0,0,0.0
Status,1732152604000,26,1,1,19,1575420030,19.40,202.0,67.0,1,0,0,14.4
Status,1732152604000,26,2,1,22,1575420030,0.00,24.0,64.0,0,0,0,0.0
Status,1732152604000,26,3,1,14,1575420030,0.00,58.0,49.0,0,0,0,0.0
Status,1732152604000,26,4,1,13,1575420030,23.20,229.0,44.0,1,0,0,18.2
Status,1732152604000,26,5,1,30,1575420030,27.70,134.0,32.0,1,0,0,22.7
Status,1732152604000,26,6,1,15,1575420030,23.80,269.0,29.0,1,0,0,18.8
Status,1732152604000,26,7,1,24,1575420030,23.20,313.0,21.0,1,0,0,18.2
Status,1732152604000,26,8,1,6,1575420030,25.00,159.0,16.0,1,0,0,20.0
Status,1732152604000,26,9,1,2,1575420030,0.00,43.0,15.0,0,0,0,0.0
Status,1732152604000,26,10,1,21,1575420030,0.00,31.0,2.0,0,0,0,0.0
Status,1732152604000,26,11,1,12,1575420030,0.00,270.0,2.0,0,0,0,0.0
Status,1732152604000,26,12,3,20,1602000000,0.00,104.0,57.0,0,0,0,0.0
Status,1732152604000,26,13,3,11,1602000000,0.00,315.0,32.0,0,0,0,0.0
Status,1732152604000,26,14,3,9,1602000000,0.00,87.0,30.0,0,0,0,0.0
Status,1732152604000,26,15,3,19,1602000000,0.00,30.0,19.0,0,0,0,0.0
Status,1732152604000,26,16,3,8,1602000000,22.40,242.0,18.0,1,0,0,17.4
Status,1732152604000,26,17,6,21,1575420030,0.00,354.0,68.0,0,0,0,0.0
Status,1732152604000,26,18,6,19,1575420030,0.00,238.0,43.0,0,0,0,0.0
Status,1732152604000,26,19,6,13,1575420030,0.00,117.0,32.0,0,0,0,0.0
Status,1732152604000,26,20,6,27,1575420030,0.00,68.0,31.0,0,0,0,0.0
Status,1732152604000,26,21,6,4,1575420030,0.00,308.0,25.0,0,0,0,0.0
Status,1732152604000,26,22,6,15,1575420030,0.00,58.0,23.0,0,0,0,0.0
Status,1732152604000,26,23,6,29,1575420030,0.00,190.0,21.0,0,0,0,0.0
Status,1732152604000,26,24,6,26,1575420030,0.00,166.0,10.0,0,0,0,0.0
Status,1732152604000,26,25,6,6,1575420030,0.00,325.0,7.0,0,0,0,0.0
Fix,GPS,37.4255833333,-122.1580916667,22.3,0.0,5.2,0.0,1732152605000,1.6,179.9,31489091000000,52.8,0,,,
Fix,FLP,37.4255898000,-122.1580964000,5.400000095367432,0.4522955,5.242,0.000000043136872,1732152605243,1.6,179.9,31489091000000,13.54088,0,,,
Raw,1732152605000,35768000000,,695738.3997965686,-1416187787232000000,0.0,122.79638731316187,1084.2870561507905,0.0,0,6,0.0,16431,351022920534807,797,19.976999282836914,-330.822390987655,0.14999,16,0.0,0.0,1575420030,,,,0,2.2197727025998084,1,6.0,19.976999282836914,0.0,0.0,0.0,66.7128,C,31489091000000,
Raw,1732152605000,35768000000,,695738.3997965686,-1416187787232000000,0.0,122.79638731316187,1084.2870561507905,0.0,0,13,0.0,16431,351022928333110,797,18.18600082397461,761.4561827372792,0.14999,16,0.0,0.0,1575420030,,,,0,0.0,1,6.0,18.18600082397461,0.0,0.0,0.0,66.7128,C,31489091000000,
Raw,1732152605000,35768000000,,695738.3997965686,-1416187787232000000,0.0,122.79638731316187,1084.2870561507905,0.0,0,24,0.0,16431,351022922699745,1797,18.19700050354004,-291.89047049530495,0.14999,16,0.0,0.0,1575420030,,,,0,0.0,1,6.0,18.19700050354004,0.0,0.0,0.0,66.7128,C,31489091000000,
Raw,1732152605000,35768000000,,695738.3997965686,-1416187787232000000,0.0,122.79638731316187,1084.2870561507905,0.0,0,15,0.0,16431,351022924793964,487,18.822999954223633,572.7727121863553,0.14999,16,0.0,0.0,1575420030,,,,0,2.2197727025998084,1,6.0,18.822999954223633,0.0,0.0,0.0,66.7128,C,31489091000000,
Raw,1732152605000,35768000000,,695738.3997965686,-1416187787232000000,0.0,122.79638731316187,1084.2870561507905,0.0,0,30,0.0,16431,351022925144155,797,22.733999252319336,882.5978503003279,0.14999,16,0.0,0.0,1575420030,,,,0,7.33677319152501,1,6.0,22.733999252319336,0.0,0.0,0.0,66.7128,C,31489091000000,
Raw,1732152605000,35768000000,,695738.3997965686,-1416187787232000000,0.0,122.79638731316187,1084.2870561507905,0.0,0,8,0.0,17,540846,797,5.0,954.4802207276617,0.14999,16,0.0,0.0,1605374980,,,,0,0.0,3,6.0,16.0,0.0,0.0,0.18956738346517715,66.7128,C,31489091000000,
Raw,1732152605000,35768000000,,695738.3997965686,-1416187787232000000,0.0,122.79638731316187,1084.2870561507905,0.0,0,19,0.0,16431,351022931888779,797,14.399999618530273,10.189120468046628,0.14999,16,0.0,0.0,1575420030,,,,0,0.0,1,6.0,14.399999618530273,0.0,0.0,0.0,66.7128,C,31489091000000,
Status,1732152605000,26,0,1,17,1575420030,0.00,63.0,75.0,0,0,0,0.0
Status,1732152605000,26,1,1,19,1575420030,16.00,202.0,67.0,1,0,0,11.0
Status,1732152605000,26,2,1,22,1575420030,0.00,24.0,64.0,0,0,0,0.0
Status,1732152605000,26,3,1,14,1575420030,0.00,58.0,49.0,0,0,0,0.0
Status,1732152605000,26,4,1,13,1575420030,23.20,229.0,44.0,1,0,0,18.2
Status,1732152605000,26,5,1,30,1575420030,24.80,134.0,32.0,1,0,0,19.8
Status,1732152605000,26,6,1,15,1575420030,23.90,269.0,29.0,1,0,0,18.9
Status,1732152605000,26,7,1,24,1575420030,18.20,313.0,21.0,1,0,0,13.200001
Status,1732152605000,26,8,1,6,1575420030,24.10,159.0,16.0,1,0,0,19.1
Status,1732152605000,26,9,1,2,1575420030,0.00,43.0,15.0,0,0,0,0.0
Status,1732152605000,26,10,1,21,1575420030,0.00,31.0,2.0,0,0,0,0.0
Status,1732152605000,26,11,1,12,1575420030,0.00,270.0,2.0,0,0,0,0.0
Status,1732152605000,26,12,3,20,1602000000,0.00,104.0,57.0,0,0,0,0.0
Status,1732152605000,26,13,3,11,1602000000,0.00,315.0,32.0,0,0,0,0.0
Status,1732152605000,26,14,3,9,1602000000,0.00,87.0,30.0,0,0,0,0.0
Status,1732152605000,26,15,3,19,1602000000,0.00,30.0,19.0,0,0,0,0.0
Status,1732152605000,26,16,3,8,1602000000,22.30,242.0,18.0,1,0,0,17.3
Status,1732152605000,26,17,6,21,1575420030,0.00,354.0,68.0,0,0,0,0.0
Status,1732152605000,26,18,6,19,1575420030,0.00,238.0,43.0,0,0,0,0.0
Status,1732152605000,26,19,6,13,1575420030,0.00,117.0,32.0,0,0,0,0.0
Status,1732152605000,26,20,6,27,1575420030,0.00,68.0,31.0,0,0,0,0.0
Status,1732152605000,26,21,6,4,1575420030,0.00,308.0,25.0,0,0,0,0.0
Status,1732152605000,26,22,6,15,1575420030,0.00,58.0,23.0,0,0,0,0.0
Status,1732152605000,26,23,6,29,1575420030,0.00,190.0,21.0,0,0,0,0.0
Status,1732152605000,26,24,6,26,1575420030,0.00,166.0,10.0,0,0,0,0.0
Status,1732152605000,26,25,6,6,1575420030,0.00,325.0,7.0,0,0,0,0.0
Fix,GPS,37.4255900000,-122.1580883333,22.3,0.0,5.2,0.0,1732152606000,1.6,179.9,31490091000000,49.4,0,,,
Fix,FLP,37.4255919000,-122.1580928000,5.400000095367432,0.42541626,5.214,0.000000043973483,1732152606244,1.6,179.9,31490091000000,14.6064205,0,,,
Raw,1732152606000,36768000000,,695678.3061400431,-1416187787232000000,0.0,121.042574933662,1085.7138872485077,0.0,0,6,0.0,16431,351023920535910,487,19.08300018310547,-330.66150549231793,0.14999,16,0.0,0.0,1575420030,,,,0,0.6257392847300434,1,6.0,19.08300018310547,0.0,0.0,0.0,66.7128,C,31490091000000,
Raw,1732152606000,36768000000,,695678.3061400431,-1416187787232000000,0.0,121.042574933662,1085.7138872485077,0.0,0,13,0.0,16431,351023928330570,797,18.18600082397461,762.2328745394869,0.14999,16,0.0,0.0,1575420030,,,,0,0.0,1,6.0,18.18600082397461,0.0,0.0,0.0,66.7128,C,31490091000000,
Raw,1732152606000,36768000000,,695678.3061400431,-1416187787232000000,0.0,121.042574933662,1085.7138872485077,0.0,0,24,0.0,16431,351023922700707,1797,13.199999809265137,-292.36643696938194,0.14999,16,0.0,0.0,1575420030,,,,0,0.0,1,6.0,13.199999809265137,0.0,0.0,0.0,66.7128,C,31490091000000,
Raw,1732152606000,36768000000,,695678.3061400431,-1416187787232000000,0.0,121.042574933662,1085.7138872485077,0.0,0,15,0.0,16431,351023924792010,487,18.90399932861328,573.7542856040516,0.14999,16,0.0,0.0,1575420030,,,,0,3.0144650742567314,1,6.0,18.90399932861328,0.0,0.0,0.0,66.7128,C,31490091000000,
Raw,1732152606000,36768000000,,695678.3061400431,-1416187787232000000,0.0,121.042574933662,1085.7138872485077,0.0,0,30,0.0,16431,351023925141181,797,19.812000274658203,883.9824040202343,0.14999,16,0.0,0.0,1575420030,,,,0,1.9019608002851363,1,6.0,19.812000274658203,0.0,0.0,0.0,66.7128,C,31490091000000,
Raw,1732152606000,36768000000,,695678.3061400431,-1416187787232000000,0.0,121.042574933662,1085.7138872485077,0.0,0,8,0.0,17,537661,797,5.0,955.097165443055,0.14999,16,0.0,0.0,1605374980,,,,0,0.0,3,6.0,17.0,0.0,0.0,1.635584245270965,66.7128,C,31490091000000,
Raw,1732152606000,36768000000,,695678.3061400431,-1416187787232000000,0.0,121.042574933662,1085.7138872485077,0.0,0,19,0.0,16431,351023931888701,1797,11.0,10.141872258760511,0.14999,16,0.0,0.0,1575420030,,,,0,0.0,1,6.0,11.0,0.0,0.0,0.0,66.7128,C,31490091000000,
Status,1732152606000,26,0,1,17,1575420030,0.00,63.0,75.0,0,0,0,0.0
Status,1732152606000,26,1,1,19,1575420030,16.00,202.0,67.0,1,0,0,11.0
Status,1732152606000,26,2,1,22,1575420030,0.00,24.0,64.0,0,0,0,0.0
Status,1732152606000,26,3,1,14,1575420030,0.00,58.0,49.0,0,0,0,0.0
Status,1732152606000,26,4,1,13,1575420030,23.20,229.0,44.0,1,0,0,18.2
Status,1732152606000,26,5,1,30,1575420030,24.80,134.0,32.0,1,0,0,19.8
Status,1732152606000,26,6,1,15,1575420030,28.40,269.0,29.0,1,0,0,23.4
Status,1732152606000,26,7,1,24,1575420030,18.20,313.0,21.0,1,0,0,13.200001
Status,1732152606000,26,8,1,6,1575420030,25.30,159.0,16.0,1,0,0,20.3
Status,1732152606000,26,9,1,2,1575420030,0.00,43.0,15.0,0,0,0,0.0
Status,1732152606000,26,10,1,21,1575420030,0.00,31.0,2.0,0,0,0,0.0
Status,1732152606000,26,11,1,12,1575420030,0.00,270.0,2.0,0,0,0,0.0
Status,1732152606000,26,12,3,20,1602000000,0.00,104.0,57.0,0,0,0,0.0
Status,1732152606000,26,13,3,11,1602000000,0.00,315.0,32.0,0,0,0,0.0
Status,1732152606000,26,14,3,9,1602000000,0.00,87.0,30.0,0,0,0,0.0
Status,1732152606000,26,15,3,19,1602000000,0.00,30.0,19.0,0,0,0,0.0
Status,1732152606000,26,16,3,8,1602000000,22.30,242.0,18.0,1,0,0,17.3
Status,1732152606000,26,17,6,21,1575420030,0.00,354.0,68.0,0,0,0,0.0
Status,1732152606000,26,18,6,19,1575420030,0.00,238.0,43.0,0,0,0,0.0
Status,1732152606000,26,19,6,13,1575420030,0.00,117.0,32.0,0,0,0,0.0
Status,1732152606000,26,20,6,27,1575420030,0.00,68.0,31.0,0,0,0,0.0
Status,1732152606000,26,21,6,4,1575420030,0.00,308.0,25.0,0,0,0,0.0
Status,1732152606000,26,22,6,15,1575420030,0.00,58.0,23.0,0,0,0,0.0
Status,1732152606000,26,23,6,29,1575420030,0.00,190.0,21.0,0,0,0,0.0
Status,1732152606000,26,24,6,26,1575420030,0.00,166.0,10.0,0,0,0,0.0
Status,1732152606000,26,25,6,6,1575420030,0.00,325.0,7.0,0,0,0,0.0
Fix,GPS,37.4255933333,-122.1580916667,22.2,0.0,5.2,0.0,1732152607000,1.6,179.9,31491091000000,49.3,0,,,
Raw,1732152607000,37768000000,,695618.3688416871,-1416187787232000000,0.0,121.1411895019064,1088.679782142033,0.0,0,6,0.0,16431,351024920537009,487,20.305999755859375,-329.67101205870927,0.14999,16,0.0,0.0,1575420030,,,,0,2.8225038992460054,1,6.0,20.305999755859375,0.0,0.0,0.0,66.7128,C,31491091000000,
Raw,1732152607000,37768000000,,695618.3688416871,-1416187787232000000,0.0,121.1411895019064,1088.679782142033,0.0,0,13,0.0,16431,351024928328027,797,18.18600082397461,763.086873146269,0.14999,16,0.0,0.0,1575420030,,,,0,0.0,1,6.0,18.18600082397461,0.0,0.0,0.0,66.7128,C,31491091000000,
Raw,1732152607000,37768000000,,695618.3688416871,-1416187787232000000,0.0,121.1411895019064,1088.679782142033,0.0,0,24,0.0,16431,351024922701681,797,13.199999809265137,-291.73525292674555,0.14999,16,0.0,0.0,1575420030,,,,0,0.0,1,6.0,13.199999809265137,0.0,0.0,0.0,66.7128,C,31491091000000,
Raw,1732152607000,37768000000,,695618.3688416871,-1416187787232000000,0.0,121.1411895019064,1088.679782142033,0.0,0,15,0.0,16431,351024924790104,396,23.365999221801758,575.0310093399333,0.14999,16,0.0,0.0,1575420030,,,,0,7.676330030577112,1,6.0,23.365999221801758,0.0,0.0,0.0,66.7128,C,31491091000000,
Raw,1732152607000,37768000000,,695618.3688416871,-1416187787232000000,0.0,121.1411895019064,1088.679782142033,0.0,0,30,0.0,16431,351024925138208,797,19.75200080871582,885.0859772388994,0.14999,16,0.0,0.0,1575420030,,,,0,0.0,1,6.0,19.75200080871582,0.0,0.0,0.0,66.7128,C,31491091000000,
Raw,1732152607000,37768000000,,695618.3688416871,-1416187787232000000,0.0,121.1411895019064,1088.679782142033,0.0,0,8,0.0,17,534470,797,5.0,955.9891183259958,0.14999,16,0.0,0.0,1605374980,,,,0,0.0,3,6.0,17.0,0.0,0.0,3.701961536769576,66.7128,C,31491091000000,
Raw,1732152607000,37768000000,,695618.3688416871,-1416187787232000000,0.0,121.1411895019064,1088.679782142033,0.0,0,19,0.0,16431,351024931888666,1797,11.0,11.487517055090647,0.14999,16,0.0,0.0,1575420030,,,,0,0.0,1,6.0,11.0,0.0,0.0,0.0,66.7128,C,31491091000000,
Fix,FLP,37.4255944000,-122.1580923000,5.400000095367432,0.40130636,5.2,0.000000006315157,1732152607243,1.6,179.9,31491091000000,14.492312,0,,,
Status,1732152607000,26,0,1,17,1575420030,0.00,63.0,75.0,0,0,0,0.0
Status,1732152607000,26,1,1,19,1575420030,16.00,202.0,67.0,1,0,0,11.0
Status,1732152607000,26,2,1,22,1575420030,0.00,24.0,64.0,0,0,0,0.0
Status,1732152607000,26,3,1,14,1575420030,0.00,58.0,49.0,0,0,0,0.0
Status,1732152607000,26,4,1,13,1575420030,23.10,229.0,44.0,1,0,0,18.1
Status,1732152607000,26,5,1,30,1575420030,24.70,134.0,32.0,1,0,0,19.7
Status,1732152607000,26,6,1,15,1575420030,28.30,269.0,29.0,1,0,0,23.3
Status,1732152607000,26,7,1,24,1575420030,19.60,313.0,21.0,1,0,0,14.6
Status,1732152607000,26,8,1,6,1575420030,25.30,159.0,16.0,1,0,0,20.3
Status,1732152607000,26,9,1,2,1575420030,0.00,43.0,15.0,0,0,0,0.0
Status,1732152607000,26,10,1,21,1575420030,0.00,31.0,2.0,0,0,0,0.0
Status,1732152607000,26,11,1,12,1575420030,0.00,270.0,2.0,0,0,0,0.0
Status,1732152607000,26,12,3,20,1602000000,0.00,104.0,57.0,0,0,0,0.0
Status,1732152607000,26,13,3,11,1602000000,0.00,315.0,32.0,0,0,0,0.0
Status,1732152607000,26,14,3,9,1602000000,0.00,87.0,30.0,0,0,0,0.0
Status,1732152607000,26,15,3,19,1602000000,0.00,30.0,19.0,0,0,0,0.0
Status,1732152607000,26,16,3,8,1602000000,22.30,242.0,18.0,1,0,0,17.3
Status,1732152607000,26,17,6,21,1575420030,0.00,354.0,68.0,0,0,0,0.0
Status,1732152607000,26,18,6,19,1575420030,0.00,238.0,43.0,0,0,0,0.0
Status,1732152607000,26,19,6,13,1575420030,0.00,117.0,32.0,0,0,0,0.0
Status,1732152607000,26,20,6,27,1575420030,0.00,68.0,31.0,0,0,0,0.0
Status,1732152607000,26,21,6,4,1575420030,0.00,308.0,25.0,0,0,0,0.0
Status,1732152607000,26,22,6,15,1575420030,0.00,58.0,23.0,0,0,0,0.0
Status,1732152607000,26,23,6,29,1575420030,0.00,190.0,21.0,0,0,0,0.0
Status,1732152607000,26,24,6,26,1575420030,0.00,166.0,10.0,0,0,0,0.0
Status,1732152607000,26,25,6,6,1575420030,0.00,325.0,7.0,0,0,0,0.0
Fix,GPS,37.4255933333,-122.1580966667,22.2,0.0,5.2,0.0,1732152608000,1.6,179.9,31492091000000,48.5,0,,,
Fix,FLP,37.4255956000,-122.1580943000,5.400000095367432,0.37562197,5.2,0.0,1732152608243,1.6,179.9,31492091000000,14.908296,0,,,
Raw,1732152608000,38768000000,,695555.5128574983,-1416187787232000000,0.0,120.57893376938836,1092.829109155847,0.0,0,6,0.0,16431,351025920538107,487,20.305999755859375,-329.11081647604254,0.14999,16,0.0,0.0,1575420030,,,,0,2.8225038992460054,1,6.0,20.305999755859375,0.0,0.0,0.0,66.7128,C,31492091000000,
Raw,1732152608000,38768000000,,695555.5128574983,-1416187787232000000,0.0,120.57893376938836,1092.829109155847,0.0,0,13,0.0,16431,351025928325486,797,18.08799934387207,763.9376196639164,0.14999,16,0.0,0.0,1575420030,,,,0,0.0,1,6.0,18.08799934387207,0.0,0.0,0.0,66.7128,C,31492091000000,
Raw,1732152608000,38768000000,,695555.5128574983,-1416187787232000000,0.0,120.57893376938836,1092.829109155847,0.0,0,24,0.0,16431,351025922702652,797,14.600000381469727,-291.28070378254165,0.14999,16,0.0,0.0,1575420030,,,,0,0.0,1,6.0,14.600000381469727,0.0,0.0,0.0,66.7128,C,31492091000000,
Raw,1732152608000,38768000000,,695555.5128574983,-1416187787232000000,0.0,120.57893376938836,1092.829109155847,0.0,0,15,0.0,16431,351025924788188,396,23.339000701904297,576.0388317627886,0.14999,16,0.0,0.0,1575420030,,,,0,6.8623404798183465,1,6.0,23.339000701904297,0.0,0.0,0.0,66.7128,C,31492091000000,
Raw,1732152608000,38768000000,,695555.5128574983,-1416187787232000000,0.0,120.57893376938836,1092.829109155847,0.0,0,30,0.0,16431,351025925135253,797,19.69499969482422,886.396847910696,0.14999,16,0.0,0.0,1575420030,,,,0,0.0,1,6.0,19.69499969482422,0.0,0.0,0.0,66.7128,C,31492091000000,
Raw,1732152608000,38768000000,,695555.5128574983,-1416187787232000000,0.0,120.57893376938836,1092.829109155847,0.0,0,8,0.0,17,531279,797,5.0,956.9833786240522,0.14999,16,0.0,0.0,1605374980,,,,0,0.0,3,6.0,17.0,0.0,0.0,6.01059459926731,66.7128,C,31492091000000,
Raw,1732152608000,38768000000,,695555.5128574983,-1416187787232000000,0.0,120.57893376938836,1092.829109155847,0.0,0,19,0.0,16431,351025931888627,1797,11.0,12.155054808411768,0.14999,16,0.0,0.0,1575420030,,,,0,0.0,1,6.0,11.0,0.0,0.0,0.0,66.7128,C,31492091000000,
Status,1732152608000,26,0,1,17,1575420030,0.00,63.0,75.0,0,0,0,0.0
Status,1732152608000,26,1,1,19,1575420030,0.00,202.0,67.0,0,0,0,0.0
Status,1732152608000,26,2,1,22,1575420030,0.00,24.0,64.0,0,0,0,0.0
Status,1732152608000,26,3,1,14,1575420030,0.00,58.0,49.0,0,0,0,0.0
Status,1732152608000,26,4,1,13,1575420030,23.20,229.0,44.0,1,0,0,18.2
Status,1732152608000,26,5,1,30,1575420030,24.60,134.0,32.0,1,0,0,19.6
Status,1732152608000,26,6,1,15,1575420030,28.40,269.0,29.0,1,0,0,23.4
Status,1732152608000,26,7,1,24,1575420030,19.60,313.0,21.0,1,0,0,14.6
Status,1732152608000,26,8,1,6,1575420030,25.30,159.0,16.0,1,0,0,20.3
Status,1732152608000,26,9,1,2,1575420030,0.00,43.0,15.0,0,0,0,0.0
Status,1732152608000,26,10,1,21,1575420030,0.00,31.0,2.0,0,0,0,0.0
Status,1732152608000,26,11,1,12,1575420030,0.00,270.0,2.0,0,0,0,0.0
Status,1732152608000,26,12,3,20,1602000000,0.00,104.0,57.0,0,0,0,0.0
Status,1732152608000,26,13,3,11,1602000000,0.00,315.0,32.0,0,0,0,0.0
Status,1732152608000,26,14,3,9,1602000000,0.00,87.0,30.0,0,0,0,0.0
Status,1732152608000,26,15,3,19,1602000000,0.00,30.0,19.0,0,0,0,0.0
Status,1732152608000,26,16,3,8,1602000000,22.30,242.0,18.0,1,0,0,17.3
Status,1732152608000,26,17,6,21,1575420030,0.00,354.0,68.0,0,0,0,0.0
Status,1732152608000,26,18,6,19,1575420030,0.00,238.0,43.0,0,0,0,0.0
Status,1732152608000,26,19,6,13,1575420030,0.00,117.0,32.0,0,0,0,0.0
Status,1732152608000,26,20,6,27,1575420030,0.00,68.0,31.0,0,0,0,0.0
Status,1732152608000,26,21,6,4,1575420030,0.00,307.0,25.0,0,0,0,0.0
Status,1732152608000,26,22,6,15,1575420030,0.00,58.0,23.0,0,0,0,0.0
Status,1732152608000,26,23,6,29,1575420030,0.00,190.0,21.0,0,0,0,0.0
Status,1732152608000,26,24,6,26,1575420030,0.00,166.0,10.0,0,0,0,0.0
Status,1732152608000,26,25,6,6,1575420030,0.00,325.0,7.0,0,0,0,0.0
Fix,GPS,37.4255933333,-122.1580966667,22.2,0.0,5.2,0.0,1732152609000,1.6,179.9,31493091000000,48.4,0,,,
Raw,1732152609000,39768000000,,695495.0543652435,-1416187787232000000,0.0,120.99268232436056,1095.606954198637,0.0,0,6,0.0,16431,351026920539203,487,20.305999755859375,-328.2081294490718,0.14999,16,0.0,0.0,1575420030,,,,0,2.8225038992460054,1,6.0,20.305999755859375,0.0,0.0,0.0,66.7128,C,31493091000000,
Raw,1732152609000,39768000000,,695495.0543652435,-1416187787232000000,0.0,120.99268232436056,1095.606954198637,0.0,0,13,0.0,16431,351026928322945,487,18.197999954223633,764.7406998465318,0.14999,16,0.0,0.0,1575420030,,,,0,2.8225038992460054,1,6.0,18.197999954223633,0.0,0.0,0.0,66.7128,C,31493091000000,
Raw,1732152609000,39768000000,,695495.0543652435,-1416187787232000000,0.0,120.99268232436056,1095.606954198637,0.0,0,24,0.0,16431,351026922703622,797,14.600000381469727,-290.19055704616136,0.14999,16,0.0,0.0,1575420030,,,,0,0.0,1,6.0,14.600000381469727,0.0,0.0,0.0,66.7128,C,31493091000000,
Raw,1732152609000,39768000000,,695495.0543652435,-1416187787232000000,0.0,120.99268232436056,1095.606954198637,0.0,0,15,0.0,16431,351026924786263,396,23.41699981689453,576.7941991519557,0.14999,16,0.0,0.0,1575420030,,,,0,9.914543743941515,1,6.0,23.41699981689453,0.0,0.0,0.0,66.7128,C,31493091000000,
Raw,1732152609000,39768000000,,695495.0543652435,-1416187787232000000,0.0,120.99268232436056,1095.606954198637,0.0,0,30,0.0,16431,351026925132297,797,19.641000747680664,886.7623827294406,0.14999,16,0.0,0.0,1575420030,,,,0,0.0,1,6.0,19.641000747680664,0.0,0.0,0.0,66.7128,C,31493091000000,
Raw,1732152609000,39768000000,,695495.0543652435,-1416187787232000000,0.0,120.99268232436056,1095.606954198637,0.0,0,8,0.0,17,528086,797,5.0,957.3492051387076,0.14999,16,0.0,0.0,1605374980,,,,0,0.0,3,6.0,17.0,0.0,0.0,8.474653556142046,66.7128,C,31493091000000,
Fix,FLP,37.4255961000,-122.1580954000,5.400000095367432,0.3500182,5.2,0.0,1732152609243,1.6,179.9,31493091000000,16.064627,0,,,
Fix,FLP,37.4255954000,-122.1580959000,5.400000095367432,0.33023125,5.2,0.0,1732152609435,1.6,179.9,31493283000000,15.352695,0,,,
Fix,NLP,37.4257034000,-122.1581084000,5.400000095367432,,21.276,,1732152609436,,,31493283000000,18.05547,0,,,
Status,1732152609000,26,0,1,17,1575420030,0.00,63.0,75.0,0,0,0,0.0
Status,1732152609000,26,1,1,19,1575420030,0.00,202.0,67.0,0,0,0,0.0
Status,1732152609000,26,2,1,22,1575420030,0.00,24.0,64.0,0,0,0,0.0
Status,1732152609000,26,3,1,14,1575420030,0.00,58.0,49.0,0,0,0,0.0
Status,1732152609000,26,4,1,13,1575420030,23.30,229.0,44.0,1,0,0,18.3
Status,1732152609000,26,5,1,30,1575420030,24.60,134.0,32.0,1,0,0,19.6
Status,1732152609000,26,6,1,15,1575420030,30.90,269.0,29.0,1,0,0,25.9
Status,1732152609000,26,7,1,24,1575420030,19.60,313.0,21.0,1,0,0,14.6
Status,1732152609000,26,8,1,6,1575420030,27.30,159.0,16.0,1,0,0,22.3
Status,1732152609000,26,9,1,2,1575420030,0.00,43.0,15.0,0,0,0,0.0
Status,1732152609000,26,10,1,21,1575420030,0.00,31.0,2.0,0,0,0,0.0
Status,1732152609000,26,11,1,12,1575420030,0.00,270.0,2.0,0,0,0,0.0
Status,1732152609000,26,12,3,20,1602000000,0.00,104.0,57.0,0,0,0,0.0
Status,1732152609000,26,13,3,11,1602000000,0.00,315.0,32.0,0,0,0,0.0
Status,1732152609000,26,14,3,9,1602000000,0.00,87.0,30.0,0,0,0,0.0
Status,1732152609000,26,15,3,19,1602000000,0.00,30.0,19.0,0,0,0,0.0
Status,1732152609000,26,16,3,8,1602000000,22.40,242.0,18.0,1,0,0,17.4
Status,1732152609000,26,17,6,21,1575420030,0.00,354.0,68.0,0,0,0,0.0
Status,1732152609000,26,18,6,19,1575420030,0.00,238.0,43.0,0,0,0,0.0
Status,1732152609000,26,19,6,13,1575420030,0.00,117.0,32.0,0,0,0,0.0
Status,1732152609000,26,20,6,27,1575420030,0.00,68.0,31.0,0,0,0,0.0
Status,1732152609000,26,21,6,4,1575420030,0.00,307.0,25.0,0,0,0,0.0
Status,1732152609000,26,22,6,15,1575420030,0.00,58.0,23.0,0,0,0,0.0
Status,1732152609000,26,23,6,29,1575420030,0.00,190.0,21.0,0,0,0,0.0
Status,1732152609000,26,24,6,26,1575420030,0.00,166.0,10.0,0,0,0,0.0
Status,1732152609000,26,25,6,6,1575420030,0.00,325.0,7.0,0,0,0,0.0
Fix,GPS,37.4255933333,-122.1580966667,22.2,0.0,5.2,0.0,1732152610000,1.6,179.9,31494091000000,48.2,0,,,
Raw,1732152610000,40768000000,,695439.8599313663,-1416187787232000000,0.0,121.61783506472787,1098.1103334454804,0.0,0,6,0.0,16431,351027920540314,487,22.341999053955078,-327.6942064489508,0.14999,16,0.0,0.0,1575420030,,,,0,6.098253426413763,1,6.0,22.341999053955078,0.0,0.0,0.0,66.7128,C,31494091000000,
Raw,1732152610000,40768000000,,695439.8599313663,-1416187787232000000,0.0,121.61783506472787,1098.1103334454804,0.0,0,13,0.0,16431,351027928320391,487,18.30299949645996,765.3645434594068,0.14999,16,0.0,0.0,1575420030,,,,0,2.8225038992460054,1,6.0,18.30299949645996,0.0,0.0,0.0,66.7128,C,31494091000000,
Raw,1732152610000,40768000000,,695439.8599313663,-1416187787232000000,0.0,121.61783506472787,1098.1103334454804,0.0,0,24,0.0,16431,351027922704587,487,14.600000381469727,-288.90881580132884,0.14999,16,0.0,0.0,1575420030,,,,0,0.0,1,6.0,14.600000381469727,0.0,0.0,0.0,66.7128,C,31494091000000,
Raw,1732152610000,40768000000,,695439.8599313663,-1416187787232000000,0.0,121.61783506472787,1098.1103334454804,0.0,0,15,0.0,16431,351027924784331,316,25.93400001525879,576.4325203817567,0.14999,16,0.0,0.0,1575420030,,,,0,11.33581086045042,1,6.0,25.93400001525879,0.0,0.0,0.0,66.7128,C,31494091000000,
Raw,1732152610000,40768000000,,695439.8599313663,-1416187787232000000,0.0,121.61783506472787,1098.1103334454804,0.0,0,30,0.0,16431,351027925129279,797,19.621999740600586,887.210427695375,0.14999,16,0.0,0.0,1575420030,,,,0,0.9928033243476406,1,6.0,19.621999740600586,0.0,0.0,0.0,66.7128,C,31494091000000,
Raw,1732152610000,40768000000,,695439.8599313663,-1416187787232000000,0.0,121.61783506472787,1098.1103334454804,0.0,0,8,0.0,17,524939,396,5.0,958.337264987363,0.14999,16,0.0,0.0,1605374980,,,,0,3.3665990709736096,3,6.0,21.0,0.0,0.0,6.247857253235483,66.7128,C,31494091000000,
Fix,FLP,37.4255958000,-122.1580962000,5.400000095367432,0.30984762,5.2,0.0,1732152610243,1.6,179.9,31494091000000,15.845055,0,,,
Status,1732152610000,27,0,1,17,1575420030,0.00,63.0,75.0,0,0,0,0.0
Status,1732152610000,27,1,1,19,1575420030,0.00,202.0,67.0,0,0,0,0.0
Status,1732152610000,27,2,1,22,1575420030,0.00,24.0,64.0,0,0,0,0.0
Status,1732152610000,27,3,1,14,1575420030,0.00,58.0,49.0,0,0,0,0.0
Status,1732152610000,27,4,1,13,1575420030,27.80,229.0,44.0,1,0,0,22.8
Status,1732152610000,27,5,1,30,1575420030,24.60,134.0,32.0,1,0,0,19.6
Status,1732152610000,27,6,1,15,1575420030,30.70,269.0,29.0,1,0,0,25.7
Status,1732152610000,27,7,2,131,1575420030,0.00,3.0,23.0,0,0,0,0.0
Status,1732152610000,27,8,1,24,1575420030,31.90,313.0,21.0,1,0,0,26.9
Status,1732152610000,27,9,1,6,1575420030,27.80,159.0,16.0,1,0,0,22.8
Status,1732152610000,27,10,1,2,1575420030,0.00,43.0,15.0,0,0,0,0.0
Status,1732152610000,27,11,1,21,1575420030,0.00,31.0,2.0,0,0,0,0.0
Status,1732152610000,27,12,1,12,1575420030,0.00,270.0,2.0,0,0,0,0.0
Status,1732152610000,27,13,3,20,1602000000,0.00,104.0,57.0,0,0,0,0.0
Status,1732152610000,27,14,3,11,1602000000,0.00,315.0,32.0,0,0,0,0.0
Status,1732152610000,27,15,3,9,1602000000,0.00,87.0,30.0,0,0,0,0.0
Status,1732152610000,27,16,3,19,1602000000,0.00,30.0,19.0,0,0,0,0.0
Status,1732152610000,27,17,3,8,1602000000,27.50,242.0,18.0,1,0,0,22.5
Status,1732152610000,27,18,6,21,1575420030,0.00,354.0,68.0,0,0,0,0.0
Status,1732152610000,27,19,6,19,1575420030,0.00,238.0,43.0,0,0,0,0.0
Status,1732152610000,27,20,6,13,1575420030,0.00,117.0,32.0,0,0,0,0.0
Status,1732152610000,27,21,6,27,1575420030,0.00,68.0,31.0,0,0,0,0.0
Status,1732152610000,27,22,6,4,1575420030,0.00,307.0,25.0,0,0,0,0.0
Status,1732152610000,27,23,6,15,1575420030,0.00,58.0,23.0,0,0,0,0.0
Status,1732152610000,27,24,6,29,1575420030,0.00,190.0,21.0,0,0,0,0.0
Status,1732152610000,27,25,6,26,1575420030,0.00,166.0,10.0,0,0,0,0.0
Status,1732152610000,27,26,6,6,1575420030,0.00,325.0,7.0,0,0,0,0.0
Fix,GPS,37.4255933333,-122.1580966667,22.2,0.0,5.0,0.0,1732152611000,1.5,154.1,31495091000000,47.9,0,,,
Fix,FLP,37.4255959000,-122.1580964000,5.400000095367432,0.2867451,5.171,0.0,1732152611243,1.5,154.1,31495091000000,15.295675,0,,,
Raw,1732152611000,41768000000,,695389.6689589169,-1416187787232000000,0.0,116.28011478601859,1099.4174467421806,0.0,0,6,0.0,16431,351028920541391,396,22.834999084472656,-327.307858259744,0.14999,16,0.0,0.0,1575420030,,,,0,6.8623404798183465,1,6.0,22.834999084472656,0.0,0.0,0.0,66.7128,C,31495091000000,
Raw,1732152611000,41768000000,,695389.6689589169,-1416187787232000000,0.0,116.28011478601859,1099.4174467421806,0.0,0,13,0.0,16431,351028928317783,396,22.798999786376953,766.0056696031123,0.14999,16,0.0,0.0,1575420030,,,,0,6.801171990133947,1,6.0,22.798999786376953,0.0,0.0,0.0,66.7128,C,31495091000000,
Raw,1732152611000,41768000000,,695389.6689589169,-1416187787232000000,0.0,116.28011478601859,1099.4174467421806,0.0,0,24,0.0,16431,351028922705601,235,26.88800048828125,-288.28766677659394,0.14999,16,0.0,0.0,1575420030,,,,0,12.619945905742108,1,6.0,26.88800048828125,0.0,0.0,0.0,66.7128,C,31495091000000,
Raw,1732152611000,41768000000,,695389.6689589169,-1416187787232000000,0.0,116.28011478601859,1099.4174467421806,0.0,0,15,0.0,16431,351028924782408,316,25.735000610351562,577.613586238661,0.14999,16,0.0,0.0,1575420030,,,,0,11.077063100007205,1,6.0,25.735000610351562,0.0,0.0,0.0,66.7128,C,31495091000000,
Raw,1732152611000,41768000000,,695389.6689589169,-1416187787232000000,0.0,116.28011478601859,1099.4174467421806,0.0,0,30,0.0,16431,351028925126319,797,19.604000091552734,887.8907647423621,0.14999,16,0.0,0.0,1575420030,,,,0,0.9928033243476406,1,6.0,19.604000091552734,0.0,0.0,0.0,66.7128,C,31495091000000,
Raw,1732152611000,41768000000,,695389.6689589169,-1416187787232000000,0.0,116.28011478601859,1099.4174467421806,0.0,0,8,0.0,17,521738,396,5.0,958.7873446674075,0.14999,16,0.0,0.0,1605374980,,,,0,7.83347388503976,3,6.0,22.0,0.0,0.0,4.260439911426633,66.7128,C,31495091000000,
Status,1732152611000,27,0,1,17,1575420030,0.00,63.0,75.0,0,0,0,0.0
Status,1732152611000,27,1,1,19,1575420030,0.00,202.0,67.0,0,0,0,0.0
Status,1732152611000,27,2,1,22,1575420030,0.00,24.0,64.0,0,0,0,0.0
Status,1732152611000,27,3,1,14,1575420030,0.00,58.0,49.0,0,0,0,0.0
Status,1732152611000,27,4,1,13,1575420030,26.30,229.0,44.0,1,0,0,21.3
Status,1732152611000,27,5,1,30,1575420030,24.60,134.0,32.0,1,0,0,19.6
Status,1732152611000,27,6,1,15,1575420030,32.40,269.0,29.0,1,0,0,27.400002
Status,1732152611000,27,7,2,131,1575420030,0.00,3.0,23.0,0,0,0,0.0
Status,1732152611000,27,8,1,24,1575420030,32.10,313.0,21.0,1,0,0,27.099998
Status,1732152611000,27,9,1,6,1575420030,27.80,159.0,16.0,1,0,0,22.8
Status,1732152611000,27,10,1,2,1575420030,0.00,43.0,15.0,0,0,0,0.0
Status,1732152611000,27,11,1,21,1575420030,0.00,31.0,2.0,0,0,0,0.0
Status,1732152611000,27,12,1,12,1575420030,0.00,270.0,2.0,0,0,0,0.0
Status,1732152611000,27,13,3,20,1602000000,0.00,104.0,57.0,0,0,0,0.0
Status,1732152611000,27,14,3,11,1602000000,0.00,315.0,32.0,0,0,0,0.0
Status,1732152611000,27,15,3,9,1602000000,0.00,87.0,30.0,0,0,0,0.0
Status,1732152611000,27,16,3,19,1602000000,0.00,30.0,19.0,0,0,0,0.0
Status,1732152611000,27,17,3,8,1602000000,27.40,242.0,18.0,1,0,0,22.4
Status,1732152611000,27,18,6,21,1575420030,0.00,354.0,68.0,0,0,0,0.0
Status,1732152611000,27,19,6,19,1575420030,0.00,238.0,43.0,0,0,0,0.0
Status,1732152611000,27,20,6,13,1575420030,0.00,117.0,32.0,0,0,0,0.0
Status,1732152611000,27,21,6,27,1575420030,0.00,68.0,31.0,0,0,0,0.0
Status,1732152611000,27,22,6,4,1575420030,0.00,307.0,25.0,0,0,0,0.0
Status,1732152611000,27,23,6,15,1575420030,0.00,58.0,23.0,0,0,0,0.0
Status,1732152611000,27,24,6,29,1575420030,0.00,190.0,21.0,0,0,0,0.0
Status,1732152611000,27,25,6,26,1575420030,0.00,166.0,10.0,0,0,0,0.0
Status,1732152611000,27,26,6,6,1575420030,0.00,325.0,7.0,0,0,0,0.0
