# 
# Header Description:
# 
# Version: v3.1.0.3 Platform: 13 Manufacturer: samsung Model: SM-S135DL GNSS Hardware Model Name: MediaTek,MT6631,MTK_MNLD_default,MNL_VER_default
# 
# Raw,utcTimeMillis,TimeNanos,LeapSecond,TimeUncertaintyNanos,FullBiasNanos,BiasNanos,BiasUncertaintyNanos,DriftNanosPerSecond,DriftUncertaintyNanosPerSecond,HardwareClockDiscontinuityCount,Svid,TimeOffsetNanos,State,ReceivedSvTimeNanos,ReceivedSvTimeUncertaintyNanos,Cn0DbHz,PseudorangeRateMetersPerSecond,PseudorangeRateUncertaintyMetersPerSecond,AccumulatedDeltaRangeState,AccumulatedDeltaRangeMeters,AccumulatedDeltaRangeUncertaintyMeters,CarrierFrequencyHz,CarrierCycles,CarrierPhase,CarrierPhaseUncertainty,MultipathIndicator,SnrInDb,ConstellationType,AgcDb,BasebandCn0DbHz,FullInterSignalBiasNanos,FullInterSignalBiasUncertaintyNanos,SatelliteInterSignalBiasNanos,SatelliteInterSignalBiasUncertaintyNanos,CodeType,ChipsetElapsedRealtimeNanos,IsFullTracking
# 
# UncalAccel,utcTimeMillis,elapsedRealtimeNanos,UncalAccelXMps2,UncalAccelYMps2,UncalAccelZMps2,BiasXMps2,BiasYMps2,BiasZMps2
# 
# Accel,utcTimeMillis,elapsedRealtimeNanos,AccelXMps2,AccelYMps2,AccelZMps2
# 
# UncalGyro,utcTimeMillis,elapsedRealtimeNanos,UncalGyroXRadPerSec,UncalGyroYRadPerSec,UncalGyroZRadPerSec,DriftXRadPerSec,DriftYRadPerSec,DriftZRadPerSec
# 
# Gyro,utcTimeMillis,elapsedRealtimeNanos,GyroXRadPerSec,GyroYRadPerSec,GyroZRadPerSec
# 
# UncalMag,utcTimeMillis,elapsedRealtimeNanos,UncalMagXMicroT,UncalMagYMicroT,UncalMagZMicroT,BiasXMicroT,BiasYMicroT,BiasZMicroT
# 
# Mag,utcTimeMillis,elapsedRealtimeNanos,MagXMicroT,MagYMicroT,MagZMicroT
# 
# Pressure,utcTimeMillis,elapsedRealtimeNanos,PressureHpa
# 
# OrientationDeg,utcTimeMillis,elapsedRealtimeNanos,yawDeg,rollDeg,pitchDeg
# 
# Fix,Provider,LatitudeDegrees,LongitudeDegrees,AltitudeMeters,SpeedMps,AccuracyMeters,BearingDegrees,UnixTimeMillis,SpeedAccuracyMps,BearingAccuracyDegrees,elapsedRealtimeNanos,VerticalAccuracyMeters,MockLocation,NumberOfUsedSignals,VerticalSpeedAccuracyMps,SolutionType
# 
# Nav,Svid,Type,Status,MessageId,Sub-messageId,Data(Bytes)
# 
# Status,UnixTimeMillis,SignalCount,SignalIndex,ConstellationType,Svid,CarrierFrequencyHz,Cn0DbHz,AzimuthDegrees,ElevationDegrees,UsedInFix,HasAlmanacData,HasEphemerisData,BasebandCn0DbHz
# 
# Agc,utcTimeMillis,TimeNanos,LeapSecond,TimeUncertaintyNanos,FullBiasNanos,BiasNanos,BiasUncertaintyNanos,DriftNanosPerSecond,DriftUncertaintyNanosPerSecond,HardwareClockDiscontinuityCount,AgcDb,CarrierFrequencyHz,ConstellationType
# 
Fix,FLP,37.4255816000,-122.1581351000,3.343504188375571,0.37688166,13.647,0.0,1732153028244,1.9,179.9,31912092000000,12.84803,0,,,
Fix,FLP,37.4255786000,-122.1581416000,3.067083816618535,0.34083068,12.512,0.0,1732153028870,1.9,179.9,31912718000000,14.817372,0,,,
Fix,NLP,37.4256805000,-122.1581449000,5.400000095367432,,20.921,,1732153028870,,,31912718000000,18.969366,0,,,
Status,,26,0,1,17,1575420030,0.00,56.0,73.0,0,0,0,0.0
Status,,26,1,1,19,1575420030,0.00,204.0,70.0,0,0,0,0.0
Status,,26,2,1,22,1575420030,0.00,31.0,63.0,0,0,0,0.0
Status,,26,3,1,14,1575420030,0.00,62.0,47.0,0,0,0,0.0
Status,,26,4,2,135,1575420030,0.00,197.0,45.0,0,0,0,0.0
Status,,26,5,1,13,1575420030,0.00,225.0,41.0,0,0,0,0.0
Status,,26,6,1,30,1575420030,28.80,136.0,29.0,1,0,0,23.8
Status,,26,7,1,15,1575420030,24.50,265.0,28.0,1,0,0,19.5
Status,,26,8,1,24,1575420030,19.30,313.0,24.0,1,0,0,14.299999
Status,,26,9,1,6,1575420030,31.40,158.0,19.0,1,0,0,26.4
Status,,26,10,1,2,1575420030,21.80,41.0,13.0,1,0,0,16.8
Status,,26,11,1,12,1575420030,24.30,272.0,4.0,0,0,0,19.3
Status,,26,12,3,20,1602000000,0.00,96.0,58.0,0,0,0,0.0
Status,,26,13,3,11,1602000000,0.00,319.0,34.0,0,0,0,0.0
Status,,26,14,3,9,1602000000,0.00,91.0,28.0,0,0,0,0.0
Status,,26,15,3,19,1602000000,0.00,28.0,16.0,0,0,0,0.0
Status,,26,16,3,8,1602000000,29.40,239.0,15.0,1,0,0,24.4
Status,,26,17,6,21,1575420030,0.00,1.0,67.0,0,0,0,0.0
Status,,26,18,6,19,1575420030,0.00,235.0,41.0,0,0,0,0.0
Status,,26,19,6,13,1575420030,0.00,114.0,34.0,0,0,0,0.0
Status,,26,20,6,27,1575420030,0.00,70.0,30.0,0,0,0,0.0
Status,,26,21,6,4,1575420030,0.00,305.0,26.0,0,0,0,0.0
Status,,26,22,6,15,1575420030,0.00,55.0,23.0,0,0,0,0.0
Status,,26,23,6,29,1575420030,0.00,190.0,18.0,0,0,0,0.0
Status,,26,24,6,26,1575420030,0.00,165.0,12.0,0,0,0,0.0
Status,,26,25,6,6,1575420030,0.00,324.0,9.0,0,0,0,0.0
Fix,GPS,37.4254616667,-122.1582666667,24.400000000000002,0.0,5.5,0.0,1732153029000,1.8,179.9,31913092000000,63.8,0,,,
Raw,1732153029000,18048000000,,996372.7348004199,-1416188228952999936,0.0,116.88752962856235,1052.349930086678,0.0,0,15,0.0,16431,351446924942488,487,19.547000885009766,607.2676216385179,0.14999,16,0.0,0.0,1575420030,,,,0,1.4973701629153706,1,6.0,19.547000885009766,0.0,0.0,0.0,66.7128,C,31913092000000,
Raw,1732153029000,18048000000,,996372.7348004199,-1416188228952999936,0.0,116.88752962856235,1052.349930086678,0.0,0,2,0.0,16431,351446918201440,797,16.83099937438965,751.4580992766903,0.14999,16,0.0,0.0,1575420030,,,,0,0.0,1,6.0,16.83099937438965,0.0,0.0,0.0,66.7128,C,31913092000000,
Raw,1732153029000,18048000000,,996372.7348004199,-1416188228952999936,0.0,116.88752962856235,1052.349930086678,0.0,0,12,0.0,17,278175,487,19.30299949645996,-231.56918809645552,0.14999,16,0.0,0.0,1575420030,,,,0,1.0245519663532177,1,6.0,19.30299949645996,0.0,0.0,0.0,66.7128,C,31913092000000,
Raw,1732153029000,18048000000,,996372.7348004199,-1416188228952999936,0.0,116.88752962856235,1052.349930086678,0.0,0,24,0.0,16431,351446924089575,487,14.300000190734863,-282.82759495303424,0.14999,16,0.0,0.0,1575420030,,,,0,0.0,1,6.0,14.300000190734863,0.0,0.0,0.0,66.7128,C,31913092000000,
Raw,1732153029000,18048000000,,996372.7348004199,-1416188228952999936,0.0,116.88752962856235,1052.349930086678,0.0,0,6,0.0,16431,351446921991684,316,26.410999298095703,-336.8630071801816,0.14999,16,0.0,0.0,1575420030,,,,0,11.983658779425209,1,6.0,26.410999298095703,0.0,0.0,0.0,66.7128,C,31913092000000,
Raw,1732153029000,18048000000,,996372.7348004199,-1416188228952999936,0.0,116.88752962856235,1052.349930086678,0.0,0,8,0.0,17,165362,487,5.0,966.0506240421302,0.14999,16,0.0,0.0,1605374980,,,,0,10.307988484359418,3,6.0,20.0,0.0,0.0,45.52721800253315,66.7128,C,31913092000000,
Raw,1732153029000,18048000000,,996372.7348004199,-1416188228952999936,0.0,116.88752962856235,1052.349930086678,0.0,0,30,0.0,16431,351446924867760,316,23.839000701904297,898.616154708727,0.14999,16,0.0,0.0,1575420030,,,,0,8.36671588717838,1,6.0,23.839000701904297,0.0,0.0,0.0,66.7128,C,31913092000000,
Fix,FLP,37.4255360000,-122.1581865000,3.067083816618535,0.17379826,12.441,0.0,1732153029244,1.8,179.9,31913092000000,16.285585,0,,,
Status,1732153029000,26,0,1,17,1575420030,0.00,56.0,73.0,0,0,0,0.0
Status,1732153029000,26,1,1,19,1575420030,0.00,204.0,70.0,0,0,0,0.0
Status,1732153029000,26,2,1,22,1575420030,0.00,31.0,63.0,0,0,0,0.0
Status,1732153029000,26,3,1,14,1575420030,0.00,62.0,47.0,0,0,0,0.0
Status,1732153029000,26,4,2,135,1575420030,0.00,197.0,45.0,0,0,0,0.0
Status,1732153029000,26,5,1,13,1575420030,0.00,225.0,41.0,0,0,0,0.0
Status,1732153029000,26,6,1,30,1575420030,28.90,136.0,29.0,1,0,0,23.9
Status,1732153029000,26,7,1,15,1575420030,24.40,265.0,28.0,1,0,0,19.4
Status,1732153029000,26,8,1,24,1575420030,19.30,313.0,24.0,1,0,0,14.299999
Status,1732153029000,26,9,1,6,1575420030,29.30,158.0,19.0,1,0,0,24.3
Status,1732153029000,26,10,1,2,1575420030,26.10,41.0,13.0,1,0,0,21.1
Status,1732153029000,26,11,1,12,1575420030,21.60,272.0,4.0,0,0,0,16.6
Status,1732153029000,26,12,3,20,1602000000,0.00,96.0,58.0,0,0,0,0.0
Status,1732153029000,26,13,3,11,1602000000,0.00,319.0,34.0,0,0,0,0.0
Status,1732153029000,26,14,3,9,1602000000,28.00,91.0,28.0,1,0,0,23.0
Status,1732153029000,26,15,3,19,1602000000,0.00,28.0,16.0,0,0,0,0.0
Status,1732153029000,26,16,3,8,1602000000,26.70,239.0,15.0,1,0,0,21.7
Status,1732153029000,26,17,6,21,1575420030,0.00,1.0,67.0,0,0,0,0.0
Status,1732153029000,26,18,6,19,1575420030,0.00,235.0,41.0,0,0,0,0.0
Status,1732153029000,26,19,6,13,1575420030,0.00,114.0,34.0,0,0,0,0.0
Status,1732153029000,26,20,6,27,1575420030,0.00,70.0,30.0,0,0,0,0.0
Status,1732153029000,26,21,6,4,1575420030,0.00,305.0,26.0,0,0,0,0.0
Status,1732153029000,26,22,6,15,1575420030,0.00,55.0,23.0,0,0,0,0.0
Status,1732153029000,26,23,6,29,1575420030,0.00,190.0,18.0,0,0,0,0.0
Status,1732153029000,26,24,6,26,1575420030,0.00,165.0,12.0,0,0,0,0.0
Status,1732153029000,26,25,6,6,1575420030,0.00,324.0,9.0,0,0,0,0.0
Fix,GPS,37.4254666667,-122.1582600000,24.400000000000002,0.0,5.4,0.0,1732153030000,1.7,179.9,31914092000000,63.9,0,,,
Fix,FLP,37.4255061000,-122.1582179000,3.6632273078207183,0.06006726,5.714,,1732153030244,1.7,,31914092000000,17.202639,0,,,
Raw,1732153030000,19048000000,,996267.4536328729,-1416188228952999936,0.0,116.67394956043563,1052.2869526148515,0.0,0,15,0.0,16431,351447924940462,797,19.426000595092773,607.1742402219347,0.14999,16,0.0,0.0,1575420030,,,,0,1.2641779120155041,1,6.0,19.426000595092773,0.0,0.0,0.0,66.7128,C,31914092000000,
Raw,1732153030000,19048000000,,996267.4536328729,-1416188228952999936,0.0,116.67394956043563,1052.2869526148515,0.0,0,2,0.0,16431,351447918198942,487,21.10099983215332,751.9371320062371,0.14999,16,0.0,0.0,1575420030,,,,0,4.152908438167067,1,6.0,21.10099983215332,0.0,0.0,0.0,66.7128,C,31914092000000,
Raw,1732153030000,19048000000,,996267.4536328729,-1416188228952999936,0.0,116.67394956043563,1052.2869526148515,0.0,0,12,0.0,17,278975,487,16.631999969482422,-231.10032976005877,0.14999,16,0.0,0.0,1575420030,,,,0,0.0,1,6.0,16.631999969482422,0.0,0.0,0.0,66.7128,C,31914092000000,
Raw,1732153030000,19048000000,,996267.4536328729,-1416188228952999936,0.0,116.67394956043563,1052.2869526148515,0.0,0,24,0.0,16431,351447924090519,797,14.300000190734863,-283.0196075872324,0.14999,16,0.0,0.0,1575420030,,,,0,0.0,1,6.0,14.300000190734863,0.0,0.0,0.0,66.7128,C,31914092000000,
Raw,1732153030000,19048000000,,996267.4536328729,-1416188228952999936,0.0,116.67394956043563,1052.2869526148515,0.0,0,6,0.0,16431,351447921992788,396,24.284000396728516,-336.3803506941703,0.14999,16,0.0,0.0,1575420030,,,,0,9.019720188618365,1,6.0,24.284000396728516,0.0,0.0,0.0,66.7128,C,31914092000000,
Raw,1732153030000,19048000000,,996267.4536328729,-1416188228952999936,0.0,116.67394956043563,1052.2869526148515,0.0,0,8,0.0,17,162133,396,5.0,966.4756283753327,0.14999,16,0.0,0.0,1605374980,,,,0,6.7700035039091215,3,6.0,22.0,0.0,0.0,42.91597744541767,66.7128,C,31914092000000,
Raw,1732153030000,19048000000,,996267.4536328729,-1416188228952999936,0.0,116.67394956043563,1052.2869526148515,0.0,0,9,0.0,17,290826,316,5.0,736.5841674419042,0.14999,16,0.0,0.0,1600875010,,,,0,8.521825181113625,3,6.0,24.0,0.0,0.0,42.91597744541767,66.7128,C,31914092000000,
Raw,1732153030000,19048000000,,996267.4536328729,-1416188228952999936,0.0,116.67394956043563,1052.2869526148515,0.0,0,30,0.0,16431,351447924864758,487,23.854999542236328,899.3914527584484,0.14999,16,0.0,0.0,1575420030,,,,0,8.823973546368464,1,6.0,23.854999542236328,0.0,0.0,0.0,66.7128,C,31914092000000,
Status,1732153030000,26,0,1,17,1575420030,0.00,56.0,73.0,0,0,0,0.0
Status,1732153030000,26,1,1,19,1575420030,0.00,204.0,70.0,0,0,0,0.0
Status,1732153030000,26,2,1,22,1575420030,0.00,31.0,63.0,0,0,0,0.0
Status,1732153030000,26,3,1,14,1575420030,0.00,62.0,47.0,0,0,0,0.0
Status,1732153030000,26,4,2,135,1575420030,0.00,197.0,45.0,0,0,0,0.0
Status,1732153030000,26,5,1,13,1575420030,0.00,225.0,41.0,0,0,0,0.0
Status,1732153030000,26,6,1,30,1575420030,27.40,136.0,29.0,1,0,0,22.4
Status,1732153030000,26,7,1,15,1575420030,24.40,265.0,28.0,1,0,0,19.4
Status,1732153030000,26,8,1,24,1575420030,19.50,313.0,24.0,1,0,0,14.5
Status,1732153030000,26,9,1,6,1575420030,29.00,158.0,19.0,1,0,0,24.0
Status,1732153030000,26,10,1,2,1575420030,26.30,41.0,13.0,1,0,0,21.3
Status,1732153030000,26,11,1,12,1575420030,24.60,272.0,4.0,0,0,0,19.6
Status,1732153030000,26,12,3,20,1602000000,0.00,96.0,58.0,0,0,0,0.0
Status,1732153030000,26,13,3,11,1602000000,0.00,319.0,34.0,0,0,0,0.0
Status,1732153030000,26,14,3,9,1602000000,23.90,91.0,28.0,1,0,0,18.9
Status,1732153030000,26,15,3,19,1602000000,0.00,28.0,16.0,0,0,0,0.0
Status,1732153030000,26,16,3,8,1602000000,29.80,239.0,15.0,1,0,0,24.8
Status,1732153030000,26,17,6,21,1575420030,0.00,1.0,67.0,0,0,0,0.0
Status,1732153030000,26,18,6,19,1575420030,0.00,235.0,41.0,0,0,0,0.0
Status,1732153030000,26,19,6,13,1575420030,0.00,114.0,34.0,0,0,0,0.0
Status,1732153030000,26,20,6,27,1575420030,0.00,70.0,30.0,0,0,0,0.0
Status,1732153030000,26,21,6,4,1575420030,0.00,305.0,26.0,0,0,0,0.0
Status,1732153030000,26,22,6,15,1575420030,0.00,55.0,23.0,0,0,0,0.0
Status,1732153030000,26,23,6,29,1575420030,0.00,190.0,18.0,0,0,0,0.0
Status,1732153030000,26,24,6,26,1575420030,0.00,165.0,12.0,0,0,0,0.0
Status,1732153030000,26,25,6,6,1575420030,0.00,324.0,9.0,0,0,0,0.0
Fix,GPS,37.4254750000,-122.1582533333,24.400000000000002,0.0,5.4,0.0,1732153031000,1.6,179.9,31915092000000,64.1,0,,,
Raw,1732153031000,20048000000,,996139.7611276798,-1416188228952999936,0.0,117.18142649085145,1050.7329769695104,0.0,0,15,0.0,16431,351448924938436,797,19.426000595092773,606.811957492325,0.14999,16,0.0,0.0,1575420030,,,,0,1.2641779120155041,1,6.0,19.426000595092773,0.0,0.0,0.0,66.7128,C,31915092000000,
Raw,1732153031000,20048000000,,996139.7611276798,-1416188228952999936,0.0,117.18142649085145,1050.7329769695104,0.0,0,2,0.0,16431,351448918196445,487,21.291000366210938,751.3808853889483,0.14999,16,0.0,0.0,1575420030,,,,0,4.4034803230058355,1,6.0,21.291000366210938,0.0,0.0,0.0,66.7128,C,31915092000000,
Raw,1732153031000,20048000000,,996139.7611276798,-1416188228952999936,0.0,117.18142649085145,1050.7329769695104,0.0,0,12,0.0,17,279734,487,19.608999252319336,-230.42143292397418,0.14999,16,0.0,0.0,1575420030,,,,0,1.6116598334039582,1,6.0,19.608999252319336,0.0,0.0,0.0,66.7128,C,31915092000000,
Raw,1732153031000,20048000000,,996139.7611276798,-1416188228952999936,0.0,117.18142649085145,1050.7329769695104,0.0,0,24,0.0,16431,351448924091467,797,14.5,-284.281278796262,0.14999,16,0.0,0.0,1575420030,,,,0,0.0,1,6.0,14.5,0.0,0.0,0.0,66.7128,C,31915092000000,
Raw,1732153031000,20048000000,,996139.7611276798,-1416188228952999936,0.0,117.18142649085145,1050.7329769695104,0.0,0,6,0.0,16431,351448921993916,396,24.030000686645508,-336.8281169096075,0.14999,16,0.0,0.0,1575420030,,,,0,8.674213118517464,1,6.0,24.030000686645508,0.0,0.0,0.0,66.7128,C,31915092000000,
Raw,1732153031000,20048000000,,996139.7611276798,-1416188228952999936,0.0,117.18142649085145,1050.7329769695104,0.0,0,8,0.0,17,158906,396,5.0,966.6078438404998,0.14999,16,0.0,0.0,1605374980,,,,0,10.782615447285469,3,6.0,23.0,0.0,0.0,40.79624372353399,66.7128,C,31915092000000,
Raw,1732153031000,20048000000,,996139.7611276798,-1416188228952999936,0.0,117.18142649085145,1050.7329769695104,0.0,0,9,0.0,17,288265,797,5.0,736.4851843004262,0.14999,16,0.0,0.0,1600875010,,,,0,2.395940467986857,3,6.0,17.0,0.0,0.0,40.79624372353399,66.7128,C,31915092000000,
Raw,1732153031000,20048000000,,996139.7611276798,-1416188228952999936,0.0,117.18142649085145,1050.7329769695104,0.0,0,30,0.0,16431,351448924861757,487,22.363000869750977,899.0092858267005,0.14999,16,0.0,0.0,1575420030,,,,0,6.116493683677874,1,6.0,22.363000869750977,0.0,0.0,0.0,66.7128,C,31915092000000,
Fix,FLP,37.4254921000,-122.1582337000,5.400000095367432,0.00986114,5.628,,1732153031244,1.6,,31915092000000,17.349127,0,,,
Status,1732153031000,26,0,1,17,1575420030,0.00,56.0,73.0,0,0,0,0.0
Status,1732153031000,26,1,1,19,1575420030,0.00,204.0,70.0,0,0,0,0.0
Status,1732153031000,26,2,1,22,1575420030,0.00,31.0,63.0,0,0,0,0.0
Status,1732153031000,26,3,1,14,1575420030,0.00,62.0,47.0,0,0,0,0.0
Status,1732153031000,26,4,2,135,1575420030,0.00,197.0,45.0,0,0,0,0.0
Status,1732153031000,26,5,1,13,1575420030,26.60,225.0,41.0,1,0,0,21.6
Status,1732153031000,26,6,1,30,1575420030,25.00,136.0,29.0,1,0,0,20.0
Status,1732153031000,26,7,1,15,1575420030,24.40,265.0,28.0,1,0,0,19.4
Status,1732153031000,26,8,1,24,1575420030,19.50,313.0,24.0,1,0,0,14.5
Status,1732153031000,26,9,1,6,1575420030,28.40,158.0,19.0,1,0,0,23.4
Status,1732153031000,26,10,1,2,1575420030,22.50,41.0,13.0,1,0,0,17.5
Status,1732153031000,26,11,1,12,1575420030,24.30,272.0,4.0,0,0,0,19.3
Status,1732153031000,26,12,3,20,1602000000,0.00,96.0,58.0,0,0,0,0.0
Status,1732153031000,26,13,3,11,1602000000,0.00,319.0,34.0,0,0,0,0.0
Status,1732153031000,26,14,3,9,1602000000,0.00,91.0,28.0,0,0,0,0.0
Status,1732153031000,26,15,3,19,1602000000,0.00,28.0,16.0,0,0,0,0.0
Status,1732153031000,26,16,3,8,1602000000,27.80,239.0,15.0,1,0,0,22.8
Status,1732153031000,26,17,6,21,1575420030,0.00,1.0,67.0,0,0,0,0.0
Status,1732153031000,26,18,6,19,1575420030,0.00,235.0,41.0,0,0,0,0.0
Status,1732153031000,26,19,6,13,1575420030,0.00,114.0,34.0,0,0,0,0.0
Status,1732153031000,26,20,6,27,1575420030,0.00,70.0,30.0,0,0,0,0.0
Status,1732153031000,26,21,6,4,1575420030,0.00,305.0,26.0,0,0,0,0.0
Status,1732153031000,26,22,6,15,1575420030,0.00,55.0,23.0,0,0,0,0.0
Status,1732153031000,26,23,6,29,1575420030,0.00,190.0,18.0,0,0,0,0.0
Status,1732153031000,26,24,6,26,1575420030,0.00,165.0,12.0,0,0,0,0.0
Status,1732153031000,26,25,6,6,1575420030,0.00,324.0,9.0,0,0,0,0.0
Fix,GPS,37.4254833333,-122.1582466667,24.400000000000002,0.0,5.4,0.0,1732153032000,1.6,179.9,31916092000000,64.3,0,,,
Raw,1732153032000,21048000000,,996065.5431164983,-1416188228952999936,0.0,117.97049573033158,1048.8397031035088,0.0,0,15,0.0,16431,351449924936412,797,19.426000595092773,606.9476160676597,0.14999,16,0.0,0.0,1575420030,,,,0,1.2641779120155041,1,6.0,19.426000595092773,0.0,0.0,0.0,66.7128,C,31916092000000,
Raw,1732153032000,21048000000,,996065.5431164983,-1416188228952999936,0.0,117.97049573033158,1048.8397031035088,0.0,0,2,0.0,16431,351449918193943,797,17.468000411987305,750.6034502520812,0.14999,16,0.0,0.0,1575420030,,,,0,0.0,1,6.0,17.468000411987305,0.0,0.0,0.0,66.7128,C,31916092000000,
Raw,1732153032000,21048000000,,996065.5431164983,-1416188228952999936,0.0,117.97049573033158,1048.8397031035088,0.0,0,12,0.0,17,280539,487,19.30299949645996,-231.45285622226433,0.14999,16,0.0,0.0,1575420030,,,,0,1.0245519663532177,1,6.0,19.30299949645996,0.0,0.0,0.0,66.7128,C,31916092000000,
Raw,1732153032000,21048000000,,996065.5431164983,-1416188228952999936,0.0,117.97049573033158,1048.8397031035088,0.0,0,24,0.0,16431,351449924092416,797,14.5,-284.20624845408196,0.14999,16,0.0,0.0,1575420030,,,,0,0.0,1,6.0,14.5,0.0,0.0,0.0,66.7128,C,31916092000000,
Raw,1732153032000,21048000000,,996065.5431164983,-1416188228952999936,0.0,117.97049573033158,1048.8397031035088,0.0,0,6,0.0,16431,351449921995039,487,23.434999465942383,-336.38039715258657,0.14999,16,0.0,0.0,1575420030,,,,0,7.773038997588732,1,6.0,23.434999465942383,0.0,0.0,0.0,66.7128,C,31916092000000,
Raw,1732153032000,21048000000,,996065.5431164983,-1416188228952999936,0.0,117.97049573033158,1048.8397031035088,0.0,0,8,0.0,17,155682,797,5.0,966.1919578152398,0.14999,16,0.0,0.0,1605374980,,,,0,8.20304115908467,3,6.0,17.0,0.0,0.0,40.09513460832528,66.7128,C,31916092000000,
Raw,1732153032000,21048000000,,996065.5431164983,-1416188228952999936,0.0,117.97049573033158,1048.8397031035088,0.0,0,13,0.0,16431,351449928212136,487,21.606000900268555,788.7950558821163,0.14999,16,0.0,0.0,1575420030,,,,0,4.961481579279231,1,6.0,21.606000900268555,0.0,0.0,0.0,66.7128,C,31916092000000,
Raw,1732153032000,21048000000,,996065.5431164983,-1416188228952999936,0.0,117.97049573033158,1048.8397031035088,0.0,0,30,0.0,16431,351449924858738,797,19.95800018310547,898.5657937855547,0.14999,16,0.0,0.0,1575420030,,,,0,2.161583305131138,1,6.0,19.95800018310547,0.0,0.0,0.0,66.7128,C,31916092000000,
Fix,FLP,37.4254880000,-122.1582395000,5.400000095367432,0.0034107838,5.557,,1732153032244,1.6,,31916092000000,14.012033,0,,,
Status,1732153032000,26,0,1,17,1575420030,0.00,56.0,73.0,0,0,0,0.0
Status,1732153032000,26,1,1,19,1575420030,0.00,204.0,70.0,0,0,0,0.0
Status,1732153032000,26,2,1,22,1575420030,0.00,31.0,63.0,0,0,0,0.0
Status,1732153032000,26,3,1,14,1575420030,0.00,62.0,47.0,0,0,0,0.0
Status,1732153032000,26,4,2,135,1575420030,0.00,197.0,45.0,0,0,0,0.0
Status,1732153032000,26,5,1,13,1575420030,0.00,225.0,41.0,0,0,0,0.0
Status,1732153032000,26,6,1,30,1575420030,24.40,136.0,29.0,1,0,0,19.4
Status,1732153032000,26,7,1,15,1575420030,24.40,265.0,28.0,1,0,0,19.4
Status,1732153032000,26,8,1,24,1575420030,18.50,313.0,24.0,1,0,0,13.5
Status,1732153032000,26,9,1,6,1575420030,25.30,158.0,19.0,1,0,0,20.3
Status,1732153032000,26,10,1,2,1575420030,30.10,41.0,13.0,1,0,0,25.1
Status,1732153032000,26,11,1,12,1575420030,24.20,272.0,4.0,0,0,0,19.2
Status,1732153032000,26,12,3,20,1602000000,0.00,96.0,58.0,0,0,0,0.0
Status,1732153032000,26,13,3,11,1602000000,0.00,319.0,34.0,0,0,0,0.0
Status,1732153032000,26,14,3,9,1602000000,0.00,91.0,28.0,0,0,0,0.0
Status,1732153032000,26,15,3,19,1602000000,0.00,28.0,16.0,0,0,0,0.0
Status,1732153032000,26,16,3,8,1602000000,27.80,239.0,15.0,1,0,0,22.8
Status,1732153032000,26,17,6,21,1575420030,0.00,1.0,67.0,0,0,0,0.0
Status,1732153032000,26,18,6,19,1575420030,0.00,235.0,41.0,0,0,0,0.0
Status,1732153032000,26,19,6,13,1575420030,0.00,114.0,34.0,0,0,0,0.0
Status,1732153032000,26,20,6,27,1575420030,0.00,70.0,30.0,0,0,0,0.0
Status,1732153032000,26,21,6,4,1575420030,0.00,305.0,26.0,0,0,0,0.0
Status,1732153032000,26,22,6,15,1575420030,0.00,55.0,23.0,0,0,0,0.0
Status,1732153032000,26,23,6,29,1575420030,0.00,190.0,18.0,0,0,0,0.0
Status,1732153032000,26,24,6,26,1575420030,0.00,165.0,12.0,0,0,0,0.0
Status,1732153032000,26,25,6,6,1575420030,0.00,324.0,9.0,0,0,0,0.0
Fix,GPS,37.4254950000,-122.1582566667,24.500000000000004,0.0,5.3,0.0,1732153033000,2.5,179.9,31917092000000,64.6,0,,,
Raw,1732153033000,22048000000,,995956.3008753209,-1416188228952999936,0.0,118.22310171856223,1047.9897115791655,0.0,0,15,0.0,16431,351450924934413,487,19.448999404907227,606.6644055624403,0.14999,16,0.0,0.0,1575420030,,,,0,2.0543487376889757,1,6.0,19.448999404907227,0.0,0.0,0.0,66.7128,C,31917092000000,
Raw,1732153033000,22048000000,,995956.3008753209,-1416188228952999936,0.0,118.22310171856223,1047.9897115791655,0.0,0,2,0.0,16431,351450918191422,316,25.10300064086914,751.4375646567252,0.14999,16,0.0,0.0,1575420030,,,,0,10.194667654573365,1,6.0,25.10300064086914,0.0,0.0,0.0,66.7128,C,31917092000000,
Raw,1732153033000,22048000000,,995956.3008753209,-1416188228952999936,0.0,118.22310171856223,1047.9897115791655,0.0,0,12,0.0,17,281300,487,19.239999771118164,-231.41708324178222,0.14999,16,0.0,0.0,1575420030,,,,0,0.9022134701595794,1,6.0,19.239999771118164,0.0,0.0,0.0,66.7128,C,31917092000000,
Raw,1732153033000,22048000000,,995956.3008753209,-1416188228952999936,0.0,118.22310171856223,1047.9897115791655,0.0,0,24,0.0,16431,351450924093362,797,13.5,-283.93832276779574,0.14999,16,0.0,0.0,1575420030,,,,0,0.0,1,6.0,13.5,0.0,0.0,0.0,66.7128,C,31917092000000,
Raw,1732153033000,22048000000,,995956.3008753209,-1416188228952999936,0.0,118.22310171856223,1047.9897115791655,0.0,0,6,0.0,16431,351450921996159,487,20.292999267578125,-336.70885815519506,0.14999,16,0.0,0.0,1575420030,,,,0,2.77859219077787,1,6.0,20.292999267578125,0.0,0.0,0.0,66.7128,C,31917092000000,
Raw,1732153033000,22048000000,,995956.3008753209,-1416188228952999936,0.0,118.22310171856223,1047.9897115791655,0.0,0,8,0.0,17,152459,797,5.0,966.2612569556032,0.14999,16,0.0,0.0,1605374980,,,,0,8.20304115908467,3,6.0,17.0,0.0,0.0,40.8089378470641,66.7128,C,31917092000000,
Raw,1732153033000,22048000000,,995956.3008753209,-1416188228952999936,0.0,118.22310171856223,1047.9897115791655,0.0,0,30,0.0,16431,351450924855744,487,19.365999221801758,898.3880438851332,0.14999,16,0.0,0.0,1575420030,,,,0,1.1451912617514792,1,6.0,19.365999221801758,0.0,0.0,0.0,66.7128,C,31917092000000,
Fix,FLP,37.4254913000,-122.1582475000,2.932120592004562,0.007003765,5.485,,1732153033244,2.5,,31917092000000,10.353874,0,,,
Fix,FLP,37.4254930000,-122.1582515000,2.8277492475107184,0.0119018685,5.383,,1732153034054,2.5,,31917902000000,10.826642,0,,,
Fix,NLP,37.4257000000,-122.1581113000,-0.4000000059604645,,68.4,,1732153034054,,,31917902000000,15.177573,0,,,
Status,1732153033000,26,0,1,17,1575420030,0.00,56.0,73.0,0,0,0,0.0
Status,1732153033000,26,1,1,19,1575420030,0.00,204.0,70.0,0,0,0,0.0
Status,1732153033000,26,2,1,22,1575420030,0.00,31.0,63.0,0,0,0,0.0
Status,1732153033000,26,3,1,14,1575420030,0.00,62.0,47.0,0,0,0,0.0
Status,1732153033000,26,4,2,135,1575420030,0.00,197.0,45.0,0,0,0,0.0
Status,1732153033000,26,5,1,13,1575420030,0.00,225.0,41.0,0,0,0,0.0
Status,1732153033000,26,6,1,30,1575420030,26.50,136.0,29.0,1,0,0,21.5
Status,1732153033000,26,7,1,15,1575420030,24.50,265.0,28.0,1,0,0,19.5
Status,1732153033000,26,8,1,24,1575420030,18.50,313.0,24.0,1,0,0,13.5
Status,1732153033000,26,9,1,6,1575420030,25.30,158.0,19.0,1,0,0,20.3
Status,1732153033000,26,10,1,2,1575420030,30.00,41.0,13.0,1,0,0,25.0
Status,1732153033000,26,11,1,12,1575420030,28.60,272.0,4.0,0,0,0,23.6
Status,1732153033000,26,12,3,20,1602000000,0.00,96.0,58.0,0,0,0,0.0
Status,1732153033000,26,13,3,11,1602000000,0.00,319.0,34.0,0,0,0,0.0
Status,1732153033000,26,14,3,9,1602000000,0.00,91.0,28.0,0,0,0,0.0
Status,1732153033000,26,15,3,19,1602000000,0.00,28.0,16.0,0,0,0,0.0
Status,1732153033000,26,16,3,8,1602000000,18.80,239.0,15.0,1,0,0,13.799999
Status,1732153033000,26,17,6,21,1575420030,0.00,1.0,67.0,0,0,0,0.0
Status,1732153033000,26,18,6,19,1575420030,0.00,235.0,41.0,0,0,0,0.0
Status,1732153033000,26,19,6,13,1575420030,0.00,114.0,34.0,0,0,0,0.0
Status,1732153033000,26,20,6,27,1575420030,0.00,70.0,30.0,0,0,0,0.0
Status,1732153033000,26,21,6,4,1575420030,0.00,305.0,26.0,0,0,0,0.0
Status,1732153033000,26,22,6,15,1575420030,0.00,55.0,23.0,0,0,0,0.0
Status,1732153033000,26,23,6,29,1575420030,0.00,190.0,18.0,0,0,0,0.0
Status,1732153033000,26,24,6,26,1575420030,0.00,165.0,12.0,0,0,0,0.0
Status,1732153033000,26,25,6,6,1575420030,0.00,324.0,9.0,0,0,0,0.0
Fix,GPS,37.4255050000,-122.1582650000,24.500000000000004,0.0,5.2,0.0,1732153034000,2.7,175.8,31918092000000,65.0,0,,,
Raw,1732153034000,23048000000,,995807.3436590589,-1416188228952999936,0.0,118.48027578808318,1045.284361170305,0.0,0,15,0.0,16431,351451924932373,487,19.48200035095215,606.3314845518755,0.14999,16,0.0,0.0,1575420030,,,,0,2.4755653093254533,1,6.0,19.48200035095215,0.0,0.0,0.0,66.7128,C,31918092000000,
Raw,1732153034000,23048000000,,995807.3436590589,-1416188228952999936,0.0,118.48027578808318,1045.284361170305,0.0,0,2,0.0,16431,351451918188931,396,24.961999893188477,751.8041215606263,0.14999,16,0.0,0.0,1575420030,,,,0,9.980718669455626,1,6.0,24.961999893188477,0.0,0.0,0.0,66.7128,C,31918092000000,
Raw,1732153034000,23048000000,,995807.3436590589,-1416188228952999936,0.0,118.48027578808318,1045.284361170305,0.0,0,12,0.0,17,282065,316,23.639999389648438,-232.45203737970436,0.14999,16,0.0,0.0,1575420030,,,,0,8.101881663674039,1,6.0,23.639999389648438,0.0,0.0,0.0,66.7128,C,31918092000000,
Raw,1732153034000,23048000000,,995807.3436590589,-1416188228952999936,0.0,118.48027578808318,1045.284361170305,0.0,0,24,0.0,16431,351451924094313,797,13.5,-285.78662439831584,0.14999,16,0.0,0.0,1575420030,,,,0,0.0,1,6.0,13.5,0.0,0.0,0.0,66.7128,C,31918092000000,
Raw,1732153034000,23048000000,,995807.3436590589,-1416188228952999936,0.0,118.48027578808318,1045.284361170305,0.0,0,6,0.0,16431,351451921997283,487,20.327999114990234,-337.9835841791798,0.14999,16,0.0,0.0,1575420030,,,,0,3.9817523654617597,1,6.0,20.327999114990234,0.0,0.0,0.0,66.7128,C,31918092000000,
Raw,1732153034000,23048000000,,995807.3436590589,-1416188228952999936,0.0,118.48027578808318,1045.284361170305,0.0,0,8,0.0,17,149242,1797,5.0,965.2947163136922,0.14999,16,0.0,0.0,1605374980,,,,0,0.0,3,6.0,14.0,0.0,0.0,40.91802235238165,66.7128,C,31918092000000,
Raw,1732153034000,23048000000,,995807.3436590589,-1416188228952999936,0.0,118.48027578808318,1045.284361170305,0.0,0,30,0.0,16431,351451924852752,487,21.47100067138672,897.3015673636336,0.14999,16,0.0,0.0,1575420030,,,,0,4.726713513854348,1,6.0,21.47100067138672,0.0,0.0,0.0,66.7128,C,31918092000000,
Fix,FLP,37.4254973000,-122.1582562000,2.7508700183477393,0.024781683,5.357,,1732153034244,2.7,,31918092000000,11.38621,0,,,
Status,1732153034000,26,0,1,17,1575420030,0.00,56.0,73.0,0,0,0,0.0
Status,1732153034000,26,1,1,19,1575420030,0.00,204.0,70.0,0,0,0,0.0
Status,1732153034000,26,2,1,22,1575420030,0.00,31.0,63.0,0,0,0,0.0
Status,1732153034000,26,3,1,14,1575420030,0.00,62.0,47.0,0,0,0,0.0
Status,1732153034000,26,4,2,135,1575420030,0.00,197.0,45.0,0,0,0,0.0
Status,1732153034000,26,5,1,13,1575420030,0.00,225.0,41.0,0,0,0,0.0
Status,1732153034000,26,6,1,30,1575420030,25.70,136.0,29.0,1,0,0,20.7
Status,1732153034000,26,7,1,15,1575420030,24.50,265.0,28.0,1,0,0,19.5
Status,1732153034000,26,8,1,24,1575420030,18.60,313.0,24.0,1,0,0,13.6
Status,1732153034000,26,9,1,6,1575420030,25.30,158.0,19.0,1,0,0,20.3
Status,1732153034000,26,10,1,2,1575420030,30.00,41.0,13.0,1,0,0,25.0
Status,1732153034000,26,11,1,12,1575420030,22.60,272.0,4.0,0,0,0,17.6
Status,1732153034000,26,12,3,20,1602000000,0.00,96.0,58.0,0,0,0,0.0
Status,1732153034000,26,13,3,11,1602000000,0.00,319.0,34.0,0,0,0,0.0
Status,1732153034000,26,14,3,9,1602000000,0.00,91.0,28.0,0,0,0,0.0
Status,1732153034000,26,15,3,19,1602000000,0.00,28.0,16.0,0,0,0,0.0
Status,1732153034000,26,16,3,8,1602000000,18.80,239.0,15.0,1,0,0,13.799999
Status,1732153034000,26,17,6,21,1575420030,0.00,1.0,67.0,0,0,0,0.0
Status,1732153034000,26,18,6,19,1575420030,0.00,235.0,41.0,0,0,0,0.0
Status,1732153034000,26,19,6,13,1575420030,0.00,114.0,34.0,0,0,0,0.0
Status,1732153034000,26,20,6,27,1575420030,0.00,70.0,30.0,0,0,0,0.0
Status,1732153034000,26,21,6,4,1575420030,0.00,305.0,26.0,0,0,0,0.0
Status,1732153034000,26,22,6,15,1575420030,0.00,55.0,23.0,0,0,0,0.0
Status,1732153034000,26,23,6,29,1575420030,0.00,190.0,18.0,0,0,0,0.0
Status,1732153034000,26,24,6,26,1575420030,0.00,165.0,12.0,0,0,0,0.0
Status,1732153034000,26,25,6,6,1575420030,0.00,324.0,9.0,0,0,0,0.0
Fix,GPS,37.4255183333,-122.1582766667,24.500000000000004,0.0,5.1,0.0,1732153035000,2.7,136.4,31919092000000,65.4,0,,,
Raw,1732153035000,24048000000,,995651.8193996728,-1416188228952999936,0.0,118.90566722433842,1045.4165233542794,0.0,0,15,0.0,16431,351452924930365,487,19.503000259399414,606.0139877354927,0.14999,16,0.0,0.0,1575420030,,,,0,2.0543487376889757,1,6.0,19.503000259399414,0.0,0.0,0.0,66.7128,C,31919092000000,
Raw,1732153035000,24048000000,,995651.8193996728,-1416188228952999936,0.0,118.90566722433842,1045.4165233542794,0.0,0,2,0.0,16431,351452918186421,797,24.961999893188477,752.8504580105201,0.14999,16,0.0,0.0,1575420030,,,,0,9.980718669455626,1,6.0,24.961999893188477,0.0,0.0,0.0,66.7128,C,31919092000000,
Raw,1732153035000,24048000000,,995651.8193996728,-1416188228952999936,0.0,118.90566722433842,1045.4165233542794,0.0,0,12,0.0,17,282842,487,17.55299949645996,-232.58843928969853,0.14999,16,0.0,0.0,1575420030,,,,0,0.0,1,6.0,17.55299949645996,0.0,0.0,0.0,66.7128,C,31919092000000,
Raw,1732153035000,24048000000,,995651.8193996728,-1416188228952999936,0.0,118.90566722433842,1045.4165233542794,0.0,0,24,0.0,16431,351452924095261,797,13.5600004196167,-285.82787947191076,0.14999,16,0.0,0.0,1575420030,,,,0,0.0,1,6.0,13.5600004196167,0.0,0.0,0.0,66.7128,C,31919092000000,
Raw,1732153035000,24048000000,,995651.8193996728,-1416188228952999936,0.0,118.90566722433842,1045.4165233542794,0.0,0,6,0.0,16431,351452921998411,487,20.26300048828125,-338.02785904982846,0.14999,16,0.0,0.0,1575420030,,,,0,0.5245065869521053,1,6.0,20.26300048828125,0.0,0.0,0.0,66.7128,C,31919092000000,
Raw,1732153035000,24048000000,,995651.8193996728,-1416188228952999936,0.0,118.90566722433842,1045.4165233542794,0.0,0,8,0.0,17,146022,1837,5.0,965.1300396722497,0.14999,16,0.0,0.0,1605374980,,,,0,0.0,3,6.0,9.0,0.0,0.0,41.57705712358153,66.7128,C,31919092000000,
Raw,1732153035000,24048000000,,995651.8193996728,-1416188228952999936,0.0,118.90566722433842,1045.4165233542794,0.0,0,30,0.0,16431,351452924849760,487,20.709999084472656,897.7967211636054,0.14999,16,0.0,0.0,1575420030,,,,0,3.4470673005168644,1,6.0,20.709999084472656,0.0,0.0,0.0,66.7128,C,31919092000000,
Fix,FLP,37.4255069000,-122.1582652000,3.1362130549027856,0.053739656,5.3,,1732153035245,2.7,,31919092000000,11.450462,0,,,
Status,1732153035000,26,0,1,17,1575420030,0.00,56.0,73.0,0,0,0,0.0
Status,1732153035000,26,1,1,19,1575420030,0.00,204.0,70.0,0,0,0,0.0
Status,1732153035000,26,2,1,22,1575420030,0.00,31.0,63.0,0,0,0,0.0
Status,1732153035000,26,3,1,14,1575420030,0.00,62.0,47.0,0,0,0,0.0
Status,1732153035000,26,4,2,135,1575420030,0.00,197.0,45.0,0,0,0,0.0
Status,1732153035000,26,5,1,13,1575420030,23.60,225.0,41.0,1,0,0,18.6
Status,1732153035000,26,6,1,30,1575420030,25.30,136.0,29.0,1,0,0,20.3
Status,1732153035000,26,7,1,15,1575420030,24.50,265.0,28.0,1,0,0,19.5
Status,1732153035000,26,8,1,24,1575420030,18.60,313.0,24.0,1,0,0,13.6
Status,1732153035000,26,9,1,6,1575420030,25.20,158.0,19.0,1,0,0,20.2
Status,1732153035000,26,10,1,2,1575420030,30.00,41.0,13.0,1,0,0,25.0
Status,1732153035000,26,11,1,12,1575420030,21.50,272.0,4.0,0,0,0,16.5
Status,1732153035000,26,12,3,20,1602000000,0.00,96.0,58.0,0,0,0,0.0
Status,1732153035000,26,13,3,11,1602000000,0.00,319.0,34.0,0,0,0,0.0
Status,1732153035000,26,14,3,9,1602000000,0.00,91.0,28.0,0,0,0,0.0
Status,1732153035000,26,15,3,19,1602000000,0.00,28.0,16.0,0,0,0,0.0
Status,1732153035000,26,16,3,8,1602000000,18.80,239.0,15.0,1,0,0,13.799999
Status,1732153035000,26,17,6,21,1575420030,0.00,1.0,67.0,0,0,0,0.0
Status,1732153035000,26,18,6,19,1575420030,0.00,235.0,41.0,0,0,0,0.0
Status,1732153035000,26,19,6,13,1575420030,0.00,114.0,34.0,0,0,0,0.0
Status,1732153035000,26,20,6,27,1575420030,0.00,70.0,30.0,0,0,0,0.0
Status,1732153035000,26,21,6,4,1575420030,0.00,305.0,26.0,0,0,0,0.0
Status,1732153035000,26,22,6,15,1575420030,0.00,55.0,23.0,0,0,0,0.0
Status,1732153035000,26,23,6,29,1575420030,0.00,190.0,18.0,0,0,0,0.0
Status,1732153035000,26,24,6,26,1575420030,0.00,165.0,12.0,0,0,0,0.0
Status,1732153035000,26,25,6,6,1575420030,0.00,324.0,9.0,0,0,0,0.0
Fix,GPS,37.4255433333,-122.1582733333,24.500000000000004,0.0,5.1,0.0,1732153036001,2.6,105.4,31920092000000,65.7,0,,,
Fix,FLP,37.4255245000,-122.1582689000,3.589235119882753,0.10662076,5.257,0.0,1732153036244,2.6,105.4,31920092000000,12.734903,0,,,
Raw,1732153036000,25048000000,,995483.0568152585,-1416188228952999936,0.0,119.41367858209183,1045.9271663821416,0.0,0,15,0.0,16431,351453924928317,487,19.534000396728516,606.6377384315355,0.14999,16,0.0,0.0,1575420030,,,,0,2.4755653093254533,1,6.0,19.534000396728516,0.0,0.0,0.0,66.7128,C,31920092000000,
Raw,1732153036000,25048000000,,995483.0568152585,-1416188228952999936,0.0,119.41367858209183,1045.9271663821416,0.0,0,2,0.0,16431,351453918183910,797,24.961999893188477,753.2192449183993,0.14999,16,0.0,0.0,1575420030,,,,0,9.980718669455626,1,6.0,24.961999893188477,0.0,0.0,0.0,66.7128,C,31920092000000,
Raw,1732153036000,25048000000,,995483.0568152585,-1416188228952999936,0.0,119.41367858209183,1045.9271663821416,0.0,0,12,0.0,17,283610,487,16.527000427246094,-231.29652365171586,0.14999,16,0.0,0.0,1575420030,,,,0,0.0,1,6.0,16.527000427246094,0.0,0.0,0.0,66.7128,C,31920092000000,
Raw,1732153036000,25048000000,,995483.0568152585,-1416188228952999936,0.0,119.41367858209183,1045.9271663821416,0.0,0,24,0.0,16431,351453924096214,487,13.616999626159668,-285.2748849437567,0.14999,16,0.0,0.0,1575420030,,,,0,0.0,1,6.0,13.616999626159668,0.0,0.0,0.0,66.7128,C,31920092000000,
Raw,1732153036000,25048000000,,995483.0568152585,-1416188228952999936,0.0,119.41367858209183,1045.9271663821416,0.0,0,6,0.0,16431,351453921999538,487,20.187999725341797,-337.4026681428832,0.14999,16,0.0,0.0,1575420030,,,,0,0.1296254230369609,1,6.0,20.187999725341797,0.0,0.0,0.0,66.7128,C,31920092000000,
Raw,1732153036000,25048000000,,995483.0568152585,-1416188228952999936,0.0,119.41367858209183,1045.9271663821416,0.0,0,8,0.0,17,142802,1797,5.0,965.7081403958077,0.14999,16,0.0,0.0,1605374980,,,,0,0.0,3,6.0,13.0,0.0,0.0,41.04734595976014,66.7128,C,31920092000000,
Raw,1732153036000,25048000000,,995483.0568152585,-1416188228952999936,0.0,119.41367858209183,1045.9271663821416,0.0,0,13,0.0,16431,351453928201534,487,18.562999725341797,788.1165771717776,0.14999,16,0.0,0.0,1575420030,,,,0,0.0,1,6.0,18.562999725341797,0.0,0.0,0.0,66.7128,C,31920092000000,
Raw,1732153036000,25048000000,,995483.0568152585,-1416188228952999936,0.0,119.41367858209183,1045.9271663821416,0.0,0,30,0.0,16431,351453924846771,487,20.292999267578125,897.9294993171352,0.14999,16,0.0,0.0,1575420030,,,,0,2.77859219077787,1,6.0,20.292999267578125,0.0,0.0,0.0,66.7128,C,31920092000000,
Status,1732153036001,25,0,1,17,1575420030,0.00,56.0,73.0,0,0,0,0.0
Status,1732153036001,25,1,1,19,1575420030,0.00,204.0,70.0,0,0,0,0.0
Status,1732153036001,25,2,1,22,1575420030,0.00,31.0,63.0,0,0,0,0.0
Status,1732153036001,25,3,1,14,1575420030,0.00,62.0,47.0,0,0,0,0.0
Status,1732153036001,25,4,1,13,1575420030,25.20,225.0,41.0,1,0,0,20.2
Status,1732153036001,25,5,1,30,1575420030,25.30,136.0,29.0,1,0,0,20.3
Status,1732153036001,25,6,1,15,1575420030,24.60,265.0,28.0,1,0,0,19.6
Status,1732153036001,25,7,1,24,1575420030,18.60,313.0,24.0,1,0,0,13.6
Status,1732153036001,25,8,1,6,1575420030,25.10,158.0,19.0,1,0,0,20.1
Status,1732153036001,25,9,1,2,1575420030,18.80,41.0,13.0,1,0,0,13.799999
Status,1732153036001,25,10,1,12,1575420030,23.80,272.0,4.0,0,0,0,18.8
Status,1732153036001,25,11,3,20,1602000000,0.00,96.0,58.0,0,0,0,0.0
Status,1732153036001,25,12,3,11,1602000000,0.00,319.0,34.0,0,0,0,0.0
Status,1732153036001,25,13,3,9,1602000000,0.00,91.0,28.0,0,0,0,0.0
Status,1732153036001,25,14,3,19,1602000000,0.00,28.0,16.0,0,0,0,0.0
Status,1732153036001,25,15,3,8,1602000000,0.00,239.0,15.0,0,0,0,0.0
Status,1732153036001,25,16,6,21,1575420030,0.00,1.0,67.0,0,0,0,0.0
Status,1732153036001,25,17,6,19,1575420030,0.00,235.0,41.0,0,0,0,0.0
Status,1732153036001,25,18,6,13,1575420030,0.00,114.0,34.0,0,0,0,0.0
Status,1732153036001,25,19,6,27,1575420030,0.00,70.0,30.0,0,0,0,0.0
Status,1732153036001,25,20,6,4,1575420030,0.00,305.0,26.0,0,0,0,0.0
Status,1732153036001,25,21,6,15,1575420030,0.00,55.0,23.0,0,0,0,0.0
Status,1732153036001,25,22,6,29,1575420030,0.00,190.0,18.0,0,0,0,0.0
Status,1732153036001,25,23,6,26,1575420030,0.00,165.0,12.0,0,0,0,0.0
Status,1732153036001,25,24,6,6,1575420030,0.00,324.0,9.0,0,0,0,0.0
Fix,GPS,37.4254916667,-122.1583383333,24.400000000000002,0.0,4.9,0.0,1732153037001,2.7,115.8,31921092000000,66.0,0,,,
Raw,1732153037000,26048000000,,995307.4144713808,-1416188228952999936,0.0,119.47465419641792,1049.624457138941,0.0,0,15,0.0,16431,351454924926294,487,19.562999725341797,608.2255941807792,0.14999,16,0.0,0.0,1575420030,,,,0,2.4755653093254533,1,6.0,19.562999725341797,0.0,0.0,0.0,66.7128,C,31921092000000,
Raw,1732153037000,26048000000,,995307.4144713808,-1416188228952999936,0.0,119.47465419641792,1049.624457138941,0.0,0,2,0.0,16431,351454918181389,1797,13.800000190734863,753.9132871981685,0.14999,16,0.0,0.0,1575420030,,,,0,0.0,1,6.0,13.800000190734863,0.0,0.0,0.0,66.7128,C,31921092000000,
Raw,1732153037000,26048000000,,995307.4144713808,-1416188228952999936,0.0,119.47465419641792,1049.624457138941,0.0,0,12,0.0,17,284380,487,18.844999313354492,-230.8976316901322,0.14999,16,0.0,0.0,1575420030,,,,0,0.2632571301672666,1,6.0,18.844999313354492,0.0,0.0,0.0,66.7128,C,31921092000000,
Raw,1732153037000,26048000000,,995307.4144713808,-1416188228952999936,0.0,119.47465419641792,1049.624457138941,0.0,0,24,0.0,16431,351454924097137,797,13.586000442504883,-283.88670746738586,0.14999,16,0.0,0.0,1575420030,,,,0,0.0,1,6.0,13.586000442504883,0.0,0.0,0.0,66.7128,C,31921092000000,
Raw,1732153037000,26048000000,,995307.4144713808,-1416188228952999936,0.0,119.47465419641792,1049.624457138941,0.0,0,6,0.0,16431,351454922000662,797,20.117000579833984,-336.47703065830444,0.14999,16,0.0,0.0,1575420030,,,,0,0.1296254230369609,1,6.0,20.117000579833984,0.0,0.0,0.0,66.7128,C,31921092000000,
Raw,1732153037000,26048000000,,995307.4144713808,-1416188228952999936,0.0,119.47465419641792,1049.624457138941,0.0,0,13,0.0,16431,351454928198966,797,20.238000869750977,789.449469132858,0.14999,16,0.0,0.0,1575420030,,,,0,2.6787532796278897,1,6.0,20.238000869750977,0.0,0.0,0.0,66.7128,C,31921092000000,
Raw,1732153037000,26048000000,,995307.4144713808,-1416188228952999936,0.0,119.47465419641792,1049.624457138941,0.0,0,30,0.0,16431,351454924843772,487,20.2549991607666,899.4469241074038,0.14999,16,0.0,0.0,1575420030,,,,0,1.4973701629153706,1,6.0,20.2549991607666,0.0,0.0,0.0,66.7128,C,31921092000000,
Fix,FLP,37.4255088000,-122.1583021000,5.400000095367432,0.051169276,5.185,,1732153037245,2.7,,31921092000000,11.323956,0,,,
Status,1732153037001,25,0,1,17,1575420030,0.00,56.0,73.0,0,0,0,0.0
Status,1732153037001,25,1,1,19,1575420030,0.00,204.0,70.0,0,0,0,0.0
Status,1732153037001,25,2,1,22,1575420030,0.00,31.0,63.0,0,0,0,0.0
Status,1732153037001,25,3,1,14,1575420030,0.00,62.0,47.0,0,0,0,0.0
Status,1732153037001,25,4,1,13,1575420030,25.20,225.0,41.0,1,0,0,20.2
Status,1732153037001,25,5,1,30,1575420030,25.20,136.0,28.0,1,0,0,20.2
Status,1732153037001,25,6,1,15,1575420030,24.60,265.0,28.0,1,0,0,19.6
Status,1732153037001,25,7,1,24,1575420030,18.60,313.0,24.0,1,0,0,13.6
Status,1732153037001,25,8,1,6,1575420030,25.10,158.0,19.0,1,0,0,20.1
Status,1732153037001,25,9,1,2,1575420030,18.80,41.0,13.0,1,0,0,13.799999
Status,1732153037001,25,10,1,12,1575420030,22.20,272.0,4.0,0,0,0,17.2
Status,1732153037001,25,11,3,20,1602000000,0.00,96.0,58.0,0,0,0,0.0
Status,1732153037001,25,12,3,11,1602000000,0.00,319.0,34.0,0,0,0,0.0
Status,1732153037001,25,13,3,9,1602000000,0.00,91.0,28.0,0,0,0,0.0
Status,1732153037001,25,14,3,19,1602000000,0.00,28.0,16.0,0,0,0,0.0
Status,1732153037001,25,15,3,8,1602000000,0.00,239.0,15.0,0,0,0,0.0
Status,1732153037001,25,16,6,21,1575420030,0.00,1.0,67.0,0,0,0,0.0
Status,1732153037001,25,17,6,19,1575420030,0.00,235.0,41.0,0,0,0,0.0
Status,1732153037001,25,18,6,13,1575420030,0.00,114.0,34.0,0,0,0,0.0
Status,1732153037001,25,19,6,27,1575420030,0.00,70.0,30.0,0,0,0,0.0
Status,1732153037001,25,20,6,4,1575420030,0.00,305.0,26.0,0,0,0,0.0
Status,1732153037001,25,21,6,15,1575420030,0.00,55.0,23.0,0,0,0,0.0
Status,1732153037001,25,22,6,29,1575420030,0.00,190.0,18.0,0,0,0,0.0
Status,1732153037001,25,23,6,26,1575420030,0.00,165.0,12.0,0,0,0,0.0
Status,1732153037001,25,24,6,6,1575420030,0.00,324.0,9.0,0,0,0,0.0
Fix,GPS,37.4254483333,-122.1583983333,24.400000000000002,0.0,4.8,0.0,1732153038001,2.7,120.8,31922092000000,66.3,0,,,
Raw,1732153038000,27048000000,,995122.7033536647,-1416188228952999936,0.0,119.78757412703288,1054.0867957846242,0.0,0,15,0.0,16431,351455924924254,487,19.614999771118164,609.3485870174203,0.14999,16,0.0,0.0,1575420030,,,,0,3.261265785112258,1,6.0,19.614999771118164,0.0,0.0,0.0,66.7128,C,31922092000000,
Raw,1732153038000,27048000000,,995122.7033536647,-1416188228952999936,0.0,119.78757412703288,1054.0867957846242,0.0,0,2,0.0,16431,351455918178872,797,13.800000190734863,755.0802761549611,0.14999,16,0.0,0.0,1575420030,,,,0,0.0,1,6.0,13.800000190734863,0.0,0.0,0.0,66.7128,C,31922092000000,
Raw,1732153038000,27048000000,,995122.7033536647,-1416188228952999936,0.0,119.78757412703288,1054.0867957846242,0.0,0,12,0.0,17,285149,487,17.20599937438965,-229.34694267385683,0.14999,16,0.0,0.0,1575420030,,,,0,0.0,1,6.0,17.20599937438965,0.0,0.0,0.0,66.7128,C,31922092000000,
Raw,1732153038000,27048000000,,995122.7033536647,-1416188228952999936,0.0,119.78757412703288,1054.0867957846242,0.0,0,24,0.0,16431,351455924098083,487,13.555999755859375,-282.6507742209369,0.14999,16,0.0,0.0,1575420030,,,,0,0.0,1,6.0,13.555999755859375,0.0,0.0,0.0,66.7128,C,31922092000000,
Raw,1732153038000,27048000000,,995122.7033536647,-1416188228952999936,0.0,119.78757412703288,1054.0867957846242,0.0,0,6,0.0,16431,351455922001775,487,20.08799934387207,-335.8377628512475,0.14999,16,0.0,0.0,1575420030,,,,0,1.4973701629153706,1,6.0,20.08799934387207,0.0,0.0,0.0,66.7128,C,31922092000000,
Raw,1732153038000,27048000000,,995122.7033536647,-1416188228952999936,0.0,119.78757412703288,1054.0867957846242,0.0,0,13,0.0,16431,351455928196329,797,20.238000869750977,791.5408411969916,0.14999,16,0.0,0.0,1575420030,,,,0,2.6787532796278897,1,6.0,20.238000869750977,0.0,0.0,0.0,66.7128,C,31922092000000,
Raw,1732153038000,27048000000,,995122.7033536647,-1416188228952999936,0.0,119.78757412703288,1054.0867957846242,0.0,0,30,0.0,16431,351455924840772,797,20.215999603271484,901.0934103779052,0.14999,16,0.0,0.0,1575420030,,,,0,1.3815565852974627,1,6.0,20.215999603271484,0.0,0.0,0.0,66.7128,C,31922092000000,
Fix,FLP,37.4254792000,-122.1583481000,5.400000095367432,0.046694238,5.1,,1732153038244,2.7,,31922092000000,11.404368,0,,,
Fix,FLP,37.4254651000,-122.1583701000,5.400000095367432,0.090330034,5.028,,1732153038930,2.7,,31922778000000,11.83585,0,,,
Fix,NLP,37.4256855000,-122.1581291000,-0.4000000059604645,,21.595,,1732153038931,,,31922778000000,22.459715,0,,,
Status,1732153038001,25,0,1,17,1575420030,0.00,56.0,73.0,0,0,0,0.0
Status,1732153038001,25,1,1,19,1575420030,0.00,204.0,70.0,0,0,0,0.0
Status,1732153038001,25,2,1,22,1575420030,0.00,31.0,63.0,0,0,0,0.0
Status,1732153038001,25,3,1,14,1575420030,0.00,62.0,47.0,0,0,0,0.0
Status,1732153038001,25,4,1,13,1575420030,0.00,225.0,41.0,0,0,0,0.0
Status,1732153038001,25,5,1,30,1575420030,0.00,136.0,28.0,0,0,0,0.0
Status,1732153038001,25,6,1,15,1575420030,28.20,265.0,28.0,1,0,0,23.2
Status,1732153038001,25,7,1,24,1575420030,18.50,313.0,24.0,1,0,0,13.5
Status,1732153038001,25,8,1,6,1575420030,25.10,158.0,19.0,1,0,0,20.1
Status,1732153038001,25,9,1,2,1575420030,18.80,41.0,13.0,1,0,0,13.799999
Status,1732153038001,25,10,1,12,1575420030,20.90,272.0,4.0,0,0,0,15.9
Status,1732153038001,25,11,3,20,1602000000,0.00,96.0,58.0,0,0,0,0.0
Status,1732153038001,25,12,3,11,1602000000,0.00,319.0,34.0,0,0,0,0.0
Status,1732153038001,25,13,3,9,1602000000,0.00,91.0,28.0,0,0,0,0.0
Status,1732153038001,25,14,3,19,1602000000,0.00,28.0,16.0,0,0,0,0.0
Status,1732153038001,25,15,3,8,1602000000,21.10,239.0,15.0,1,0,0,16.1
Status,1732153038001,25,16,6,21,1575420030,0.00,1.0,67.0,0,0,0,0.0
Status,1732153038001,25,17,6,19,1575420030,0.00,235.0,41.0,0,0,0,0.0
Status,1732153038001,25,18,6,13,1575420030,0.00,114.0,34.0,0,0,0,0.0
Status,1732153038001,25,19,6,27,1575420030,0.00,70.0,30.0,0,0,0,0.0
Status,1732153038001,25,20,6,4,1575420030,0.00,305.0,26.0,0,0,0,0.0
Status,1732153038001,25,21,6,15,1575420030,0.00,55.0,23.0,0,0,0,0.0
Status,1732153038001,25,22,6,29,1575420030,0.00,190.0,18.0,0,0,0,0.0
Status,1732153038001,25,23,6,26,1575420030,0.00,165.0,12.0,0,0,0,0.0
Status,1732153038001,25,24,6,6,1575420030,0.00,324.0,9.0,0,0,0,0.0
Fix,GPS,37.4253916667,-122.1584666667,24.400000000000002,0.0,4.7,0.0,1732153039001,2.7,139.0,31923092000000,70.9,0,,,
Raw,1732153039000,28048000000,,994959.5696633569,-1416188228952999936,0.0,126.32799768005071,1059.6027872646896,0.0,0,15,0.0,16431,351456924922224,396,23.155000686645508,610.674045631907,0.14999,16,0.0,0.0,1575420030,,,,0,7.372960203396229,1,6.0,23.155000686645508,0.0,0.0,0.0,66.7128,C,31923092000000,
Raw,1732153039000,28048000000,,994959.5696633569,-1416188228952999936,0.0,126.32799768005071,1059.6027872646896,0.0,0,2,0.0,16431,351456918176357,1797,13.770000457763672,756.5493377339545,0.14999,16,0.0,0.0,1575420030,,,,0,0.0,1,6.0,13.770000457763672,0.0,0.0,0.0,66.7128,C,31923092000000,
Raw,1732153039000,28048000000,,994959.5696633569,-1416188228952999936,0.0,126.32799768005071,1059.6027872646896,0.0,0,12,0.0,17,285914,797,15.878000259399414,-227.7112347559162,0.14999,16,0.0,0.0,1575420030,,,,0,0.0,1,6.0,15.878000259399414,0.0,0.0,0.0,66.7128,C,31923092000000,
Raw,1732153039000,28048000000,,994959.5696633569,-1416188228952999936,0.0,126.32799768005071,1059.6027872646896,0.0,0,24,0.0,16431,351456924099023,797,13.527999877929688,-281.1170889849946,0.14999,16,0.0,0.0,1575420030,,,,0,0.0,1,6.0,13.527999877929688,0.0,0.0,0.0,66.7128,C,31923092000000,
Raw,1732153039000,28048000000,,994959.5696633569,-1416188228952999936,0.0,126.32799768005071,1059.6027872646896,0.0,0,6,0.0,16431,351456922002890,487,20.089000701904297,-334.03169192106276,0.14999,16,0.0,0.0,1575420030,,,,0,2.4755653093254533,1,6.0,20.089000701904297,0.0,0.0,0.0,66.7128,C,31923092000000,
Raw,1732153039000,28048000000,,994959.5696633569,-1416188228952999936,0.0,126.32799768005071,1059.6027872646896,0.0,0,8,0.0,17,133100,797,5.0,969.2980182327922,0.14999,16,0.0,0.0,1605374980,,,,0,0.0,3,6.0,16.0,0.0,0.0,41.04734595976014,66.7128,C,31923092000000,
Fix,FLP,37.4254375000,-122.1584053000,5.400000095367432,0.17691949,4.942,180.0,1732153039245,2.7,139.0,31923092000000,11.794293,0,,,
Status,1732153039001,25,0,1,17,1575420030,0.00,56.0,73.0,0,0,0,0.0
Status,1732153039001,25,1,1,19,1575420030,0.00,204.0,70.0,0,0,0,0.0
Status,1732153039001,25,2,1,22,1575420030,0.00,31.0,63.0,0,0,0,0.0
Status,1732153039001,25,3,1,14,1575420030,0.00,62.0,47.0,0,0,0,0.0
Status,1732153039001,25,4,1,13,1575420030,0.00,225.0,41.0,0,0,0,0.0
Status,1732153039001,25,5,1,30,1575420030,0.00,136.0,28.0,0,0,0,0.0
Status,1732153039001,25,6,1,15,1575420030,28.20,265.0,28.0,1,0,0,23.2
Status,1732153039001,25,7,1,24,1575420030,24.30,313.0,24.0,1,0,0,19.3
Status,1732153039001,25,8,1,6,1575420030,30.20,158.0,19.0,1,0,0,25.2
Status,1732153039001,25,9,1,2,1575420030,18.70,41.0,13.0,1,0,0,13.700001
Status,1732153039001,25,10,1,12,1575420030,20.90,272.0,4.0,0,0,0,15.9
Status,1732153039001,25,11,3,20,1602000000,0.00,96.0,58.0,0,0,0,0.0
Status,1732153039001,25,12,3,11,1602000000,0.00,319.0,34.0,0,0,0,0.0
Status,1732153039001,25,13,3,9,1602000000,0.00,91.0,28.0,0,0,0,0.0
Status,1732153039001,25,14,3,19,1602000000,0.00,28.0,16.0,0,0,0,0.0
Status,1732153039001,25,15,3,8,1602000000,26.10,239.0,15.0,1,0,0,21.1
Status,1732153039001,25,16,6,21,1575420030,0.00,1.0,67.0,0,0,0,0.0
Status,1732153039001,25,17,6,19,1575420030,0.00,235.0,41.0,0,0,0,0.0
Status,1732153039001,25,18,6,13,1575420030,0.00,114.0,34.0,0,0,0,0.0
Status,1732153039001,25,19,6,27,1575420030,0.00,70.0,30.0,0,0,0,0.0
Status,1732153039001,25,20,6,4,1575420030,0.00,305.0,26.0,0,0,0,0.0
Status,1732153039001,25,21,6,15,1575420030,0.00,55.0,23.0,0,0,0,0.0
Status,1732153039001,25,22,6,29,1575420030,0.00,190.0,18.0,0,0,0,0.0
Status,1732153039001,25,23,6,26,1575420030,0.00,165.0,12.0,0,0,0,0.0
Status,1732153039001,25,24,6,6,1575420030,0.00,324.0,9.0,0,0,0,0.0
Fix,GPS,37.4253500000,-122.1585200000,24.400000000000002,0.0,4.6,0.0,1732153040001,2.6,129.4,31924092000000,70.7,0,,,
Raw,1732153040000,29048000000,,994766.2067269217,-1416188228952999936,0.0,126.55318245607923,1064.3060455987165,0.0,0,15,0.0,16431,351457924920197,396,23.22599983215332,611.7688846683245,0.14999,16,0.0,0.0,1575420030,,,,0,9.444658221167838,1,6.0,23.22599983215332,0.0,0.0,0.0,66.7128,C,31924092000000,
Raw,1732153040000,29048000000,,994766.2067269217,-1416188228952999936,0.0,126.55318245607923,1064.3060455987165,0.0,0,2,0.0,16431,351457918173832,1797,13.741000175476074,758.0384693487509,0.14999,16,0.0,0.0,1575420030,,,,0,0.0,1,6.0,13.741000175476074,0.0,0.0,0.0,66.7128,C,31924092000000,
Raw,1732153040000,29048000000,,994766.2067269217,-1416188228952999936,0.0,126.55318245607923,1064.3060455987165,0.0,0,12,0.0,17,286668,487,15.947999954223633,-226.58810254402644,0.14999,16,0.0,0.0,1575420030,,,,0,0.0,1,6.0,15.947999954223633,0.0,0.0,0.0,66.7128,C,31924092000000,
Raw,1732153040000,29048000000,,994766.2067269217,-1416188228952999936,0.0,126.55318245607923,1064.3060455987165,0.0,0,24,0.0,16431,351457924099921,487,19.30299949645996,-279.10729789972675,0.14999,16,0.0,0.0,1575420030,,,,0,1.0245519663532177,1,6.0,19.30299949645996,0.0,0.0,0.0,66.7128,C,31924092000000,
Raw,1732153040000,29048000000,,994766.2067269217,-1416188228952999936,0.0,126.55318245607923,1064.3060455987165,0.0,0,6,0.0,16431,351457922003996,396,25.243000030517578,-332.68342222421677,0.14999,16,0.0,0.0,1575420030,,,,0,10.36211167637789,1,6.0,25.243000030517578,0.0,0.0,0.0,66.7128,C,31924092000000,
Raw,1732153040000,29048000000,,994766.2067269217,-1416188228952999936,0.0,126.55318245607923,1064.3060455987165,0.0,0,8,0.0,17,129826,487,5.0,970.3305754242073,0.14999,16,0.0,0.0,1605374980,,,,0,5.8494604049482515,3,6.0,20.0,0.0,0.0,41.04734595976014,66.7128,C,31924092000000,
Fix,FLP,37.4253966000,-122.1584564000,5.400000095367432,0.30108073,4.857,180.0,1732153040245,2.6,129.4,31924092000000,11.716429,0,,,
Status,1732153040001,25,0,1,17,1575420030,0.00,56.0,73.0,0,0,0,0.0
Status,1732153040001,25,1,1,19,1575420030,0.00,204.0,70.0,0,0,0,0.0
Status,1732153040001,25,2,1,22,1575420030,0.00,31.0,63.0,0,0,0,0.0
Status,1732153040001,25,3,1,14,1575420030,0.00,62.0,47.0,0,0,0,0.0
Status,1732153040001,25,4,1,13,1575420030,0.00,225.0,41.0,0,0,0,0.0
Status,1732153040001,25,5,1,30,1575420030,23.60,136.0,28.0,1,0,0,18.6
Status,1732153040001,25,6,1,15,1575420030,28.60,265.0,28.0,1,0,0,23.6
Status,1732153040001,25,7,1,24,1575420030,21.20,313.0,24.0,1,0,0,16.2
Status,1732153040001,25,8,1,6,1575420030,30.20,158.0,19.0,1,0,0,25.2
Status,1732153040001,25,9,1,2,1575420030,18.70,41.0,13.0,1,0,0,13.700001
Status,1732153040001,25,10,1,12,1575420030,21.10,272.0,4.0,0,0,0,16.1
Status,1732153040001,25,11,3,20,1602000000,0.00,96.0,58.0,0,0,0,0.0
Status,1732153040001,25,12,3,11,1602000000,0.00,319.0,34.0,0,0,0,0.0
Status,1732153040001,25,13,3,9,1602000000,0.00,91.0,28.0,0,0,0,0.0
Status,1732153040001,25,14,3,19,1602000000,0.00,28.0,16.0,0,0,0,0.0
Status,1732153040001,25,15,3,8,1602000000,23.40,239.0,15.0,1,0,0,18.4
Status,1732153040001,25,16,6,21,1575420030,0.00,1.0,67.0,0,0,0,0.0
Status,1732153040001,25,17,6,19,1575420030,0.00,235.0,41.0,0,0,0,0.0
Status,1732153040001,25,18,6,13,1575420030,0.00,114.0,34.0,0,0,0,0.0
Status,1732153040001,25,19,6,27,1575420030,0.00,70.0,30.0,0,0,0,0.0
Status,1732153040001,25,20,6,4,1575420030,0.00,305.0,26.0,0,0,0,0.0
Status,1732153040001,25,21,6,15,1575420030,0.00,55.0,23.0,0,0,0,0.0
Status,1732153040001,25,22,6,29,1575420030,0.00,190.0,18.0,0,0,0,0.0
Status,1732153040001,25,23,6,26,1575420030,0.00,165.0,12.0,0,0,0,0.0
Status,1732153040001,25,24,6,6,1575420030,0.00,324.0,9.0,0,0,0,0.0
Fix,GPS,37.4252900000,-122.1585816667,24.400000000000002,0.0,4.5,0.0,1732153041001,2.8,145.6,31925092000000,70.8,0,,,
Raw,1732153041000,30048000000,,994645.4982199719,-1416188228952999936,0.0,126.83665798528548,1068.2574260380986,0.0,0,15,0.0,16431,351458924918145,396,23.639999389648438,612.8257207202819,0.14999,16,0.0,0.0,1575420030,,,,0,8.101881663674039,1,6.0,23.639999389648438,0.0,0.0,0.0,66.7128,C,31925092000000,
Raw,1732153041000,30048000000,,994645.4982199719,-1416188228952999936,0.0,126.83665798528548,1068.2574260380986,0.0,0,2,0.0,16431,351458918171302,797,13.713000297546387,758.8138138568886,0.14999,16,0.0,0.0,1575420030,,,,0,0.0,1,6.0,13.713000297546387,0.0,0.0,0.0,66.7128,C,31925092000000,
Raw,1732153041000,30048000000,,994645.4982199719,-1416188228952999936,0.0,126.83665798528548,1068.2574260380986,0.0,0,12,0.0,17,287421,487,16.06800079345703,-224.98863219073004,0.14999,16,0.0,0.0,1575420030,,,,0,0.0,1,6.0,16.06800079345703,0.0,0.0,0.0,66.7128,C,31925092000000,
Raw,1732153041000,30048000000,,994645.4982199719,-1416188228952999936,0.0,126.83665798528548,1068.2574260380986,0.0,0,24,0.0,16431,351458924100851,487,16.21500015258789,-278.41831958732445,0.14999,16,0.0,0.0,1575420030,,,,0,0.0,1,6.0,16.21500015258789,0.0,0.0,0.0,66.7128,C,31925092000000,
Raw,1732153041000,30048000000,,994645.4982199719,-1416188228952999936,0.0,126.83665798528548,1068.2574260380986,0.0,0,6,0.0,16431,351458922005104,487,25.214000701904297,-332.0927963789322,0.14999,16,0.0,0.0,1575420030,,,,0,9.581806696424437,1,6.0,25.214000701904297,0.0,0.0,0.0,66.7128,C,31925092000000,
Raw,1732153041000,30048000000,,994645.4982199719,-1416188228952999936,0.0,126.83665798528548,1068.2574260380986,0.0,0,8,0.0,17,126571,487,5.0,971.150949589799,0.14999,16,0.0,0.0,1605374980,,,,0,1.6572716719449043,3,6.0,19.0,0.0,0.0,52.02207197661482,66.7128,C,31925092000000,
Raw,1732153041000,30048000000,,994645.4982199719,-1416188228952999936,0.0,126.83665798528548,1068.2574260380986,0.0,0,30,0.0,16431,351458924831771,797,18.562999725341797,903.711992549196,0.14999,16,0.0,0.0,1575420030,,,,0,0.0,1,6.0,18.562999725341797,0.0,0.0,0.0,66.7128,C,31925092000000,
Fix,FLP,37.4253437000,-122.1585151000,5.400000095367432,0.45927387,4.771,180.0,1732153041245,2.8,145.6,31925092000000,11.513369,0,,,
Status,1732153041001,25,0,1,17,1575420030,0.00,56.0,73.0,0,0,0,0.0
Status,1732153041001,25,1,1,19,1575420030,0.00,204.0,70.0,0,0,0,0.0
Status,1732153041001,25,2,1,22,1575420030,0.00,31.0,63.0,0,0,0,0.0
Status,1732153041001,25,3,1,14,1575420030,0.00,62.0,47.0,0,0,0,0.0
Status,1732153041001,25,4,1,13,1575420030,0.00,225.0,41.0,0,0,0,0.0
Status,1732153041001,25,5,1,30,1575420030,22.70,136.0,28.0,1,0,0,17.7
Status,1732153041001,25,6,1,15,1575420030,29.90,265.0,28.0,1,0,0,24.9
Status,1732153041001,25,7,1,24,1575420030,22.80,313.0,24.0,1,0,0,17.8
Status,1732153041001,25,8,1,6,1575420030,24.40,158.0,19.0,1,0,0,19.4
Status,1732153041001,25,9,1,2,1575420030,19.30,41.0,13.0,1,0,0,14.299999
Status,1732153041001,25,10,1,12,1575420030,25.40,272.0,4.0,0,0,0,20.4
Status,1732153041001,25,11,3,20,1602000000,0.00,96.0,58.0,0,0,0,0.0
Status,1732153041001,25,12,3,11,1602000000,0.00,319.0,34.0,0,0,0,0.0
Status,1732153041001,25,13,3,9,1602000000,0.00,91.0,28.0,0,0,0,0.0
Status,1732153041001,25,14,3,19,1602000000,0.00,28.0,16.0,0,0,0,0.0
Status,1732153041001,25,15,3,8,1602000000,23.40,239.0,15.0,1,0,0,18.4
Status,1732153041001,25,16,6,21,1575420030,0.00,1.0,67.0,0,0,0,0.0
Status,1732153041001,25,17,6,19,1575420030,0.00,235.0,41.0,0,0,0,0.0
Status,1732153041001,25,18,6,13,1575420030,0.00,114.0,34.0,0,0,0,0.0
Status,1732153041001,25,19,6,27,1575420030,0.00,70.0,30.0,0,0,0,0.0
Status,1732153041001,25,20,6,4,1575420030,0.00,305.0,26.0,0,0,0,0.0
Status,1732153041001,25,21,6,15,1575420030,0.00,55.0,23.0,0,0,0,0.0
Status,1732153041001,25,22,6,29,1575420030,0.00,190.0,18.0,0,0,0,0.0
Status,1732153041001,25,23,6,26,1575420030,0.00,165.0,12.0,0,0,0,0.0
Status,1732153041001,25,24,6,6,1575420030,0.00,324.0,9.0,0,0,0,0.0
Fix,GPS,37.4252883333,-122.1585733333,24.400000000000002,0.0,4.5,0.0,1732153042001,3.1,120.3,31926092000000,71.1,0,,,
Raw,1732153042000,31048000000,,994556.1655857266,-1416188228952999936,0.0,128.0508896207333,1070.9758397348883,0.0,0,15,0.0,16431,351459924916103,316,24.934999465942383,612.6252061959171,0.14999,16,0.0,0.0,1575420030,,,,0,9.937289130786946,1,6.0,24.934999465942383,0.0,0.0,0.0,66.7128,C,31926092000000,
Raw,1732153042000,31048000000,,994556.1655857266,-1416188228952999936,0.0,128.0508896207333,1070.9758397348883,0.0,0,2,0.0,16431,351459918168740,1797,14.300000190734863,759.6982427262885,0.14999,16,0.0,0.0,1575420030,,,,0,0.0,1,6.0,14.300000190734863,0.0,0.0,0.0,66.7128,C,31926092000000,
Raw,1732153042000,31048000000,,994556.1655857266,-1416188228952999936,0.0,128.0508896207333,1070.9758397348883,0.0,0,12,0.0,17,288178,487,20.398000717163086,-225.15272331678565,0.14999,16,0.0,0.0,1575420030,,,,0,2.974891836649845,1,6.0,20.398000717163086,0.0,0.0,0.0,66.7128,C,31926092000000,
Raw,1732153042000,31048000000,,994556.1655857266,-1416188228952999936,0.0,128.0508896207333,1070.9758397348883,0.0,0,24,0.0,16431,351459924101772,487,17.805999755859375,-277.3676160463069,0.14999,16,0.0,0.0,1575420030,,,,0,0.0,1,6.0,17.805999755859375,0.0,0.0,0.0,66.7128,C,31926092000000,
Raw,1732153042000,31048000000,,994556.1655857266,-1416188228952999936,0.0,128.0508896207333,1070.9758397348883,0.0,0,6,0.0,16431,351459922006211,487,19.365999221801758,-332.03532731807974,0.14999,16,0.0,0.0,1575420030,,,,0,1.1451912617514792,1,6.0,19.365999221801758,0.0,0.0,0.0,66.7128,C,31926092000000,
Raw,1732153042000,31048000000,,994556.1655857266,-1416188228952999936,0.0,128.0508896207333,1070.9758397348883,0.0,0,8,0.0,17,123330,797,5.0,972.0080705363993,0.14999,16,0.0,0.0,1605374980,,,,0,1.6572716719449043,3,6.0,17.0,0.0,0.0,59.207096107832506,66.7128,C,31926092000000,
