# 
# Header Description:
# 
# Version: v3.1.0.3 Platform: 13 Manufacturer: samsung Model: SM-S135DL GNSS Hardware Model Name: MediaTek,MT6631,MTK_MNLD_default,MNL_VER_default
# 
# Raw,utcTimeMillis,TimeNanos,LeapSecond,TimeUncertaintyNanos,FullBiasNanos,BiasNanos,BiasUncertaintyNanos,DriftNanosPerSecond,DriftUncertaintyNanosPerSecond,HardwareClockDiscontinuityCount,Svid,TimeOffsetNanos,State,ReceivedSvTimeNanos,ReceivedSvTimeUncertaintyNanos,Cn0DbHz,PseudorangeRateMetersPerSecond,PseudorangeRateUncertaintyMetersPerSecond,AccumulatedDeltaRangeState,AccumulatedDeltaRangeMeters,AccumulatedDeltaRangeUncertaintyMeters,CarrierFrequencyHz,CarrierCycles,CarrierPhase,CarrierPhaseUncertainty,MultipathIndicator,SnrInDb,ConstellationType,AgcDb,BasebandCn0DbHz,FullInterSignalBiasNanos,FullInterSignalBiasUncertaintyNanos,SatelliteInterSignalBiasNanos,SatelliteInterSignalBiasUncertaintyNanos,CodeType,ChipsetElapsedRealtimeNanos,IsFullTracking
# 
# UncalAccel,utcTimeMillis,elapsedRealtimeNanos,UncalAccelXMps2,UncalAccelYMps2,UncalAccelZMps2,BiasXMps2,BiasYMps2,BiasZMps2
# 
# Accel,utcTimeMillis,elapsedRealtimeNanos,AccelXMps2,AccelYMps2,AccelZMps2
# 
# UncalGyro,utcTimeMillis,elapsedRealtimeNanos,UncalGyroXRadPerSec,UncalGyroYRadPerSec,UncalGyroZRadPerSec,DriftXRadPerSec,DriftYRadPerSec,DriftZRadPerSec
# 
# Gyro,utcTimeMillis,elapsedRealtimeNanos,GyroXRadPerSec,GyroYRadPerSec,GyroZRadPerSec
# 
# UncalMag,utcTimeMillis,elapsedRealtimeNanos,UncalMagXMicroT,UncalMagYMicroT,UncalMagZMicroT,BiasXMicroT,BiasYMicroT,BiasZMicroT
# 
# Mag,utcTimeMillis,elapsedRealtimeNanos,MagXMicroT,MagYMicroT,MagZMicroT
# 
# Pressure,utcTimeMillis,elapsedRealtimeNanos,PressureHpa
# 
# OrientationDeg,utcTimeMillis,elapsedRealtimeNanos,yawDeg,rollDeg,pitchDeg
# 
# Fix,Provider,LatitudeDegrees,LongitudeDegrees,AltitudeMeters,SpeedMps,AccuracyMeters,BearingDegrees,UnixTimeMillis,SpeedAccuracyMps,BearingAccuracyDegrees,elapsedRealtimeNanos,VerticalAccuracyMeters,MockLocation,NumberOfUsedSignals,VerticalSpeedAccuracyMps,SolutionType
# 
# Nav,Svid,Type,Status,MessageId,Sub-messageId,Data(Bytes)
# 
# Status,UnixTimeMillis,SignalCount,SignalIndex,ConstellationType,Svid,CarrierFrequencyHz,Cn0DbHz,AzimuthDegrees,ElevationDegrees,UsedInFix,HasAlmanacData,HasEphemerisData,BasebandCn0DbHz
# 
# Agc,utcTimeMillis,TimeNanos,LeapSecond,TimeUncertaintyNanos,FullBiasNanos,BiasNanos,BiasUncertaintyNanos,DriftNanosPerSecond,DriftUncertaintyNanosPerSecond,HardwareClockDiscontinuityCount,AgcDb,CarrierFrequencyHz,ConstellationType
# 
Fix,FLP,37.4252624000,-122.1583954000,3.643603431419561,0.59744394,6.114,0.000000016027197,1732151072241,1.9,103.6,29956089000000,12.840048,0,,,
Status,,27,0,1,17,1575420030,0.00,120.0,79.0,0,0,0,0.0
Status,,27,1,1,22,1575420030,0.00,358.0,68.0,0,0,0,0.0
Status,,27,2,1,14,1575420030,0.00,45.0,57.0,0,0,0,0.0
Status,,27,3,1,19,1575420030,19.80,198.0,54.0,1,0,0,14.799999
Status,,27,4,1,13,1575420030,29.60,243.0,52.0,1,0,0,24.6
Status,,27,5,2,133,1575420030,0.00,191.0,45.0,0,0,0,0.0
Status,,27,6,1,30,1575420030,29.90,127.0,42.0,1,0,0,24.9
Status,,27,7,1,15,1575420030,23.70,282.0,31.0,1,0,0,18.7
Status,,27,8,1,2,1575420030,0.00,53.0,19.0,0,0,0,0.0
Status,,27,9,1,24,1575420030,0.00,312.0,11.0,0,0,0,0.0
Status,,27,10,1,7,1575420030,26.70,128.0,9.0,1,0,0,21.7
Status,,27,11,1,21,1575420030,0.00,38.0,8.0,0,0,0,0.0
Status,,27,12,1,6,1575420030,0.00,165.0,7.0,0,0,0,0.0
Status,,27,13,3,20,1602000000,0.00,123.0,47.0,0,0,0,0.0
Status,,27,14,3,9,1602000000,0.00,73.0,37.0,0,0,0,0.0
Status,,27,15,3,8,1602000000,0.00,253.0,28.0,0,0,0,0.0
Status,,27,16,3,19,1602000000,0.00,39.0,28.0,0,0,0,0.0
Status,,27,17,3,11,1602000000,27.20,304.0,23.0,0,0,0,22.2
Status,,27,18,6,21,1575420030,0.00,330.0,67.0,0,0,0,0.0
Status,,27,19,6,19,1575420030,0.00,250.0,49.0,0,0,0,0.0
Status,,27,20,6,27,1575420030,0.00,60.0,37.0,0,0,0,0.0
Status,,27,21,6,29,1575420030,0.00,192.0,30.0,0,0,0,0.0
Status,,27,22,6,13,1575420030,0.00,124.0,24.0,0,0,0,0.0
Status,,27,23,6,15,1575420030,0.00,67.0,23.0,0,0,0,0.0
Status,,27,24,6,4,1575420030,0.00,315.0,20.0,0,0,0,0.0
Status,,27,25,6,26,1575420030,0.00,169.0,2.0,0,0,0,0.0
Status,,27,26,6,6,1575420030,0.00,329.0,1.0,0,0,0,0.0
Fix,GPS,37.4252950000,-122.1583550000,-0.6999999999999993,0.0,6.0,0.0,1732151073000,2.0,96.7,29957089000000,45.2,0,,,
Fix,FLP,37.4252786000,-122.1583796000,3.4766858501294484,0.6076108,6.085,0.000000012039392,1732151073241,2.0,96.7,29957089000000,13.036138,0,,,
Raw,1732151073001,16490000000,,10590839.313242497,-1416186274511000064,0.0,100.88311685897229,1410.1913482414586,0.0,0,19,0.0,16431,349490930740957,1797,14.800000190734863,-34.2040333082684,0.14999,16,0.0,0.0,1575420030,,,,0,0.0,1,6.0,14.800000190734863,0.0,0.0,0.0,66.7128,C,29957089000000,
Raw,1732151073001,16490000000,,10590839.313242497,-1416186274511000064,0.0,100.88311685897229,1410.1913482414586,0.0,0,15,0.0,16431,349490926455544,797,18.670000076293945,491.5978263367464,0.14999,16,0.0,0.0,1575420030,,,,0,0.0,1,6.0,18.670000076293945,0.0,0.0,0.0,66.7128,C,29957089000000,
Raw,1732151073001,16490000000,,10590839.313242497,-1416186274511000064,0.0,100.88311685897229,1410.1913482414586,0.0,0,13,0.0,16431,349490931008923,396,24.642000198364258,697.2990147455904,0.14999,16,0.0,0.0,1575420030,,,,0,9.498796531869965,1,6.0,24.642000198364258,0.0,0.0,0.0,66.7128,C,29957089000000,
Raw,1732151073001,16490000000,,10590839.313242497,-1416186274511000064,0.0,100.88311685897229,1410.1913482414586,0.0,0,11,0.0,17,970649,396,22.0,-54.69366397141726,0.14999,16,0.0,0.0,1602000000,,,,0,7.458468907459487,3,6.0,22.0,0.0,0.0,1.4934910660342187,66.7128,C,29957089000000,
Raw,1732151073001,16490000000,,10590839.313242497,-1416186274511000064,0.0,100.88311685897229,1410.1913482414586,0.0,0,30,0.0,16431,349490928571376,396,24.87700080871582,873.3642400784834,0.14999,16,0.0,0.0,1575420030,,,,0,9.860760973725888,1,6.0,24.87700080871582,0.0,0.0,0.0,66.7128,C,29957089000000,
Raw,1732151073001,16490000000,,10590839.313242497,-1416186274511000064,0.0,100.88311685897229,1410.1913482414586,0.0,0,7,0.0,16431,349490919973295,797,21.746000289916992,1027.8315052160917,0.14999,16,0.0,0.0,1575420030,,,,0,5.153736573325819,1,6.0,21.746000289916992,0.0,0.0,0.0,66.7128,C,29957089000000,
Status,1732151073000,27,0,1,17,1575420030,0.00,120.0,79.0,0,0,0,0.0
Status,1732151073000,27,1,1,22,1575420030,0.00,358.0,68.0,0,0,0,0.0
Status,1732151073000,27,2,1,14,1575420030,0.00,45.0,57.0,0,0,0,0.0
Status,1732151073000,27,3,1,19,1575420030,19.50,198.0,54.0,1,0,0,14.5
Status,1732151073000,27,4,1,13,1575420030,26.70,243.0,52.0,1,0,0,21.7
Status,1732151073000,27,5,2,133,1575420030,0.00,191.0,45.0,0,0,0,0.0
Status,1732151073000,27,6,1,30,1575420030,27.60,127.0,42.0,1,0,0,22.6
Status,1732151073000,27,7,1,15,1575420030,23.60,282.0,31.0,1,0,0,18.6
Status,1732151073000,27,8,1,2,1575420030,0.00,53.0,19.0,0,0,0,0.0
Status,1732151073000,27,9,1,24,1575420030,0.00,312.0,11.0,0,0,0,0.0
Status,1732151073000,27,10,1,7,1575420030,26.60,128.0,9.0,1,0,0,21.6
Status,1732151073000,27,11,1,21,1575420030,0.00,38.0,8.0,0,0,0,0.0
Status,1732151073000,27,12,1,6,1575420030,0.00,165.0,7.0,0,0,0,0.0
Status,1732151073000,27,13,3,20,1602000000,0.00,123.0,47.0,0,0,0,0.0
Status,1732151073000,27,14,3,9,1602000000,0.00,73.0,37.0,0,0,0,0.0
Status,1732151073000,27,15,3,8,1602000000,23.40,253.0,28.0,1,0,0,18.4
Status,1732151073000,27,16,3,19,1602000000,0.00,39.0,28.0,0,0,0,0.0
Status,1732151073000,27,17,3,11,1602000000,24.30,304.0,23.0,0,0,0,19.3
Status,1732151073000,27,18,6,21,1575420030,0.00,330.0,67.0,0,0,0,0.0
Status,1732151073000,27,19,6,19,1575420030,0.00,250.0,49.0,0,0,0,0.0
Status,1732151073000,27,20,6,27,1575420030,0.00,60.0,37.0,0,0,0,0.0
Status,1732151073000,27,21,6,29,1575420030,0.00,192.0,30.0,0,0,0,0.0
Status,1732151073000,27,22,6,13,1575420030,0.00,124.0,24.0,0,0,0,0.0
Status,1732151073000,27,23,6,15,1575420030,0.00,67.0,23.0,0,0,0,0.0
Status,1732151073000,27,24,6,4,1575420030,0.00,315.0,20.0,0,0,0,0.0
Status,1732151073000,27,25,6,26,1575420030,0.00,169.0,2.0,0,0,0,0.0
Status,1732151073000,27,26,6,6,1575420030,0.00,329.0,1.0,0,0,0,0.0
Fix,GPS,37.4253050000,-122.1583433333,-0.5999999999999979,0.0,6.0,0.0,1732151074000,2.0,94.7,29958089000000,85.9,0,,,
Raw,1732151074000,17490000000,,10539773.98590861,-1416186274510000128,0.0,143.75744185861387,1407.9954839982877,0.0,0,19,0.0,16431,349491929741072,797,14.5,-35.541478194137376,0.14999,16,0.0,0.0,1575420030,,,,0,0.0,1,6.0,14.5,0.0,0.0,0.0,66.7128,C,29958089000000,
Raw,1732151074000,17490000000,,10539773.98590861,-1416186274510000128,0.0,143.75744185861387,1407.9954839982877,0.0,0,15,0.0,16431,349491925453905,487,18.575000762939453,490.6112818685156,0.14999,16,0.0,0.0,1575420030,,,,0,0.0,1,6.0,18.575000762939453,0.0,0.0,0.0,66.7128,C,29958089000000,
Raw,1732151074000,17490000000,,10539773.98590861,-1416186274510000128,0.0,143.75744185861387,1407.9954839982877,0.0,0,13,0.0,16431,349491930006597,487,21.746000289916992,696.7195853786126,0.14999,16,0.0,0.0,1575420030,,,,0,5.153736573325819,1,6.0,21.746000289916992,0.0,0.0,0.0,66.7128,C,29958089000000,
Raw,1732151074000,17490000000,,10539773.98590861,-1416186274510000128,0.0,143.75744185861387,1407.9954839982877,0.0,0,8,0.0,17,306744,487,5.0,929.0583781838149,0.14999,16,0.0,0.0,1605374980,,,,0,1.594765692100852,3,6.0,19.0,0.0,0.0,1.8914296925293943,66.7128,C,29958089000000,
Raw,1732151074000,17490000000,,10539773.98590861,-1416186274510000128,0.0,143.75744185861387,1407.9954839982877,0.0,0,11,0.0,17,970826,487,18.399999618530273,-54.84351926433724,0.14999,16,0.0,0.0,1602000000,,,,0,3.1551256222626667,3,6.0,18.399999618530273,0.0,0.0,1.8914296925293943,66.7128,C,29958089000000,
Raw,1732151074000,17490000000,,10539773.98590861,-1416186274510000128,0.0,143.75744185861387,1407.9954839982877,0.0,0,30,0.0,16431,349491927568427,797,22.610000610351562,873.1292534092904,0.14999,16,0.0,0.0,1575420030,,,,0,6.492672365938084,1,6.0,22.610000610351562,0.0,0.0,0.0,66.7128,C,29958089000000,
Raw,1732151074000,17490000000,,10539773.98590861,-1416186274510000128,0.0,143.75744185861387,1407.9954839982877,0.0,0,7,0.0,16431,349491918969867,487,21.649999618530273,1026.4977770035196,0.14999,16,0.0,0.0,1575420030,,,,0,1.9681813724051969,1,6.0,21.649999618530273,0.0,0.0,0.0,66.7128,C,29958089000000,
Fix,FLP,37.4252927000,-122.1583647000,3.1738439327093477,0.61081886,6.057,0.00000000871416,1732151074241,2.0,94.7,29958089000000,12.082121,0,,,
Status,1732151074000,27,0,1,17,1575420030,0.00,120.0,79.0,0,0,0,0.0
Status,1732151074000,27,1,1,22,1575420030,0.00,358.0,68.0,0,0,0,0.0
Status,1732151074000,27,2,1,14,1575420030,0.00,45.0,57.0,0,0,0,0.0
Status,1732151074000,27,3,1,19,1575420030,19.50,198.0,54.0,1,0,0,14.5
Status,1732151074000,27,4,1,13,1575420030,25.40,243.0,52.0,1,0,0,20.4
Status,1732151074000,27,5,2,133,1575420030,0.00,191.0,45.0,0,0,0,0.0
Status,1732151074000,27,6,1,30,1575420030,27.60,127.0,42.0,1,0,0,22.6
Status,1732151074000,27,7,1,15,1575420030,23.50,282.0,31.0,1,0,0,18.5
Status,1732151074000,27,8,1,2,1575420030,0.00,53.0,19.0,0,0,0,0.0
Status,1732151074000,27,9,1,24,1575420030,0.00,312.0,11.0,0,0,0,0.0
Status,1732151074000,27,10,1,7,1575420030,26.60,128.0,9.0,1,0,0,21.6
Status,1732151074000,27,11,1,21,1575420030,0.00,38.0,8.0,0,0,0,0.0
Status,1732151074000,27,12,1,6,1575420030,0.00,165.0,7.0,0,0,0,0.0
Status,1732151074000,27,13,3,20,1602000000,0.00,123.0,47.0,0,0,0,0.0
Status,1732151074000,27,14,3,9,1602000000,0.00,73.0,37.0,0,0,0,0.0
Status,1732151074000,27,15,3,8,1602000000,23.40,253.0,28.0,1,0,0,18.4
Status,1732151074000,27,16,3,19,1602000000,0.00,39.0,28.0,0,0,0,0.0
Status,1732151074000,27,17,3,11,1602000000,29.90,304.0,23.0,0,0,0,24.9
Status,1732151074000,27,18,6,21,1575420030,0.00,330.0,67.0,0,0,0,0.0
Status,1732151074000,27,19,6,19,1575420030,0.00,250.0,49.0,0,0,0,0.0
Status,1732151074000,27,20,6,27,1575420030,0.00,60.0,37.0,0,0,0,0.0
Status,1732151074000,27,21,6,29,1575420030,0.00,192.0,30.0,0,0,0,0.0
Status,1732151074000,27,22,6,13,1575420030,0.00,124.0,24.0,0,0,0,0.0
Status,1732151074000,27,23,6,15,1575420030,0.00,67.0,23.0,0,0,0,0.0
Status,1732151074000,27,24,6,4,1575420030,0.00,315.0,20.0,0,0,0,0.0
Status,1732151074000,27,25,6,26,1575420030,0.00,169.0,2.0,0,0,0,0.0
Status,1732151074000,27,26,6,6,1575420030,0.00,329.0,1.0,0,0,0,0.0
Fix,GPS,37.4253200000,-122.1583300000,-0.5999999999999979,0.0,6.1,0.0,1732151075000,2.0,93.5,29959089000000,86.4,0,,,
Fix,FLP,37.4253072000,-122.1583505000,2.9340925614022293,0.6147375,6.057,0.000000007513284,1732151075241,2.0,93.5,29959089000000,10.852817,0,,,
Raw,1732151075000,18490000000,,10480453.78112881,-1416186274510000128,0.0,144.36124295439873,1403.9870391237616,0.0,0,19,0.0,16431,349492929741192,797,14.5,-36.398543056389386,0.14999,16,0.0,0.0,1575420030,,,,0,0.0,1,6.0,14.5,0.0,0.0,0.0,66.7128,C,29959089000000,
Raw,1732151075000,18490000000,,10480453.78112881,-1416186274510000128,0.0,144.36124295439873,1403.9870391237616,0.0,0,15,0.0,16431,349492925452271,797,18.485000610351562,489.0740657929413,0.14999,16,0.0,0.0,1575420030,,,,0,0.0,1,6.0,18.485000610351562,0.0,0.0,0.0,66.7128,C,29959089000000,
Raw,1732151075000,18490000000,,10480453.78112881,-1416186274510000128,0.0,144.36124295439873,1403.9870391237616,0.0,0,13,0.0,16431,349492930004278,487,20.39299964904785,695.733087368798,0.14999,16,0.0,0.0,1575420030,,,,0,2.90529298959974,1,6.0,20.39299964904785,0.0,0.0,0.0,66.7128,C,29959089000000,
Raw,1732151075000,18490000000,,10480453.78112881,-1416186274510000128,0.0,144.36124295439873,1403.9870391237616,0.0,0,8,0.0,17,303657,797,5.0,922.983579066325,0.14999,16,0.0,0.0,1605374980,,,,0,1.594765692100852,3,6.0,16.0,0.0,0.0,2.2652971572940377,66.7128,C,29959089000000,
Raw,1732151075000,18490000000,,10480453.78112881,-1416186274510000128,0.0,144.36124295439873,1403.9870391237616,0.0,0,11,0.0,17,971008,316,18.399999618530273,-57.052651269995756,0.14999,16,0.0,0.0,1602000000,,,,0,10.939800357244822,3,6.0,18.399999618530273,0.0,0.0,2.2652971572940377,66.7128,C,29959089000000,
Raw,1732151075000,18490000000,,10480453.78112881,-1416186274510000128,0.0,144.36124295439873,1403.9870391237616,0.0,0,30,0.0,16431,349492927565517,487,22.610000610351562,871.7436776042274,0.14999,16,0.0,0.0,1575420030,,,,0,6.492672365938084,1,6.0,22.610000610351562,0.0,0.0,0.0,66.7128,C,29959089000000,
Raw,1732151075000,18490000000,,10480453.78112881,-1416186274510000128,0.0,144.36124295439873,1403.9870391237616,0.0,0,7,0.0,16431,349492918966439,487,21.55900001525879,1026.003180704542,0.14999,16,0.0,0.0,1575420030,,,,0,1.9681813724051969,1,6.0,21.55900001525879,0.0,0.0,0.0,66.7128,C,29959089000000,
Status,1732151075000,27,0,1,17,1575420030,0.00,120.0,79.0,0,0,0,0.0
Status,1732151075000,27,1,1,22,1575420030,0.00,358.0,68.0,0,0,0,0.0
Status,1732151075000,27,2,1,14,1575420030,0.00,45.0,57.0,0,0,0,0.0
Status,1732151075000,27,3,1,19,1575420030,19.50,198.0,54.0,1,0,0,14.5
Status,1732151075000,27,4,1,13,1575420030,23.50,243.0,52.0,1,0,0,18.5
Status,1732151075000,27,5,2,133,1575420030,0.00,191.0,45.0,0,0,0,0.0
Status,1732151075000,27,6,1,30,1575420030,24.50,127.0,42.0,1,0,0,19.5
Status,1732151075000,27,7,1,15,1575420030,23.50,282.0,31.0,1,0,0,18.5
Status,1732151075000,27,8,1,2,1575420030,0.00,53.0,19.0,0,0,0,0.0
Status,1732151075000,27,9,1,24,1575420030,0.00,312.0,11.0,0,0,0,0.0
Status,1732151075000,27,10,1,7,1575420030,26.70,128.0,9.0,1,0,0,21.7
Status,1732151075000,27,11,1,21,1575420030,0.00,38.0,8.0,0,0,0,0.0
Status,1732151075000,27,12,1,6,1575420030,0.00,165.0,7.0,0,0,0,0.0
Status,1732151075000,27,13,3,20,1602000000,0.00,123.0,47.0,0,0,0,0.0
Status,1732151075000,27,14,3,9,1602000000,0.00,73.0,37.0,0,0,0,0.0
Status,1732151075000,27,15,3,8,1602000000,21.40,253.0,28.0,1,0,0,16.4
Status,1732151075000,27,16,3,19,1602000000,0.00,39.0,28.0,0,0,0,0.0
Status,1732151075000,27,17,3,11,1602000000,24.90,304.0,23.0,0,0,0,19.9
Status,1732151075000,27,18,6,21,1575420030,0.00,330.0,67.0,0,0,0,0.0
Status,1732151075000,27,19,6,19,1575420030,0.00,250.0,49.0,0,0,0,0.0
Status,1732151075000,27,20,6,27,1575420030,0.00,60.0,37.0,0,0,0,0.0
Status,1732151075000,27,21,6,29,1575420030,0.00,192.0,30.0,0,0,0,0.0
Status,1732151075000,27,22,6,13,1575420030,0.00,124.0,24.0,0,0,0,0.0
Status,1732151075000,27,23,6,15,1575420030,0.00,67.0,23.0,0,0,0,0.0
Status,1732151075000,27,24,6,4,1575420030,0.00,315.0,20.0,0,0,0,0.0
Status,1732151075000,27,25,6,26,1575420030,0.00,169.0,2.0,0,0,0,0.0
Status,1732151075000,27,26,6,6,1575420030,0.00,329.0,1.0,0,0,0,0.0
Fix,GPS,37.4253350000,-122.1583166667,-0.5999999999999979,0.0,6.1,0.0,1732151076000,2.0,89.9,29960089000000,85.7,0,,,
Raw,1732151076000,19490000000,,10426686.58462382,-1416186274510000128,0.0,142.22527685514612,1400.3616947172509,0.0,0,19,0.0,16431,349493929741315,797,14.5,-37.313355729991095,0.14999,16,0.0,0.0,1575420030,,,,0,0.0,1,6.0,14.5,0.0,0.0,0.0,66.7128,C,29960089000000,
Raw,1732151076000,19490000000,,10426686.58462382,-1416186274510000128,0.0,142.22527685514612,1400.3616947172509,0.0,0,15,0.0,16431,349493925450636,797,18.4689998626709,487.9282618739408,0.14999,16,0.0,0.0,1575420030,,,,0,0.0,1,6.0,18.4689998626709,0.0,0.0,0.0,66.7128,C,29960089000000,
Raw,1732151076000,19490000000,,10426686.58462382,-1416186274510000128,0.0,142.22527685514612,1400.3616947172509,0.0,0,13,0.0,16431,349493930001959,797,18.53499984741211,695.4150330514207,0.14999,16,0.0,0.0,1575420030,,,,0,0.0,1,6.0,18.53499984741211,0.0,0.0,0.0,66.7128,C,29960089000000,
Raw,1732151076000,19490000000,,10426686.58462382,-1416186274510000128,0.0,142.22527685514612,1400.3616947172509,0.0,0,8,0.0,17,300580,797,5.0,922.1773382780442,0.14999,16,0.0,0.0,1605374980,,,,0,0.0,3,6.0,15.0,0.0,0.0,2.560597219474852,66.7128,C,29960089000000,
Raw,1732151076000,19490000000,,10426686.58462382,-1416186274510000128,0.0,142.22527685514612,1400.3616947172509,0.0,0,11,0.0,17,971196,487,16.399999618530273,-57.214476711313615,0.14999,16,0.0,0.0,1602000000,,,,0,4.037059753846878,3,6.0,16.399999618530273,0.0,0.0,2.560597219474852,66.7128,C,29960089000000,
Raw,1732151076000,19490000000,,10426686.58462382,-1416186274510000128,0.0,142.22527685514612,1400.3616947172509,0.0,0,30,0.0,16431,349493927562596,797,19.47100067138672,870.9862195863308,0.14999,16,0.0,0.0,1575420030,,,,0,1.2820967490054858,1,6.0,19.47100067138672,0.0,0.0,0.0,66.7128,C,29960089000000,
Raw,1732151076000,19490000000,,10426686.58462382,-1416186274510000128,0.0,142.22527685514612,1400.3616947172509,0.0,0,7,0.0,16431,349493918963019,396,21.68199920654297,1025.438710947584,0.14999,16,0.0,0.0,1575420030,,,,0,8.624617974161847,1,6.0,21.68199920654297,0.0,0.0,0.0,66.7128,C,29960089000000,
Fix,FLP,37.4253220000,-122.1583366000,3.4766858501294484,0.6193046,6.057,0.0000000065086363,1732151076241,2.0,89.9,29960089000000,12.549616,0,,,
Fix,FLP,37.4253279000,-122.1583297000,3.4766858501294484,0.60751194,6.057,0.000000004008466,1732151076643,2.0,89.9,29960491000000,12.088096,0,,,
Fix,NLP,37.4257247000,-122.1580898000,5.400000095367432,,27.21,,1732151076643,,,29960491000000,15.440444,0,,,
Status,1732151076000,26,0,1,17,1575420030,0.00,120.0,79.0,0,0,0,0.0
Status,1732151076000,26,1,1,22,1575420030,0.00,358.0,68.0,0,0,0,0.0
Status,1732151076000,26,2,1,14,1575420030,0.00,45.0,57.0,0,0,0,0.0
Status,1732151076000,26,3,1,19,1575420030,20.90,198.0,54.0,1,0,0,15.9
Status,1732151076000,26,4,1,13,1575420030,23.50,243.0,52.0,1,0,0,18.5
Status,1732151076000,26,5,1,30,1575420030,0.00,127.0,42.0,0,0,0,0.0
Status,1732151076000,26,6,1,15,1575420030,23.50,282.0,31.0,1,0,0,18.5
Status,1732151076000,26,7,1,2,1575420030,0.00,53.0,19.0,0,0,0,0.0
Status,1732151076000,26,8,1,24,1575420030,0.00,312.0,11.0,0,0,0,0.0
Status,1732151076000,26,9,1,7,1575420030,26.70,128.0,9.0,1,0,0,21.7
Status,1732151076000,26,10,1,21,1575420030,0.00,38.0,8.0,0,0,0,0.0
Status,1732151076000,26,11,1,6,1575420030,0.00,165.0,7.0,0,0,0,0.0
Status,1732151076000,26,12,3,20,1602000000,0.00,123.0,47.0,0,0,0,0.0
Status,1732151076000,26,13,3,9,1602000000,0.00,73.0,37.0,0,0,0,0.0
Status,1732151076000,26,14,3,8,1602000000,0.00,253.0,28.0,0,0,0,0.0
Status,1732151076000,26,15,3,19,1602000000,0.00,39.0,28.0,0,0,0,0.0
Status,1732151076000,26,16,3,11,1602000000,23.30,304.0,23.0,0,0,0,18.3
Status,1732151076000,26,17,6,21,1575420030,0.00,330.0,67.0,0,0,0,0.0
Status,1732151076000,26,18,6,19,1575420030,0.00,250.0,49.0,0,0,0,0.0
Status,1732151076000,26,19,6,27,1575420030,0.00,60.0,37.0,0,0,0,0.0
Status,1732151076000,26,20,6,29,1575420030,0.00,192.0,30.0,0,0,0,0.0
Status,1732151076000,26,21,6,13,1575420030,0.00,124.0,24.0,0,0,0,0.0
Status,1732151076000,26,22,6,15,1575420030,0.00,67.0,23.0,0,0,0,0.0
Status,1732151076000,26,23,6,4,1575420030,0.00,315.0,20.0,0,0,0,0.0
Status,1732151076000,26,24,6,26,1575420030,0.00,169.0,2.0,0,0,0,0.0
Status,1732151076000,26,25,6,6,1575420030,0.00,329.0,1.0,0,0,0,0.0
Fix,GPS,37.4253533333,-122.1583050000,-0.5999999999999979,0.0,6.1,0.0,1732151077000,2.0,85.0,29961089000000,85.9,0,,,
Raw,1732151077000,20490000000,,10381702.130745398,-1416186274510000128,0.0,142.5149746454971,1398.7155435269353,0.0,0,19,0.0,16431,349494929741453,797,15.918999671936035,-37.47921227586272,0.14999,16,0.0,0.0,1575420030,,,,0,0.0,1,6.0,15.918999671936035,0.0,0.0,0.0,66.7128,C,29961089000000,
Raw,1732151077000,20490000000,,10381702.130745398,-1416186274510000128,0.0,142.5149746454971,1398.7155435269353,0.0,0,15,0.0,16431,349494925449009,797,18.452999114990234,487.9670081930604,0.14999,16,0.0,0.0,1575420030,,,,0,0.0,1,6.0,18.452999114990234,0.0,0.0,0.0,66.7128,C,29961089000000,
Raw,1732151077000,20490000000,,10381702.130745398,-1416186274510000128,0.0,142.5149746454971,1398.7155435269353,0.0,0,13,0.0,16431,349494929999641,797,18.53499984741211,694.5726490486911,0.14999,16,0.0,0.0,1575420030,,,,0,0.0,1,6.0,18.53499984741211,0.0,0.0,0.0,66.7128,C,29961089000000,
Raw,1732151077000,20490000000,,10381702.130745398,-1416186274510000128,0.0,142.5149746454971,1398.7155435269353,0.0,0,11,0.0,17,971385,487,19.0,-56.948986129863,0.14999,16,0.0,0.0,1602000000,,,,0,1.3973752628515745,3,6.0,19.0,0.0,0.0,2.560597219474852,66.7128,C,29961089000000,
Raw,1732151077000,20490000000,,10381702.130745398,-1416186274510000128,0.0,142.5149746454971,1398.7155435269353,0.0,0,7,0.0,16431,349494918959599,487,21.70199966430664,1024.735237609324,0.14999,16,0.0,0.0,1575420030,,,,0,5.671346952925369,1,6.0,21.70199966430664,0.0,0.0,0.0,66.7128,C,29961089000000,
Fix,FLP,37.4253388000,-122.1583212000,3.4766858501294484,0.607889,6.057,0.000000004470384,1732151077241,2.0,85.0,29961089000000,12.00902,0,,,
Status,1732151077000,26,0,1,17,1575420030,0.00,120.0,79.0,0,0,0,0.0
Status,1732151077000,26,1,1,22,1575420030,0.00,358.0,68.0,0,0,0,0.0
Status,1732151077000,26,2,1,14,1575420030,0.00,45.0,57.0,0,0,0,0.0
Status,1732151077000,26,3,1,19,1575420030,20.90,198.0,54.0,1,0,0,15.9
Status,1732151077000,26,4,1,13,1575420030,22.80,243.0,52.0,1,0,0,17.8
Status,1732151077000,26,5,1,30,1575420030,0.00,127.0,42.0,0,0,0,0.0
Status,1732151077000,26,6,1,15,1575420030,19.80,282.0,31.0,1,0,0,14.799999
Status,1732151077000,26,7,1,2,1575420030,0.00,53.0,19.0,0,0,0,0.0
Status,1732151077000,26,8,1,24,1575420030,0.00,312.0,11.0,0,0,0,0.0
Status,1732151077000,26,9,1,7,1575420030,26.60,128.0,9.0,1,0,0,21.6
Status,1732151077000,26,10,1,21,1575420030,0.00,38.0,8.0,0,0,0,0.0
Status,1732151077000,26,11,1,6,1575420030,0.00,165.0,7.0,0,0,0,0.0
Status,1732151077000,26,12,3,20,1602000000,0.00,123.0,47.0,0,0,0,0.0
Status,1732151077000,26,13,3,9,1602000000,0.00,73.0,37.0,0,0,0,0.0
Status,1732151077000,26,14,3,8,1602000000,0.00,253.0,28.0,0,0,0,0.0
Status,1732151077000,26,15,3,19,1602000000,0.00,39.0,28.0,0,0,0,0.0
Status,1732151077000,26,16,3,11,1602000000,0.00,304.0,23.0,0,0,0,0.0
Status,1732151077000,26,17,6,21,1575420030,0.00,330.0,67.0,0,0,0,0.0
Status,1732151077000,26,18,6,19,1575420030,0.00,250.0,49.0,0,0,0,0.0
Status,1732151077000,26,19,6,27,1575420030,0.00,60.0,37.0,0,0,0,0.0
Status,1732151077000,26,20,6,29,1575420030,0.00,192.0,30.0,0,0,0,0.0
Status,1732151077000,26,21,6,13,1575420030,0.00,124.0,24.0,0,0,0,0.0
Status,1732151077000,26,22,6,15,1575420030,0.00,67.0,23.0,0,0,0,0.0
Status,1732151077000,26,23,6,4,1575420030,0.00,315.0,20.0,0,0,0,0.0
Status,1732151077000,26,24,6,26,1575420030,0.00,169.0,2.0,0,0,0,0.0
Status,1732151077000,26,25,6,6,1575420030,0.00,329.0,1.0,0,0,0,0.0
Fix,GPS,37.4253716667,-122.1582950000,-0.5999999999999979,0.0,6.1,0.0,1732151078000,2.0,80.3,29962089000000,86.0,0,,,
Raw,1732151078000,21490000000,,10337030.393206222,-1416186274510000128,0.0,142.79156624161686,1394.7743843003184,0.0,0,19,0.0,16431,349495929741581,797,15.918999671936035,-39.29215905164656,0.14999,16,0.0,0.0,1575420030,,,,0,0.0,1,6.0,15.918999671936035,0.0,0.0,0.0,66.7128,C,29962089000000,
Raw,1732151078000,21490000000,,10337030.393206222,-1416186274510000128,0.0,142.79156624161686,1394.7743843003184,0.0,0,15,0.0,16431,349495925447384,797,14.800000190734863,486.8411349346142,0.14999,16,0.0,0.0,1575420030,,,,0,0.0,1,6.0,14.800000190734863,0.0,0.0,0.0,66.7128,C,29962089000000,
Raw,1732151078000,21490000000,,10337030.393206222,-1416186274510000128,0.0,142.79156624161686,1394.7743843003184,0.0,0,13,0.0,16431,349495929997327,797,17.768999099731445,693.7229246162004,0.14999,16,0.0,0.0,1575420030,,,,0,0.0,1,6.0,17.768999099731445,0.0,0.0,0.0,66.7128,C,29962089000000,
Raw,1732151078000,21490000000,,10337030.393206222,-1416186274510000128,0.0,142.79156624161686,1394.7743843003184,0.0,0,7,0.0,16431,349495918956184,487,21.59600067138672,1024.2536496668856,0.14999,16,0.0,0.0,1575420030,,,,0,1.516864814430368,1,6.0,21.59600067138672,0.0,0.0,0.0,66.7128,C,29962089000000,
Fix,FLP,37.4253551000,-122.1583110000,3.3407598660526094,0.6173109,6.071,0.0000000034709267,1732151078241,2.0,80.3,29962089000000,11.78924,0,,,
Status,1732151078000,26,0,1,17,1575420030,0.00,120.0,79.0,0,0,0,0.0
Status,1732151078000,26,1,1,22,1575420030,0.00,358.0,68.0,0,0,0,0.0
Status,1732151078000,26,2,1,14,1575420030,0.00,45.0,57.0,0,0,0,0.0
Status,1732151078000,26,3,1,19,1575420030,20.90,198.0,54.0,1,0,0,15.9
Status,1732151078000,26,4,1,13,1575420030,22.80,243.0,52.0,1,0,0,17.8
Status,1732151078000,26,5,1,30,1575420030,0.00,127.0,42.0,0,0,0,0.0
Status,1732151078000,26,6,1,15,1575420030,19.80,282.0,31.0,1,0,0,14.799999
Status,1732151078000,26,7,1,2,1575420030,0.00,53.0,19.0,0,0,0,0.0
Status,1732151078000,26,8,1,24,1575420030,0.00,312.0,11.0,0,0,0,0.0
Status,1732151078000,26,9,1,7,1575420030,26.50,128.0,9.0,1,0,0,21.5
Status,1732151078000,26,10,1,21,1575420030,0.00,38.0,8.0,0,0,0,0.0
Status,1732151078000,26,11,1,6,1575420030,0.00,165.0,7.0,0,0,0,0.0
Status,1732151078000,26,12,3,20,1602000000,0.00,123.0,47.0,0,0,0,0.0
Status,1732151078000,26,13,3,9,1602000000,0.00,73.0,37.0,0,0,0,0.0
Status,1732151078000,26,14,3,8,1602000000,0.00,253.0,28.0,0,0,0,0.0
Status,1732151078000,26,15,3,19,1602000000,0.00,39.0,28.0,0,0,0,0.0
Status,1732151078000,26,16,3,11,1602000000,24.90,304.0,23.0,0,0,0,19.9
Status,1732151078000,26,17,6,21,1575420030,0.00,330.0,67.0,0,0,0,0.0
Status,1732151078000,26,18,6,19,1575420030,0.00,250.0,49.0,0,0,0,0.0
Status,1732151078000,26,19,6,27,1575420030,0.00,60.0,37.0,0,0,0,0.0
Status,1732151078000,26,20,6,29,1575420030,0.00,192.0,30.0,0,0,0,0.0
Status,1732151078000,26,21,6,13,1575420030,0.00,124.0,24.0,0,0,0,0.0
Status,1732151078000,26,22,6,15,1575420030,0.00,67.0,23.0,0,0,0,0.0
Status,1732151078000,26,23,6,4,1575420030,0.00,315.0,20.0,0,0,0,0.0
Status,1732151078000,26,24,6,26,1575420030,0.00,169.0,2.0,0,0,0,0.0
Status,1732151078000,26,25,6,6,1575420030,0.00,329.0,1.0,0,0,0,0.0
Fix,GPS,37.4253916667,-122.1582850000,-0.5999999999999979,0.0,6.2,0.0,1732151079000,2.1,74.6,29963089000000,86.2,0,,,
Raw,1732151079000,22490000000,,10295622.580338562,-1416186274510000128,0.0,143.34915209716127,1393.616001283077,0.0,0,19,0.0,16431,349496929741712,797,15.918999671936035,-39.11069247792819,0.14999,16,0.0,0.0,1575420030,,,,0,0.0,1,6.0,15.918999671936035,0.0,0.0,0.0,66.7128,C,29963089000000,
Raw,1732151079000,22490000000,,10295622.580338562,-1416186274510000128,0.0,143.34915209716127,1393.616001283077,0.0,0,15,0.0,16431,349496925445761,797,14.800000190734863,486.7591822884188,0.14999,16,0.0,0.0,1575420030,,,,0,0.0,1,6.0,14.800000190734863,0.0,0.0,0.0,66.7128,C,29963089000000,
Raw,1732151079000,22490000000,,10295622.580338562,-1416186274510000128,0.0,143.34915209716127,1393.616001283077,0.0,0,13,0.0,16431,349496929995014,797,17.768999099731445,693.3240326546168,0.14999,16,0.0,0.0,1575420030,,,,0,0.0,1,6.0,17.768999099731445,0.0,0.0,0.0,66.7128,C,29963089000000,
Raw,1732151079000,22490000000,,10295622.580338562,-1416186274510000128,0.0,143.34915209716127,1393.616001283077,0.0,0,11,0.0,17,971761,487,20.0,-58.88221078370939,0.14999,16,0.0,0.0,1602000000,,,,0,4.084850188786498,3,6.0,20.0,0.0,0.0,2.560597219474852,66.7128,C,29963089000000,
Raw,1732151079000,22490000000,,10295622.580338562,-1416186274510000128,0.0,143.34915209716127,1393.616001283077,0.0,0,7,0.0,16431,349496918952767,487,21.4950008392334,1024.2719542828727,0.14999,16,0.0,0.0,1575420030,,,,0,1.516864814430368,1,6.0,21.4950008392334,0.0,0.0,0.0,66.7128,C,29963089000000,
Fix,FLP,37.4253732000,-122.1583007000,3.7270634580520907,0.63341653,6.1,0.000000002467347,1732151079241,2.1,74.6,29963089000000,12.690578,0,,,
Status,1732151079000,26,0,1,17,1575420030,0.00,120.0,79.0,0,0,0,0.0
Status,1732151079000,26,1,1,22,1575420030,0.00,358.0,68.0,0,0,0,0.0
Status,1732151079000,26,2,1,14,1575420030,0.00,45.0,57.0,0,0,0,0.0
Status,1732151079000,26,3,1,19,1575420030,19.70,198.0,54.0,1,0,0,14.700001
Status,1732151079000,26,4,1,13,1575420030,22.70,243.0,52.0,1,0,0,17.7
Status,1732151079000,26,5,1,30,1575420030,0.00,127.0,42.0,0,0,0,0.0
Status,1732151079000,26,6,1,15,1575420030,19.80,282.0,31.0,1,0,0,14.799999
Status,1732151079000,26,7,1,2,1575420030,0.00,53.0,19.0,0,0,0,0.0
Status,1732151079000,26,8,1,24,1575420030,0.00,312.0,11.0,0,0,0,0.0
Status,1732151079000,26,9,1,7,1575420030,26.40,128.0,9.0,1,0,0,21.4
Status,1732151079000,26,10,1,21,1575420030,0.00,38.0,8.0,0,0,0,0.0
Status,1732151079000,26,11,1,6,1575420030,0.00,165.0,7.0,0,0,0,0.0
Status,1732151079000,26,12,3,20,1602000000,0.00,123.0,47.0,0,0,0,0.0
Status,1732151079000,26,13,3,9,1602000000,0.00,73.0,37.0,0,0,0,0.0
Status,1732151079000,26,14,3,8,1602000000,22.10,253.0,28.0,1,0,0,17.1
Status,1732151079000,26,15,3,19,1602000000,0.00,39.0,28.0,0,0,0,0.0
Status,1732151079000,26,16,3,11,1602000000,28.80,304.0,23.0,0,0,0,23.8
Status,1732151079000,26,17,6,21,1575420030,0.00,330.0,67.0,0,0,0,0.0
Status,1732151079000,26,18,6,19,1575420030,0.00,250.0,49.0,0,0,0,0.0
Status,1732151079000,26,19,6,27,1575420030,0.00,60.0,37.0,0,0,0,0.0
Status,1732151079000,26,20,6,29,1575420030,0.00,192.0,30.0,0,0,0,0.0
Status,1732151079000,26,21,6,13,1575420030,0.00,124.0,24.0,0,0,0,0.0
Status,1732151079000,26,22,6,15,1575420030,0.00,67.0,23.0,0,0,0,0.0
Status,1732151079000,26,23,6,4,1575420030,0.00,315.0,20.0,0,0,0,0.0
Status,1732151079000,26,24,6,26,1575420030,0.00,169.0,2.0,0,0,0,0.0
Status,1732151079000,26,25,6,6,1575420030,0.00,329.0,1.0,0,0,0,0.0
Fix,GPS,37.4254050000,-122.1582800000,-0.5999999999999979,0.0,6.2,0.0,1732151080000,2.1,76.7,29964089000000,85.8,0,,,
Fix,FLP,37.4253896000,-122.1582923000,5.400000095367432,0.643556,6.128,0.0000000017376006,1732151080241,2.1,76.7,29964089000000,12.943766,0,,,
Raw,1732151080000,23490000000,,10263841.42725832,-1416186274510000128,0.0,143.18648259516948,1392.5339569095752,0.0,0,19,0.0,16431,349497929741842,797,14.699999809265137,-39.309255748812035,0.14999,16,0.0,0.0,1575420030,,,,0,0.0,1,6.0,14.699999809265137,0.0,0.0,0.0,66.7128,C,29964089000000,
Raw,1732151080000,23490000000,,10263841.42725832,-1416186274510000128,0.0,143.18648259516948,1392.5339569095752,0.0,0,15,0.0,16431,349497925444136,487,14.800000190734863,487.38976237164445,0.14999,16,0.0,0.0,1575420030,,,,0,0.0,1,6.0,14.800000190734863,0.0,0.0,0.0,66.7128,C,29964089000000,
Raw,1732151080000,23490000000,,10263841.42725832,-1416186274510000128,0.0,143.18648259516948,1392.5339569095752,0.0,0,13,0.0,16431,349497929992695,797,17.702999114990234,692.7596558144911,0.14999,16,0.0,0.0,1575420030,,,,0,0.0,1,6.0,17.702999114990234,0.0,0.0,0.0,66.7128,C,29964089000000,
Raw,1732151080000,23490000000,,10263841.42725832,-1416186274510000128,0.0,143.18648259516948,1392.5339569095752,0.0,0,8,0.0,17,288259,487,5.0,922.7711224912634,0.14999,16,0.0,0.0,1605374980,,,,0,0.0,3,6.0,20.0,0.0,0.0,2.560597219474852,66.7128,C,29964089000000,
Raw,1732151080000,23490000000,,10263841.42725832,-1416186274510000128,0.0,143.18648259516948,1392.5339569095752,0.0,0,11,0.0,17,971950,316,17.100000381469727,-57.6587428297142,0.14999,16,0.0,0.0,1602000000,,,,0,9.584018957407567,3,6.0,17.100000381469727,0.0,0.0,2.560597219474852,66.7128,C,29964089000000,
Raw,1732151080000,23490000000,,10263841.42725832,-1416186274510000128,0.0,143.18648259516948,1392.5339569095752,0.0,0,7,0.0,16431,349497918949350,797,21.420000076293945,1024.129698612436,0.14999,16,0.0,0.0,1575420030,,,,0,2.1853399241693627,1,6.0,21.420000076293945,0.0,0.0,0.0,66.7128,C,29964089000000,
Status,1732151080000,27,0,1,17,1575420030,0.00,120.0,79.0,0,0,0,0.0
Status,1732151080000,27,1,1,22,1575420030,0.00,358.0,68.0,0,0,0,0.0
Status,1732151080000,27,2,1,14,1575420030,0.00,45.0,57.0,0,0,0,0.0
Status,1732151080000,27,3,1,19,1575420030,19.70,198.0,54.0,1,0,0,14.700001
Status,1732151080000,27,4,1,13,1575420030,22.60,243.0,52.0,1,0,0,17.6
Status,1732151080000,27,5,2,135,1575420030,0.00,197.0,45.0,0,0,0,0.0
Status,1732151080000,27,6,1,30,1575420030,0.00,127.0,42.0,0,0,0,0.0
Status,1732151080000,27,7,1,15,1575420030,26.10,282.0,31.0,1,0,0,21.1
Status,1732151080000,27,8,1,2,1575420030,0.00,53.0,19.0,0,0,0,0.0
Status,1732151080000,27,9,1,24,1575420030,0.00,312.0,11.0,0,0,0,0.0
Status,1732151080000,27,10,1,7,1575420030,0.00,128.0,9.0,0,0,0,0.0
Status,1732151080000,27,11,1,21,1575420030,0.00,38.0,8.0,0,0,0,0.0
Status,1732151080000,27,12,1,6,1575420030,0.00,165.0,7.0,0,0,0,0.0
Status,1732151080000,27,13,3,20,1602000000,0.00,123.0,47.0,0,0,0,0.0
Status,1732151080000,27,14,3,9,1602000000,0.00,73.0,37.0,0,0,0,0.0
Status,1732151080000,27,15,3,8,1602000000,20.70,253.0,28.0,1,0,0,15.700001
Status,1732151080000,27,16,3,19,1602000000,0.00,39.0,28.0,0,0,0,0.0
Status,1732151080000,27,17,3,11,1602000000,29.80,304.0,23.0,0,0,0,24.8
Status,1732151080000,27,18,6,21,1575420030,0.00,330.0,67.0,0,0,0,0.0
Status,1732151080000,27,19,6,19,1575420030,0.00,250.0,49.0,0,0,0,0.0
Status,1732151080000,27,20,6,27,1575420030,0.00,60.0,37.0,0,0,0,0.0
Status,1732151080000,27,21,6,29,1575420030,0.00,192.0,30.0,0,0,0,0.0
Status,1732151080000,27,22,6,13,1575420030,0.00,124.0,24.0,0,0,0,0.0
Status,1732151080000,27,23,6,15,1575420030,0.00,67.0,23.0,0,0,0,0.0
Status,1732151080000,27,24,6,4,1575420030,0.00,315.0,20.0,0,0,0,0.0
Status,1732151080000,27,25,6,26,1575420030,0.00,169.0,2.0,0,0,0,0.0
Status,1732151080000,27,26,6,6,1575420030,0.00,329.0,1.0,0,0,0,0.0
Fix,GPS,37.4254266667,-122.1582600000,-0.5999999999999979,0.0,6.2,0.0,1732151081000,2.1,72.5,29965089000000,71.5,0,,,
Fix,FLP,37.4254084000,-122.1582791000,5.400000095367432,0.6598452,6.142,0.0000000024892293,1732151081242,2.1,72.5,29965089000000,11.4404335,0,,,
Raw,1732151081000,24490000000,,10228128.38740593,-1416186274510000128,0.0,127.72039721028023,1394.9664956813103,0.0,0,19,0.0,16431,349498929741973,1797,14.699999809265137,-39.06818302709555,0.14999,16,0.0,0.0,1575420030,,,,0,0.0,1,6.0,14.699999809265137,0.0,0.0,0.0,66.7128,C,29965089000000,
Raw,1732151081000,24490000000,,10228128.38740593,-1416186274510000128,0.0,127.72039721028023,1394.9664956813103,0.0,0,15,0.0,16431,349498925442496,487,21.101999282836914,488.28901147581564,0.14999,16,0.0,0.0,1575420030,,,,0,4.102067022249219,1,6.0,21.101999282836914,0.0,0.0,0.0,66.7128,C,29965089000000,
Raw,1732151081000,24490000000,,10228128.38740593,-1416186274510000128,0.0,127.72039721028023,1394.9664956813103,0.0,0,13,0.0,16431,349498929990381,797,17.641000747680664,694.5088151848179,0.14999,16,0.0,0.0,1575420030,,,,0,0.0,1,6.0,17.641000747680664,0.0,0.0,0.0,66.7128,C,29965089000000,
Raw,1732151081000,24490000000,,10228128.38740593,-1416186274510000128,0.0,127.72039721028023,1394.9664956813103,0.0,0,8,0.0,17,285182,487,5.0,925.6634497706423,0.14999,16,0.0,0.0,1605374980,,,,0,0.0,3,6.0,19.0,0.0,0.0,2.560597219474852,66.7128,C,29965089000000,
Raw,1732151081000,24490000000,,10228128.38740593,-1416186274510000128,0.0,127.72039721028023,1394.9664956813103,0.0,0,11,0.0,17,972139,316,15.699999809265137,-56.905811357969895,0.14999,16,0.0,0.0,1602000000,,,,0,10.885513370291005,3,6.0,15.699999809265137,0.0,0.0,2.560597219474852,66.7128,C,29965089000000,
Fix,FLP,37.4254171000,-122.1582722000,5.400000095367432,0.6537489,6.166,0.0000000014322165,1732151081802,2.1,72.5,29965650000000,11.867028,0,,,
Fix,NLP,37.4257183000,-122.1580927000,5.400000095367432,,17.287,,1732151081802,,,29965650000000,8.839111,0,,,
Status,1732151081000,27,0,1,17,1575420030,0.00,120.0,79.0,0,0,0,0.0
Status,1732151081000,27,1,1,22,1575420030,0.00,358.0,68.0,0,0,0,0.0
Status,1732151081000,27,2,1,14,1575420030,0.00,45.0,57.0,0,0,0,0.0
Status,1732151081000,27,3,1,19,1575420030,20.90,198.0,54.0,1,0,0,15.9
Status,1732151081000,27,4,1,13,1575420030,22.60,243.0,52.0,1,0,0,17.6
Status,1732151081000,27,5,2,135,1575420030,0.00,197.0,45.0,0,0,0,0.0
Status,1732151081000,27,6,1,30,1575420030,0.00,127.0,42.0,0,0,0,0.0
Status,1732151081000,27,7,1,15,1575420030,26.10,282.0,31.0,1,0,0,21.1
Status,1732151081000,27,8,1,2,1575420030,0.00,53.0,19.0,0,0,0,0.0
Status,1732151081000,27,9,1,24,1575420030,0.00,312.0,11.0,0,0,0,0.0
Status,1732151081000,27,10,1,7,1575420030,0.00,128.0,9.0,0,0,0,0.0
Status,1732151081000,27,11,1,21,1575420030,0.00,38.0,8.0,0,0,0,0.0
Status,1732151081000,27,12,1,6,1575420030,0.00,165.0,7.0,0,0,0,0.0
Status,1732151081000,27,13,3,20,1602000000,0.00,123.0,47.0,0,0,0,0.0
Status,1732151081000,27,14,3,9,1602000000,0.00,73.0,37.0,0,0,0,0.0
Status,1732151081000,27,15,3,8,1602000000,22.60,253.0,28.0,1,0,0,17.6
Status,1732151081000,27,16,3,19,1602000000,0.00,39.0,28.0,0,0,0,0.0
Status,1732151081000,27,17,3,11,1602000000,37.40,304.0,23.0,0,0,0,32.4
Status,1732151081000,27,18,6,21,1575420030,0.00,330.0,67.0,0,0,0,0.0
Status,1732151081000,27,19,6,19,1575420030,0.00,250.0,49.0,0,0,0,0.0
Status,1732151081000,27,20,6,27,1575420030,0.00,60.0,37.0,0,0,0,0.0
Status,1732151081000,27,21,6,29,1575420030,30.30,192.0,30.0,1,0,0,25.3
Status,1732151081000,27,22,6,13,1575420030,0.00,124.0,24.0,0,0,0,0.0
Status,1732151081000,27,23,6,15,1575420030,0.00,67.0,23.0,0,0,0,0.0
Status,1732151081000,27,24,6,4,1575420030,0.00,315.0,20.0,0,0,0,0.0
Status,1732151081000,27,25,6,26,1575420030,0.00,169.0,2.0,0,0,0,0.0
Status,1732151081000,27,26,6,6,1575420030,0.00,329.0,1.0,0,0,0,0.0
Fix,GPS,37.4254416667,-122.1582433333,-0.5999999999999979,0.0,6.2,0.0,1732151082000,2.1,71.3,29966089000000,68.5,0,,,
Fix,FLP,37.4254269000,-122.1582627000,5.400000095367432,0.6533769,6.171,0.0000000022085263,1732151082241,2.1,71.3,29966089000000,12.039099,0,,,
Raw,1732151082000,25490000000,,10197772.386922423,-1416186274510000128,0.0,124.73904340973463,1400.1498220992119,0.0,0,19,0.0,16431,349499929742100,797,15.918999671936035,-36.86075783926803,0.14999,16,0.0,0.0,1575420030,,,,0,0.0,1,6.0,15.918999671936035,0.0,0.0,0.0,66.7128,C,29966089000000,
Raw,1732151082000,25490000000,,10197772.386922423,-1416186274510000128,0.0,124.73904340973463,1400.1498220992119,0.0,0,15,0.0,16431,349499925440835,797,21.05500030517578,490.07231778205716,0.14999,16,0.0,0.0,1575420030,,,,0,2.501225267834001,1,6.0,21.05500030517578,0.0,0.0,0.0,66.7128,C,29966089000000,
Raw,1732151082000,25490000000,,10197772.386922423,-1416186274510000128,0.0,124.73904340973463,1400.1498220992119,0.0,0,13,0.0,16431,349499929988063,797,17.582000732421875,695.8516492469672,0.14999,16,0.0,0.0,1575420030,,,,0,0.0,1,6.0,17.582000732421875,0.0,0.0,0.0,66.7128,C,29966089000000,
Raw,1732151082000,25490000000,,10197772.386922423,-1416186274510000128,0.0,124.73904340973463,1400.1498220992119,0.0,0,29,0.0,16431,349499913994663,316,25.299999237060547,965.4513251860398,0.14999,16,0.0,0.0,1575420030,,,,0,11.4738796059985,6,6.0,25.299999237060547,0.0,0.0,-24.93225210741396,66.7128,C,29966089000000,
Raw,1732151082000,25490000000,,10197772.386922423,-1416186274510000128,0.0,124.73904340973463,1400.1498220992119,0.0,0,8,0.0,17,282083,797,5.0,925.2306948756885,0.14999,16,0.0,0.0,1605374980,,,,0,0.0803514133384855,3,6.0,17.0,0.0,0.0,2.560597219474852,66.7128,C,29966089000000,
Raw,1732151082000,25490000000,,10197772.386922423,-1416186274510000128,0.0,124.73904340973463,1400.1498220992119,0.0,0,11,0.0,17,972326,58,17.600000381469727,-55.84786954002626,0.14999,16,0.0,0.0,1602000000,,,,0,19.68947721062282,3,6.0,17.600000381469727,0.0,0.0,2.560597219474852,66.7128,C,29966089000000,
Status,1732151082000,27,0,1,17,1575420030,0.00,120.0,79.0,0,0,0,0.0
Status,1732151082000,27,1,1,22,1575420030,0.00,358.0,68.0,0,0,0,0.0
Status,1732151082000,27,2,1,14,1575420030,0.00,45.0,57.0,0,0,0,0.0
Status,1732151082000,27,3,1,19,1575420030,20.90,198.0,54.0,1,0,0,15.9
Status,1732151082000,27,4,1,13,1575420030,22.60,243.0,52.0,1,0,0,17.6
Status,1732151082000,27,5,2,135,1575420030,0.00,197.0,45.0,0,0,0,0.0
Status,1732151082000,27,6,1,30,1575420030,0.00,127.0,42.0,0,0,0,0.0
Status,1732151082000,27,7,1,15,1575420030,26.00,282.0,31.0,1,0,0,21.0
Status,1732151082000,27,8,1,2,1575420030,0.00,53.0,19.0,0,0,0,0.0
Status,1732151082000,27,9,1,24,1575420030,0.00,312.0,11.0,0,0,0,0.0
Status,1732151082000,27,10,1,7,1575420030,0.00,128.0,9.0,0,0,0,0.0
Status,1732151082000,27,11,1,21,1575420030,0.00,38.0,8.0,0,0,0,0.0
Status,1732151082000,27,12,1,6,1575420030,0.00,165.0,7.0,0,0,0,0.0
Status,1732151082000,27,13,3,20,1602000000,0.00,123.0,47.0,0,0,0,0.0
Status,1732151082000,27,14,3,9,1602000000,0.00,73.0,37.0,0,0,0,0.0
Status,1732151082000,27,15,3,8,1602000000,0.00,253.0,28.0,0,0,0,0.0
Status,1732151082000,27,16,3,19,1602000000,0.00,39.0,28.0,0,0,0,0.0
Status,1732151082000,27,17,3,11,1602000000,33.60,304.0,23.0,0,0,0,28.599998
Status,1732151082000,27,18,6,21,1575420030,0.00,330.0,67.0,0,0,0,0.0
Status,1732151082000,27,19,6,19,1575420030,0.00,250.0,49.0,0,0,0,0.0
Status,1732151082000,27,20,6,27,1575420030,0.00,60.0,37.0,0,0,0,0.0
Status,1732151082000,27,21,6,29,1575420030,30.30,192.0,30.0,1,0,0,25.3
Status,1732151082000,27,22,6,13,1575420030,0.00,124.0,24.0,0,0,0,0.0
Status,1732151082000,27,23,6,15,1575420030,0.00,67.0,23.0,0,0,0,0.0
Status,1732151082000,27,24,6,4,1575420030,0.00,315.0,20.0,0,0,0,0.0
Status,1732151082000,27,25,6,26,1575420030,0.00,169.0,2.0,0,0,0,0.0
Status,1732151082000,27,26,6,6,1575420030,0.00,329.0,1.0,0,0,0,0.0
Fix,GPS,37.4254433333,-122.1582366667,-0.5999999999999979,0.0,6.3,0.0,1732151083000,2.1,79.0,29967089000000,68.5,0,,,
Fix,FLP,37.4254366000,-122.1582530000,5.400000095367432,0.64314663,6.2,0.0000000021708686,1732151083241,2.1,79.0,29967089000000,11.190575,0,,,
Raw,1732151083001,26490000000,,10183635.106657686,-1416186274511000064,0.0,125.10054533022793,1400.8916025709589,0.0,0,19,0.0,16431,349500930742223,797,15.918999671936035,-36.866658058126774,0.14999,16,0.0,0.0,1575420030,,,,0,0.0,1,6.0,15.918999671936035,0.0,0.0,0.0,66.7128,C,29967089000000,
Raw,1732151083001,26490000000,,10183635.106657686,-1416186274511000064,0.0,125.10054533022793,1400.8916025709589,0.0,0,15,0.0,16431,349500926439208,487,20.959999084472656,490.49606499631346,0.14999,16,0.0,0.0,1575420030,,,,0,0.6658178007210935,1,6.0,20.959999084472656,0.0,0.0,0.0,66.7128,C,29967089000000,
Raw,1732151083001,26490000000,,10183635.106657686,-1416186274511000064,0.0,125.10054533022793,1400.8916025709589,0.0,0,13,0.0,16431,349500930985742,797,17.60700035095215,696.481811204447,0.14999,16,0.0,0.0,1575420030,,,,0,0.0,1,6.0,17.60700035095215,0.0,0.0,0.0,66.7128,C,29967089000000,
Raw,1732151083001,26490000000,,10183635.106657686,-1416186274511000064,0.0,125.10054533022793,1400.8916025709589,0.0,0,29,0.0,16431,349500914991446,797,25.299999237060547,963.964098366308,0.14999,16,0.0,0.0,1575420030,,,,0,11.4738796059985,6,6.0,25.299999237060547,0.0,0.0,-24.93225210741396,66.7128,C,29967089000000,
Raw,1732151083001,26490000000,,10183635.106657686,-1416186274511000064,0.0,125.10054533022793,1400.8916025709589,0.0,0,11,0.0,17,972504,235,28.0,-55.427041154939076,0.14999,16,0.0,0.0,1602000000,,,,0,15.409185423138494,3,6.0,28.0,0.0,0.0,2.560597219474852,66.7128,C,29967089000000,
Status,1732151083000,27,0,1,17,1575420030,0.00,120.0,79.0,0,0,0,0.0
Status,1732151083000,27,1,1,22,1575420030,0.00,358.0,68.0,0,0,0,0.0
Status,1732151083000,27,2,1,14,1575420030,0.00,45.0,57.0,0,0,0,0.0
Status,1732151083000,27,3,1,19,1575420030,20.90,198.0,54.0,1,0,0,15.9
Status,1732151083000,27,4,1,13,1575420030,22.60,243.0,52.0,1,0,0,17.6
Status,1732151083000,27,5,2,135,1575420030,0.00,197.0,45.0,0,0,0,0.0
Status,1732151083000,27,6,1,30,1575420030,0.00,127.0,42.0,0,0,0,0.0
Status,1732151083000,27,7,1,15,1575420030,25.90,282.0,31.0,1,0,0,20.9
Status,1732151083000,27,8,1,2,1575420030,0.00,53.0,19.0,0,0,0,0.0
Status,1732151083000,27,9,1,24,1575420030,0.00,312.0,11.0,0,0,0,0.0
Status,1732151083000,27,10,1,7,1575420030,23.30,128.0,9.0,1,0,0,18.3
Status,1732151083000,27,11,1,21,1575420030,0.00,38.0,8.0,0,0,0,0.0
Status,1732151083000,27,12,1,6,1575420030,0.00,165.0,7.0,0,0,0,0.0
Status,1732151083000,27,13,3,20,1602000000,0.00,123.0,47.0,0,0,0,0.0
Status,1732151083000,27,14,3,9,1602000000,0.00,73.0,37.0,0,0,0,0.0
Status,1732151083000,27,15,3,8,1602000000,0.00,253.0,28.0,0,0,0,0.0
Status,1732151083000,27,16,3,19,1602000000,0.00,39.0,28.0,0,0,0,0.0
Status,1732151083000,27,17,3,11,1602000000,38.50,304.0,23.0,0,0,0,33.5
Status,1732151083000,27,18,6,21,1575420030,0.00,330.0,67.0,0,0,0,0.0
Status,1732151083000,27,19,6,19,1575420030,0.00,250.0,49.0,0,0,0,0.0
Status,1732151083000,27,20,6,27,1575420030,0.00,60.0,37.0,0,0,0,0.0
Status,1732151083000,27,21,6,29,1575420030,19.10,192.0,30.0,1,0,0,14.1
Status,1732151083000,27,22,6,13,1575420030,0.00,124.0,24.0,0,0,0,0.0
Status,1732151083000,27,23,6,15,1575420030,0.00,67.0,23.0,0,0,0,0.0
Status,1732151083000,27,24,6,4,1575420030,0.00,315.0,20.0,0,0,0,0.0
Status,1732151083000,27,25,6,26,1575420030,0.00,169.0,2.0,0,0,0,0.0
Status,1732151083000,27,26,6,6,1575420030,0.00,329.0,1.0,0,0,0,0.0
Fix,GPS,37.4254533333,-122.1582116667,-0.5999999999999979,0.0,6.2,0.0,1732151084000,2.1,80.1,29968089000000,55.9,0,,,
Fix,FLP,37.4254467000,-122.1582365000,5.400000095367432,0.6344739,6.214,0.0000000043478945,1732151084241,2.1,80.1,29968089000000,11.516033,0,,,
Raw,1732151084001,27490000000,,10154648.386784967,-1416186274511000064,0.0,104.87728044876899,1403.564598623148,0.0,0,19,0.0,16431,349501930742345,797,15.918999671936035,-36.17716870314617,0.14999,16,0.0,0.0,1575420030,,,,0,0.0,1,6.0,15.918999671936035,0.0,0.0,0.0,66.7128,C,29968089000000,
Raw,1732151084001,27490000000,,10154648.386784967,-1416186274511000064,0.0,104.87728044876899,1403.564598623148,0.0,0,15,0.0,16431,349501926437570,316,20.868999481201172,491.05240453043467,0.14999,16,0.0,0.0,1575420030,,,,0,0.6658178007210935,1,6.0,20.868999481201172,0.0,0.0,0.0,66.7128,C,29968089000000,
Raw,1732151084001,27490000000,,10154648.386784967,-1416186274511000064,0.0,104.87728044876899,1403.564598623148,0.0,0,13,0.0,16431,349501930983411,797,17.634000778198242,697.6036890390991,0.14999,16,0.0,0.0,1575420030,,,,0,0.0,1,6.0,17.634000778198242,0.0,0.0,0.0,66.7128,C,29968089000000,
Raw,1732151084001,27490000000,,10154648.386784967,-1416186274511000064,0.0,104.87728044876899,1403.564598623148,0.0,0,29,0.0,16431,349501914988210,1797,14.100000381469727,964.9388888552376,0.14999,16,0.0,0.0,1575420030,,,,0,0.0,6,6.0,14.100000381469727,0.0,0.0,-24.93225210741396,66.7128,C,29968089000000,
Raw,1732151084001,27490000000,,10154648.386784967,-1416186274511000064,0.0,104.87728044876899,1403.564598623148,0.0,0,11,0.0,17,972693,58,34.0,-55.346265497048066,0.14999,16,0.0,0.0,1602000000,,,,0,20.835718369555742,3,6.0,34.0,0.0,0.0,2.560597219474852,66.7128,C,29968089000000,
Raw,1732151084001,27490000000,,10154648.386784967,-1416186274511000064,0.0,104.87728044876899,1403.564598623148,0.0,0,7,0.0,16431,349501919935846,797,18.319000244140625,1027.9599162784975,0.14999,16,0.0,0.0,1575420030,,,,0,0.0,1,6.0,18.319000244140625,0.0,0.0,0.0,66.7128,C,29968089000000,
Status,1732151084000,27,0,1,17,1575420030,0.00,120.0,79.0,0,0,0,0.0
Status,1732151084000,27,1,1,22,1575420030,0.00,358.0,68.0,0,0,0,0.0
Status,1732151084000,27,2,1,14,1575420030,0.00,45.0,57.0,0,0,0,0.0
Status,1732151084000,27,3,1,19,1575420030,22.20,198.0,54.0,1,0,0,17.2
Status,1732151084000,27,4,1,13,1575420030,24.00,243.0,52.0,1,0,0,19.0
Status,1732151084000,27,5,2,135,1575420030,0.00,197.0,45.0,0,0,0,0.0
Status,1732151084000,27,6,1,30,1575420030,0.00,127.0,42.0,0,0,0,0.0
Status,1732151084000,27,7,1,15,1575420030,28.50,282.0,31.0,1,0,0,23.5
Status,1732151084000,27,8,1,2,1575420030,0.00,53.0,19.0,0,0,0,0.0
Status,1732151084000,27,9,1,24,1575420030,0.00,312.0,11.0,0,0,0,0.0
Status,1732151084000,27,10,1,7,1575420030,24.50,128.0,9.0,1,0,0,19.5
Status,1732151084000,27,11,1,21,1575420030,0.00,38.0,8.0,0,0,0,0.0
Status,1732151084000,27,12,1,6,1575420030,0.00,165.0,7.0,0,0,0,0.0
Status,1732151084000,27,13,3,20,1602000000,0.00,123.0,47.0,0,0,0,0.0
Status,1732151084000,27,14,3,9,1602000000,0.00,73.0,37.0,0,0,0,0.0
Status,1732151084000,27,15,3,8,1602000000,0.00,253.0,28.0,0,0,0,0.0
Status,1732151084000,27,16,3,19,1602000000,0.00,39.0,28.0,0,0,0,0.0
Status,1732151084000,27,17,3,11,1602000000,37.80,304.0,23.0,0,0,0,32.8
Status,1732151084000,27,18,6,21,1575420030,0.00,330.0,67.0,0,0,0,0.0
Status,1732151084000,27,19,6,19,1575420030,0.00,250.0,49.0,0,0,0,0.0
Status,1732151084000,27,20,6,27,1575420030,0.00,60.0,37.0,0,0,0,0.0
Status,1732151084000,27,21,6,29,1575420030,18.70,192.0,30.0,1,0,0,13.700001
Status,1732151084000,27,22,6,13,1575420030,0.00,124.0,24.0,0,0,0,0.0
Status,1732151084000,27,23,6,15,1575420030,0.00,67.0,23.0,0,0,0,0.0
Status,1732151084000,27,24,6,4,1575420030,0.00,315.0,20.0,0,0,0,0.0
Status,1732151084000,27,25,6,26,1575420030,0.00,169.0,2.0,0,0,0,0.0
Status,1732151084000,27,26,6,6,1575420030,0.00,329.0,1.0,0,0,0,0.0
Fix,GPS,37.4254600000,-122.1581966667,-0.5999999999999979,0.0,6.3,0.0,1732151085000,2.1,79.9,29969089000000,56.0,0,,,
Fix,FLP,37.4254553000,-122.1582206000,5.400000095367432,0.6219835,6.228,0.0000000042411297,1732151085241,2.1,79.9,29969089000000,10.754041,0,,,
Raw,1732151085001,28490000000,,10142168.086163128,-1416186274511000064,0.0,105.14590017043649,1405.5727614091415,0.0,0,19,0.0,16431,349502930742443,797,17.25,-35.4573884607963,0.14999,16,0.0,0.0,1575420030,,,,0,0.0,1,6.0,17.25,0.0,0.0,0.0,66.7128,C,29969089000000,
Raw,1732151085001,28490000000,,10142168.086163128,-1416186274511000064,0.0,105.14590017043649,1405.5727614091415,0.0,0,15,0.0,16431,349502926435924,396,23.48699951171875,491.54797645615247,0.14999,16,0.0,0.0,1575420030,,,,0,7.822273510002198,1,6.0,23.48699951171875,0.0,0.0,0.0,66.7128,C,29969089000000,
Raw,1732151085001,28490000000,,10142168.086163128,-1416186274511000064,0.0,105.14590017043649,1405.5727614091415,0.0,0,13,0.0,16431,349502930981089,487,18.95599937438965,698.1137095322583,0.14999,16,0.0,0.0,1575420030,,,,0,0.40651825743374204,1,6.0,18.95599937438965,0.0,0.0,0.0,66.7128,C,29969089000000,
Raw,1732151085001,28490000000,,10142168.086163128,-1416186274511000064,0.0,105.14590017043649,1405.5727614091415,0.0,0,29,0.0,16431,349502914984981,487,13.699999809265137,966.1624177045583,0.14999,16,0.0,0.0,1575420030,,,,0,0.0,6,6.0,13.699999809265137,0.0,0.0,-24.93225210741396,66.7128,C,29969089000000,
Raw,1732151085001,28490000000,,10142168.086163128,-1416186274511000064,0.0,105.14590017043649,1405.5727614091415,0.0,0,11,0.0,17,972870,58,33.0,-55.0015526357428,0.14999,16,0.0,0.0,1602000000,,,,0,20.098428193303377,3,6.0,33.0,0.0,0.0,2.560597219474852,66.7128,C,29969089000000,
Raw,1732151085001,28490000000,,10142168.086163128,-1416186274511000064,0.0,105.14590017043649,1405.5727614091415,0.0,0,7,0.0,16431,349502919932333,487,19.47100067138672,1027.9832384034353,0.14999,16,0.0,0.0,1575420030,,,,0,1.2820967490054858,1,6.0,19.47100067138672,0.0,0.0,0.0,66.7128,C,29969089000000,
Status,1732151085000,27,0,1,17,1575420030,0.00,120.0,79.0,0,0,0,0.0
Status,1732151085000,27,1,1,22,1575420030,0.00,358.0,68.0,0,0,0,0.0
Status,1732151085000,27,2,1,14,1575420030,0.00,45.0,57.0,0,0,0,0.0
Status,1732151085000,27,3,1,19,1575420030,22.20,198.0,54.0,1,0,0,17.2
Status,1732151085000,27,4,1,13,1575420030,25.20,243.0,52.0,1,0,0,20.2
Status,1732151085000,27,5,2,135,1575420030,0.00,197.0,45.0,0,0,0,0.0
Status,1732151085000,27,6,1,30,1575420030,0.00,127.0,42.0,0,0,0,0.0
Status,1732151085000,27,7,1,15,1575420030,28.50,282.0,31.0,1,0,0,23.5
Status,1732151085000,27,8,1,2,1575420030,0.00,53.0,19.0,0,0,0,0.0
Status,1732151085000,27,9,1,24,1575420030,0.00,312.0,11.0,0,0,0,0.0
Status,1732151085000,27,10,1,7,1575420030,0.00,128.0,9.0,0,0,0,0.0
Status,1732151085000,27,11,1,21,1575420030,0.00,38.0,8.0,0,0,0,0.0
Status,1732151085000,27,12,1,6,1575420030,0.00,165.0,7.0,0,0,0,0.0
Status,1732151085000,27,13,3,20,1602000000,0.00,123.0,47.0,0,0,0,0.0
Status,1732151085000,27,14,3,9,1602000000,0.00,73.0,37.0,0,0,0,0.0
Status,1732151085000,27,15,3,8,1602000000,0.00,253.0,28.0,0,0,0,0.0
Status,1732151085000,27,16,3,19,1602000000,0.00,39.0,28.0,0,0,0,0.0
Status,1732151085000,27,17,3,11,1602000000,33.40,304.0,23.0,0,0,0,28.400002
Status,1732151085000,27,18,6,21,1575420030,0.00,330.0,67.0,0,0,0,0.0
Status,1732151085000,27,19,6,19,1575420030,0.00,250.0,49.0,0,0,0,0.0
Status,1732151085000,27,20,6,27,1575420030,0.00,60.0,37.0,0,0,0,0.0
Status,1732151085000,27,21,6,29,1575420030,18.70,192.0,30.0,1,0,0,13.700001
Status,1732151085000,27,22,6,13,1575420030,0.00,124.0,24.0,0,0,0,0.0
Status,1732151085000,27,23,6,15,1575420030,0.00,67.0,23.0,0,0,0,0.0
Status,1732151085000,27,24,6,4,1575420030,0.00,315.0,20.0,0,0,0,0.0
Status,1732151085000,27,25,6,26,1575420030,0.00,169.0,2.0,0,0,0,0.0
Status,1732151085000,27,26,6,6,1575420030,0.00,329.0,1.0,0,0,0,0.0
Fix,GPS,37.4254666667,-122.1581900000,-0.5999999999999979,0.0,6.3,0.0,1732151086000,2.1,86.1,29970089000000,56.3,0,,,
Raw,1732151086001,29490000000,,10128630.387359511,-1416186274511000064,0.0,105.81347626183953,1405.650750539551,0.0,0,19,0.0,16431,349503930742560,487,17.25,-34.808503761583715,0.14999,16,0.0,0.0,1575420030,,,,0,0.0,1,6.0,17.25,0.0,0.0,0.0,66.7128,C,29970089000000,
Raw,1732151086001,29490000000,,10128630.387359511,-1416186274511000064,0.0,105.81347626183953,1405.650750539551,0.0,0,15,0.0,16431,349503926434284,487,23.48699951171875,491.3194010483966,0.14999,16,0.0,0.0,1575420030,,,,0,7.822273510002198,1,6.0,23.48699951171875,0.0,0.0,0.0,66.7128,C,29970089000000,
Raw,1732151086001,29490000000,,10128630.387359511,-1416186274511000064,0.0,105.81347626183953,1405.650750539551,0.0,0,13,0.0,16431,349503930978754,487,20.231000900268555,698.1698312990407,0.14999,16,0.0,0.0,1575420030,,,,0,2.604018060882222,1,6.0,20.231000900268555,0.0,0.0,0.0,66.7128,C,29970089000000,
Raw,1732151086001,29490000000,,10128630.387359511,-1416186274511000064,0.0,105.81347626183953,1405.650750539551,0.0,0,29,0.0,16431,349503914981760,797,13.699999809265137,965.0860691177925,0.14999,16,0.0,0.0,1575420030,,,,0,0.0,6,6.0,13.699999809265137,0.0,0.0,-24.93225210741396,66.7128,C,29970089000000,
Raw,1732151086001,29490000000,,10128630.387359511,-1416186274511000064,0.0,105.81347626183953,1405.650750539551,0.0,0,11,0.0,17,973050,316,26.0,-54.62609202683535,0.14999,16,0.0,0.0,1602000000,,,,0,15.102999566398122,3,6.0,26.0,0.0,0.0,2.560597219474852,66.7128,C,29970089000000,
Fix,FLP,37.4254631000,-122.1582083000,5.400000095367432,0.6077323,6.242,0.0000000038349857,1732151086241,2.1,86.1,29970089000000,11.729492,0,,,
Fix,FLP,37.4254657000,-122.1582020000,5.400000095367432,0.58871776,6.257,0.000000003024682,1732151086666,2.1,86.1,29970514000000,10.177108,0,,,
Fix,NLP,37.4257176000,-122.1580969000,5.400000095367432,,18.541,,1732151086666,,,29970514000000,8.614098,0,,,
Status,1732151086000,27,0,1,17,1575420030,0.00,120.0,79.0,0,0,0,0.0
Status,1732151086000,27,1,1,22,1575420030,0.00,358.0,68.0,0,0,0,0.0
Status,1732151086000,27,2,1,14,1575420030,0.00,45.0,57.0,0,0,0,0.0
Status,1732151086000,27,3,1,19,1575420030,25.90,198.0,54.0,1,0,0,20.9
Status,1732151086000,27,4,1,13,1575420030,26.20,243.0,52.0,1,0,0,21.2
Status,1732151086000,27,5,2,135,1575420030,0.00,197.0,45.0,0,0,0,0.0
Status,1732151086000,27,6,1,30,1575420030,0.00,127.0,42.0,0,0,0,0.0
Status,1732151086000,27,7,1,15,1575420030,28.40,282.0,31.0,1,0,0,23.4
Status,1732151086000,27,8,1,2,1575420030,0.00,53.0,19.0,0,0,0,0.0
Status,1732151086000,27,9,1,24,1575420030,0.00,312.0,11.0,0,0,0,0.0
Status,1732151086000,27,10,1,7,1575420030,23.70,128.0,9.0,1,0,0,18.7
Status,1732151086000,27,11,1,21,1575420030,0.00,38.0,8.0,0,0,0,0.0
Status,1732151086000,27,12,1,6,1575420030,0.00,165.0,7.0,0,0,0,0.0
Status,1732151086000,27,13,3,20,1602000000,0.00,123.0,47.0,0,0,0,0.0
Status,1732151086000,27,14,3,9,1602000000,0.00,73.0,37.0,0,0,0,0.0
Status,1732151086000,27,15,3,8,1602000000,0.00,253.0,28.0,0,0,0,0.0
Status,1732151086000,27,16,3,19,1602000000,0.00,39.0,28.0,0,0,0,0.0
Status,1732151086000,27,17,3,11,1602000000,24.40,304.0,23.0,0,0,0,19.4
Status,1732151086000,27,18,6,21,1575420030,0.00,330.0,67.0,0,0,0,0.0
Status,1732151086000,27,19,6,19,1575420030,0.00,250.0,49.0,0,0,0,0.0
Status,1732151086000,27,20,6,27,1575420030,0.00,60.0,37.0,0,0,0,0.0
Status,1732151086000,27,21,6,29,1575420030,18.70,192.0,30.0,1,0,0,13.700001
Status,1732151086000,27,22,6,13,1575420030,0.00,124.0,24.0,0,0,0,0.0
Status,1732151086000,27,23,6,15,1575420030,0.00,67.0,23.0,0,0,0,0.0
Status,1732151086000,27,24,6,4,1575420030,0.00,315.0,20.0,0,0,0,0.0
Status,1732151086000,27,25,6,26,1575420030,0.00,169.0,2.0,0,0,0,0.0
Status,1732151086000,27,26,6,6,1575420030,0.00,329.0,1.0,0,0,0,0.0
Fix,FLP,37.4254754000,-122.1581928000,5.400000095367432,0.586924,6.257,0.000000004933727,1732151087241,2.0,88.8,29971089000000,11.412904,0,,,
Fix,GPS,37.4254883333,-122.1581750000,-0.5999999999999979,0.0,6.2,0.0,1732151087000,2.0,88.8,29971089000000,65.8,0,,,
Raw,1732151087001,30490000000,,10069683.774366332,-1416186274511000064,0.0,99.73167407346018,1408.9389175364354,0.0,0,19,0.0,16431,349504930742687,396,20.906999588012695,-33.311938800193644,0.14999,16,0.0,0.0,1575420030,,,,0,3.7510742319212653,1,6.0,20.906999588012695,0.0,0.0,0.0,66.7128,C,29971089000000,
Raw,1732151087001,30490000000,,10069683.774366332,-1416186274511000064,0.0,99.73167407346018,1408.9389175364354,0.0,0,15,0.0,16431,349504926432660,487,23.39900016784668,492.3986300569674,0.14999,16,0.0,0.0,1575420030,,,,0,5.153736573325819,1,6.0,23.39900016784668,0.0,0.0,0.0,66.7128,C,29971089000000,
Raw,1732151087001,30490000000,,10069683.774366332,-1416186274511000064,0.0,99.73167407346018,1408.9389175364354,0.0,0,13,0.0,16431,349504930976418,487,21.150999069213867,699.1443894958892,0.14999,16,0.0,0.0,1575420030,,,,0,4.187642981834719,1,6.0,21.150999069213867,0.0,0.0,0.0,66.7128,C,29971089000000,
Raw,1732151087001,30490000000,,10069683.774366332,-1416186274511000064,0.0,99.73167407346018,1408.9389175364354,0.0,0,29,0.0,16431,349504914978532,487,13.729999542236328,965.9848536378016,0.14999,16,0.0,0.0,1575420030,,,,0,0.0,6,6.0,13.729999542236328,0.0,0.0,-24.93225210741396,66.7128,C,29971089000000,
Raw,1732151087001,30490000000,,10069683.774366332,-1416186274511000064,0.0,99.73167407346018,1408.9389175364354,0.0,0,11,0.0,17,973232,797,17.0,-53.98578046272756,0.14999,16,0.0,0.0,1602000000,,,,0,3.329078970998501,3,6.0,17.0,0.0,0.0,2.560597219474852,66.7128,C,29971089000000,
Raw,1732151087001,30490000000,,10069683.774366332,-1416186274511000064,0.0,99.73167407346018,1408.9389175364354,0.0,0,7,0.0,16431,349504919925421,487,18.68199920654297,1028.8052736198645,0.14999,16,0.0,0.0,1575420030,,,,0,0.0,1,6.0,18.68199920654297,0.0,0.0,0.0,66.7128,C,29971089000000,
Status,1732151087000,28,0,1,17,1575420030,0.00,120.0,79.0,0,0,0,0.0
Status,1732151087000,28,1,1,22,1575420030,0.00,358.0,68.0,0,0,0,0.0
Status,1732151087000,28,2,1,14,1575420030,0.00,45.0,57.0,0,0,0,0.0
Status,1732151087000,28,3,1,19,1575420030,26.50,198.0,54.0,1,0,0,21.5
