# 
# Header Description:
# 
# Version: v3.1.0.3 Platform: 13 Manufacturer: samsung Model: SM-S135DL GNSS Hardware Model Name: MediaTek,MT6631,MTK_MNLD_default,MNL_VER_default
# 
# Raw,utcTimeMillis,TimeNanos,LeapSecond,TimeUncertaintyNanos,FullBiasNanos,BiasNanos,BiasUncertaintyNanos,DriftNanosPerSecond,DriftUncertaintyNanosPerSecond,HardwareClockDiscontinuityCount,Svid,TimeOffsetNanos,State,ReceivedSvTimeNanos,ReceivedSvTimeUncertaintyNanos,Cn0DbHz,PseudorangeRateMetersPerSecond,PseudorangeRateUncertaintyMetersPerSecond,AccumulatedDeltaRangeState,AccumulatedDeltaRangeMeters,AccumulatedDeltaRangeUncertaintyMeters,CarrierFrequencyHz,CarrierCycles,CarrierPhase,CarrierPhaseUncertainty,MultipathIndicator,SnrInDb,ConstellationType,AgcDb,BasebandCn0DbHz,FullInterSignalBiasNanos,FullInterSignalBiasUncertaintyNanos,SatelliteInterSignalBiasNanos,SatelliteInterSignalBiasUncertaintyNanos,CodeType,ChipsetElapsedRealtimeNanos,IsFullTracking
# 
# UncalAccel,utcTimeMillis,elapsedRealtimeNanos,UncalAccelXMps2,UncalAccelYMps2,UncalAccelZMps2,BiasXMps2,BiasYMps2,BiasZMps2
# 
# Accel,utcTimeMillis,elapsedRealtimeNanos,AccelXMps2,AccelYMps2,AccelZMps2
# 
# UncalGyro,utcTimeMillis,elapsedRealtimeNanos,UncalGyroXRadPerSec,UncalGyroYRadPerSec,UncalGyroZRadPerSec,DriftXRadPerSec,DriftYRadPerSec,DriftZRadPerSec
# 
# Gyro,utcTimeMillis,elapsedRealtimeNanos,GyroXRadPerSec,GyroYRadPerSec,GyroZRadPerSec
# 
# UncalMag,utcTimeMillis,elapsedRealtimeNanos,UncalMagXMicroT,UncalMagYMicroT,UncalMagZMicroT,BiasXMicroT,BiasYMicroT,BiasZMicroT
# 
# Mag,utcTimeMillis,elapsedRealtimeNanos,MagXMicroT,MagYMicroT,MagZMicroT
# 
# Pressure,utcTimeMillis,elapsedRealtimeNanos,PressureHpa
# 
# OrientationDeg,utcTimeMillis,elapsedRealtimeNanos,yawDeg,rollDeg,pitchDeg
# 
# Fix,Provider,LatitudeDegrees,LongitudeDegrees,AltitudeMeters,SpeedMps,AccuracyMeters,BearingDegrees,UnixTimeMillis,SpeedAccuracyMps,BearingAccuracyDegrees,elapsedRealtimeNanos,VerticalAccuracyMeters,MockLocation,NumberOfUsedSignals,VerticalSpeedAccuracyMps,SolutionType
# 
# Nav,Svid,Type,Status,MessageId,Sub-messageId,Data(Bytes)
# 
# Status,UnixTimeMillis,SignalCount,SignalIndex,ConstellationType,Svid,CarrierFrequencyHz,Cn0DbHz,AzimuthDegrees,ElevationDegrees,UsedInFix,HasAlmanacData,HasEphemerisData,BasebandCn0DbHz
# 
# Agc,utcTimeMillis,TimeNanos,LeapSecond,TimeUncertaintyNanos,FullBiasNanos,BiasNanos,BiasUncertaintyNanos,DriftNanosPerSecond,DriftUncertaintyNanosPerSecond,HardwareClockDiscontinuityCount,AgcDb,CarrierFrequencyHz,ConstellationType
# 
Fix,FLP,37.4249954000,-122.1585105000,2.515390602985625,0.061398868,30.068,,1732151443441,1.5,,30327289000000,13.231264,0,,,
Status,,17,0,1,17,1575420030,22.50,103.0,80.0,0,0,0,17.5
Status,,17,1,1,22,1575420030,0.00,5.0,67.0,0,0,0,0.0
Status,,17,2,1,19,1575420030,0.00,199.0,57.0,0,0,0,0.0
Status,,17,3,1,14,1575420030,0.00,48.0,55.0,0,0,0,0.0
Status,,17,4,1,13,1575420030,22.30,239.0,50.0,0,0,0,17.3
Status,,17,5,1,30,1575420030,25.30,129.0,40.0,0,0,0,20.3
Status,,17,6,1,15,1575420030,19.20,279.0,30.0,0,0,0,14.200001
Status,,17,7,1,2,1575420030,0.00,50.0,18.0,0,0,0,0.0
Status,,17,8,1,24,1575420030,0.00,313.0,13.0,0,0,0,0.0
Status,,17,9,1,6,1575420030,0.00,163.0,9.0,0,0,0,0.0
Status,,17,10,1,7,1575420030,29.20,130.0,7.0,0,0,0,24.2
Status,,17,11,1,21,1575420030,0.00,36.0,6.0,0,0,0,0.0
Status,,17,12,3,20,1602000000,0.00,119.0,50.0,0,0,0,0.0
Status,,17,13,3,9,1602000000,0.00,76.0,35.0,0,0,0,0.0
Status,,17,14,3,8,1602000000,0.00,250.0,26.0,0,0,0,0.0
Status,,17,15,3,19,1602000000,0.00,36.0,26.0,0,0,0,0.0
Status,,17,16,3,11,1602000000,0.00,307.0,25.0,0,0,0,0.0
Status,,17,0,1,17,1575420030,22.00,103.0,80.0,1,0,0,17.0
Status,,17,1,1,22,1575420030,0.00,5.0,67.0,0,0,0,0.0
Status,,17,2,1,19,1575420030,0.00,199.0,57.0,0,0,0,0.0
Status,,17,3,1,14,1575420030,0.00,48.0,55.0,0,0,0,0.0
Status,,17,4,1,13,1575420030,26.00,239.0,50.0,1,0,0,21.0
Status,,17,5,1,30,1575420030,30.10,129.0,40.0,1,0,0,25.1
Status,,17,6,1,15,1575420030,29.10,279.0,30.0,1,0,0,24.1
Status,,17,7,1,2,1575420030,23.10,50.0,18.0,1,0,0,18.1
Status,,17,8,1,24,1575420030,0.00,313.0,13.0,0,0,0,0.0
Status,,17,9,1,6,1575420030,0.00,163.0,9.0,0,0,0,0.0
Status,,17,10,1,7,1575420030,29.10,130.0,7.0,1,0,0,24.1
Status,,17,11,1,21,1575420030,0.00,36.0,6.0,0,0,0,0.0
Status,,17,12,3,20,1602000000,0.00,119.0,50.0,0,0,0,0.0
Status,,17,13,3,9,1602000000,0.00,76.0,35.0,0,0,0,0.0
Status,,17,14,3,8,1602000000,32.90,250.0,26.0,1,0,0,27.900002
Status,,17,15,3,19,1602000000,0.00,36.0,26.0,0,0,0,0.0
Status,,17,16,3,11,1602000000,0.00,307.0,25.0,0,0,0,0.0
Fix,GPS,37.4250316667,-122.1584316667,23.7,0.0,6.7,0.0,1732151445118,2.3,179.9,30329209000000,35.2,0,,,
Raw,1732151445120,18514000000,,996873.2894207765,-1416186644606000128,0.0,122.73407563049183,1327.0843130678152,0.0,0,2,0.0,16431,349863038935163,797,18.086999893188477,689.9581668585795,0.14999,16,0.0,0.0,1575420030,,,,0,0.0,1,6.0,18.086999893188477,0.0,0.0,0.0,66.7128,C,30329209000000,
Raw,1732151445120,18514000000,,996873.2894207765,-1416186644606000128,0.0,122.73407563049183,1327.0843130678152,0.0,0,15,0.0,16431,349863044825223,396,24.14900016784668,511.9323499031855,0.14999,16,0.0,0.0,1575420030,,,,0,8.808988182050967,1,6.0,24.14900016784668,0.0,0.0,0.0,66.7128,C,30329209000000,
Raw,1732151445120,18514000000,,996873.2894207765,-1416186644606000128,0.0,122.73407563049183,1327.0843130678152,0.0,0,17,0.0,16431,349863052269809,797,17.038999557495117,451.5415192552689,0.14999,16,0.0,0.0,1575420030,,,,0,0.0,1,6.0,17.038999557495117,0.0,0.0,0.0,66.7128,C,30329209000000,
Raw,1732151445120,18514000000,,996873.2894207765,-1416186644606000128,0.0,122.73407563049183,1327.0843130678152,0.0,0,7,0.0,16431,349863037695861,396,24.12299919128418,1017.8784399608107,0.14999,16,0.0,0.0,1575420030,,,,0,6.565358059039965,1,6.0,24.12299919128418,0.0,0.0,0.0,66.7128,C,30329209000000,
Raw,1732151445120,18514000000,,996873.2894207765,-1416186644606000128,0.0,122.73407563049183,1327.0843130678152,0.0,0,30,0.0,16431,349863046477308,316,25.128999710083008,876.4111688472353,0.14999,16,0.0,0.0,1575420030,,,,0,10.238245997962508,1,6.0,25.128999710083008,0.0,0.0,0.0,66.7128,C,30329209000000,
Raw,1732151445120,18514000000,,996873.2894207765,-1416186644606000128,0.0,122.73407563049183,1327.0843130678152,0.0,0,13,0.0,16431,349863049124001,487,21.003000259399414,715.2176077522491,0.14999,16,0.0,0.0,1575420030,,,,0,3.9541099648236138,1,6.0,21.003000259399414,0.0,0.0,0.0,66.7128,C,30329209000000,
Raw,1732151445120,18514000000,,996873.2894207765,-1416186644606000128,0.0,122.73407563049183,1327.0843130678152,0.0,0,8,0.0,17,143981,235,5.0,938.3650703684643,0.14999,16,0.0,0.0,1605374980,,,,0,14.522571623719696,3,6.0,28.0,0.0,0.0,109.54238176174533,66.7128,C,30329209000000,
Fix,FLP,37.4250283000,-122.1584512000,2.515390602985625,0.2815827,20.199,0.00061588705,1732151445361,2.3,179.9,30329209000000,10.838326,0,,,
Status,1732151445118,28,0,1,17,1575420030,22.00,103.0,80.0,1,0,0,17.0
Status,1732151445118,28,1,1,22,1575420030,0.00,5.0,67.0,0,0,0,0.0
Status,1732151445118,28,2,1,19,1575420030,19.50,199.0,57.0,0,0,0,14.5
Status,1732151445118,28,3,1,14,1575420030,0.00,48.0,55.0,0,0,0,0.0
Status,1732151445118,28,4,1,13,1575420030,26.10,239.0,50.0,1,0,0,21.1
Status,1732151445118,28,5,2,133,1575420030,0.00,191.0,45.0,0,0,0,0.0
Status,1732151445118,28,6,1,30,1575420030,30.20,129.0,40.0,1,0,0,25.2
Status,1732151445118,28,7,1,15,1575420030,29.20,279.0,30.0,1,0,0,24.2
Status,1732151445118,28,8,1,2,1575420030,23.10,50.0,18.0,1,0,0,18.1
Status,1732151445118,28,9,1,24,1575420030,0.00,313.0,13.0,0,0,0,0.0
Status,1732151445118,28,10,1,6,1575420030,0.00,163.0,9.0,0,0,0,0.0
Status,1732151445118,28,11,1,7,1575420030,26.60,130.0,7.0,1,0,0,21.6
Status,1732151445118,28,12,1,21,1575420030,0.00,36.0,6.0,0,0,0,0.0
Status,1732151445118,28,13,3,20,1602000000,0.00,119.0,50.0,0,0,0,0.0
Status,1732151445118,28,14,3,9,1602000000,0.00,76.0,35.0,0,0,0,0.0
Status,1732151445118,28,15,3,8,1602000000,30.60,250.0,26.0,1,0,0,25.6
Status,1732151445118,28,16,3,19,1602000000,0.00,36.0,26.0,0,0,0,0.0
Status,1732151445118,28,17,3,11,1602000000,23.60,307.0,25.0,0,0,0,18.6
Status,1732151445118,28,18,3,17,1602000000,32.80,0.0,0.0,0,0,0,27.8
Status,1732151445118,28,19,6,21,1575420030,0.00,336.0,68.0,0,0,0,0.0
Status,1732151445118,28,20,6,19,1575420030,0.00,247.0,48.0,0,0,0,0.0
Status,1732151445118,28,21,6,27,1575420030,0.00,62.0,36.0,0,0,0,0.0
Status,1732151445118,28,22,6,29,1575420030,0.00,192.0,28.0,0,0,0,0.0
Status,1732151445118,28,23,6,13,1575420030,0.00,122.0,26.0,0,0,0,0.0
Status,1732151445118,28,24,6,15,1575420030,0.00,65.0,23.0,0,0,0,0.0
Status,1732151445118,28,25,6,4,1575420030,0.00,313.0,22.0,0,0,0,0.0
Status,1732151445118,28,26,6,26,1575420030,0.00,168.0,4.0,0,0,0,0.0
Status,1732151445118,28,27,6,6,1575420030,0.00,328.0,3.0,0,0,0,0.0
Fix,GPS,37.4250116667,-122.1583950000,23.7,0.0,6.4,0.0,1732151446118,2.2,179.9,30330209000000,35.3,0,,,
Fix,FLP,37.4250194000,-122.1584219000,2.8207945836587216,0.18473433,15.599,0.0000016652634,1732151446361,2.2,179.9,30330209000000,12.080868,0,,,
Raw,1732151446120,19514000000,,705993.4630677067,-1416186644606000128,0.0,108.65027382979926,1327.6840576301172,0.0,0,2,0.0,16431,349864038932860,797,18.086999893188477,691.4806091577988,0.14999,16,0.0,0.0,1575420030,,,,0,0.0,1,6.0,18.086999893188477,0.0,0.0,0.0,66.7128,C,30330209000000,
Raw,1732151446120,19514000000,,705993.4630677067,-1416186644606000128,0.0,108.65027382979926,1327.6840576301172,0.0,0,15,0.0,16431,349864044823492,316,24.18600082397461,512.0214571454774,0.14999,16,0.0,0.0,1575420030,,,,0,9.745297296391145,1,6.0,24.18600082397461,0.0,0.0,0.0,66.7128,C,30330209000000,
Raw,1732151446120,19514000000,,705993.4630677067,-1416186644606000128,0.0,108.65027382979926,1327.6840576301172,0.0,0,17,0.0,16431,349864052268304,1797,17.038999557495117,450.9490350733359,0.14999,16,0.0,0.0,1575420030,,,,0,0.0,1,6.0,17.038999557495117,0.0,0.0,0.0,66.7128,C,30330209000000,
Raw,1732151446120,19514000000,,705993.4630677067,-1416186644606000128,0.0,108.65027382979926,1327.6840576301172,0.0,0,19,0.0,16431,349864049773506,797,14.5,-28.798271373258796,0.14999,16,0.0,0.0,1575420030,,,,0,0.0,1,6.0,14.5,0.0,0.0,0.0,66.7128,C,30330209000000,
Raw,1732151446120,19514000000,,705993.4630677067,-1416186644606000128,0.0,108.65027382979926,1327.6840576301172,0.0,0,7,0.0,16431,349864037692471,396,21.57699966430664,1017.4359700048216,0.14999,16,0.0,0.0,1575420030,,,,0,4.889818104304487,1,6.0,21.57699966430664,0.0,0.0,0.0,66.7128,C,30330209000000,
Raw,1732151446120,19514000000,,705993.4630677067,-1416186644606000128,0.0,108.65027382979926,1327.6840576301172,0.0,0,30,0.0,16431,349864046474444,316,25.231000900268555,876.4244559542715,0.14999,16,0.0,0.0,1575420030,,,,0,10.928879001447685,1,6.0,25.231000900268555,0.0,0.0,0.0,66.7128,C,30330209000000,
Raw,1732151446120,19514000000,,705993.4630677067,-1416186644606000128,0.0,108.65027382979926,1327.6840576301172,0.0,0,13,0.0,16431,349864049121625,487,21.09600067138672,715.1152134029211,0.14999,16,0.0,0.0,1575420030,,,,0,4.117230057181867,1,6.0,21.09600067138672,0.0,0.0,0.0,66.7128,C,30330209000000,
Raw,1732151446120,19514000000,,705993.4630677067,-1416186644606000128,0.0,108.65027382979926,1327.6840576301172,0.0,0,8,0.0,17,140898,396,5.0,937.8441414357061,0.14999,16,0.0,0.0,1605374980,,,,0,11.78875654545488,3,6.0,22.0,0.0,0.0,105.36077381295092,66.7128,C,30330209000000,
Raw,1732151446120,19514000000,,705993.4630677067,-1416186644606000128,0.0,108.65027382979926,1327.6840576301172,0.0,0,11,0.0,17,43759,487,25.600000381469727,-76.72134121610073,0.14999,16,0.0,0.0,1602000000,,,,0,1.8712685788157755,3,6.0,25.600000381469727,0.0,0.0,105.36077381295092,66.7128,C,30330209000000,
Status,1732151446118,28,0,1,17,1575420030,0.00,103.0,80.0,0,0,0,0.0
Status,1732151446118,28,1,1,22,1575420030,0.00,5.0,67.0,0,0,0,0.0
Status,1732151446118,28,2,1,19,1575420030,21.60,199.0,57.0,1,0,0,16.6
Status,1732151446118,28,3,1,14,1575420030,0.00,48.0,55.0,0,0,0,0.0
Status,1732151446118,28,4,1,13,1575420030,25.50,239.0,50.0,1,0,0,20.5
Status,1732151446118,28,5,2,133,1575420030,0.00,191.0,45.0,0,0,0,0.0
Status,1732151446118,28,6,1,30,1575420030,31.70,129.0,40.0,1,0,0,26.7
Status,1732151446118,28,7,1,15,1575420030,29.20,279.0,30.0,1,0,0,24.2
Status,1732151446118,28,8,1,2,1575420030,23.10,50.0,18.0,1,0,0,18.1
Status,1732151446118,28,9,1,24,1575420030,0.00,313.0,13.0,0,0,0,0.0
Status,1732151446118,28,10,1,6,1575420030,0.00,163.0,9.0,0,0,0,0.0
Status,1732151446118,28,11,1,7,1575420030,27.30,130.0,7.0,1,0,0,22.3
Status,1732151446118,28,12,1,21,1575420030,0.00,36.0,6.0,0,0,0,0.0
Status,1732151446118,28,13,3,20,1602000000,0.00,119.0,50.0,0,0,0,0.0
Status,1732151446118,28,14,3,9,1602000000,0.00,76.0,35.0,0,0,0,0.0
Status,1732151446118,28,15,3,8,1602000000,30.90,250.0,26.0,1,0,0,25.9
Status,1732151446118,28,16,3,19,1602000000,0.00,36.0,26.0,0,0,0,0.0
Status,1732151446118,28,17,3,11,1602000000,24.60,307.0,25.0,0,0,0,19.6
Status,1732151446118,28,18,3,17,1602000000,33.00,0.0,0.0,0,0,0,28.0
Status,1732151446118,28,19,6,21,1575420030,0.00,336.0,68.0,0,0,0,0.0
Status,1732151446118,28,20,6,19,1575420030,0.00,247.0,48.0,0,0,0,0.0
Status,1732151446118,28,21,6,27,1575420030,0.00,62.0,36.0,0,0,0,0.0
Status,1732151446118,28,22,6,29,1575420030,0.00,192.0,28.0,0,0,0,0.0
Status,1732151446118,28,23,6,13,1575420030,0.00,122.0,26.0,0,0,0,0.0
Status,1732151446118,28,24,6,15,1575420030,0.00,65.0,23.0,0,0,0,0.0
Status,1732151446118,28,25,6,4,1575420030,0.00,313.0,22.0,0,0,0,0.0
Status,1732151446118,28,26,6,26,1575420030,0.00,168.0,4.0,0,0,0,0.0
Status,1732151446118,28,27,6,6,1575420030,0.00,328.0,3.0,0,0,0,0.0
Fix,GPS,37.4250000000,-122.1584133333,23.7,0.0,6.3,0.0,1732151448000,2.2,179.9,30332090000000,35.3,0,,,
Fix,FLP,37.4250095000,-122.1584175000,2.4619437719432833,0.092252366,13.274,,1732151448242,2.2,,30332090000000,11.81408,0,,,
Raw,1732151448000,21395000000,,705990.8570982129,-1416186644605999872,0.0,107.0211738868624,1327.0350838665,0.0,0,2,0.0,16431,349865919928524,797,18.086999893188477,690.7066584021475,0.14999,16,0.0,0.0,1575420030,,,,0,0.0,1,6.0,18.086999893188477,0.0,0.0,0.0,66.7128,C,30332090000000,
Raw,1732151448000,21395000000,,705990.8570982129,-1416186644605999872,0.0,107.0211738868624,1327.0350838665,0.0,0,30,0.0,16431,349865927468920,235,26.74799919128418,876.3710287756294,0.14999,16,0.0,0.0,1575420030,,,,0,12.416697016598228,1,6.0,26.74799919128418,0.0,0.0,0.0,66.7128,C,30332090000000,
Raw,1732151448000,21395000000,,705990.8570982129,-1416186644605999872,0.0,107.0211738868624,1327.0350838665,0.0,0,15,0.0,16431,349865925820295,396,24.16699981689453,512.0547213714841,0.14999,16,0.0,0.0,1575420030,,,,0,8.521825181113625,1,6.0,24.16699981689453,0.0,0.0,0.0,66.7128,C,30332090000000,
Raw,1732151448000,21395000000,,705990.8570982129,-1416186644605999872,0.0,107.0211738868624,1327.0350838665,0.0,0,7,0.0,16431,349865918686092,396,22.26300048828125,1017.0800056198165,0.14999,16,0.0,0.0,1575420030,,,,0,5.998686086161266,1,6.0,22.26300048828125,0.0,0.0,0.0,66.7128,C,30332090000000,
Raw,1732151448000,21395000000,,705990.8570982129,-1416186644605999872,0.0,107.0211738868624,1327.0350838665,0.0,0,8,0.0,17,134997,316,5.0,938.81496768235,0.14999,16,0.0,0.0,1605374980,,,,0,12.161827554437656,3,6.0,26.0,0.0,0.0,103.6216627355808,66.7128,C,30332090000000,
Raw,1732151448000,21395000000,,705990.8570982129,-1416186644605999872,0.0,107.0211738868624,1327.0350838665,0.0,0,11,0.0,17,44274,487,25.899999618530273,-76.56942998166203,0.14999,16,0.0,0.0,1602000000,,,,0,3.5883785142858544,3,6.0,25.899999618530273,0.0,0.0,103.6216627355808,66.7128,C,30332090000000,
Raw,1732151448000,21395000000,,705990.8570982129,-1416186644605999872,0.0,107.0211738868624,1327.0350838665,0.0,0,19,0.0,16431,349865930773569,797,16.577999114990234,-28.29192109498014,0.14999,16,0.0,0.0,1575420030,,,,0,0.0,1,6.0,16.577999114990234,0.0,0.0,0.0,66.7128,C,30332090000000,
Raw,1732151448000,21395000000,,705990.8570982129,-1416186644605999872,0.0,107.0211738868624,1327.0350838665,0.0,0,13,0.0,16431,349865930117201,487,20.527000427246094,714.7406191930155,0.14999,16,0.0,0.0,1575420030,,,,0,3.1796070390252362,1,6.0,20.527000427246094,0.0,0.0,0.0,66.7128,C,30332090000000,
Fix,FLP,37.4250061000,-122.1584161000,2.4619437719432833,0.070043646,6.502,,1732151448450,1.5,,30332297000000,11.81408,0,,,
Fix,NLP,37.4286688000,-122.1641386000,,,899.999,,1732151448449,,,30332297000000,,0,,,
Status,1732151448000,28,0,1,17,1575420030,0.00,103.0,80.0,0,0,0,0.0
Status,1732151448000,28,1,1,22,1575420030,0.00,5.0,67.0,0,0,0,0.0
Status,1732151448000,28,2,1,19,1575420030,21.60,199.0,57.0,1,0,0,16.6
Status,1732151448000,28,3,1,14,1575420030,0.00,48.0,55.0,0,0,0,0.0
Status,1732151448000,28,4,1,13,1575420030,26.00,239.0,50.0,1,0,0,21.0
Status,1732151448000,28,5,2,133,1575420030,0.00,191.0,45.0,0,0,0,0.0
Status,1732151448000,28,6,1,30,1575420030,31.90,129.0,40.0,1,0,0,26.9
Status,1732151448000,28,7,1,15,1575420030,29.20,279.0,30.0,1,0,0,24.2
Status,1732151448000,28,8,1,2,1575420030,23.90,50.0,18.0,1,0,0,18.9
Status,1732151448000,28,9,1,24,1575420030,0.00,313.0,13.0,0,0,0,0.0
Status,1732151448000,28,10,1,6,1575420030,0.00,163.0,9.0,0,0,0,0.0
Status,1732151448000,28,11,1,7,1575420030,28.80,130.0,7.0,1,0,0,23.8
Status,1732151448000,28,12,1,21,1575420030,0.00,36.0,6.0,0,0,0,0.0
Status,1732151448000,28,13,3,20,1602000000,0.00,119.0,50.0,0,0,0,0.0
Status,1732151448000,28,14,3,9,1602000000,0.00,76.0,35.0,0,0,0,0.0
Status,1732151448000,28,15,3,8,1602000000,31.50,250.0,26.0,1,0,0,26.5
Status,1732151448000,28,16,3,19,1602000000,0.00,36.0,26.0,0,0,0,0.0
Status,1732151448000,28,17,3,11,1602000000,24.40,307.0,25.0,0,0,0,19.4
Status,1732151448000,28,18,3,17,1602000000,34.50,0.0,0.0,0,0,0,29.5
Status,1732151448000,28,19,6,21,1575420030,0.00,336.0,68.0,0,0,0,0.0
Status,1732151448000,28,20,6,19,1575420030,0.00,247.0,48.0,0,0,0,0.0
Status,1732151448000,28,21,6,27,1575420030,0.00,62.0,36.0,0,0,0,0.0
Status,1732151448000,28,22,6,29,1575420030,0.00,192.0,28.0,0,0,0,0.0
Status,1732151448000,28,23,6,13,1575420030,0.00,122.0,26.0,0,0,0,0.0
Status,1732151448000,28,24,6,15,1575420030,0.00,65.0,23.0,0,0,0,0.0
Status,1732151448000,28,25,6,4,1575420030,0.00,313.0,22.0,0,0,0,0.0
Status,1732151448000,28,26,6,26,1575420030,0.00,168.0,4.0,0,0,0,0.0
Status,1732151448000,28,27,6,6,1575420030,0.00,328.0,3.0,0,0,0,0.0
Fix,GPS,37.4248866667,-122.1584900000,23.7,0.0,6.1,0.0,1732151449000,2.0,179.9,30333090000000,35.5,0,,,
Fix,FLP,37.4249584000,-122.1584436000,2.737344880940994,0.20475383,6.422,180.0,1732151449242,2.0,179.9,30333090000000,12.160859,0,,,
Raw,1732151449000,22395000000,,705987.9384123799,-1416186644605999872,0.0,104.35026510938035,1326.7156684279566,0.0,0,2,0.0,16431,349866919926229,487,18.909000396728516,690.2268823379412,0.14999,16,0.0,0.0,1575420030,,,,0,0.32875686395166337,1,6.0,18.909000396728516,0.0,0.0,0.0,66.7128,C,30333090000000,
Raw,1732151449000,22395000000,,705987.9384123799,-1416186644605999872,0.0,104.35026510938035,1326.7156684279566,0.0,0,30,0.0,16431,349866927465983,316,26.875999450683594,876.2090747367195,0.14999,16,0.0,0.0,1575420030,,,,0,12.60118302378672,1,6.0,26.875999450683594,0.0,0.0,0.0,66.7128,C,30333090000000,
Raw,1732151449000,22395000000,,705987.9384123799,-1416186644605999872,0.0,104.35026510938035,1326.7156684279566,0.0,0,15,0.0,16431,349866925818583,396,24.179000854492188,512.1842938942953,0.14999,16,0.0,0.0,1575420030,,,,0,9.22268015924799,1,6.0,24.179000854492188,0.0,0.0,0.0,66.7128,C,30333090000000,
Raw,1732151449000,22395000000,,705987.9384123799,-1416186644605999872,0.0,104.35026510938035,1326.7156684279566,0.0,0,7,0.0,16431,349866918682705,396,23.750999450683594,1017.4041924481336,0.14999,16,0.0,0.0,1575420030,,,,0,8.224842760335243,1,6.0,23.750999450683594,0.0,0.0,0.0,66.7128,C,30333090000000,
Raw,1732151449000,22395000000,,705987.9384123799,-1416186644605999872,0.0,104.35026510938035,1326.7156684279566,0.0,0,8,0.0,17,131860,235,5.0,938.9346910656358,0.14999,16,0.0,0.0,1605374980,,,,0,12.958800173440752,3,6.0,27.0,0.0,0.0,104.88534478347253,66.7128,C,30333090000000,
Raw,1732151449000,22395000000,,705987.9384123799,-1416186644605999872,0.0,104.35026510938035,1326.7156684279566,0.0,0,11,0.0,17,44537,487,26.5,-76.3844866201559,0.14999,16,0.0,0.0,1602000000,,,,0,3.1964673930182395,3,6.0,26.5,0.0,0.0,104.88534478347253,66.7128,C,30333090000000,
Raw,1732151449000,22395000000,,705987.9384123799,-1416186644605999872,0.0,104.35026510938035,1326.7156684279566,0.0,0,19,0.0,16431,349866930773664,487,16.577999114990234,-28.604818528158116,0.14999,16,0.0,0.0,1575420030,,,,0,0.0,1,6.0,16.577999114990234,0.0,0.0,0.0,66.7128,C,30333090000000,
Raw,1732151449000,22395000000,,705987.9384123799,-1416186644605999872,0.0,104.35026510938035,1326.7156684279566,0.0,0,13,0.0,16431,349866930114752,487,21.048999786376953,715.7876989775687,0.14999,16,0.0,0.0,1575420030,,,,0,4.036052927644516,1,6.0,21.048999786376953,0.0,0.0,0.0,66.7128,C,30333090000000,
Status,1732151449000,28,0,1,17,1575420030,0.00,103.0,80.0,0,0,0,0.0
Status,1732151449000,28,1,1,22,1575420030,0.00,5.0,67.0,0,0,0,0.0
Status,1732151449000,28,2,1,19,1575420030,24.10,199.0,57.0,1,0,0,19.1
Status,1732151449000,28,3,1,14,1575420030,0.00,48.0,55.0,0,0,0,0.0
Status,1732151449000,28,4,1,13,1575420030,24.90,239.0,50.0,1,0,0,19.9
Status,1732151449000,28,5,2,133,1575420030,0.00,191.0,45.0,0,0,0,0.0
Status,1732151449000,28,6,1,30,1575420030,30.10,129.0,40.0,1,0,0,25.1
Status,1732151449000,28,7,1,15,1575420030,29.10,279.0,30.0,1,0,0,24.1
Status,1732151449000,28,8,1,2,1575420030,23.90,50.0,18.0,1,0,0,18.9
Status,1732151449000,28,9,1,24,1575420030,0.00,313.0,13.0,0,0,0,0.0
Status,1732151449000,28,10,1,6,1575420030,0.00,163.0,9.0,0,0,0,0.0
Status,1732151449000,28,11,1,7,1575420030,30.00,130.0,7.0,1,0,0,25.0
Status,1732151449000,28,12,1,21,1575420030,0.00,36.0,6.0,0,0,0,0.0
Status,1732151449000,28,13,3,20,1602000000,0.00,119.0,50.0,0,0,0,0.0
Status,1732151449000,28,14,3,9,1602000000,0.00,76.0,35.0,0,0,0,0.0
Status,1732151449000,28,15,3,8,1602000000,31.00,250.0,26.0,1,0,0,26.0
Status,1732151449000,28,16,3,19,1602000000,0.00,36.0,26.0,0,0,0,0.0
Status,1732151449000,28,17,3,11,1602000000,30.40,307.0,25.0,0,0,0,25.4
Status,1732151449000,28,18,3,17,1602000000,31.60,0.0,0.0,0,0,0,26.6
Status,1732151449000,28,19,6,21,1575420030,0.00,336.0,68.0,0,0,0,0.0
Status,1732151449000,28,20,6,19,1575420030,0.00,247.0,48.0,0,0,0,0.0
Status,1732151449000,28,21,6,27,1575420030,0.00,62.0,36.0,0,0,0,0.0
Status,1732151449000,28,22,6,29,1575420030,0.00,192.0,28.0,0,0,0,0.0
Status,1732151449000,28,23,6,13,1575420030,0.00,122.0,26.0,0,0,0,0.0
Status,1732151449000,28,24,6,15,1575420030,0.00,65.0,23.0,0,0,0,0.0
Status,1732151449000,28,25,6,4,1575420030,0.00,313.0,22.0,0,0,0,0.0
Status,1732151449000,28,26,6,26,1575420030,0.00,168.0,4.0,0,0,0,0.0
Status,1732151449000,28,27,6,6,1575420030,0.00,328.0,3.0,0,0,0,0.0
Fix,GPS,37.4248383333,-122.1585300000,23.7,0.0,5.9,0.0,1732151450000,1.9,179.9,30334090000000,35.7,0,,,
Raw,1732151450000,23395000000,,705973.2928638251,-1416186644605999872,0.0,103.27960992306613,1326.6721146909508,0.0,0,2,0.0,16431,349867919923927,797,18.909000396728516,690.09289626559,0.14999,16,0.0,0.0,1575420030,,,,0,0.32875686395166337,1,6.0,18.909000396728516,0.0,0.0,0.0,66.7128,C,30334090000000,
Raw,1732151450000,23395000000,,705973.2928638251,-1416186644605999872,0.0,103.27960992306613,1326.6721146909508,0.0,0,30,0.0,16431,349867927463061,396,25.101999282836914,876.4456409920635,0.14999,16,0.0,0.0,1575420030,,,,0,10.198218785937069,1,6.0,25.101999282836914,0.0,0.0,0.0,66.7128,C,30334090000000,
Raw,1732151450000,23395000000,,705973.2928638251,-1416186644605999872,0.0,103.27960992306613,1326.6721146909508,0.0,0,15,0.0,16431,349867925816875,487,24.135000228881836,512.3169326725764,0.14999,16,0.0,0.0,1575420030,,,,0,7.544274520013383,1,6.0,24.135000228881836,0.0,0.0,0.0,66.7128,C,30334090000000,
Raw,1732151450000,23395000000,,705973.2928638251,-1416186644605999872,0.0,103.27960992306613,1326.6721146909508,0.0,0,7,0.0,16431,349867918679309,396,24.968000411987305,1017.5181084846818,0.14999,16,0.0,0.0,1575420030,,,,0,9.995268206370607,1,6.0,24.968000411987305,0.0,0.0,0.0,66.7128,C,30334090000000,
Raw,1732151450000,23395000000,,705973.2928638251,-1416186644605999872,0.0,103.27960992306613,1326.6721146909508,0.0,0,8,0.0,17,128722,487,5.0,939.0769366695397,0.14999,16,0.0,0.0,1605374980,,,,0,12.359535705891888,3,6.0,20.0,0.0,0.0,104.86900529641748,66.7128,C,30334090000000,
Raw,1732151450000,23395000000,,705973.2928638251,-1416186644605999872,0.0,103.27960992306613,1326.6721146909508,0.0,0,11,0.0,17,44791,316,26.0,-75.29529449112773,0.14999,16,0.0,0.0,1602000000,,,,0,11.598122468004206,3,6.0,26.0,0.0,0.0,104.86900529641748,66.7128,C,30334090000000,
Raw,1732151450000,23395000000,,705973.2928638251,-1416186644605999872,0.0,103.27960992306613,1326.6721146909508,0.0,0,19,0.0,16431,349867930773786,797,19.097000122070312,-28.489741031204613,0.14999,16,0.0,0.0,1575420030,,,,0,0.695820903569258,1,6.0,19.097000122070312,0.0,0.0,0.0,66.7128,C,30334090000000,
Raw,1732151450000,23395000000,,705973.2928638251,-1416186644605999872,0.0,103.27960992306613,1326.6721146909508,0.0,0,13,0.0,16431,349867930112330,487,19.854999542236328,716.3118892876721,0.14999,16,0.0,0.0,1575420030,,,,0,2.026194951143232,1,6.0,19.854999542236328,0.0,0.0,0.0,66.7128,C,30334090000000,
Fix,FLP,37.4249054000,-122.1584780000,2.653896002017915,0.51418483,6.335,180.0,1732151450242,1.9,179.9,30334090000000,15.127115,0,,,
Status,1732151450000,28,0,1,17,1575420030,0.00,103.0,80.0,0,0,0,0.0
Status,1732151450000,28,1,1,22,1575420030,0.00,5.0,67.0,0,0,0,0.0
Status,1732151450000,28,2,1,19,1575420030,24.10,199.0,57.0,1,0,0,19.1
Status,1732151450000,28,3,1,14,1575420030,0.00,48.0,55.0,0,0,0,0.0
Status,1732151450000,28,4,1,13,1575420030,26.50,239.0,50.0,1,0,0,21.5
Status,1732151450000,28,5,2,133,1575420030,0.00,191.0,45.0,0,0,0,0.0
Status,1732151450000,28,6,1,30,1575420030,31.00,129.0,40.0,1,0,0,26.0
Status,1732151450000,28,7,1,15,1575420030,29.10,279.0,30.0,1,0,0,24.1
Status,1732151450000,28,8,1,2,1575420030,23.90,50.0,18.0,1,0,0,18.9
Status,1732151450000,28,9,1,24,1575420030,0.00,313.0,13.0,0,0,0,0.0
Status,1732151450000,28,10,1,6,1575420030,0.00,163.0,9.0,0,0,0,0.0
Status,1732151450000,28,11,1,7,1575420030,30.00,130.0,7.0,1,0,0,25.0
Status,1732151450000,28,12,1,21,1575420030,0.00,36.0,6.0,0,0,0,0.0
Status,1732151450000,28,13,3,20,1602000000,0.00,119.0,50.0,0,0,0,0.0
Status,1732151450000,28,14,3,9,1602000000,0.00,76.0,35.0,0,0,0,0.0
Status,1732151450000,28,15,3,8,1602000000,31.00,250.0,26.0,1,0,0,26.0
Status,1732151450000,28,16,3,19,1602000000,0.00,36.0,26.0,0,0,0,0.0
Status,1732151450000,28,17,3,11,1602000000,24.60,307.0,25.0,0,0,0,19.6
Status,1732151450000,28,18,3,17,1602000000,24.70,0.0,0.0,0,0,0,19.7
Status,1732151450000,28,19,6,21,1575420030,0.00,336.0,68.0,0,0,0,0.0
Status,1732151450000,28,20,6,19,1575420030,0.00,247.0,48.0,0,0,0,0.0
Status,1732151450000,28,21,6,27,1575420030,0.00,62.0,36.0,0,0,0,0.0
Status,1732151450000,28,22,6,29,1575420030,0.00,192.0,28.0,0,0,0,0.0
Status,1732151450000,28,23,6,13,1575420030,0.00,122.0,26.0,0,0,0,0.0
Status,1732151450000,28,24,6,15,1575420030,0.00,65.0,23.0,0,0,0,0.0
Status,1732151450000,28,25,6,4,1575420030,0.00,313.0,22.0,0,0,0,0.0
Status,1732151450000,28,26,6,26,1575420030,0.00,168.0,4.0,0,0,0,0.0
Status,1732151450000,28,27,6,6,1575420030,0.00,328.0,3.0,0,0,0,0.0
Fix,GPS,37.4248083333,-122.1585616667,23.7,0.0,5.7,0.0,1732151451000,1.9,179.9,30335090000000,36.0,0,,,
Raw,1732151451000,24395000000,,705959.6897030679,-1416186644605999872,0.0,103.25662954755009,1327.1221701435563,0.0,0,2,0.0,16431,349868919921624,797,18.909000396728516,690.4296733247002,0.14999,16,0.0,0.0,1575420030,,,,0,0.32875686395166337,1,6.0,18.909000396728516,0.0,0.0,0.0,66.7128,C,30335090000000,
Raw,1732151451000,24395000000,,705959.6897030679,-1416186644605999872,0.0,103.25662954755009,1327.1221701435563,0.0,0,30,0.0,16431,349868927460138,487,26.04800033569336,876.6994897782379,0.14999,16,0.0,0.0,1575420030,,,,0,11.499820559988308,1,6.0,26.04800033569336,0.0,0.0,0.0,66.7128,C,30335090000000,
Raw,1732151451000,24395000000,,705959.6897030679,-1416186644605999872,0.0,103.25662954755009,1327.1221701435563,0.0,0,15,0.0,16431,349868925815167,1797,24.093000411987305,512.1131660590769,0.14999,16,0.0,0.0,1575420030,,,,0,7.544274520013383,1,6.0,24.093000411987305,0.0,0.0,0.0,66.7128,C,30335090000000,
Raw,1732151451000,24395000000,,705959.6897030679,-1416186644605999872,0.0,103.25662954755009,1327.1221701435563,0.0,0,7,0.0,16431,349868918675915,487,24.968000411987305,1017.5947648714292,0.14999,16,0.0,0.0,1575420030,,,,0,9.995268206370607,1,6.0,24.968000411987305,0.0,0.0,0.0,66.7128,C,30335090000000,
Raw,1732151451000,24395000000,,705959.6897030679,-1416186644605999872,0.0,103.25662954755009,1327.1221701435563,0.0,0,8,0.0,17,125589,797,5.0,939.5564684842387,0.14999,16,0.0,0.0,1605374980,,,,0,12.359535705891888,3,6.0,16.0,0.0,0.0,104.14791849503676,66.7128,C,30335090000000,
Raw,1732151451000,24395000000,,705959.6897030679,-1416186644605999872,0.0,103.25662954755009,1327.1221701435563,0.0,0,11,0.0,17,45055,487,26.0,-75.84487050287605,0.14999,16,0.0,0.0,1602000000,,,,0,3.5883785142858544,3,6.0,26.0,0.0,0.0,104.14791849503676,66.7128,C,30335090000000,
Raw,1732151451000,24395000000,,705959.6897030679,-1416186644605999872,0.0,103.25662954755009,1327.1221701435563,0.0,0,19,0.0,16431,349868930773879,797,19.097000122070312,-27.521919304706678,0.14999,16,0.0,0.0,1575420030,,,,0,0.695820903569258,1,6.0,19.097000122070312,0.0,0.0,0.0,66.7128,C,30335090000000,
Raw,1732151451000,24395000000,,705959.6897030679,-1416186644605999872,0.0,103.25662954755009,1327.1221701435563,0.0,0,13,0.0,16431,349868930109931,487,21.533000946044922,715.8024262955074,0.14999,16,0.0,0.0,1575420030,,,,0,4.81557927939014,1,6.0,21.533000946044922,0.0,0.0,0.0,66.7128,C,30335090000000,
Fix,FLP,37.4248589000,-122.1585127000,2.869683179388695,0.72931486,6.168,180.0,1732151451243,1.9,179.9,30335090000000,22.941599,0,,,
Status,1732151451000,28,0,1,17,1575420030,0.00,103.0,80.0,0,0,0,0.0
Status,1732151451000,28,1,1,22,1575420030,0.00,5.0,67.0,0,0,0,0.0
Status,1732151451000,28,2,1,19,1575420030,19.00,199.0,57.0,1,0,0,14.0
Status,1732151451000,28,3,1,14,1575420030,0.00,48.0,55.0,0,0,0,0.0
Status,1732151451000,28,4,1,13,1575420030,26.50,239.0,50.0,1,0,0,21.5
Status,1732151451000,28,5,2,133,1575420030,0.00,191.0,45.0,0,0,0,0.0
Status,1732151451000,28,6,1,30,1575420030,31.00,129.0,40.0,1,0,0,26.0
Status,1732151451000,28,7,1,15,1575420030,29.10,279.0,30.0,1,0,0,24.1
Status,1732151451000,28,8,1,2,1575420030,20.90,50.0,18.0,1,0,0,15.9
Status,1732151451000,28,9,1,24,1575420030,0.00,313.0,13.0,0,0,0,0.0
Status,1732151451000,28,10,1,6,1575420030,0.00,163.0,9.0,0,0,0,0.0
Status,1732151451000,28,11,1,7,1575420030,25.90,130.0,7.0,1,0,0,20.9
Status,1732151451000,28,12,1,21,1575420030,0.00,36.0,6.0,0,0,0,0.0
Status,1732151451000,28,13,3,20,1602000000,0.00,119.0,50.0,0,0,0,0.0
Status,1732151451000,28,14,3,9,1602000000,0.00,76.0,35.0,0,0,0,0.0
Status,1732151451000,28,15,3,8,1602000000,31.00,250.0,26.0,1,0,0,26.0
Status,1732151451000,28,16,3,19,1602000000,0.00,36.0,26.0,0,0,0,0.0
Status,1732151451000,28,17,3,11,1602000000,24.60,307.0,25.0,0,0,0,19.6
Status,1732151451000,28,18,3,17,1602000000,27.90,0.0,0.0,0,0,0,22.9
Status,1732151451000,28,19,6,21,1575420030,0.00,336.0,68.0,0,0,0,0.0
Status,1732151451000,28,20,6,19,1575420030,0.00,247.0,48.0,0,0,0,0.0
Status,1732151451000,28,21,6,27,1575420030,0.00,62.0,36.0,0,0,0,0.0
Status,1732151451000,28,22,6,29,1575420030,0.00,192.0,28.0,0,0,0,0.0
Status,1732151451000,28,23,6,13,1575420030,0.00,122.0,26.0,0,0,0,0.0
Status,1732151451000,28,24,6,15,1575420030,0.00,65.0,23.0,0,0,0,0.0
Status,1732151451000,28,25,6,4,1575420030,0.00,313.0,22.0,0,0,0,0.0
Status,1732151451000,28,26,6,26,1575420030,0.00,168.0,4.0,0,0,0,0.0
Status,1732151451000,28,27,6,6,1575420030,0.00,328.0,3.0,0,0,0,0.0
Fix,GPS,37.4247816667,-122.1585833333,23.7,0.0,5.5,0.0,1732151452000,1.8,179.9,30336090000000,36.4,0,,,
Raw,1732151452000,25395000000,,705934.5681571482,-1416186644605999872,0.0,103.0674549945063,1327.2691989215978,0.0,0,2,0.0,16431,349869919919305,1797,15.859000205993652,690.5859594368325,0.14999,16,0.0,0.0,1575420030,,,,0,0.0,1,6.0,15.859000205993652,0.0,0.0,0.0,66.7128,C,30336090000000,
Raw,1732151452000,25395000000,,705934.5681571482,-1416186644605999872,0.0,103.0674549945063,1327.2691989215978,0.0,0,30,0.0,16431,349869927457213,797,26.04800033569336,876.380227542039,0.14999,16,0.0,0.0,1575420030,,,,0,11.499820559988308,1,6.0,26.04800033569336,0.0,0.0,0.0,66.7128,C,30336090000000,
Raw,1732151452000,25395000000,,705934.5681571482,-1416186644605999872,0.0,103.0674549945063,1327.2691989215978,0.0,0,15,0.0,16431,349869925813458,1797,24.05299949645996,512.3496393975886,0.14999,16,0.0,0.0,1575420030,,,,0,7.544274520013383,1,6.0,24.05299949645996,0.0,0.0,0.0,66.7128,C,30336090000000,
Raw,1732151452000,25395000000,,705934.5681571482,-1416186644605999872,0.0,103.0674549945063,1327.2691989215978,0.0,0,7,0.0,16431,349869918672516,487,20.867000579833984,1017.8942358223223,0.14999,16,0.0,0.0,1575420030,,,,0,3.703538079984847,1,6.0,20.867000579833984,0.0,0.0,0.0,66.7128,C,30336090000000,
Raw,1732151452000,25395000000,,705934.5681571482,-1416186644605999872,0.0,103.0674549945063,1327.2691989215978,0.0,0,8,0.0,17,122456,797,5.0,939.5606629058923,0.14999,16,0.0,0.0,1605374980,,,,0,12.359535705891888,3,6.0,16.0,0.0,0.0,100.86418520975035,66.7128,C,30336090000000,
Raw,1732151452000,25395000000,,705934.5681571482,-1416186644605999872,0.0,103.0674549945063,1327.2691989215978,0.0,0,11,0.0,17,45310,487,26.0,-75.70579748103201,0.14999,16,0.0,0.0,1602000000,,,,0,3.1964673930182395,3,6.0,26.0,0.0,0.0,100.86418520975035,66.7128,C,30336090000000,
Raw,1732151452000,25395000000,,705934.5681571482,-1416186644605999872,0.0,103.0674549945063,1327.2691989215978,0.0,0,19,0.0,16431,349869930773948,797,14.0,-27.44159270307866,0.14999,16,0.0,0.0,1575420030,,,,0,0.0,1,6.0,14.0,0.0,0.0,0.0,66.7128,C,30336090000000,
Raw,1732151452000,25395000000,,705934.5681571482,-1416186644605999872,0.0,103.0674549945063,1327.2691989215978,0.0,0,13,0.0,16431,349869930107541,487,21.475000381469727,716.3295434858321,0.14999,16,0.0,0.0,1575420030,,,,0,2.90529298959974,1,6.0,21.475000381469727,0.0,0.0,0.0,66.7128,C,30336090000000,
Fix,FLP,37.4248196000,-122.1585428000,2.9531328821064227,0.7915197,6.018,180.0,1732151452243,1.8,179.9,30336090000000,23.607925,0,,,
Status,1732151452000,28,0,1,17,1575420030,0.00,103.0,80.0,0,0,0,0.0
Status,1732151452000,28,1,1,22,1575420030,0.00,5.0,67.0,0,0,0,0.0
Status,1732151452000,28,2,1,19,1575420030,19.00,199.0,57.0,1,0,0,14.0
Status,1732151452000,28,3,1,14,1575420030,0.00,48.0,55.0,0,0,0,0.0
Status,1732151452000,28,4,1,13,1575420030,30.00,239.0,50.0,1,0,0,25.0
Status,1732151452000,28,5,2,133,1575420030,0.00,191.0,45.0,0,0,0,0.0
Status,1732151452000,28,6,1,30,1575420030,22.00,129.0,40.0,1,0,0,17.0
Status,1732151452000,28,7,1,15,1575420030,0.00,279.0,30.0,0,0,0,0.0
Status,1732151452000,28,8,1,2,1575420030,20.90,50.0,18.0,1,0,0,15.9
Status,1732151452000,28,9,1,24,1575420030,0.00,313.0,13.0,0,0,0,0.0
Status,1732151452000,28,10,1,6,1575420030,0.00,163.0,9.0,0,0,0,0.0
Status,1732151452000,28,11,1,7,1575420030,27.30,130.0,7.0,1,0,0,22.3
Status,1732151452000,28,12,1,21,1575420030,0.00,36.0,6.0,0,0,0,0.0
Status,1732151452000,28,13,3,20,1602000000,0.00,119.0,50.0,0,0,0,0.0
Status,1732151452000,28,14,3,9,1602000000,0.00,76.0,35.0,0,0,0,0.0
Status,1732151452000,28,15,3,8,1602000000,19.30,250.0,26.0,1,0,0,14.299999
Status,1732151452000,28,16,3,19,1602000000,0.00,36.0,26.0,0,0,0,0.0
Status,1732151452000,28,17,3,11,1602000000,24.50,307.0,25.0,0,0,0,19.5
Status,1732151452000,28,18,3,17,1602000000,26.30,0.0,0.0,0,0,0,21.3
Status,1732151452000,28,19,6,21,1575420030,0.00,336.0,68.0,0,0,0,0.0
Status,1732151452000,28,20,6,19,1575420030,0.00,247.0,48.0,0,0,0,0.0
Status,1732151452000,28,21,6,27,1575420030,0.00,62.0,36.0,0,0,0,0.0
Status,1732151452000,28,22,6,29,1575420030,0.00,192.0,28.0,0,0,0,0.0
Status,1732151452000,28,23,6,13,1575420030,0.00,122.0,26.0,0,0,0,0.0
Status,1732151452000,28,24,6,15,1575420030,0.00,65.0,23.0,0,0,0,0.0
Status,1732151452000,28,25,6,4,1575420030,0.00,313.0,22.0,0,0,0,0.0
Status,1732151452000,28,26,6,26,1575420030,0.00,168.0,4.0,0,0,0,0.0
Status,1732151452000,28,27,6,6,1575420030,0.00,328.0,3.0,0,0,0,0.0
Fix,GPS,37.4247583333,-122.1585716667,23.7,0.0,5.4,0.0,1732151453000,1.7,179.9,30337090000000,36.7,0,,,
Raw,1732151453000,26395000000,,705908.7169397704,-1416186644605999872,0.0,102.88282943606218,1328.4004110483015,0.0,0,2,0.0,16431,349870919917001,1797,15.859000205993652,690.867869106398,0.14999,16,0.0,0.0,1575420030,,,,0,0.0,1,6.0,15.859000205993652,0.0,0.0,0.0,66.7128,C,30337090000000,
Raw,1732151453000,26395000000,,705908.7169397704,-1416186644605999872,0.0,102.88282943606218,1328.4004110483015,0.0,0,30,0.0,16431,349870927454284,797,16.951000213623047,877.3075375296014,0.14999,16,0.0,0.0,1575420030,,,,0,0.0,1,6.0,16.951000213623047,0.0,0.0,0.0,66.7128,C,30337090000000,
Raw,1732151453000,26395000000,,705908.7169397704,-1416186644605999872,0.0,102.88282943606218,1328.4004110483015,0.0,0,7,0.0,16431,349870918669117,396,22.301000595092773,1018.2445322805498,0.14999,16,0.0,0.0,1575420030,,,,0,6.063506458917921,1,6.0,22.301000595092773,0.0,0.0,0.0,66.7128,C,30337090000000,
Raw,1732151453000,26395000000,,705908.7169397704,-1416186644605999872,0.0,102.88282943606218,1328.4004110483015,0.0,0,8,0.0,17,119330,797,5.0,939.9318692222338,0.14999,16,0.0,0.0,1605374980,,,,0,0.0,3,6.0,16.0,0.0,0.0,93.65735363379376,66.7128,C,30337090000000,
Raw,1732151453000,26395000000,,705908.7169397704,-1416186644605999872,0.0,102.88282943606218,1328.4004110483015,0.0,0,11,0.0,17,45569,797,14.300000190734863,-75.96023166587085,0.14999,16,0.0,0.0,1602000000,,,,0,0.2076861073334193,3,6.0,14.300000190734863,0.0,0.0,93.65735363379376,66.7128,C,30337090000000,
Raw,1732151453000,26395000000,,705908.7169397704,-1416186644605999872,0.0,102.88282943606218,1328.4004110483015,0.0,0,19,0.0,16431,349870930774040,797,14.0,-27.640016598713867,0.14999,16,0.0,0.0,1575420030,,,,0,0.0,1,6.0,14.0,0.0,0.0,0.0,66.7128,C,30337090000000,
Raw,1732151453000,26395000000,,705908.7169397704,-1416186644605999872,0.0,102.88282943606218,1328.4004110483015,0.0,0,13,0.0,16431,349870930105162,316,24.968000411987305,716.6559138597112,0.14999,16,0.0,0.0,1575420030,,,,0,9.995268206370607,1,6.0,24.968000411987305,0.0,0.0,0.0,66.7128,C,30337090000000,
Fix,FLP,37.4247875000,-122.1585553000,3.0365834086332235,0.7321926,5.93,180.0,1732151453242,1.7,179.9,30337090000000,23.374334,0,,,
Fix,FLP,37.4247767000,-122.1585608000,3.0365834086332235,0.59046483,5.666,180.0,1732151453482,1.7,179.9,30337330000000,21.932713,0,,,
Fix,NLP,37.4256791000,-122.1581088000,-0.4000000059604645,,20.533,,1732151453482,,,30337330000000,21.14384,0,,,
Status,1732151453000,27,0,1,17,1575420030,0.00,103.0,80.0,0,0,0,0.0
Status,1732151453000,27,1,1,22,1575420030,0.00,5.0,67.0,0,0,0,0.0
Status,1732151453000,27,2,1,19,1575420030,19.00,199.0,57.0,1,0,0,14.0
Status,1732151453000,27,3,1,14,1575420030,0.00,48.0,55.0,0,0,0,0.0
Status,1732151453000,27,4,1,13,1575420030,29.90,239.0,50.0,1,0,0,24.9
Status,1732151453000,27,5,2,133,1575420030,0.00,191.0,45.0,0,0,0,0.0
Status,1732151453000,27,6,1,30,1575420030,22.00,129.0,39.0,1,0,0,17.0
Status,1732151453000,27,7,1,15,1575420030,0.00,279.0,30.0,0,0,0,0.0
Status,1732151453000,27,8,1,2,1575420030,19.80,50.0,18.0,1,0,0,14.799999
Status,1732151453000,27,9,1,24,1575420030,0.00,313.0,13.0,0,0,0,0.0
Status,1732151453000,27,10,1,6,1575420030,0.00,163.0,9.0,0,0,0,0.0
Status,1732151453000,27,11,1,7,1575420030,28.20,130.0,7.0,1,0,0,23.2
Status,1732151453000,27,12,1,21,1575420030,0.00,36.0,6.0,0,0,0,0.0
Status,1732151453000,27,13,3,20,1602000000,0.00,119.0,50.0,0,0,0,0.0
Status,1732151453000,27,14,3,9,1602000000,0.00,76.0,35.0,0,0,0,0.0
Status,1732151453000,27,15,3,8,1602000000,19.30,250.0,26.0,1,0,0,14.299999
Status,1732151453000,27,16,3,19,1602000000,0.00,36.0,26.0,0,0,0,0.0
Status,1732151453000,27,17,3,11,1602000000,24.50,307.0,25.0,0,0,0,19.5
Status,1732151453000,27,18,6,21,1575420030,0.00,336.0,68.0,0,0,0,0.0
Status,1732151453000,27,19,6,19,1575420030,0.00,247.0,48.0,0,0,0,0.0
Status,1732151453000,27,20,6,27,1575420030,0.00,62.0,36.0,0,0,0,0.0
Status,1732151453000,27,21,6,29,1575420030,0.00,192.0,28.0,0,0,0,0.0
Status,1732151453000,27,22,6,13,1575420030,0.00,122.0,26.0,0,0,0,0.0
Status,1732151453000,27,23,6,15,1575420030,0.00,65.0,23.0,0,0,0,0.0
Status,1732151453000,27,24,6,4,1575420030,0.00,313.0,22.0,0,0,0,0.0
Status,1732151453000,27,25,6,26,1575420030,0.00,168.0,4.0,0,0,0,0.0
Status,1732151453000,27,26,6,6,1575420030,0.00,328.0,3.0,0,0,0,0.0
Fix,GPS,37.4247583333,-122.1585433333,23.7,0.0,5.3,0.0,1732151454000,1.8,179.9,30338090000000,37.1,0,,,
Fix,FLP,37.4247674000,-122.1585543000,3.120034758987286,0.46220553,5.614,180.0,1732151454242,1.8,179.9,30338090000000,18.780746,0,,,
Raw,1732151454000,27395000000,,705888.7552134483,-1416186644605999872,0.0,104.02700655467524,1330.7273495428808,0.0,0,2,0.0,16431,349871919914693,797,14.800000190734863,691.5382640523161,0.14999,16,0.0,0.0,1575420030,,,,0,0.0,1,6.0,14.800000190734863,0.0,0.0,0.0,66.7128,C,30338090000000,
Raw,1732151454000,27395000000,,705888.7552134483,-1416186644605999872,0.0,104.02700655467524,1330.7273495428808,0.0,0,30,0.0,16431,349871927451356,797,16.951000213623047,878.4528304060236,0.14999,16,0.0,0.0,1575420030,,,,0,0.0,1,6.0,16.951000213623047,0.0,0.0,0.0,66.7128,C,30338090000000,
Raw,1732151454000,27395000000,,705888.7552134483,-1416186644605999872,0.0,104.02700655467524,1330.7273495428808,0.0,0,7,0.0,16431,349871918665718,396,23.197999954223633,1019.0451037086898,0.14999,16,0.0,0.0,1575420030,,,,0,7.434671934661771,1,6.0,23.197999954223633,0.0,0.0,0.0,66.7128,C,30338090000000,
Raw,1732151454000,27395000000,,705888.7552134483,-1416186644605999872,0.0,104.02700655467524,1330.7273495428808,0.0,0,8,0.0,17,116194,1797,5.0,940.4070242491204,0.14999,16,0.0,0.0,1605374980,,,,0,0.0,3,6.0,12.0,0.0,0.0,88.40670127644675,66.7128,C,30338090000000,
Raw,1732151454000,27395000000,,705888.7552134483,-1416186644605999872,0.0,104.02700655467524,1330.7273495428808,0.0,0,11,0.0,17,45821,487,14.300000190734863,-75.49143131201355,0.14999,16,0.0,0.0,1602000000,,,,0,2.9650585210726756,3,6.0,14.300000190734863,0.0,0.0,88.40670127644675,66.7128,C,30338090000000,
Raw,1732151454000,27395000000,,705888.7552134483,-1416186644605999872,0.0,104.02700655467524,1330.7273495428808,0.0,0,19,0.0,16431,349871930774131,1797,14.0,-27.22072939241376,0.14999,16,0.0,0.0,1575420030,,,,0,0.0,1,6.0,14.0,0.0,0.0,0.0,66.7128,C,30338090000000,
Raw,1732151454000,27395000000,,705888.7552134483,-1416186644605999872,0.0,104.02700655467524,1330.7273495428808,0.0,0,13,0.0,16431,349871930102764,487,24.91699981689453,717.4368333777941,0.14999,16,0.0,0.0,1575420030,,,,0,8.570349830436143,1,6.0,24.91699981689453,0.0,0.0,0.0,66.7128,C,30338090000000,
Status,1732151454000,27,0,1,17,1575420030,0.00,103.0,80.0,0,0,0,0.0
Status,1732151454000,27,1,1,22,1575420030,0.00,5.0,67.0,0,0,0,0.0
Status,1732151454000,27,2,1,19,1575420030,19.00,199.0,57.0,1,0,0,14.0
Status,1732151454000,27,3,1,14,1575420030,0.00,48.0,55.0,0,0,0,0.0
Status,1732151454000,27,4,1,13,1575420030,27.10,239.0,50.0,1,0,0,22.1
Status,1732151454000,27,5,2,133,1575420030,0.00,191.0,45.0,0,0,0,0.0
Status,1732151454000,27,6,1,30,1575420030,22.90,129.0,39.0,1,0,0,17.9
Status,1732151454000,27,7,1,15,1575420030,19.90,279.0,30.0,1,0,0,14.9
Status,1732151454000,27,8,1,2,1575420030,19.80,50.0,18.0,1,0,0,14.799999
Status,1732151454000,27,9,1,24,1575420030,0.00,313.0,13.0,0,0,0,0.0
Status,1732151454000,27,10,1,6,1575420030,0.00,163.0,9.0,0,0,0,0.0
Status,1732151454000,27,11,1,7,1575420030,28.80,130.0,7.0,1,0,0,23.8
Status,1732151454000,27,12,1,21,1575420030,0.00,36.0,6.0,0,0,0,0.0
Status,1732151454000,27,13,3,20,1602000000,0.00,119.0,50.0,0,0,0,0.0
Status,1732151454000,27,14,3,9,1602000000,0.00,76.0,35.0,0,0,0,0.0
Status,1732151454000,27,15,3,8,1602000000,15.70,250.0,26.0,1,0,0,10.7
Status,1732151454000,27,16,3,19,1602000000,0.00,36.0,26.0,0,0,0,0.0
Status,1732151454000,27,17,3,11,1602000000,24.60,307.0,25.0,0,0,0,19.6
Status,1732151454000,27,18,6,21,1575420030,0.00,336.0,68.0,0,0,0,0.0
Status,1732151454000,27,19,6,19,1575420030,0.00,247.0,48.0,0,0,0,0.0
Status,1732151454000,27,20,6,27,1575420030,0.00,62.0,36.0,0,0,0,0.0
Status,1732151454000,27,21,6,29,1575420030,0.00,192.0,28.0,0,0,0,0.0
Status,1732151454000,27,22,6,13,1575420030,0.00,122.0,26.0,0,0,0,0.0
Status,1732151454000,27,23,6,15,1575420030,0.00,65.0,23.0,0,0,0,0.0
Status,1732151454000,27,24,6,4,1575420030,0.00,313.0,22.0,0,0,0,0.0
Status,1732151454000,27,25,6,26,1575420030,0.00,168.0,4.0,0,0,0,0.0
Status,1732151454000,27,26,6,6,1575420030,0.00,328.0,3.0,0,0,0,0.0
Fix,GPS,37.4247566667,-122.1585166667,23.7,0.0,5.3,0.0,1732151455000,1.8,179.9,30339090000000,47.5,0,,,
Raw,1732151455000,28395000000,,705869.2625616352,-1416186644605999872,0.0,115.78403897213785,1330.3858040842988,0.0,0,2,0.0,16431,349872919912385,797,14.800000190734863,691.8951111472292,0.14999,16,0.0,0.0,1575420030,,,,0,0.0,1,6.0,14.800000190734863,0.0,0.0,0.0,66.7128,C,30339090000000,
Raw,1732151455000,28395000000,,705869.2625616352,-1416186644605999872,0.0,115.78403897213785,1330.3858040842988,0.0,0,30,0.0,16431,349872927448417,487,17.86400032043457,878.1465765263638,0.14999,16,0.0,0.0,1575420030,,,,0,0.0,1,6.0,17.86400032043457,0.0,0.0,0.0,66.7128,C,30339090000000,
Raw,1732151455000,28395000000,,705869.2625616352,-1416186644605999872,0.0,115.78403897213785,1330.3858040842988,0.0,0,15,0.0,16431,349872925808321,797,14.899999618530273,513.5410190228916,0.14999,16,0.0,0.0,1575420030,,,,0,0.0,1,6.0,14.899999618530273,0.0,0.0,0.0,66.7128,C,30339090000000,
Raw,1732151455000,28395000000,,705869.2625616352,-1416186644605999872,0.0,115.78403897213785,1330.3858040842988,0.0,0,7,0.0,16431,349872918662318,396,23.844999313354492,1018.7844719937486,0.14999,16,0.0,0.0,1575420030,,,,0,8.374603188186242,1,6.0,23.844999313354492,0.0,0.0,0.0,66.7128,C,30339090000000,
Raw,1732151455000,28395000000,,705869.2625616352,-1416186644605999872,0.0,115.78403897213785,1330.3858040842988,0.0,0,8,0.0,17,113055,1797,5.0,940.42453140037,0.14999,16,0.0,0.0,1605374980,,,,0,0.0,3,6.0,13.0,0.0,0.0,84.85967904495969,66.7128,C,30339090000000,
Raw,1732151455000,28395000000,,705869.2625616352,-1416186644605999872,0.0,115.78403897213785,1330.3858040842988,0.0,0,11,0.0,17,46085,396,10.699999809265137,-75.77254704900643,0.14999,16,0.0,0.0,1602000000,,,,0,6.738004441067023,3,6.0,10.699999809265137,0.0,0.0,84.85967904495969,66.7128,C,30339090000000,
Raw,1732151455000,28395000000,,705869.2625616352,-1416186644605999872,0.0,115.78403897213785,1330.3858040842988,0.0,0,19,0.0,16431,349872930774237,1797,13.989999771118164,-27.049901796007607,0.14999,16,0.0,0.0,1575420030,,,,0,0.0,1,6.0,13.989999771118164,0.0,0.0,0.0,66.7128,C,30339090000000,
Raw,1732151455000,28395000000,,705869.2625616352,-1416186644605999872,0.0,115.78403897213785,1330.3858040842988,0.0,0,13,0.0,16431,349872930100378,487,22.145999908447266,717.2027294185092,0.14999,16,0.0,0.0,1575420030,,,,0,5.801271005635381,1,6.0,22.145999908447266,0.0,0.0,0.0,66.7128,C,30339090000000,
Fix,FLP,37.4247609000,-122.1585388000,2.848230011555021,0.33213285,5.5,180.0,1732151455243,1.8,179.9,30339090000000,17.03139,0,,,
Status,1732151455000,26,0,1,17,1575420030,0.00,103.0,80.0,0,0,0,0.0
Status,1732151455000,26,1,1,22,1575420030,0.00,5.0,67.0,0,0,0,0.0
Status,1732151455000,26,2,1,19,1575420030,19.00,199.0,57.0,1,0,0,14.0
Status,1732151455000,26,3,1,14,1575420030,0.00,48.0,55.0,0,0,0,0.0
Status,1732151455000,26,4,1,13,1575420030,27.10,239.0,50.0,1,0,0,22.1
Status,1732151455000,26,5,1,30,1575420030,26.40,129.0,39.0,1,0,0,21.4
Status,1732151455000,26,6,1,15,1575420030,19.90,279.0,30.0,1,0,0,14.9
Status,1732151455000,26,7,1,2,1575420030,19.80,50.0,18.0,1,0,0,14.799999
Status,1732151455000,26,8,1,24,1575420030,0.00,313.0,13.0,0,0,0,0.0
Status,1732151455000,26,9,1,6,1575420030,0.00,163.0,9.0,0,0,0,0.0
Status,1732151455000,26,10,1,7,1575420030,28.90,130.0,7.0,1,0,0,23.9
Status,1732151455000,26,11,1,21,1575420030,0.00,36.0,6.0,0,0,0,0.0
Status,1732151455000,26,12,3,20,1602000000,0.00,119.0,50.0,0,0,0,0.0
Status,1732151455000,26,13,3,9,1602000000,0.00,76.0,35.0,0,0,0,0.0
Status,1732151455000,26,14,3,8,1602000000,22.80,250.0,26.0,1,0,0,17.8
Status,1732151455000,26,15,3,19,1602000000,0.00,36.0,26.0,0,0,0,0.0
Status,1732151455000,26,16,3,11,1602000000,29.40,307.0,25.0,0,0,0,24.4
Status,1732151455000,26,17,6,21,1575420030,0.00,336.0,68.0,0,0,0,0.0
Status,1732151455000,26,18,6,19,1575420030,0.00,247.0,48.0,0,0,0,0.0
Status,1732151455000,26,19,6,27,1575420030,0.00,62.0,36.0,0,0,0,0.0
Status,1732151455000,26,20,6,29,1575420030,0.00,192.0,28.0,0,0,0,0.0
Status,1732151455000,26,21,6,13,1575420030,0.00,122.0,26.0,0,0,0,0.0
Status,1732151455000,26,22,6,15,1575420030,0.00,65.0,23.0,0,0,0,0.0
Status,1732151455000,26,23,6,4,1575420030,0.00,313.0,22.0,0,0,0,0.0
Status,1732151455000,26,24,6,26,1575420030,0.00,168.0,4.0,0,0,0,0.0
Status,1732151455000,26,25,6,6,1575420030,0.00,328.0,3.0,0,0,0,0.0
Fix,GPS,37.4247533333,-122.1584900000,23.7,0.0,5.3,0.0,1732151455999,1.8,179.9,30340090000000,47.7,0,,,
Fix,FLP,37.4247562000,-122.1585181000,3.0167092648200153,0.23542494,5.414,180.0,1732151456242,1.8,179.9,30340090000000,18.745249,0,,,
Raw,1732151456000,29395000000,,705844.5579708347,-1416186644605999872,0.0,150.41565574172697,1326.6170550840327,0.0,0,2,0.0,16431,349873918910079,797,14.800000190734863,690.8236871525818,0.14999,16,0.0,0.0,1575420030,,,,0,0.0,1,6.0,14.800000190734863,0.0,0.0,0.0,66.7128,C,30340090000000,
Raw,1732151456000,29395000000,,705844.5579708347,-1416186644605999872,0.0,150.41565574172697,1326.6170550840327,0.0,0,30,0.0,16431,349873926445486,487,21.406999588012695,876.8681338290821,0.14999,16,0.0,0.0,1575420030,,,,0,4.588978002732215,1,6.0,21.406999588012695,0.0,0.0,0.0,66.7128,C,30340090000000,
Raw,1732151456000,29395000000,,705844.5579708347,-1416186644605999872,0.0,150.41565574172697,1326.6170550840327,0.0,0,15,0.0,16431,349873924806608,797,14.899999618530273,513.1201057720241,0.14999,16,0.0,0.0,1575420030,,,,0,0.0,1,6.0,14.899999618530273,0.0,0.0,0.0,66.7128,C,30340090000000,
Raw,1732151456000,29395000000,,705844.5579708347,-1416186644605999872,0.0,150.41565574172697,1326.6170550840327,0.0,0,7,0.0,16431,349873917658916,396,23.884000778198242,1018.031195233311,0.14999,16,0.0,0.0,1575420030,,,,0,9.531348311273408,1,6.0,23.884000778198242,0.0,0.0,0.0,66.7128,C,30340090000000,
Raw,1732151456000,29395000000,,705844.5579708347,-1416186644605999872,0.0,150.41565574172697,1326.6170550840327,0.0,0,8,0.0,17,109923,487,5.0,939.3710021006871,0.14999,16,0.0,0.0,1605374980,,,,0,0.5227191829663616,3,6.0,18.0,0.0,0.0,81.54927087514982,66.7128,C,30340090000000,
Raw,1732151456000,29395000000,,705844.5579708347,-1416186644605999872,0.0,150.41565574172697,1326.6170550840327,0.0,0,11,0.0,17,46348,316,17.799999237060547,-77.79166437074598,0.14999,16,0.0,0.0,1602000000,,,,0,10.364210667993737,3,6.0,17.799999237060547,0.0,0.0,81.54927087514982,66.7128,C,30340090000000,
Raw,1732151456000,29395000000,,705844.5579708347,-1416186644605999872,0.0,150.41565574172697,1326.6170550840327,0.0,0,19,0.0,16431,349873929774329,797,13.979999542236328,-28.28091045033824,0.14999,16,0.0,0.0,1575420030,,,,0,0.0,1,6.0,13.979999542236328,0.0,0.0,0.0,66.7128,C,30340090000000,
Raw,1732151456000,29395000000,,705844.5579708347,-1416186644605999872,0.0,150.41565574172697,1326.6170550840327,0.0,0,13,0.0,16431,349873929097994,487,22.094999313354492,716.0540915361198,0.14999,16,0.0,0.0,1575420030,,,,0,4.197655535840351,1,6.0,22.094999313354492,0.0,0.0,0.0,66.7128,C,30340090000000,
Status,1732151455999,28,0,1,17,1575420030,0.00,103.0,80.0,0,0,0,0.0
Status,1732151455999,28,1,1,22,1575420030,0.00,5.0,67.0,0,0,0,0.0
Status,1732151455999,28,2,1,19,1575420030,22.00,199.0,57.0,1,0,0,17.0
Status,1732151455999,28,3,1,14,1575420030,0.00,48.0,55.0,0,0,0,0.0
Status,1732151455999,28,4,1,13,1575420030,27.00,239.0,50.0,1,0,0,22.0
Status,1732151455999,28,5,2,135,1575420030,0.00,197.0,45.0,0,0,0,0.0
Status,1732151455999,28,6,1,30,1575420030,26.40,129.0,39.0,1,0,0,21.4
Status,1732151455999,28,7,1,15,1575420030,19.90,279.0,30.0,1,0,0,14.9
Status,1732151455999,28,8,1,2,1575420030,21.60,50.0,18.0,1,0,0,16.6
Status,1732151455999,28,9,1,24,1575420030,0.00,313.0,13.0,0,0,0,0.0
Status,1732151455999,28,10,1,6,1575420030,0.00,163.0,9.0,0,0,0,0.0
Status,1732151455999,28,11,1,7,1575420030,33.70,130.0,7.0,1,0,0,28.7
Status,1732151455999,28,12,1,21,1575420030,0.00,36.0,6.0,0,0,0,0.0
Status,1732151455999,28,13,3,20,1602000000,0.00,119.0,50.0,0,0,0,0.0
Status,1732151455999,28,14,3,9,1602000000,0.00,76.0,35.0,0,0,0,0.0
Status,1732151455999,28,15,3,8,1602000000,22.80,250.0,26.0,1,0,0,17.8
Status,1732151455999,28,16,3,19,1602000000,0.00,36.0,26.0,0,0,0,0.0
Status,1732151455999,28,17,3,11,1602000000,24.40,307.0,25.0,0,0,0,19.4
Status,1732151455999,28,18,3,17,1602000000,25.70,0.0,0.0,0,0,0,20.7
Status,1732151455999,28,19,6,21,1575420030,0.00,336.0,68.0,0,0,0,0.0
Status,1732151455999,28,20,6,19,1575420030,0.00,247.0,48.0,0,0,0,0.0
Status,1732151455999,28,21,6,27,1575420030,0.00,62.0,36.0,0,0,0,0.0
Status,1732151455999,28,22,6,29,1575420030,0.00,192.0,28.0,0,0,0,0.0
Status,1732151455999,28,23,6,13,1575420030,0.00,122.0,26.0,0,0,0,0.0
Status,1732151455999,28,24,6,15,1575420030,0.00,65.0,23.0,0,0,0,0.0
Status,1732151455999,28,25,6,4,1575420030,0.00,313.0,22.0,0,0,0,0.0
Status,1732151455999,28,26,6,26,1575420030,0.00,168.0,4.0,0,0,0,0.0
Status,1732151455999,28,27,6,6,1575420030,0.00,328.0,3.0,0,0,0,0.0
Fix,GPS,37.4247166667,-122.1584883333,23.7,0.0,5.3,0.0,1732151456999,1.8,133.7,30341090000000,48.0,0,,,
Raw,1732151456999,30395000000,,705823.8665730543,-1416186644604999936,0.0,137.227261496233,1322.130787968033,0.0,0,2,0.0,16431,349874918907772,797,16.577999114990234,689.6824361583699,0.14999,16,0.0,0.0,1575420030,,,,0,0.0,1,6.0,16.577999114990234,0.0,0.0,0.0,66.7128,C,30341090000000,
Raw,1732151456999,30395000000,,705823.8665730543,-1416186644604999936,0.0,137.227261496233,1322.130787968033,0.0,0,30,0.0,16431,349874926442563,797,21.406999588012695,875.2959810245176,0.14999,16,0.0,0.0,1575420030,,,,0,4.588978002732215,1,6.0,21.406999588012695,0.0,0.0,0.0,66.7128,C,30341090000000,
Raw,1732151456999,30395000000,,705823.8665730543,-1416186644604999936,0.0,137.227261496233,1322.130787968033,0.0,0,15,0.0,16431,349874924804896,797,14.899999618530273,512.0123512959001,0.14999,16,0.0,0.0,1575420030,,,,0,0.0,1,6.0,14.899999618530273,0.0,0.0,0.0,66.7128,C,30341090000000,
Raw,1732151456999,30395000000,,705823.8665730543,-1416186644604999936,0.0,137.227261496233,1322.130787968033,0.0,0,7,0.0,16431,349874917655521,235,28.700000762939453,1017.1185661052712,0.14999,16,0.0,0.0,1575420030,,,,0,14.934872895177737,1,6.0,28.700000762939453,0.0,0.0,0.0,66.7128,C,30341090000000,
Raw,1732151456999,30395000000,,705823.8665730543,-1416186644604999936,0.0,137.227261496233,1322.130787968033,0.0,0,8,0.0,17,106789,487,5.0,939.3812146055827,0.14999,16,0.0,0.0,1605374980,,,,0,0.5227191829663616,3,6.0,18.0,0.0,0.0,81.17805373478956,66.7128,C,30341090000000,
Raw,1732151456999,30395000000,,705823.8665730543,-1416186644604999936,0.0,137.227261496233,1322.130787968033,0.0,0,11,0.0,17,46602,487,17.799999237060547,-79.07324693833696,0.14999,16,0.0,0.0,1602000000,,,,0,3.329078970998501,3,6.0,17.799999237060547,0.0,0.0,81.17805373478956,66.7128,C,30341090000000,
Raw,1732151456999,30395000000,,705823.8665730543,-1416186644604999936,0.0,137.227261496233,1322.130787968033,0.0,0,19,0.0,16431,349874929774439,797,16.951000213623047,-30.698513513102235,0.14999,16,0.0,0.0,1575420030,,,,0,0.0,1,6.0,16.951000213623047,0.0,0.0,0.0,66.7128,C,30341090000000,
Raw,1732151456999,30395000000,,705823.8665730543,-1416186644604999936,0.0,137.227261496233,1322.130787968033,0.0,0,13,0.0,16431,349874929095603,487,22.020999908447266,715.0332607567257,0.14999,16,0.0,0.0,1575420030,,,,0,3.3577853821016186,1,6.0,22.020999908447266,0.0,0.0,0.0,66.7128,C,30341090000000,
Fix,FLP,37.4247363000,-122.1585054000,3.0167092648200153,0.33353567,5.357,180.0,1732151457242,1.8,133.7,30341090000000,12.530439,0,,,
Status,1732151456999,28,0,1,17,1575420030,0.00,103.0,80.0,0,0,0,0.0
Status,1732151456999,28,1,1,22,1575420030,0.00,5.0,67.0,0,0,0,0.0
Status,1732151456999,28,2,1,19,1575420030,22.00,199.0,57.0,1,0,0,17.0
Status,1732151456999,28,3,1,14,1575420030,0.00,48.0,55.0,0,0,0,0.0
Status,1732151456999,28,4,1,13,1575420030,23.20,239.0,50.0,1,0,0,18.2
Status,1732151456999,28,5,2,135,1575420030,0.00,197.0,45.0,0,0,0,0.0
Status,1732151456999,28,6,1,30,1575420030,26.40,129.0,39.0,1,0,0,21.4
Status,1732151456999,28,7,1,15,1575420030,19.60,279.0,30.0,1,0,0,14.6
Status,1732151456999,28,8,1,2,1575420030,21.60,50.0,18.0,1,0,0,16.6
Status,1732151456999,28,9,1,24,1575420030,0.00,313.0,13.0,0,0,0,0.0
Status,1732151456999,28,10,1,6,1575420030,0.00,163.0,9.0,0,0,0,0.0
Status,1732151456999,28,11,1,7,1575420030,31.00,130.0,7.0,1,0,0,26.0
Status,1732151456999,28,12,1,21,1575420030,0.00,36.0,6.0,0,0,0,0.0
Status,1732151456999,28,13,3,20,1602000000,0.00,119.0,50.0,0,0,0,0.0
Status,1732151456999,28,14,3,9,1602000000,0.00,76.0,35.0,0,0,0,0.0
Status,1732151456999,28,15,3,8,1602000000,23.20,250.0,26.0,1,0,0,18.2
Status,1732151456999,28,16,3,19,1602000000,0.00,36.0,26.0,0,0,0,0.0
Status,1732151456999,28,17,3,11,1602000000,21.20,307.0,25.0,0,0,0,16.2
Status,1732151456999,28,18,3,17,1602000000,24.40,0.0,0.0,0,0,0,19.4
Status,1732151456999,28,19,6,21,1575420030,0.00,336.0,68.0,0,0,0,0.0
Status,1732151456999,28,20,6,19,1575420030,0.00,247.0,48.0,0,0,0,0.0
Status,1732151456999,28,21,6,27,1575420030,0.00,62.0,36.0,0,0,0,0.0
Status,1732151456999,28,22,6,29,1575420030,0.00,192.0,28.0,0,0,0,0.0
Status,1732151456999,28,23,6,13,1575420030,0.00,122.0,26.0,0,0,0,0.0
Status,1732151456999,28,24,6,15,1575420030,0.00,65.0,23.0,0,0,0,0.0
Status,1732151456999,28,25,6,4,1575420030,0.00,313.0,22.0,0,0,0,0.0
Status,1732151456999,28,26,6,26,1575420030,0.00,168.0,4.0,0,0,0,0.0
Status,1732151456999,28,27,6,6,1575420030,0.00,328.0,3.0,0,0,0,0.0
Fix,GPS,37.4246883333,-122.1584950000,23.7,0.0,5.2,0.0,1732151457999,1.7,94.5,30342090000000,47.7,0,,,
Fix,FLP,37.4247116000,-122.1585008000,2.682292479866488,0.4214122,5.314,180.0,1732151458242,1.7,94.5,30342090000000,10.695102,0,,,
Raw,1732151457999,31395000000,,705802.2370262564,-1416186644604999936,0.0,126.3376046476668,1321.2560589108564,0.0,0,2,0.0,16431,349875918905468,797,16.577999114990234,691.7755271839033,0.14999,16,0.0,0.0,1575420030,,,,0,0.0,1,6.0,16.577999114990234,0.0,0.0,0.0,66.7128,C,30342090000000,
Raw,1732151457999,31395000000,,705802.2370262564,-1416186644604999936,0.0,126.3376046476668,1321.2560589108564,0.0,0,30,0.0,16431,349875926439644,797,21.406999588012695,875.1943300098488,0.14999,16,0.0,0.0,1575420030,,,,0,4.588978002732215,1,6.0,21.406999588012695,0.0,0.0,0.0,66.7128,C,30342090000000,
Raw,1732151457999,31395000000,,705802.2370262564,-1416186644604999936,0.0,126.3376046476668,1321.2560589108564,0.0,0,15,0.0,16431,349875924803176,797,14.600000381469727,511.89708796528174,0.14999,16,0.0,0.0,1575420030,,,,0,0.0,1,6.0,14.600000381469727,0.0,0.0,0.0,66.7128,C,30342090000000,
Raw,1732151457999,31395000000,,705802.2370262564,-1416186644604999936,0.0,126.3376046476668,1321.2560589108564,0.0,0,7,0.0,16431,349875917652130,316,26.04800033569336,1017.7160213377387,0.14999,16,0.0,0.0,1575420030,,,,0,11.499820559988308,1,6.0,26.04800033569336,0.0,0.0,0.0,66.7128,C,30342090000000,
Raw,1732151457999,31395000000,,705802.2370262564,-1416186644604999936,0.0,126.3376046476668,1321.2560589108564,0.0,0,8,0.0,17,103614,487,5.0,938.698618073003,0.14999,16,0.0,0.0,1605374980,,,,0,1.29530723008898,3,6.0,19.0,0.0,0.0,79.97362617710121,66.7128,C,30342090000000,
