# 
# Header Description:
# 
# Version: v3.1.0.3 Platform: 13 Manufacturer: samsung Model: SM-S135DL GNSS Hardware Model Name: MediaTek,MT6631,MTK_MNLD_default,MNL_VER_default
# 
# Raw,utcTimeMillis,TimeNanos,LeapSecond,TimeUncertaintyNanos,FullBiasNanos,BiasNanos,BiasUncertaintyNanos,DriftNanosPerSecond,DriftUncertaintyNanosPerSecond,HardwareClockDiscontinuityCount,Svid,TimeOffsetNanos,State,ReceivedSvTimeNanos,ReceivedSvTimeUncertaintyNanos,Cn0DbHz,PseudorangeRateMetersPerSecond,PseudorangeRateUncertaintyMetersPerSecond,AccumulatedDeltaRangeState,AccumulatedDeltaRangeMeters,AccumulatedDeltaRangeUncertaintyMeters,CarrierFrequencyHz,CarrierCycles,CarrierPhase,CarrierPhaseUncertainty,MultipathIndicator,SnrInDb,ConstellationType,AgcDb,BasebandCn0DbHz,FullInterSignalBiasNanos,FullInterSignalBiasUncertaintyNanos,SatelliteInterSignalBiasNanos,SatelliteInterSignalBiasUncertaintyNanos,CodeType,ChipsetElapsedRealtimeNanos,IsFullTracking
# 
# UncalAccel,utcTimeMillis,elapsedRealtimeNanos,UncalAccelXMps2,UncalAccelYMps2,UncalAccelZMps2,BiasXMps2,BiasYMps2,BiasZMps2
# 
# Accel,utcTimeMillis,elapsedRealtimeNanos,AccelXMps2,AccelYMps2,AccelZMps2
# 
# UncalGyro,utcTimeMillis,elapsedRealtimeNanos,UncalGyroXRadPerSec,UncalGyroYRadPerSec,UncalGyroZRadPerSec,DriftXRadPerSec,DriftYRadPerSec,DriftZRadPerSec
# 
# Gyro,utcTimeMillis,elapsedRealtimeNanos,GyroXRadPerSec,GyroYRadPerSec,GyroZRadPerSec
# 
# UncalMag,utcTimeMillis,elapsedRealtimeNanos,UncalMagXMicroT,UncalMagYMicroT,UncalMagZMicroT,BiasXMicroT,BiasYMicroT,BiasZMicroT
# 
# Mag,utcTimeMillis,elapsedRealtimeNanos,MagXMicroT,MagYMicroT,MagZMicroT
# 
# Pressure,utcTimeMillis,elapsedRealtimeNanos,PressureHpa
# 
# OrientationDeg,utcTimeMillis,elapsedRealtimeNanos,yawDeg,rollDeg,pitchDeg
# 
# Fix,Provider,LatitudeDegrees,LongitudeDegrees,AltitudeMeters,SpeedMps,AccuracyMeters,BearingDegrees,UnixTimeMillis,SpeedAccuracyMps,BearingAccuracyDegrees,elapsedRealtimeNanos,VerticalAccuracyMeters,MockLocation,NumberOfUsedSignals,VerticalSpeedAccuracyMps,SolutionType
# 
# Nav,Svid,Type,Status,MessageId,Sub-messageId,Data(Bytes)
# 
# Status,UnixTimeMillis,SignalCount,SignalIndex,ConstellationType,Svid,CarrierFrequencyHz,Cn0DbHz,AzimuthDegrees,ElevationDegrees,UsedInFix,HasAlmanacData,HasEphemerisData,BasebandCn0DbHz
# 
# Agc,utcTimeMillis,TimeNanos,LeapSecond,TimeUncertaintyNanos,FullBiasNanos,BiasNanos,BiasUncertaintyNanos,DriftNanosPerSecond,DriftUncertaintyNanosPerSecond,HardwareClockDiscontinuityCount,AgcDb,CarrierFrequencyHz,ConstellationType
# 
Fix,FLP,37.4247106000,-122.1585857000,3.1673359683962863,0.46601838,26.079,0.0000000004884314,1732151488933,3.5,179.9,30372781000000,18.511915,0,,,
Status,,27,0,1,17,1575420030,0.00,101.0,80.0,0,0,0,0.0
Status,,27,1,1,22,1575420030,0.00,6.0,67.0,0,0,0,0.0
Status,,27,2,1,19,1575420030,0.00,199.0,57.0,0,0,0,0.0
Status,,27,3,1,14,1575420030,0.00,49.0,55.0,0,0,0,0.0
Status,,27,4,1,13,1575420030,24.00,239.0,50.0,1,0,0,19.0
Status,,27,5,1,30,1575420030,32.00,129.0,39.0,1,0,0,27.0
Status,,27,6,1,15,1575420030,18.20,278.0,30.0,1,0,0,13.200001
Status,,27,7,1,2,1575420030,0.00,50.0,18.0,0,0,0,0.0
Status,,27,8,1,24,1575420030,0.00,313.0,14.0,0,0,0,0.0
Status,,27,9,1,6,1575420030,0.00,163.0,9.0,0,0,0,0.0
Status,,27,10,1,7,1575420030,30.20,130.0,7.0,1,0,0,25.2
Status,,27,11,1,21,1575420030,0.00,36.0,6.0,0,0,0,0.0
Status,,27,12,3,20,1602000000,0.00,119.0,50.0,0,0,0,0.0
Status,,27,13,3,9,1602000000,0.00,77.0,35.0,0,0,0,0.0
Status,,27,14,3,19,1602000000,0.00,36.0,26.0,0,0,0,0.0
Status,,27,15,3,11,1602000000,21.40,307.0,26.0,0,0,0,16.4
Status,,27,16,3,8,1602000000,0.00,250.0,25.0,0,0,0,0.0
Status,,27,17,3,17,1602000000,26.10,0.0,0.0,0,0,0,21.1
Status,,27,18,6,21,1575420030,0.00,337.0,68.0,0,0,0,0.0
Status,,27,19,6,19,1575420030,0.00,246.0,48.0,0,0,0,0.0
Status,,27,20,6,27,1575420030,0.00,62.0,36.0,0,0,0,0.0
Status,,27,21,6,29,1575420030,0.00,192.0,27.0,0,0,0,0.0
Status,,27,22,6,13,1575420030,0.00,122.0,26.0,0,0,0,0.0
Status,,27,23,6,15,1575420030,0.00,65.0,23.0,0,0,0,0.0
Status,,27,24,6,4,1575420030,0.00,313.0,22.0,0,0,0,0.0
Status,,27,25,6,26,1575420030,0.00,168.0,4.0,0,0,0,0.0
Status,,27,26,6,6,1575420030,0.00,328.0,3.0,0,0,0,0.0
Fix,GPS,37.4246650000,-122.1584883333,23.7,0.0,6.1,0.0,1732151489000,3.5,179.9,30373090000000,90.9,0,,,
Raw,1732151489000,16016000000,,704378.1268173198,-1416186690984999936,0.0,346.14380215506037,1309.3099337773644,0.0,0,30,0.0,16431,349906927349323,396,26.981000900268555,873.5632679335293,0.14999,16,0.0,0.0,1575420030,,,,0,12.715822381848852,1,6.0,26.981000900268555,0.0,0.0,0.0,66.7128,C,30373090000000,
Raw,1732151489000,16016000000,,704378.1268173198,-1416186690984999936,0.0,346.14380215506037,1309.3099337773644,0.0,0,7,0.0,16431,349906918547350,316,25.156999588012695,1013.5546480809284,0.14999,16,0.0,0.0,1575420030,,,,0,10.23755743403666,1,6.0,25.156999588012695,0.0,0.0,0.0,66.7128,C,30373090000000,
Raw,1732151489000,16016000000,,704378.1268173198,-1416186690984999936,0.0,346.14380215506037,1309.3099337773644,0.0,0,15,0.0,16431,349906925750474,797,13.199999809265137,512.9752484302796,0.14999,16,0.0,0.0,1575420030,,,,0,0.0,1,6.0,13.199999809265137,0.0,0.0,0.0,66.7128,C,30373090000000,
Raw,1732151489000,16016000000,,704378.1268173198,-1416186690984999936,0.0,346.14380215506037,1309.3099337773644,0.0,0,13,0.0,16431,349906930019424,797,19.03700065612793,714.5653315886532,0.14999,16,0.0,0.0,1575420030,,,,0,0.4878220302067371,1,6.0,19.03700065612793,0.0,0.0,0.0,66.7128,C,30373090000000,
Raw,1732151489000,16016000000,,704378.1268173198,-1416186690984999936,0.0,346.14380215506037,1309.3099337773644,0.0,0,11,0.0,17,55330,797,17.0,-81.83163514261867,0.14999,16,0.0,0.0,1602000000,,,,0,0.0,3,6.0,17.0,0.0,0.0,108.67631620913818,66.7128,C,30373090000000,
Fix,FLP,37.4246816000,-122.1585292000,3.1673359683962863,0.28198817,21.084,0.0000004329911,1732151489242,3.5,179.9,30373090000000,18.406864,0,,,
Status,1732151489000,27,0,1,17,1575420030,0.00,101.0,80.0,0,0,0,0.0
Status,1732151489000,27,1,1,22,1575420030,0.00,6.0,67.0,0,0,0,0.0
Status,1732151489000,27,2,1,19,1575420030,0.00,199.0,57.0,0,0,0,0.0
Status,1732151489000,27,3,1,14,1575420030,0.00,49.0,55.0,0,0,0,0.0
Status,1732151489000,27,4,1,13,1575420030,27.30,239.0,50.0,1,0,0,22.3
Status,1732151489000,27,5,1,30,1575420030,26.00,129.0,39.0,1,0,0,21.0
Status,1732151489000,27,6,1,15,1575420030,23.30,278.0,30.0,1,0,0,18.3
Status,1732151489000,27,7,1,2,1575420030,0.00,50.0,18.0,0,0,0,0.0
Status,1732151489000,27,8,1,24,1575420030,0.00,313.0,14.0,0,0,0,0.0
Status,1732151489000,27,9,1,6,1575420030,0.00,163.0,9.0,0,0,0,0.0
Status,1732151489000,27,10,1,7,1575420030,30.20,130.0,7.0,1,0,0,25.2
Status,1732151489000,27,11,1,21,1575420030,0.00,36.0,6.0,0,0,0,0.0
Status,1732151489000,27,12,3,20,1602000000,0.00,119.0,50.0,0,0,0,0.0
Status,1732151489000,27,13,3,9,1602000000,0.00,77.0,35.0,0,0,0,0.0
Status,1732151489000,27,14,3,19,1602000000,0.00,36.0,26.0,0,0,0,0.0
Status,1732151489000,27,15,3,11,1602000000,21.40,307.0,26.0,0,0,0,16.4
Status,1732151489000,27,16,3,8,1602000000,0.00,250.0,25.0,0,0,0,0.0
Status,1732151489000,27,17,3,17,1602000000,27.70,0.0,0.0,0,0,0,22.7
Status,1732151489000,27,18,6,21,1575420030,0.00,337.0,68.0,0,0,0,0.0
Status,1732151489000,27,19,6,19,1575420030,0.00,246.0,48.0,0,0,0,0.0
Status,1732151489000,27,20,6,27,1575420030,0.00,62.0,36.0,0,0,0,0.0
Status,1732151489000,27,21,6,29,1575420030,0.00,192.0,27.0,0,0,0,0.0
Status,1732151489000,27,22,6,13,1575420030,0.00,122.0,26.0,0,0,0,0.0
Status,1732151489000,27,23,6,15,1575420030,0.00,65.0,23.0,0,0,0,0.0
Status,1732151489000,27,24,6,4,1575420030,0.00,313.0,22.0,0,0,0,0.0
Status,1732151489000,27,25,6,26,1575420030,0.00,168.0,4.0,0,0,0,0.0
Status,1732151489000,27,26,6,6,1575420030,0.00,328.0,3.0,0,0,0,0.0
Fix,GPS,37.4246800000,-122.1584766667,23.7,0.0,6.0,0.0,1732151490000,3.4,179.9,30374090000000,67.0,0,,,
Raw,1732151490000,17016000000,,704372.2894456538,-1416186690984999936,0.0,226.9558173274138,1309.9533614120814,0.0,0,30,0.0,16431,349907927346399,396,21.049999237060547,873.6235709577705,0.14999,16,0.0,0.0,1575420030,,,,0,3.9675847095650747,1,6.0,21.049999237060547,0.0,0.0,0.0,66.7128,C,30374090000000,
Raw,1732151490000,17016000000,,704372.2894456538,-1416186690984999936,0.0,226.9558173274138,1309.9533614120814,0.0,0,7,0.0,16431,349907918543968,396,25.156999588012695,1013.7828518213545,0.14999,16,0.0,0.0,1575420030,,,,0,10.23755743403666,1,6.0,25.156999588012695,0.0,0.0,0.0,66.7128,C,30374090000000,
Raw,1732151490000,17016000000,,704372.2894456538,-1416186690984999936,0.0,226.9558173274138,1309.9533614120814,0.0,0,15,0.0,16431,349907925748746,487,18.291000366210938,512.7708778573696,0.14999,16,0.0,0.0,1575420030,,,,0,0.0,1,6.0,18.291000366210938,0.0,0.0,0.0,66.7128,C,30374090000000,
Raw,1732151490000,17016000000,,704372.2894456538,-1416186690984999936,0.0,226.9558173274138,1309.9533614120814,0.0,0,13,0.0,16431,349907930017078,396,22.332000732421875,714.9777894077703,0.14999,16,0.0,0.0,1575420030,,,,0,6.056266128576916,1,6.0,22.332000732421875,0.0,0.0,0.0,66.7128,C,30374090000000,
Raw,1732151490000,17016000000,,704372.2894456538,-1416186690984999936,0.0,226.9558173274138,1309.9533614120814,0.0,0,11,0.0,17,55602,487,18.0,-81.53960007178192,0.14999,16,0.0,0.0,1602000000,,,,0,0.0,3,6.0,18.0,0.0,0.0,108.67631620913818,66.7128,C,30374090000000,
Fix,FLP,37.4246819000,-122.1585043000,3.0838833219908057,0.26300043,18.067,0.00000032486133,1732151490243,3.4,179.9,30374090000000,18.799526,0,,,
Status,1732151490000,27,0,1,17,1575420030,0.00,101.0,80.0,0,0,0,0.0
Status,1732151490000,27,1,1,22,1575420030,0.00,6.0,67.0,0,0,0,0.0
Status,1732151490000,27,2,1,19,1575420030,0.00,199.0,57.0,0,0,0,0.0
Status,1732151490000,27,3,1,14,1575420030,0.00,49.0,55.0,0,0,0,0.0
Status,1732151490000,27,4,1,13,1575420030,27.30,239.0,50.0,1,0,0,22.3
Status,1732151490000,27,5,1,30,1575420030,26.20,129.0,39.0,1,0,0,21.2
Status,1732151490000,27,6,1,15,1575420030,0.00,278.0,30.0,0,0,0,0.0
Status,1732151490000,27,7,1,2,1575420030,0.00,50.0,18.0,0,0,0,0.0
Status,1732151490000,27,8,1,24,1575420030,0.00,313.0,14.0,0,0,0,0.0
Status,1732151490000,27,9,1,6,1575420030,0.00,163.0,9.0,0,0,0,0.0
Status,1732151490000,27,10,1,7,1575420030,25.90,130.0,7.0,1,0,0,20.9
Status,1732151490000,27,11,1,21,1575420030,0.00,36.0,6.0,0,0,0,0.0
Status,1732151490000,27,12,3,20,1602000000,0.00,119.0,50.0,0,0,0,0.0
Status,1732151490000,27,13,3,9,1602000000,0.00,77.0,35.0,0,0,0,0.0
Status,1732151490000,27,14,3,19,1602000000,0.00,36.0,26.0,0,0,0,0.0
Status,1732151490000,27,15,3,11,1602000000,24.20,307.0,26.0,0,0,0,19.2
Status,1732151490000,27,16,3,8,1602000000,27.30,250.0,25.0,1,0,0,22.3
Status,1732151490000,27,17,3,17,1602000000,25.40,0.0,0.0,0,0,0,20.4
Status,1732151490000,27,18,6,21,1575420030,0.00,337.0,68.0,0,0,0,0.0
Status,1732151490000,27,19,6,19,1575420030,0.00,246.0,48.0,0,0,0,0.0
Status,1732151490000,27,20,6,27,1575420030,0.00,62.0,36.0,0,0,0,0.0
Status,1732151490000,27,21,6,29,1575420030,0.00,192.0,27.0,0,0,0,0.0
Status,1732151490000,27,22,6,13,1575420030,0.00,122.0,26.0,0,0,0,0.0
Status,1732151490000,27,23,6,15,1575420030,0.00,65.0,23.0,0,0,0,0.0
Status,1732151490000,27,24,6,4,1575420030,0.00,313.0,22.0,0,0,0,0.0
Status,1732151490000,27,25,6,26,1575420030,0.00,168.0,4.0,0,0,0,0.0
Status,1732151490000,27,26,6,6,1575420030,0.00,328.0,3.0,0,0,0,0.0
Fix,GPS,37.4246666667,-122.1584600000,23.7,0.0,6.1,0.0,1732151491000,3.3,179.9,30375090000000,79.1,0,,,
Raw,1732151491000,18016000000,,704368.1198944638,-1416186690984999936,0.0,144.50837589021936,1307.7938797477825,0.0,0,30,0.0,16431,349908927343499,396,21.15399932861328,872.7068534891042,0.14999,16,0.0,0.0,1575420030,,,,0,7.290379161325019,1,6.0,21.15399932861328,0.0,0.0,0.0,66.7128,C,30375090000000,
Raw,1732151491000,18016000000,,704368.1198944638,-1416186690984999936,0.0,144.50837589021936,1307.7938797477825,0.0,0,7,0.0,16431,349908918540589,487,20.90999984741211,1013.1547340341881,0.14999,16,0.0,0.0,1575420030,,,,0,3.7972676911144823,1,6.0,20.90999984741211,0.0,0.0,0.0,66.7128,C,30375090000000,
Raw,1732151491000,18016000000,,704368.1198944638,-1416186690984999936,0.0,144.50837589021936,1307.7938797477825,0.0,0,13,0.0,16431,349908930014693,797,22.332000732421875,714.9626904225019,0.14999,16,0.0,0.0,1575420030,,,,0,6.056266128576916,1,6.0,22.332000732421875,0.0,0.0,0.0,66.7128,C,30375090000000,
Raw,1732151491000,18016000000,,704368.1198944638,-1416186690984999936,0.0,144.50837589021936,1307.7938797477825,0.0,0,11,0.0,17,55880,487,22.299999237060547,-82.3054611312995,0.14999,16,0.0,0.0,1602000000,,,,0,2.981990085182778,3,6.0,22.299999237060547,0.0,0.0,108.67631620913818,66.7128,C,30375090000000,
Raw,1732151491000,18016000000,,704368.1198944638,-1416186690984999936,0.0,144.50837589021936,1307.7938797477825,0.0,0,8,0.0,17,557,487,5.0,935.0523890929336,0.14999,16,0.0,0.0,1605374980,,,,0,7.498774732165998,3,6.0,20.0,0.0,0.0,108.67631620913818,66.7128,C,30375090000000,
Fix,FLP,37.4246761000,-122.1584852000,3.0838833219908057,0.2121781,16.072,0.00000035764427,1732151491242,3.3,179.9,30375090000000,17.502193,0,,,
Status,1732151491000,27,0,1,17,1575420030,0.00,101.0,80.0,0,0,0,0.0
Status,1732151491000,27,1,1,22,1575420030,0.00,6.0,67.0,0,0,0,0.0
Status,1732151491000,27,2,1,19,1575420030,0.00,199.0,57.0,0,0,0,0.0
Status,1732151491000,27,3,1,14,1575420030,0.00,49.0,55.0,0,0,0,0.0
Status,1732151491000,27,4,1,13,1575420030,27.30,239.0,50.0,1,0,0,22.3
Status,1732151491000,27,5,1,30,1575420030,26.30,129.0,39.0,1,0,0,21.3
Status,1732151491000,27,6,1,15,1575420030,0.00,278.0,30.0,0,0,0,0.0
Status,1732151491000,27,7,1,2,1575420030,0.00,50.0,18.0,0,0,0,0.0
Status,1732151491000,27,8,1,24,1575420030,0.00,313.0,14.0,0,0,0,0.0
Status,1732151491000,27,9,1,6,1575420030,0.00,163.0,9.0,0,0,0,0.0
Status,1732151491000,27,10,1,7,1575420030,26.00,130.0,7.0,1,0,0,21.0
Status,1732151491000,27,11,1,21,1575420030,0.00,36.0,6.0,0,0,0,0.0
Status,1732151491000,27,12,3,20,1602000000,0.00,119.0,50.0,0,0,0,0.0
Status,1732151491000,27,13,3,9,1602000000,0.00,77.0,35.0,0,0,0,0.0
Status,1732151491000,27,14,3,19,1602000000,0.00,36.0,26.0,0,0,0,0.0
Status,1732151491000,27,15,3,11,1602000000,29.00,307.0,26.0,0,0,0,24.0
Status,1732151491000,27,16,3,8,1602000000,23.70,250.0,25.0,1,0,0,18.7
Status,1732151491000,27,17,3,17,1602000000,30.20,0.0,0.0,0,0,0,25.2
Status,1732151491000,27,18,6,21,1575420030,0.00,337.0,68.0,0,0,0,0.0
Status,1732151491000,27,19,6,19,1575420030,0.00,246.0,48.0,0,0,0,0.0
Status,1732151491000,27,20,6,27,1575420030,0.00,62.0,36.0,0,0,0,0.0
Status,1732151491000,27,21,6,29,1575420030,0.00,192.0,27.0,0,0,0,0.0
Status,1732151491000,27,22,6,13,1575420030,0.00,122.0,26.0,0,0,0,0.0
Status,1732151491000,27,23,6,15,1575420030,0.00,65.0,23.0,0,0,0,0.0
Status,1732151491000,27,24,6,4,1575420030,0.00,313.0,22.0,0,0,0,0.0
Status,1732151491000,27,25,6,26,1575420030,0.00,168.0,4.0,0,0,0,0.0
Status,1732151491000,27,26,6,6,1575420030,0.00,328.0,3.0,0,0,0,0.0
Fix,GPS,37.4246600000,-122.1584266667,23.7,0.0,6.1,0.0,1732151492000,3.3,179.9,30376090000000,80.1,0,,,
Raw,1732151492000,19016000000,,704365.8266413093,-1416186690984999936,0.0,143.97461022457864,1302.8053972513892,0.0,0,30,0.0,16431,349909927340598,396,21.27199935913086,871.5584943572121,0.14999,16,0.0,0.0,1575420030,,,,0,7.847357736098625,1,6.0,21.27199935913086,0.0,0.0,0.0,66.7128,C,30376090000000,
Raw,1732151492000,19016000000,,704365.8266413093,-1416186690984999936,0.0,143.97461022457864,1302.8053972513892,0.0,0,7,0.0,16431,349909918537204,396,21.003000259399414,1011.3006715600579,0.14999,16,0.0,0.0,1575420030,,,,0,6.756607103122759,1,6.0,21.003000259399414,0.0,0.0,0.0,66.7128,C,30376090000000,
Raw,1732151492000,19016000000,,704365.8266413093,-1416186690984999936,0.0,143.97461022457864,1302.8053972513892,0.0,0,13,0.0,16431,349909930012306,487,22.250999450683594,712.5655755212867,0.14999,16,0.0,0.0,1575420030,,,,0,3.446274900786527,1,6.0,22.250999450683594,0.0,0.0,0.0,66.7128,C,30376090000000,
Raw,1732151492000,19016000000,,704365.8266413093,-1416186690984999936,0.0,143.97461022457864,1302.8053972513892,0.0,0,11,0.0,17,56157,316,18.700000762939453,-84.0119382794258,0.14999,16,0.0,0.0,1602000000,,,,0,9.783826107248979,3,6.0,18.700000762939453,0.0,0.0,108.67631620913818,66.7128,C,30376090000000,
Raw,1732151492000,19016000000,,704365.8266413093,-1416186690984999936,0.0,143.97461022457864,1302.8053972513892,0.0,0,8,0.0,17,997438,487,5.0,936.0916026491468,0.14999,16,0.0,0.0,1605374980,,,,0,2.1734169440706137,3,6.0,19.0,0.0,0.0,108.67631620913818,66.7128,C,30376090000000,
Fix,FLP,37.4246699000,-122.1584607000,3.0838833219908057,0.16415212,16.072,0.00000062188394,1732151492242,3.3,179.9,30376090000000,17.512201,0,,,
Status,1732151492000,27,0,1,17,1575420030,0.00,101.0,80.0,0,0,0,0.0
Status,1732151492000,27,1,1,22,1575420030,0.00,6.0,67.0,0,0,0,0.0
Status,1732151492000,27,2,1,19,1575420030,23.00,199.0,57.0,1,0,0,18.0
Status,1732151492000,27,3,1,14,1575420030,0.00,49.0,55.0,0,0,0,0.0
Status,1732151492000,27,4,1,13,1575420030,27.10,239.0,50.0,1,0,0,22.1
Status,1732151492000,27,5,1,30,1575420030,26.20,129.0,39.0,1,0,0,21.2
Status,1732151492000,27,6,1,15,1575420030,19.60,278.0,30.0,1,0,0,14.6
Status,1732151492000,27,7,1,2,1575420030,0.00,50.0,18.0,0,0,0,0.0
Status,1732151492000,27,8,1,24,1575420030,0.00,313.0,14.0,0,0,0,0.0
Status,1732151492000,27,9,1,6,1575420030,0.00,163.0,9.0,0,0,0,0.0
Status,1732151492000,27,10,1,7,1575420030,26.10,130.0,7.0,1,0,0,21.1
Status,1732151492000,27,11,1,21,1575420030,0.00,36.0,6.0,0,0,0,0.0
Status,1732151492000,27,12,3,20,1602000000,0.00,119.0,50.0,0,0,0,0.0
Status,1732151492000,27,13,3,9,1602000000,0.00,77.0,35.0,0,0,0,0.0
Status,1732151492000,27,14,3,19,1602000000,0.00,36.0,26.0,0,0,0,0.0
Status,1732151492000,27,15,3,11,1602000000,26.10,307.0,26.0,0,0,0,21.1
Status,1732151492000,27,16,3,8,1602000000,23.00,250.0,25.0,1,0,0,18.0
Status,1732151492000,27,17,3,17,1602000000,25.00,0.0,0.0,0,0,0,20.0
Status,1732151492000,27,18,6,21,1575420030,0.00,337.0,68.0,0,0,0,0.0
Status,1732151492000,27,19,6,19,1575420030,0.00,246.0,48.0,0,0,0,0.0
Status,1732151492000,27,20,6,27,1575420030,0.00,62.0,36.0,0,0,0,0.0
Status,1732151492000,27,21,6,29,1575420030,0.00,192.0,27.0,0,0,0,0.0
Status,1732151492000,27,22,6,13,1575420030,0.00,122.0,26.0,0,0,0,0.0
Status,1732151492000,27,23,6,15,1575420030,0.00,65.0,23.0,0,0,0,0.0
Status,1732151492000,27,24,6,4,1575420030,0.00,313.0,22.0,0,0,0,0.0
Status,1732151492000,27,25,6,26,1575420030,0.00,168.0,4.0,0,0,0,0.0
Status,1732151492000,27,26,6,6,1575420030,0.00,328.0,3.0,0,0,0,0.0
Fix,GPS,37.4246616667,-122.1583933333,23.500000000000004,0.0,6.3,0.0,1732151493000,3.2,179.9,30377090000000,76.9,0,,,
Raw,1732151493000,20016000000,,996551.5043076901,-1416186690984999936,0.0,139.65627191892668,1299.380062326078,0.0,0,30,0.0,16431,349910927337689,487,21.249000549316406,871.2315200239224,0.14999,16,0.0,0.0,1575420030,,,,0,3.623544107412629,1,6.0,21.249000549316406,0.0,0.0,0.0,66.7128,C,30377090000000,
Raw,1732151493000,20016000000,,996551.5043076901,-1416186690984999936,0.0,139.65627191892668,1299.380062326078,0.0,0,7,0.0,16431,349910918533820,396,21.106000900268555,1010.8004073343028,0.14999,16,0.0,0.0,1575420030,,,,0,7.174565583707112,1,6.0,21.106000900268555,0.0,0.0,0.0,66.7128,C,30377090000000,
Raw,1732151493000,20016000000,,996551.5043076901,-1416186690984999936,0.0,139.65627191892668,1299.380062326078,0.0,0,19,0.0,16431,349910930778044,797,17.988000869750977,-32.98965676694114,0.14999,16,0.0,0.0,1575420030,,,,0,0.0,1,6.0,17.988000869750977,0.0,0.0,0.0,66.7128,C,30377090000000,
Raw,1732151493000,20016000000,,996551.5043076901,-1416186690984999936,0.0,139.65627191892668,1299.380062326078,0.0,0,13,0.0,16431,349910930009940,487,22.145999908447266,712.0415245864318,0.14999,16,0.0,0.0,1575420030,,,,0,2.501225267834001,1,6.0,22.145999908447266,0.0,0.0,0.0,66.7128,C,30377090000000,
Raw,1732151493000,20016000000,,996551.5043076901,-1416186690984999936,0.0,139.65627191892668,1299.380062326078,0.0,0,11,0.0,17,56439,487,18.0,-85.73120795255747,0.14999,16,0.0,0.0,1602000000,,,,0,5.866760328745245,3,6.0,18.0,0.0,0.0,105.87792091586954,66.7128,C,30377090000000,
Raw,1732151493000,20016000000,,996551.5043076901,-1416186690984999936,0.0,139.65627191892668,1299.380062326078,0.0,0,8,0.0,17,994316,487,5.0,935.0914154509278,0.14999,16,0.0,0.0,1605374980,,,,0,0.9176003468815042,3,6.0,20.0,0.0,0.0,105.87792091586954,66.7128,C,30377090000000,
Raw,1732151493000,20016000000,,996551.5043076901,-1416186690984999936,0.0,139.65627191892668,1299.380062326078,0.0,0,15,0.0,16431,349910925743557,797,14.600000381469727,510.6855453873433,0.14999,16,0.0,0.0,1575420030,,,,0,0.0,1,6.0,14.600000381469727,0.0,0.0,0.0,66.7128,C,30377090000000,
Fix,FLP,37.4246672000,-122.1584337000,3.0838833219908057,0.13875376,11.316,0.0000008197559,1732151493242,3.2,179.9,30377090000000,18.00159,0,,,
Fix,FLP,37.4246655000,-122.1584193000,3.0838833219908057,0.12372013,10.6,0.0000005930623,1732151493789,3.2,179.9,30377637000000,17.658983,0,,,
Fix,NLP,37.4257139000,-122.1580982000,5.400000095367432,,104.1,,1732151493789,,,30377637000000,26.686808,0,,,
Status,1732151493000,27,0,1,17,1575420030,0.00,101.0,80.0,0,0,0,0.0
Status,1732151493000,27,1,1,22,1575420030,0.00,6.0,67.0,0,0,0,0.0
Status,1732151493000,27,2,1,19,1575420030,23.00,199.0,57.0,1,0,0,18.0
Status,1732151493000,27,3,1,14,1575420030,0.00,49.0,55.0,0,0,0,0.0
Status,1732151493000,27,4,1,13,1575420030,27.00,239.0,50.0,1,0,0,22.0
Status,1732151493000,27,5,1,30,1575420030,26.20,129.0,39.0,1,0,0,21.2
Status,1732151493000,27,6,1,15,1575420030,0.00,278.0,30.0,0,0,0,0.0
Status,1732151493000,27,7,1,2,1575420030,0.00,50.0,18.0,0,0,0,0.0
Status,1732151493000,27,8,1,24,1575420030,0.00,313.0,14.0,0,0,0,0.0
Status,1732151493000,27,9,1,6,1575420030,0.00,163.0,9.0,0,0,0,0.0
Status,1732151493000,27,10,1,7,1575420030,29.00,130.0,7.0,1,0,0,24.0
Status,1732151493000,27,11,1,21,1575420030,0.00,36.0,6.0,0,0,0,0.0
Status,1732151493000,27,12,3,20,1602000000,0.00,119.0,50.0,0,0,0,0.0
Status,1732151493000,27,13,3,9,1602000000,0.00,77.0,35.0,0,0,0,0.0
Status,1732151493000,27,14,3,19,1602000000,0.00,36.0,26.0,0,0,0,0.0
Status,1732151493000,27,15,3,11,1602000000,23.40,307.0,26.0,0,0,0,18.4
Status,1732151493000,27,16,3,8,1602000000,23.60,250.0,25.0,1,0,0,18.6
Status,1732151493000,27,17,3,17,1602000000,24.00,0.0,0.0,0,0,0,19.0
Status,1732151493000,27,18,6,21,1575420030,0.00,337.0,68.0,0,0,0,0.0
Status,1732151493000,27,19,6,19,1575420030,0.00,246.0,48.0,0,0,0,0.0
Status,1732151493000,27,20,6,27,1575420030,0.00,62.0,36.0,0,0,0,0.0
Status,1732151493000,27,21,6,29,1575420030,0.00,192.0,27.0,0,0,0,0.0
Status,1732151493000,27,22,6,13,1575420030,0.00,122.0,26.0,0,0,0,0.0
Status,1732151493000,27,23,6,15,1575420030,0.00,65.0,23.0,0,0,0,0.0
Status,1732151493000,27,24,6,4,1575420030,0.00,313.0,22.0,0,0,0,0.0
Status,1732151493000,27,25,6,26,1575420030,0.00,168.0,4.0,0,0,0,0.0
Status,1732151493000,27,26,6,6,1575420030,0.00,328.0,3.0,0,0,0,0.0
Fix,GPS,37.4246633333,-122.1583750000,23.599999999999998,0.0,6.4,0.0,1732151494000,3.2,179.9,30378090000000,78.0,0,,,
Raw,1732151494000,21016000000,,705810.1070541274,-1416186690984999936,0.0,140.45064725840137,1296.0799580599426,0.0,0,30,0.0,16431,349911927334784,487,21.226999282836914,870.8366234861328,0.14999,16,0.0,0.0,1575420030,,,,0,3.623544107412629,1,6.0,21.226999282836914,0.0,0.0,0.0,66.7128,C,30378090000000,
Raw,1732151494000,21016000000,,705810.1070541274,-1416186690984999936,0.0,140.45064725840137,1296.0799580599426,0.0,0,7,0.0,16431,349911918530446,487,23.966999053955078,1010.6902079710514,0.14999,16,0.0,0.0,1575420030,,,,0,8.521825181113625,1,6.0,23.966999053955078,0.0,0.0,0.0,66.7128,C,30378090000000,
Raw,1732151494000,21016000000,,705810.1070541274,-1416186690984999936,0.0,140.45064725840137,1296.0799580599426,0.0,0,19,0.0,16431,349911930778152,797,17.988000869750977,-32.52971844645681,0.14999,16,0.0,0.0,1575420030,,,,0,0.0,1,6.0,17.988000869750977,0.0,0.0,0.0,66.7128,C,30378090000000,
Raw,1732151494000,21016000000,,705810.1070541274,-1416186690984999936,0.0,140.45064725840137,1296.0799580599426,0.0,0,13,0.0,16431,349911930007567,797,22.04599952697754,710.5870974085448,0.14999,16,0.0,0.0,1575420030,,,,0,2.501225267834001,1,6.0,22.04599952697754,0.0,0.0,0.0,66.7128,C,30378090000000,
Raw,1732151494000,21016000000,,705810.1070541274,-1416186690984999936,0.0,140.45064725840137,1296.0799580599426,0.0,0,11,0.0,17,56724,487,18.600000381469727,-85.9967899091867,0.14999,16,0.0,0.0,1602000000,,,,0,1.558229667959854,3,6.0,18.600000381469727,0.0,0.0,105.87792091586954,66.7128,C,30378090000000,
Raw,1732151494000,21016000000,,705810.1070541274,-1416186690984999936,0.0,140.45064725840137,1296.0799580599426,0.0,0,8,0.0,17,991188,797,5.0,932.7546666744888,0.14999,16,0.0,0.0,1605374980,,,,0,2.004753593333359,3,6.0,16.0,0.0,0.0,105.87792091586954,66.7128,C,30378090000000,
Fix,FLP,37.4246651000,-122.1584052000,3.0004314994365355,0.11631963,6.185,0.0000007090129,1732151494242,3.2,179.9,30378090000000,20.499195,0,,,
Status,1732151494000,27,0,1,17,1575420030,0.00,101.0,80.0,0,0,0,0.0
Status,1732151494000,27,1,1,22,1575420030,0.00,6.0,67.0,0,0,0,0.0
Status,1732151494000,27,2,1,19,1575420030,23.00,199.0,57.0,1,0,0,18.0
Status,1732151494000,27,3,1,14,1575420030,0.00,49.0,55.0,0,0,0,0.0
Status,1732151494000,27,4,1,13,1575420030,27.00,239.0,50.0,1,0,0,22.0
Status,1732151494000,27,5,1,30,1575420030,26.30,129.0,39.0,1,0,0,21.3
Status,1732151494000,27,6,1,15,1575420030,0.00,278.0,30.0,0,0,0,0.0
Status,1732151494000,27,7,1,2,1575420030,0.00,50.0,18.0,0,0,0,0.0
Status,1732151494000,27,8,1,24,1575420030,0.00,313.0,14.0,0,0,0,0.0
Status,1732151494000,27,9,1,6,1575420030,0.00,163.0,9.0,0,0,0,0.0
Status,1732151494000,27,10,1,7,1575420030,29.00,130.0,7.0,1,0,0,24.0
Status,1732151494000,27,11,1,21,1575420030,0.00,36.0,6.0,0,0,0,0.0
Status,1732151494000,27,12,3,20,1602000000,0.00,119.0,50.0,0,0,0,0.0
Status,1732151494000,27,13,3,9,1602000000,0.00,77.0,35.0,0,0,0,0.0
Status,1732151494000,27,14,3,19,1602000000,0.00,36.0,26.0,0,0,0,0.0
Status,1732151494000,27,15,3,11,1602000000,21.30,307.0,26.0,0,0,0,16.3
Status,1732151494000,27,16,3,8,1602000000,0.00,250.0,25.0,0,0,0,0.0
Status,1732151494000,27,17,3,17,1602000000,24.00,0.0,0.0,0,0,0,19.0
Status,1732151494000,27,18,6,21,1575420030,0.00,337.0,68.0,0,0,0,0.0
Status,1732151494000,27,19,6,19,1575420030,0.00,246.0,48.0,0,0,0,0.0
Status,1732151494000,27,20,6,27,1575420030,0.00,62.0,36.0,0,0,0,0.0
Status,1732151494000,27,21,6,29,1575420030,0.00,192.0,27.0,0,0,0,0.0
Status,1732151494000,27,22,6,13,1575420030,0.00,122.0,26.0,0,0,0,0.0
Status,1732151494000,27,23,6,15,1575420030,0.00,65.0,23.0,0,0,0,0.0
Status,1732151494000,27,24,6,4,1575420030,0.00,313.0,22.0,0,0,0,0.0
Status,1732151494000,27,25,6,26,1575420030,0.00,168.0,4.0,0,0,0,0.0
Status,1732151494000,27,26,6,6,1575420030,0.00,328.0,3.0,0,0,0,0.0
Fix,GPS,37.4246666667,-122.1583600000,23.599999999999998,0.0,6.5,0.0,1732151495000,3.2,179.9,30379090000000,84.9,0,,,
Raw,1732151495000,22016000000,,705746.6777566499,-1416186690984999936,0.0,250.1268052605319,1293.80063934848,0.0,0,30,0.0,16431,349912927331875,396,21.304000854492188,870.5495104739517,0.14999,16,0.0,0.0,1575420030,,,,0,6.756607103122759,1,6.0,21.304000854492188,0.0,0.0,0.0,66.7128,C,30379090000000,
Raw,1732151495000,22016000000,,705746.6777566499,-1416186690984999936,0.0,250.1268052605319,1293.80063934848,0.0,0,7,0.0,16431,349912918527060,396,23.957000732421875,1009.5338579915712,0.14999,16,0.0,0.0,1575420030,,,,0,8.2685743077351,1,6.0,23.957000732421875,0.0,0.0,0.0,66.7128,C,30379090000000,
Raw,1732151495000,22016000000,,705746.6777566499,-1416186690984999936,0.0,250.1268052605319,1293.80063934848,0.0,0,19,0.0,16431,349912930778259,1797,17.988000869750977,-33.190403583386875,0.14999,16,0.0,0.0,1575420030,,,,0,0.0,1,6.0,17.988000869750977,0.0,0.0,0.0,66.7128,C,30379090000000,
Raw,1732151495000,22016000000,,705746.6777566499,-1416186690984999936,0.0,250.1268052605319,1293.80063934848,0.0,0,13,0.0,16431,349912930005197,797,21.951000213623047,710.2449776315704,0.14999,16,0.0,0.0,1575420030,,,,0,2.501225267834001,1,6.0,21.951000213623047,0.0,0.0,0.0,66.7128,C,30379090000000,
Raw,1732151495000,22016000000,,705746.6777566499,-1416186690984999936,0.0,250.1268052605319,1293.80063934848,0.0,0,11,0.0,17,57012,797,17.0,-86.32172004432296,0.14999,16,0.0,0.0,1602000000,,,,0,0.0,3,6.0,17.0,0.0,0.0,105.87792091586954,66.7128,C,30379090000000,
Fix,FLP,37.4246663000,-122.1583889000,2.812610431971617,0.11467218,6.242,0.0000006660693,1732151495242,3.2,179.9,30379090000000,11.554675,0,,,
Status,1732151495000,27,0,1,17,1575420030,0.00,101.0,80.0,0,0,0,0.0
Status,1732151495000,27,1,1,22,1575420030,0.00,6.0,67.0,0,0,0,0.0
Status,1732151495000,27,2,1,19,1575420030,17.50,199.0,57.0,1,0,0,12.5
Status,1732151495000,27,3,1,14,1575420030,0.00,49.0,55.0,0,0,0,0.0
Status,1732151495000,27,4,1,13,1575420030,19.50,239.0,50.0,1,0,0,14.5
Status,1732151495000,27,5,1,30,1575420030,26.40,129.0,39.0,1,0,0,21.4
Status,1732151495000,27,6,1,15,1575420030,21.30,278.0,30.0,1,0,0,16.3
Status,1732151495000,27,7,1,2,1575420030,0.00,50.0,18.0,0,0,0,0.0
Status,1732151495000,27,8,1,24,1575420030,0.00,313.0,14.0,0,0,0,0.0
Status,1732151495000,27,9,1,6,1575420030,0.00,163.0,9.0,0,0,0,0.0
Status,1732151495000,27,10,1,7,1575420030,30.70,130.0,7.0,1,0,0,25.7
Status,1732151495000,27,11,1,21,1575420030,0.00,36.0,6.0,0,0,0,0.0
Status,1732151495000,27,12,3,20,1602000000,0.00,119.0,50.0,0,0,0,0.0
Status,1732151495000,27,13,3,9,1602000000,0.00,77.0,35.0,0,0,0,0.0
Status,1732151495000,27,14,3,19,1602000000,0.00,36.0,26.0,0,0,0,0.0
Status,1732151495000,27,15,3,11,1602000000,22.20,307.0,26.0,0,0,0,17.2
Status,1732151495000,27,16,3,8,1602000000,0.00,250.0,25.0,0,0,0,0.0
Status,1732151495000,27,17,3,17,1602000000,20.90,0.0,0.0,0,0,0,15.9
Status,1732151495000,27,18,6,21,1575420030,0.00,337.0,68.0,0,0,0,0.0
Status,1732151495000,27,19,6,19,1575420030,0.00,246.0,48.0,0,0,0,0.0
Status,1732151495000,27,20,6,27,1575420030,0.00,62.0,36.0,0,0,0,0.0
Status,1732151495000,27,21,6,29,1575420030,0.00,192.0,27.0,0,0,0,0.0
Status,1732151495000,27,22,6,13,1575420030,0.00,122.0,26.0,0,0,0,0.0
Status,1732151495000,27,23,6,15,1575420030,0.00,65.0,23.0,0,0,0,0.0
Status,1732151495000,27,24,6,4,1575420030,0.00,313.0,22.0,0,0,0,0.0
Status,1732151495000,27,25,6,26,1575420030,0.00,168.0,4.0,0,0,0,0.0
Status,1732151495000,27,26,6,6,1575420030,0.00,328.0,3.0,0,0,0,0.0
Fix,GPS,37.4246783333,-122.1583416667,23.599999999999998,0.0,6.6,0.0,1732151496000,3.1,179.9,30380090000000,83.8,0,,,
Raw,1732151496000,23016000000,,705720.3574647632,-1416186690984999936,0.0,247.29268619149028,1290.4732386797289,0.0,0,30,0.0,16431,349913927328974,487,21.361000061035156,869.8217858424298,0.14999,16,0.0,0.0,1575420030,,,,0,6.252936182757782,1,6.0,21.361000061035156,0.0,0.0,0.0,66.7128,C,30380090000000,
Raw,1732151496000,23016000000,,705720.3574647632,-1416186690984999936,0.0,247.29268619149028,1290.4732386797289,0.0,0,7,0.0,16431,349913918523693,487,25.679000854492188,1009.14081979043,0.14999,16,0.0,0.0,1575420030,,,,0,10.983079813304517,1,6.0,25.679000854492188,0.0,0.0,0.0,66.7128,C,30380090000000,
Raw,1732151496000,23016000000,,705720.3574647632,-1416186690984999936,0.0,247.29268619149028,1290.4732386797289,0.0,0,19,0.0,16431,349913930778409,1797,12.5,-34.511309273084905,0.14999,16,0.0,0.0,1575420030,,,,0,0.0,1,6.0,12.5,0.0,0.0,0.0,66.7128,C,30380090000000,
Raw,1732151496000,23016000000,,705720.3574647632,-1416186690984999936,0.0,247.29268619149028,1290.4732386797289,0.0,0,13,0.0,16431,349913930002809,797,14.5,709.7094514679114,0.14999,16,0.0,0.0,1575420030,,,,0,0.0,1,6.0,14.5,0.0,0.0,0.0,66.7128,C,30380090000000,
Raw,1732151496000,23016000000,,705720.3574647632,-1416186690984999936,0.0,247.29268619149028,1290.4732386797289,0.0,0,11,0.0,17,57298,797,17.0,-86.84840657382952,0.14999,16,0.0,0.0,1602000000,,,,0,0.0,3,6.0,17.0,0.0,0.0,105.87792091586954,66.7128,C,30380090000000,
Raw,1732151496000,23016000000,,705720.3574647632,-1416186690984999936,0.0,247.29268619149028,1290.4732386797289,0.0,0,15,0.0,16431,349913925738447,487,16.30299949645996,507.6814512783375,0.14999,16,0.0,0.0,1575420030,,,,0,0.0,1,6.0,16.30299949645996,0.0,0.0,0.0,66.7128,C,30380090000000,
Fix,FLP,37.4246717000,-122.1583712000,2.896062254525887,0.13225715,6.328,0.0000005719018,1732151496242,3.1,179.9,30380090000000,11.145375,0,,,
Status,1732151496000,26,0,1,17,1575420030,0.00,101.0,80.0,0,0,0,0.0
Status,1732151496000,26,1,1,22,1575420030,0.00,6.0,67.0,0,0,0,0.0
Status,1732151496000,26,2,1,19,1575420030,17.50,199.0,57.0,1,0,0,12.5
Status,1732151496000,26,3,1,14,1575420030,0.00,49.0,55.0,0,0,0,0.0
Status,1732151496000,26,4,1,13,1575420030,19.50,239.0,50.0,1,0,0,14.5
Status,1732151496000,26,5,1,30,1575420030,22.80,129.0,39.0,1,0,0,17.8
Status,1732151496000,26,6,1,15,1575420030,23.30,278.0,30.0,1,0,0,18.3
Status,1732151496000,26,7,1,2,1575420030,19.70,50.0,18.0,1,0,0,14.700001
Status,1732151496000,26,8,1,24,1575420030,0.00,313.0,14.0,0,0,0,0.0
Status,1732151496000,26,9,1,6,1575420030,0.00,163.0,9.0,0,0,0,0.0
Status,1732151496000,26,10,1,7,1575420030,25.90,130.0,7.0,1,0,0,20.9
Status,1732151496000,26,11,1,21,1575420030,0.00,36.0,6.0,0,0,0,0.0
Status,1732151496000,26,12,3,20,1602000000,0.00,119.0,50.0,0,0,0,0.0
Status,1732151496000,26,13,3,9,1602000000,0.00,77.0,35.0,0,0,0,0.0
Status,1732151496000,26,14,3,19,1602000000,0.00,36.0,26.0,0,0,0,0.0
Status,1732151496000,26,15,3,11,1602000000,28.90,307.0,26.0,0,0,0,23.9
Status,1732151496000,26,16,3,8,1602000000,0.00,250.0,25.0,0,0,0,0.0
Status,1732151496000,26,17,6,21,1575420030,0.00,337.0,68.0,0,0,0,0.0
Status,1732151496000,26,18,6,19,1575420030,0.00,246.0,48.0,0,0,0,0.0
Status,1732151496000,26,19,6,27,1575420030,0.00,62.0,36.0,0,0,0,0.0
Status,1732151496000,26,20,6,29,1575420030,0.00,192.0,27.0,0,0,0,0.0
Status,1732151496000,26,21,6,13,1575420030,0.00,122.0,26.0,0,0,0,0.0
Status,1732151496000,26,22,6,15,1575420030,0.00,65.0,23.0,0,0,0,0.0
Status,1732151496000,26,23,6,4,1575420030,0.00,313.0,22.0,0,0,0,0.0
Status,1732151496000,26,24,6,26,1575420030,0.00,168.0,4.0,0,0,0,0.0
Status,1732151496000,26,25,6,6,1575420030,0.00,328.0,3.0,0,0,0,0.0
Fix,GPS,37.4246600000,-122.1583500000,23.599999999999998,0.0,6.1,0.0,1732151497000,2.6,162.4,30381090000000,69.0,0,,,
Raw,1732151497000,24016000000,,705694.8189637245,-1416186690984999936,0.0,163.68556288066267,1291.2814279174843,0.0,0,30,0.0,16431,349914927326072,797,17.756999969482422,869.9059684926033,0.14999,16,0.0,0.0,1575420030,,,,0,0.0,1,6.0,17.756999969482422,0.0,0.0,0.0,66.7128,C,30381090000000,
Raw,1732151497000,24016000000,,705694.8189637245,-1416186690984999936,0.0,163.68556288066267,1291.2814279174843,0.0,0,7,0.0,16431,349914918520325,487,20.90999984741211,1009.0437217005499,0.14999,16,0.0,0.0,1575420030,,,,0,3.7972676911144823,1,6.0,20.90999984741211,0.0,0.0,0.0,66.7128,C,30381090000000,
Raw,1732151497000,24016000000,,705694.8189637245,-1416186690984999936,0.0,163.68556288066267,1291.2814279174843,0.0,0,19,0.0,16431,349914930778525,1797,12.5,-35.06509359431452,0.14999,16,0.0,0.0,1575420030,,,,0,0.0,1,6.0,12.5,0.0,0.0,0.0,66.7128,C,30381090000000,
Raw,1732151497000,24016000000,,705694.8189637245,-1416186690984999936,0.0,163.68556288066267,1291.2814279174843,0.0,0,13,0.0,16431,349914930000439,797,14.5,710.044091439876,0.14999,16,0.0,0.0,1575420030,,,,0,0.0,1,6.0,14.5,0.0,0.0,0.0,66.7128,C,30381090000000,
Raw,1732151497000,24016000000,,705694.8189637245,-1416186690984999936,0.0,163.68556288066267,1291.2814279174843,0.0,0,2,0.0,16431,349914919816184,797,14.699999809265137,685.9385382296274,0.14999,16,0.0,0.0,1575420030,,,,0,0.0,1,6.0,14.699999809265137,0.0,0.0,0.0,66.7128,C,30381090000000,
Raw,1732151497000,24016000000,,705694.8189637245,-1416186690984999936,0.0,163.68556288066267,1291.2814279174843,0.0,0,11,0.0,17,57586,396,22.0,-86.0812205742221,0.14999,16,0.0,0.0,1602000000,,,,0,9.659295090436352,3,6.0,22.0,0.0,0.0,105.87792091586954,66.7128,C,30381090000000,
Raw,1732151497000,24016000000,,705694.8189637245,-1416186690984999936,0.0,163.68556288066267,1291.2814279174843,0.0,0,15,0.0,16431,349914925736772,487,18.291000366210938,508.0638969605826,0.14999,16,0.0,0.0,1575420030,,,,0,0.0,1,6.0,18.291000366210938,0.0,0.0,0.0,66.7128,C,30381090000000,
Fix,FLP,37.4246671000,-122.1583622000,5.400000095367432,0.10194495,6.328,0.0000002936237,1732151497243,2.6,162.4,30381090000000,15.524837,0,,,
Status,1732151497000,27,0,1,17,1575420030,0.00,101.0,80.0,0,0,0,0.0
Status,1732151497000,27,1,1,22,1575420030,0.00,6.0,67.0,0,0,0,0.0
Status,1732151497000,27,2,1,19,1575420030,18.90,199.0,57.0,1,0,0,13.9
Status,1732151497000,27,3,1,14,1575420030,0.00,49.0,55.0,0,0,0,0.0
Status,1732151497000,27,4,1,13,1575420030,19.50,239.0,50.0,1,0,0,14.5
Status,1732151497000,27,5,1,30,1575420030,22.80,129.0,39.0,1,0,0,17.8
Status,1732151497000,27,6,1,15,1575420030,0.00,278.0,30.0,0,0,0,0.0
Status,1732151497000,27,7,1,2,1575420030,19.70,50.0,18.0,1,0,0,14.700001
Status,1732151497000,27,8,1,24,1575420030,0.00,313.0,14.0,0,0,0,0.0
Status,1732151497000,27,9,1,6,1575420030,0.00,163.0,9.0,0,0,0,0.0
Status,1732151497000,27,10,1,7,1575420030,25.90,130.0,7.0,1,0,0,20.9
Status,1732151497000,27,11,1,21,1575420030,0.00,36.0,6.0,0,0,0,0.0
Status,1732151497000,27,12,3,20,1602000000,0.00,119.0,50.0,0,0,0,0.0
Status,1732151497000,27,13,3,9,1602000000,0.00,77.0,35.0,0,0,0,0.0
Status,1732151497000,27,14,3,19,1602000000,0.00,36.0,26.0,0,0,0,0.0
Status,1732151497000,27,15,3,11,1602000000,25.10,307.0,26.0,0,0,0,20.1
Status,1732151497000,27,16,3,8,1602000000,0.00,250.0,25.0,0,0,0,0.0
Status,1732151497000,27,17,3,17,1602000000,23.80,0.0,0.0,0,0,0,18.8
Status,1732151497000,27,18,6,21,1575420030,0.00,337.0,68.0,0,0,0,0.0
Status,1732151497000,27,19,6,19,1575420030,0.00,246.0,48.0,0,0,0,0.0
Status,1732151497000,27,20,6,27,1575420030,0.00,62.0,36.0,0,0,0,0.0
Status,1732151497000,27,21,6,29,1575420030,0.00,192.0,27.0,0,0,0,0.0
Status,1732151497000,27,22,6,13,1575420030,0.00,122.0,26.0,0,0,0,0.0
Status,1732151497000,27,23,6,15,1575420030,0.00,65.0,23.0,0,0,0,0.0
Status,1732151497000,27,24,6,4,1575420030,0.00,313.0,22.0,0,0,0,0.0
Status,1732151497000,27,25,6,26,1575420030,0.00,168.0,4.0,0,0,0,0.0
Status,1732151497000,27,26,6,6,1575420030,0.00,328.0,3.0,0,0,0,0.0
Fix,GPS,37.4246416667,-122.1583600000,23.599999999999998,0.0,5.9,0.0,1732151498000,2.3,137.2,30382090000000,69.6,0,,,
Raw,1732151498000,25016000000,,705676.368699709,-1416186690984999936,0.0,163.23804360773943,1292.5734944975784,0.0,0,30,0.0,16431,349915927323169,487,17.756999969482422,870.7303266298431,0.14999,16,0.0,0.0,1575420030,,,,0,0.0,1,6.0,17.756999969482422,0.0,0.0,0.0,66.7128,C,30382090000000,
Raw,1732151498000,25016000000,,705676.368699709,-1416186690984999936,0.0,163.23804360773943,1292.5734944975784,0.0,0,7,0.0,16431,349915918516957,487,20.90999984741211,1009.8293335186702,0.14999,16,0.0,0.0,1575420030,,,,0,3.7972676911144823,1,6.0,20.90999984741211,0.0,0.0,0.0,66.7128,C,30382090000000,
Raw,1732151498000,25016000000,,705676.368699709,-1416186690984999936,0.0,163.23804360773943,1292.5734944975784,0.0,0,19,0.0,16431,349915930778642,797,13.899999618530273,-35.047346479322094,0.14999,16,0.0,0.0,1575420030,,,,0,0.0,1,6.0,13.899999618530273,0.0,0.0,0.0,66.7128,C,30382090000000,
Raw,1732151498000,25016000000,,705676.368699709,-1416186690984999936,0.0,163.23804360773943,1292.5734944975784,0.0,0,13,0.0,16431,349915929998093,797,14.484999656677246,710.5356679417997,0.14999,16,0.0,0.0,1575420030,,,,0,0.0,1,6.0,14.484999656677246,0.0,0.0,0.0,66.7128,C,30382090000000,
Raw,1732151498000,25016000000,,705676.368699709,-1416186690984999936,0.0,163.23804360773943,1292.5734944975784,0.0,0,2,0.0,16431,349915919813897,797,14.699999809265137,685.7772346085444,0.14999,16,0.0,0.0,1575420030,,,,0,0.0,1,6.0,14.699999809265137,0.0,0.0,0.0,66.7128,C,30382090000000,
Raw,1732151498000,25016000000,,705676.368699709,-1416186690984999936,0.0,163.23804360773943,1292.5734944975784,0.0,0,11,0.0,17,57871,396,21.0,-85.3760783208907,0.14999,16,0.0,0.0,1602000000,,,,0,4.38923865501077,3,6.0,21.0,0.0,0.0,105.87792091586954,66.7128,C,30382090000000,
Fix,FLP,37.4246559000,-122.1583612000,5.400000095367432,0.0459785,6.3,,1732151498242,2.3,,30382090000000,12.365678,0,,,
Fix,FLP,37.4246501000,-122.1583608000,5.400000095367432,0.018958358,6.233,,1732151498958,2.3,,30382806000000,15.933798,0,,,
Fix,NLP,37.4257166000,-122.1580907000,5.400000095367432,,48.9,,1732151498958,,,30382806000000,10.683663,0,,,
Status,1732151498000,27,0,1,17,1575420030,0.00,101.0,80.0,0,0,0,0.0
Status,1732151498000,27,1,1,22,1575420030,0.00,6.0,67.0,0,0,0,0.0
Status,1732151498000,27,2,1,19,1575420030,18.90,199.0,57.0,1,0,0,13.9
Status,1732151498000,27,3,1,14,1575420030,0.00,49.0,55.0,0,0,0,0.0
Status,1732151498000,27,4,1,13,1575420030,19.50,239.0,50.0,1,0,0,14.5
Status,1732151498000,27,5,1,30,1575420030,22.90,129.0,39.0,1,0,0,17.9
Status,1732151498000,27,6,1,15,1575420030,0.00,278.0,30.0,0,0,0,0.0
Status,1732151498000,27,7,1,2,1575420030,19.70,50.0,18.0,1,0,0,14.700001
Status,1732151498000,27,8,1,24,1575420030,0.00,313.0,14.0,0,0,0,0.0
Status,1732151498000,27,9,1,6,1575420030,0.00,163.0,9.0,0,0,0,0.0
Status,1732151498000,27,10,1,7,1575420030,23.40,130.0,7.0,1,0,0,18.4
Status,1732151498000,27,11,1,21,1575420030,0.00,36.0,6.0,0,0,0,0.0
Status,1732151498000,27,12,3,20,1602000000,0.00,119.0,50.0,0,0,0,0.0
Status,1732151498000,27,13,3,9,1602000000,0.00,77.0,35.0,0,0,0,0.0
Status,1732151498000,27,14,3,19,1602000000,0.00,36.0,26.0,0,0,0,0.0
Status,1732151498000,27,15,3,11,1602000000,22.90,307.0,26.0,0,0,0,17.9
Status,1732151498000,27,16,3,8,1602000000,0.00,250.0,25.0,0,0,0,0.0
Status,1732151498000,27,17,3,17,1602000000,26.50,0.0,0.0,0,0,0,21.5
Status,1732151498000,27,18,6,21,1575420030,0.00,337.0,68.0,0,0,0,0.0
Status,1732151498000,27,19,6,19,1575420030,0.00,246.0,48.0,0,0,0,0.0
Status,1732151498000,27,20,6,27,1575420030,0.00,62.0,36.0,0,0,0,0.0
Status,1732151498000,27,21,6,29,1575420030,0.00,192.0,27.0,0,0,0,0.0
Status,1732151498000,27,22,6,13,1575420030,0.00,122.0,26.0,0,0,0,0.0
Status,1732151498000,27,23,6,15,1575420030,0.00,65.0,23.0,0,0,0,0.0
Status,1732151498000,27,24,6,4,1575420030,0.00,313.0,22.0,0,0,0,0.0
Status,1732151498000,27,25,6,26,1575420030,0.00,168.0,4.0,0,0,0,0.0
Status,1732151498000,27,26,6,6,1575420030,0.00,328.0,3.0,0,0,0,0.0
Fix,GPS,37.4246350000,-122.1583683333,23.599999999999998,0.0,5.8,0.0,1732151499000,2.2,147.3,30383090000000,83.1,0,,,
Raw,1732151499000,26016000000,,705654.5306753514,-1416186690984999936,0.0,167.32251905535736,1297.2827358637528,0.0,0,30,0.0,16431,349916927320261,487,17.863000869750977,873.0735033098379,0.14999,16,0.0,0.0,1575420030,,,,0,1.9871172631359642,1,6.0,17.863000869750977,0.0,0.0,0.0,66.7128,C,30383090000000,
Raw,1732151499000,26016000000,,705654.5306753514,-1416186690984999936,0.0,167.32251905535736,1297.2827358637528,0.0,0,7,0.0,16431,349916918513585,797,18.36199951171875,1011.510756518162,0.14999,16,0.0,0.0,1575420030,,,,0,0.0,1,6.0,18.36199951171875,0.0,0.0,0.0,66.7128,C,30383090000000,
Raw,1732151499000,26016000000,,705654.5306753514,-1416186690984999936,0.0,167.32251905535736,1297.2827358637528,0.0,0,19,0.0,16431,349916930778756,797,13.899999618530273,-33.1993235992993,0.14999,16,0.0,0.0,1575420030,,,,0,0.0,1,6.0,13.899999618530273,0.0,0.0,0.0,66.7128,C,30383090000000,
Raw,1732151499000,26016000000,,705654.5306753514,-1416186690984999936,0.0,167.32251905535736,1297.2827358637528,0.0,0,13,0.0,16431,349916929995721,797,14.470000267028809,712.006680774274,0.14999,16,0.0,0.0,1575420030,,,,0,0.0,1,6.0,14.470000267028809,0.0,0.0,0.0,66.7128,C,30383090000000,
Raw,1732151499000,26016000000,,705654.5306753514,-1416186690984999936,0.0,167.32251905535736,1297.2827358637528,0.0,0,2,0.0,16431,349916919811607,797,14.699999809265137,687.0301716353265,0.14999,16,0.0,0.0,1575420030,,,,0,0.0,1,6.0,14.699999809265137,0.0,0.0,0.0,66.7128,C,30383090000000,
Raw,1732151499000,26016000000,,705654.5306753514,-1416186690984999936,0.0,167.32251905535736,1297.2827358637528,0.0,0,11,0.0,17,58154,396,22.0,-84.38703338761881,0.14999,16,0.0,0.0,1602000000,,,,0,0.7224036010983799,3,6.0,22.0,0.0,0.0,105.87792091586954,66.7128,C,30383090000000,
Fix,FLP,37.4246449000,-122.1583633000,5.400000095367432,0.0031605721,6.171,,1732151499243,2.2,,30383090000000,17.712696,0,,,
Status,1732151499000,27,0,1,17,1575420030,0.00,101.0,80.0,0,0,0,0.0
Status,1732151499000,27,1,1,22,1575420030,0.00,6.0,67.0,0,0,0,0.0
Status,1732151499000,27,2,1,19,1575420030,18.90,199.0,57.0,1,0,0,13.9
Status,1732151499000,27,3,1,14,1575420030,0.00,49.0,55.0,0,0,0,0.0
Status,1732151499000,27,4,1,13,1575420030,19.50,239.0,50.0,1,0,0,14.5
Status,1732151499000,27,5,1,30,1575420030,25.60,129.0,39.0,1,0,0,20.6
Status,1732151499000,27,6,1,15,1575420030,0.00,278.0,30.0,0,0,0,0.0
Status,1732151499000,27,7,1,2,1575420030,17.40,50.0,18.0,1,0,0,12.4
Status,1732151499000,27,8,1,24,1575420030,0.00,313.0,14.0,0,0,0,0.0
Status,1732151499000,27,9,1,6,1575420030,0.00,163.0,9.0,0,0,0,0.0
Status,1732151499000,27,10,1,7,1575420030,23.40,130.0,7.0,1,0,0,18.4
Status,1732151499000,27,11,1,21,1575420030,0.00,36.0,6.0,0,0,0,0.0
Status,1732151499000,27,12,3,20,1602000000,0.00,119.0,50.0,0,0,0,0.0
Status,1732151499000,27,13,3,9,1602000000,0.00,77.0,35.0,0,0,0,0.0
Status,1732151499000,27,14,3,19,1602000000,0.00,36.0,26.0,0,0,0,0.0
Status,1732151499000,27,15,3,11,1602000000,25.50,307.0,26.0,0,0,0,20.5
Status,1732151499000,27,16,3,8,1602000000,0.00,250.0,25.0,0,0,0,0.0
Status,1732151499000,27,17,3,17,1602000000,26.70,0.0,0.0,0,0,0,21.7
Status,1732151499000,27,18,6,21,1575420030,0.00,337.0,68.0,0,0,0,0.0
Status,1732151499000,27,19,6,19,1575420030,0.00,246.0,48.0,0,0,0,0.0
Status,1732151499000,27,20,6,27,1575420030,0.00,62.0,36.0,0,0,0,0.0
Status,1732151499000,27,21,6,29,1575420030,0.00,192.0,27.0,0,0,0,0.0
Status,1732151499000,27,22,6,13,1575420030,0.00,122.0,26.0,0,0,0,0.0
Status,1732151499000,27,23,6,15,1575420030,0.00,65.0,23.0,0,0,0,0.0
Status,1732151499000,27,24,6,4,1575420030,0.00,313.0,22.0,0,0,0,0.0
Status,1732151499000,27,25,6,26,1575420030,0.00,168.0,4.0,0,0,0,0.0
Status,1732151499000,27,26,6,6,1575420030,0.00,328.0,3.0,0,0,0,0.0
Fix,GPS,37.4246333333,-122.1583783333,23.7,0.0,5.8,0.0,1732151500000,2.2,151.9,30384090000000,84.5,0,,,
Raw,1732151500000,27016000000,,705637.6961124219,-1416186690984999936,0.0,169.09018837225312,1298.805642861439,0.0,0,30,0.0,16431,349917927317350,797,20.617000579833984,873.3897922073992,0.14999,16,0.0,0.0,1575420030,,,,0,3.2653123212385857,1,6.0,20.617000579833984,0.0,0.0,0.0,66.7128,C,30384090000000,
Raw,1732151500000,27016000000,,705637.6961124219,-1416186690984999936,0.0,169.09018837225312,1298.805642861439,0.0,0,7,0.0,16431,349917918510209,797,18.36199951171875,1012.3384596613689,0.14999,16,0.0,0.0,1575420030,,,,0,0.0,1,6.0,18.36199951171875,0.0,0.0,0.0,66.7128,C,30384090000000,
Raw,1732151500000,27016000000,,705637.6961124219,-1416186690984999936,0.0,169.09018837225312,1298.805642861439,0.0,0,19,0.0,16431,349917930778866,1797,13.899999618530273,-32.43322431598752,0.14999,16,0.0,0.0,1575420030,,,,0,0.0,1,6.0,13.899999618530273,0.0,0.0,0.0,66.7128,C,30384090000000,
Raw,1732151500000,27016000000,,705637.6961124219,-1416186690984999936,0.0,169.09018837225312,1298.805642861439,0.0,0,13,0.0,16431,349917929993346,797,14.456000328063965,711.7067452392188,0.14999,16,0.0,0.0,1575420030,,,,0,0.0,1,6.0,14.456000328063965,0.0,0.0,0.0,66.7128,C,30384090000000,
Raw,1732151500000,27016000000,,705637.6961124219,-1416186690984999936,0.0,169.09018837225312,1298.805642861439,0.0,0,2,0.0,16431,349917919809333,1797,12.399999618530273,687.7900919492822,0.14999,16,0.0,0.0,1575420030,,,,0,0.0,1,6.0,12.399999618530273,0.0,0.0,0.0,66.7128,C,30384090000000,
Raw,1732151500000,27016000000,,705637.6961124219,-1416186690984999936,0.0,169.09018837225312,1298.805642861439,0.0,0,11,0.0,17,58439,487,20.0,-84.387810076637,0.14999,16,0.0,0.0,1602000000,,,,0,5.053451797226537,3,6.0,20.0,0.0,0.0,105.87792091586954,66.7128,C,30384090000000,
Fix,FLP,37.4246401000,-122.1583692000,5.400000095367432,0.021909686,6.085,,1732151500242,2.2,,30384090000000,13.904073,0,,,
Status,1732151500000,27,0,1,17,1575420030,0.00,101.0,80.0,0,0,0,0.0
Status,1732151500000,27,1,1,22,1575420030,0.00,6.0,67.0,0,0,0,0.0
Status,1732151500000,27,2,1,19,1575420030,19.30,199.0,57.0,1,0,0,14.299999
Status,1732151500000,27,3,1,14,1575420030,0.00,49.0,55.0,0,0,0,0.0
Status,1732151500000,27,4,1,13,1575420030,26.70,239.0,50.0,1,0,0,21.7
Status,1732151500000,27,5,1,30,1575420030,25.60,129.0,39.0,1,0,0,20.6
Status,1732151500000,27,6,1,15,1575420030,0.00,278.0,30.0,0,0,0,0.0
Status,1732151500000,27,7,1,2,1575420030,17.40,50.0,18.0,1,0,0,12.4
Status,1732151500000,27,8,1,24,1575420030,0.00,313.0,14.0,0,0,0,0.0
Status,1732151500000,27,9,1,6,1575420030,0.00,163.0,9.0,0,0,0,0.0
Status,1732151500000,27,10,1,7,1575420030,23.40,130.0,7.0,1,0,0,18.4
Status,1732151500000,27,11,1,21,1575420030,0.00,36.0,6.0,0,0,0,0.0
Status,1732151500000,27,12,3,20,1602000000,0.00,119.0,50.0,0,0,0,0.0
Status,1732151500000,27,13,3,9,1602000000,0.00,77.0,35.0,0,0,0,0.0
Status,1732151500000,27,14,3,19,1602000000,0.00,36.0,26.0,0,0,0,0.0
Status,1732151500000,27,15,3,11,1602000000,28.00,307.0,26.0,0,0,0,23.0
Status,1732151500000,27,16,3,8,1602000000,0.00,250.0,25.0,0,0,0,0.0
Status,1732151500000,27,17,3,17,1602000000,29.10,0.0,0.0,0,0,0,24.1
Status,1732151500000,27,18,6,21,1575420030,0.00,337.0,68.0,0,0,0,0.0
Status,1732151500000,27,19,6,19,1575420030,0.00,246.0,48.0,0,0,0,0.0
Status,1732151500000,27,20,6,27,1575420030,0.00,62.0,36.0,0,0,0,0.0
Status,1732151500000,27,21,6,29,1575420030,0.00,192.0,27.0,0,0,0,0.0
Status,1732151500000,27,22,6,13,1575420030,0.00,122.0,26.0,0,0,0,0.0
Status,1732151500000,27,23,6,15,1575420030,0.00,65.0,23.0,0,0,0,0.0
Status,1732151500000,27,24,6,4,1575420030,0.00,313.0,22.0,0,0,0,0.0
Status,1732151500000,27,25,6,26,1575420030,0.00,168.0,4.0,0,0,0,0.0
Status,1732151500000,27,26,6,6,1575420030,0.00,328.0,3.0,0,0,0,0.0
Fix,GPS,37.4246300000,-122.1583916667,23.7,0.0,5.9,0.0,1732151501000,2.2,142.3,30385090000000,85.2,0,,,
Raw,1732151501000,28016000000,,705620.3403555936,-1416186690984999936,0.0,170.77327820074623,1300.8570175328916,0.0,0,30,0.0,16431,349918927314435,797,20.617000579833984,873.9770265883004,0.14999,16,0.0,0.0,1575420030,,,,0,3.2653123212385857,1,6.0,20.617000579833984,0.0,0.0,0.0,66.7128,C,30385090000000,
Raw,1732151501000,28016000000,,705620.3403555936,-1416186690984999936,0.0,170.77327820074623,1300.8570175328916,0.0,0,7,0.0,16431,349918918506832,797,18.36199951171875,1012.8883414756368,0.14999,16,0.0,0.0,1575420030,,,,0,0.0,1,6.0,18.36199951171875,0.0,0.0,0.0,66.7128,C,30385090000000,
Raw,1732151501000,28016000000,,705620.3403555936,-1416186690984999936,0.0,170.77327820074623,1300.8570175328916,0.0,0,19,0.0,16431,349918930778984,797,14.300000190734863,-31.800135478286517,0.14999,16,0.0,0.0,1575420030,,,,0,0.0,1,6.0,14.300000190734863,0.0,0.0,0.0,66.7128,C,30385090000000,
Raw,1732151501000,28016000000,,705620.3403555936,-1416186690984999936,0.0,170.77327820074623,1300.8570175328916,0.0,0,13,0.0,16431,349918929990986,396,21.679000854492188,712.7955446815289,0.14999,16,0.0,0.0,1575420030,,,,0,5.0,1,6.0,21.679000854492188,0.0,0.0,0.0,66.7128,C,30385090000000,
Raw,1732151501000,28016000000,,705620.3403555936,-1416186690984999936,0.0,170.77327820074623,1300.8570175328916,0.0,0,2,0.0,16431,349918919807036,797,12.399999618530273,689.0601256732298,0.14999,16,0.0,0.0,1575420030,,,,0,0.0,1,6.0,12.399999618530273,0.0,0.0,0.0,66.7128,C,30385090000000,
Raw,1732151501000,28016000000,,705620.3403555936,-1416186690984999936,0.0,170.77327820074623,1300.8570175328916,0.0,0,11,0.0,17,58719,396,23.0,-84.09513537954997,0.14999,16,0.0,0.0,1602000000,,,,0,8.521825181113625,3,6.0,23.0,0.0,0.0,105.87792091586954,66.7128,C,30385090000000,
Fix,FLP,37.4246356000,-122.1583785000,5.400000095367432,0.03723788,6.0,,1732151501242,2.2,,30385090000000,13.775791,0,,,
Status,1732151501000,28,0,1,17,1575420030,0.00,101.0,80.0,0,0,0,0.0
Status,1732151501000,28,1,1,22,1575420030,0.00,6.0,67.0,0,0,0,0.0
Status,1732151501000,28,2,1,19,1575420030,19.30,199.0,57.0,1,0,0,14.299999
Status,1732151501000,28,3,1,14,1575420030,0.00,49.0,55.0,0,0,0,0.0
Status,1732151501000,28,4,1,13,1575420030,26.60,239.0,50.0,1,0,0,21.6
Status,1732151501000,28,5,2,133,1575420030,0.00,191.0,45.0,0,0,0,0.0
Status,1732151501000,28,6,1,30,1575420030,25.60,129.0,39.0,1,0,0,20.6
Status,1732151501000,28,7,1,15,1575420030,31.50,278.0,30.0,1,0,0,26.5
Status,1732151501000,28,8,1,2,1575420030,17.00,50.0,18.0,1,0,0,12.0
Status,1732151501000,28,9,1,24,1575420030,0.00,313.0,14.0,0,0,0,0.0
Status,1732151501000,28,10,1,6,1575420030,0.00,163.0,9.0,0,0,0,0.0
Status,1732151501000,28,11,1,7,1575420030,23.40,130.0,7.0,1,0,0,18.4
Status,1732151501000,28,12,1,21,1575420030,0.00,36.0,6.0,0,0,0,0.0
Status,1732151501000,28,13,3,20,1602000000,0.00,119.0,50.0,0,0,0,0.0
Status,1732151501000,28,14,3,9,1602000000,0.00,77.0,35.0,0,0,0,0.0
Status,1732151501000,28,15,3,19,1602000000,0.00,36.0,26.0,0,0,0,0.0
Status,1732151501000,28,16,3,11,1602000000,26.30,307.0,26.0,0,0,0,21.3
Status,1732151501000,28,17,3,8,1602000000,0.00,250.0,25.0,0,0,0,0.0
Status,1732151501000,28,18,3,17,1602000000,24.60,0.0,0.0,0,0,0,19.6
Status,1732151501000,28,19,6,21,1575420030,0.00,337.0,68.0,0,0,0,0.0
Status,1732151501000,28,20,6,19,1575420030,0.00,246.0,48.0,0,0,0,0.0
Status,1732151501000,28,21,6,27,1575420030,0.00,62.0,36.0,0,0,0,0.0
Status,1732151501000,28,22,6,29,1575420030,0.00,192.0,27.0,0,0,0,0.0
Status,1732151501000,28,23,6,13,1575420030,0.00,122.0,26.0,0,0,0,0.0
Status,1732151501000,28,24,6,15,1575420030,0.00,65.0,23.0,0,0,0,0.0
Status,1732151501000,28,25,6,4,1575420030,0.00,313.0,22.0,0,0,0,0.0
Status,1732151501000,28,26,6,26,1575420030,0.00,168.0,4.0,0,0,0,0.0
Status,1732151501000,28,27,6,6,1575420030,0.00,328.0,3.0,0,0,0,0.0
Fix,GPS,37.4246283333,-122.1584050000,23.7,0.0,5.9,0.0,1732151502000,2.2,137.2,30386090000000,84.2,0,,,
Fix,FLP,37.4246322000,-122.1583896000,5.400000095367432,0.04722593,5.9,,1732151502242,2.2,,30386090000000,16.463108,0,,,
Raw,1732151502000,29016000000,,705602.8282405956,-1416186690984999936,0.0,169.4164435373868,1303.7851824155903,0.0,0,30,0.0,16431,349919927311519,797,20.617000579833984,874.1840452909345,0.14999,16,0.0,0.0,1575420030,,,,0,3.2653123212385857,1,6.0,20.617000579833984,0.0,0.0,0.0,66.7128,C,30386090000000,
Raw,1732151502000,29016000000,,705602.8282405956,-1416186690984999936,0.0,169.4164435373868,1303.7851824155903,0.0,0,7,0.0,16431,349919918503433,797,18.395000457763672,1013.9532612920148,0.14999,16,0.0,0.0,1575420030,,,,0,0.4878220302067371,1,6.0,18.395000457763672,0.0,0.0,0.0,66.7128,C,30386090000000,
Raw,1732151502000,29016000000,,705602.8282405956,-1416186690984999936,0.0,169.4164435373868,1303.7851824155903,0.0,0,19,0.0,16431,349919930779088,797,14.300000190734863,-30.950875629957878,0.14999,16,0.0,0.0,1575420030,,,,0,0.0,1,6.0,14.300000190734863,0.0,0.0,0.0,66.7128,C,30386090000000,
Raw,1732151502000,29016000000,,705602.8282405956,-1416186690984999936,0.0,169.4164435373868,1303.7851824155903,0.0,0,13,0.0,16431,349919929988600,487,21.64900016784668,714.0575875578882,0.14999,16,0.0,0.0,1575420030,,,,0,4.051507001437238,1,6.0,21.64900016784668,0.0,0.0,0.0,66.7128,C,30386090000000,
Raw,1732151502000,29016000000,,705602.8282405956,-1416186690984999936,0.0,169.4164435373868,1303.7851824155903,0.0,0,2,0.0,16431,349919919804736,1797,12.0,689.8770504638758,0.14999,16,0.0,0.0,1575420030,,,,0,0.0,1,6.0,12.0,0.0,0.0,0.0,66.7128,C,30386090000000,
Raw,1732151502000,29016000000,,705602.8282405956,-1416186690984999936,0.0,169.4164435373868,1303.7851824155903,0.0,0,11,0.0,17,58995,396,22.0,-83.77130174655704,0.14999,16,0.0,0.0,1602000000,,,,0,6.153134277207657,3,6.0,22.0,0.0,0.0,105.87792091586954,66.7128,C,30386090000000,
Raw,1732151502000,29016000000,,705602.8282405956,-1416186690984999936,0.0,169.4164435373868,1303.7851824155903,0.0,0,15,0.0,16431,349919925728305,235,26.493000030517578,512.1743982516424,0.14999,16,0.0,0.0,1575420030,,,,0,12.07686604185654,1,6.0,26.493000030517578,0.0,0.0,0.0,66.7128,C,30386090000000,
Status,1732151502000,28,0,1,17,1575420030,0.00,101.0,80.0,0,0,0,0.0
Status,1732151502000,28,1,1,22,1575420030,0.00,6.0,67.0,0,0,0,0.0
Status,1732151502000,28,2,1,19,1575420030,22.40,199.0,57.0,1,0,0,17.4
Status,1732151502000,28,3,1,14,1575420030,0.00,49.0,55.0,0,0,0,0.0
Status,1732151502000,28,4,1,13,1575420030,26.60,239.0,50.0,1,0,0,21.6
Status,1732151502000,28,5,2,133,1575420030,0.00,191.0,45.0,0,0,0,0.0
Status,1732151502000,28,6,1,30,1575420030,19.60,129.0,39.0,1,0,0,14.6
Status,1732151502000,28,7,1,15,1575420030,24.10,278.0,30.0,1,0,0,19.1
Status,1732151502000,28,8,1,2,1575420030,0.00,50.0,18.0,0,0,0,0.0
Status,1732151502000,28,9,1,24,1575420030,0.00,313.0,14.0,0,0,0,0.0
Status,1732151502000,28,10,1,6,1575420030,0.00,163.0,9.0,0,0,0,0.0
Status,1732151502000,28,11,1,7,1575420030,28.50,130.0,7.0,1,0,0,23.5
Status,1732151502000,28,12,1,21,1575420030,0.00,36.0,6.0,0,0,0,0.0
Status,1732151502000,28,13,3,20,1602000000,0.00,119.0,50.0,0,0,0,0.0
Status,1732151502000,28,14,3,9,1602000000,0.00,77.0,35.0,0,0,0,0.0
Status,1732151502000,28,15,3,19,1602000000,0.00,36.0,26.0,0,0,0,0.0
Status,1732151502000,28,16,3,11,1602000000,27.80,307.0,26.0,0,0,0,22.8
Status,1732151502000,28,17,3,8,1602000000,0.00,250.0,25.0,0,0,0,0.0
Status,1732151502000,28,18,3,17,1602000000,23.80,0.0,0.0,0,0,0,18.8
Status,1732151502000,28,19,6,21,1575420030,0.00,337.0,68.0,0,0,0,0.0
Status,1732151502000,28,20,6,19,1575420030,0.00,246.0,48.0,0,0,0,0.0
Status,1732151502000,28,21,6,27,1575420030,0.00,62.0,36.0,0,0,0,0.0
Status,1732151502000,28,22,6,29,1575420030,0.00,192.0,27.0,0,0,0,0.0
Status,1732151502000,28,23,6,13,1575420030,0.00,122.0,26.0,0,0,0,0.0
Status,1732151502000,28,24,6,15,1575420030,0.00,65.0,23.0,0,0,0,0.0
Status,1732151502000,28,25,6,4,1575420030,0.00,313.0,22.0,0,0,0,0.0
Status,1732151502000,28,26,6,26,1575420030,0.00,168.0,4.0,0,0,0,0.0
Status,1732151502000,28,27,6,6,1575420030,0.00,328.0,3.0,0,0,0,0.0
Fix,GPS,37.4246350000,-122.1584166667,23.7,0.0,6.0,0.0,1732151503000,2.2,137.5,30387090000000,81.1,0,,,
Raw,1732151503000,30016000000,,705577.3939783368,-1416186690984999936,0.0,164.71438640335063,1304.5509042917517,0.0,0,30,0.0,16431,349920927308582,797,14.600000381469727,874.6395236034626,0.14999,16,0.0,0.0,1575420030,,,,0,0.0,1,6.0,14.600000381469727,0.0,0.0,0.0,66.7128,C,30387090000000,
Raw,1732151503000,30016000000,,705577.3939783368,-1416186690984999936,0.0,164.71438640335063,1304.5509042917517,0.0,0,7,0.0,16431,349920918500040,396,23.513999938964844,1013.38200860629,0.14999,16,0.0,0.0,1575420030,,,,0,7.847357736098625,1,6.0,23.513999938964844,0.0,0.0,0.0,66.7128,C,30387090000000,
Raw,1732151503000,30016000000,,705577.3939783368,-1416186690984999936,0.0,164.71438640335063,1304.5509042917517,0.0,0,19,0.0,16431,349920930779196,797,17.426000595092773,-30.49725565407818,0.14999,16,0.0,0.0,1575420030,,,,0,0.0,1,6.0,17.426000595092773,0.0,0.0,0.0,66.7128,C,30387090000000,
Raw,1732151503000,30016000000,,705577.3939783368,-1416186690984999936,0.0,164.71438640335063,1304.5509042917517,0.0,0,13,0.0,16431,349920929986217,487,21.621000289916992,714.4634482819034,0.14999,16,0.0,0.0,1575420030,,,,0,4.051507001437238,1,6.0,21.621000289916992,0.0,0.0,0.0,66.7128,C,30387090000000,
Raw,1732151503000,30016000000,,705577.3939783368,-1416186690984999936,0.0,164.71438640335063,1304.5509042917517,0.0,0,11,0.0,17,59275,396,22.0,-83.34375728584205,0.14999,16,0.0,0.0,1602000000,,,,0,8.231056954582106,3,6.0,22.0,0.0,0.0,105.87792091586954,66.7128,C,30387090000000,
Raw,1732151503000,30016000000,,705577.3939783368,-1416186690984999936,0.0,164.71438640335063,1304.5509042917517,0.0,0,15,0.0,16431,349920925726639,487,19.10300064086914,512.3050393180265,0.14999,16,0.0,0.0,1575420030,,,,0,0.6128010157467667,1,6.0,19.10300064086914,0.0,0.0,0.0,66.7128,C,30387090000000,
Fix,FLP,37.4246332000,-122.1584009000,5.400000095367432,0.040425204,5.885,,1732151503242,2.2,,30387090000000,16.802673,0,,,
Fix,FLP,37.4246338000,-122.1584068000,5.400000095367432,0.036192294,5.9,,1732151503826,2.2,,30387674000000,15.080363,0,,,
