# 
# Header Description:
# 
# Version: v3.1.0.3 Platform: 13 Manufacturer: samsung Model: SM-S135DL GNSS Hardware Model Name: MediaTek,MT6631,MTK_MNLD_default,MNL_VER_default
# 
# Raw,utcTimeMillis,TimeNanos,LeapSecond,TimeUncertaintyNanos,FullBiasNanos,BiasNanos,BiasUncertaintyNanos,DriftNanosPerSecond,DriftUncertaintyNanosPerSecond,HardwareClockDiscontinuityCount,Svid,TimeOffsetNanos,State,ReceivedSvTimeNanos,ReceivedSvTimeUncertaintyNanos,Cn0DbHz,PseudorangeRateMetersPerSecond,PseudorangeRateUncertaintyMetersPerSecond,AccumulatedDeltaRangeState,AccumulatedDeltaRangeMeters,AccumulatedDeltaRangeUncertaintyMeters,CarrierFrequencyHz,CarrierCycles,CarrierPhase,CarrierPhaseUncertainty,MultipathIndicator,SnrInDb,ConstellationType,AgcDb,BasebandCn0DbHz,FullInterSignalBiasNanos,FullInterSignalBiasUncertaintyNanos,SatelliteInterSignalBiasNanos,SatelliteInterSignalBiasUncertaintyNanos,CodeType,ChipsetElapsedRealtimeNanos,IsFullTracking
# 
# UncalAccel,utcTimeMillis,elapsedRealtimeNanos,UncalAccelXMps2,UncalAccelYMps2,UncalAccelZMps2,BiasXMps2,BiasYMps2,BiasZMps2
# 
# Accel,utcTimeMillis,elapsedRealtimeNanos,AccelXMps2,AccelYMps2,AccelZMps2
# 
# UncalGyro,utcTimeMillis,elapsedRealtimeNanos,UncalGyroXRadPerSec,UncalGyroYRadPerSec,UncalGyroZRadPerSec,DriftXRadPerSec,DriftYRadPerSec,DriftZRadPerSec
# 
# Gyro,utcTimeMillis,elapsedRealtimeNanos,GyroXRadPerSec,GyroYRadPerSec,GyroZRadPerSec
# 
# UncalMag,utcTimeMillis,elapsedRealtimeNanos,UncalMagXMicroT,UncalMagYMicroT,UncalMagZMicroT,BiasXMicroT,BiasYMicroT,BiasZMicroT
# 
# Mag,utcTimeMillis,elapsedRealtimeNanos,MagXMicroT,MagYMicroT,MagZMicroT
# 
# Pressure,utcTimeMillis,elapsedRealtimeNanos,PressureHpa
# 
# OrientationDeg,utcTimeMillis,elapsedRealtimeNanos,yawDeg,rollDeg,pitchDeg
# 
# Fix,Provider,LatitudeDegrees,LongitudeDegrees,AltitudeMeters,SpeedMps,AccuracyMeters,BearingDegrees,UnixTimeMillis,SpeedAccuracyMps,BearingAccuracyDegrees,elapsedRealtimeNanos,VerticalAccuracyMeters,MockLocation,NumberOfUsedSignals,VerticalSpeedAccuracyMps,SolutionType
# 
# Nav,Svid,Type,Status,MessageId,Sub-messageId,Data(Bytes)
# 
# Status,UnixTimeMillis,SignalCount,SignalIndex,ConstellationType,Svid,CarrierFrequencyHz,Cn0DbHz,AzimuthDegrees,ElevationDegrees,UsedInFix,HasAlmanacData,HasEphemerisData,BasebandCn0DbHz
# 
# Agc,utcTimeMillis,TimeNanos,LeapSecond,TimeUncertaintyNanos,FullBiasNanos,BiasNanos,BiasUncertaintyNanos,DriftNanosPerSecond,DriftUncertaintyNanosPerSecond,HardwareClockDiscontinuityCount,AgcDb,CarrierFrequencyHz,ConstellationType
# 
Fix,FLP,37.4255986000,-122.1581711000,3.7274413510110005,0.07150618,12.434,,1732152686244,1.9,,31570092000000,15.068449,0,,,
Status,,28,0,1,17,1575420030,0.00,61.0,75.0,0,0,0,0.0
Status,,28,1,1,19,1575420030,0.00,202.0,67.0,0,0,0,0.0
Status,,28,2,1,22,1575420030,0.00,26.0,64.0,0,0,0,0.0
Status,,28,3,1,14,1575420030,0.00,59.0,49.0,0,0,0,0.0
Status,,28,4,2,133,1575420030,0.00,191.0,45.0,0,0,0,0.0
Status,,28,5,1,13,1575420030,32.50,228.0,43.0,1,0,0,27.5
Status,,28,6,1,30,1575420030,29.70,135.0,31.0,1,0,0,24.7
Status,,28,7,1,15,1575420030,0.00,268.0,28.0,0,0,0,0.0
Status,,28,8,1,24,1575420030,21.90,313.0,22.0,1,0,0,16.9
Status,,28,9,1,6,1575420030,32.10,159.0,17.0,1,0,0,27.099998
Status,,28,10,1,2,1575420030,0.00,43.0,14.0,0,0,0,0.0
Status,,28,11,1,12,1575420030,0.00,271.0,2.0,0,0,0,0.0
Status,,28,12,1,21,1575420030,0.00,30.0,1.0,0,0,0,0.0
Status,,28,13,3,20,1602000000,0.00,102.0,57.0,0,0,0,0.0
Status,,28,14,3,11,1602000000,0.00,316.0,32.0,0,0,0,0.0
Status,,28,15,3,9,1602000000,0.00,88.0,29.0,0,0,0,0.0
Status,,28,16,3,8,1602000000,30.40,242.0,18.0,1,0,0,25.4
Status,,28,17,3,19,1602000000,0.00,29.0,18.0,0,0,0,0.0
Status,,28,18,3,17,1602000000,29.90,0.0,0.0,0,0,0,24.9
Status,,28,19,6,21,1575420030,0.00,356.0,68.0,0,0,0,0.0
Status,,28,20,6,19,1575420030,0.00,238.0,42.0,0,0,0,0.0
Status,,28,21,6,13,1575420030,0.00,116.0,32.0,0,0,0,0.0
Status,,28,22,6,27,1575420030,0.00,68.0,31.0,0,0,0,0.0
Status,,28,23,6,4,1575420030,0.00,307.0,25.0,0,0,0,0.0
Status,,28,24,6,15,1575420030,0.00,57.0,23.0,0,0,0,0.0
Status,,28,25,6,29,1575420030,0.00,190.0,20.0,0,0,0,0.0
Status,,28,26,6,26,1575420030,0.00,166.0,10.0,0,0,0,0.0
Status,,28,27,6,6,1575420030,0.00,325.0,7.0,0,0,0,0.0
Fix,GPS,37.4255833333,-122.1581800000,22.099999999999998,0.0,5.2,0.0,1732152687000,1.9,168.9,31571092000000,95.7,0,,,
Raw,1732152686999,22159000000,,704805.4015755126,-1416187882840999936,0.0,172.3910279249897,1119.0303881573038,0.0,0,24,0.0,16431,351104922778443,797,16.902999877929688,-278.3494217560842,0.14999,16,0.0,0.0,1575420030,,,,0,0.0,1,6.0,16.902999877929688,0.0,0.0,0.0,66.7128,C,31571092000000,
Raw,1732152686999,22159000000,,704805.4015755126,-1416187882840999936,0.0,172.3910279249897,1119.0303881573038,0.0,0,13,0.0,16431,351104928123038,797,27.506000518798828,777.9629509337158,0.14999,16,0.0,0.0,1575420030,,,,0,13.417567634414242,1,6.0,27.506000518798828,0.0,0.0,0.0,66.7128,C,31571092000000,
Raw,1732152686999,22159000000,,704805.4015755126,-1416187882840999936,0.0,172.3910279249897,1119.0303881573038,0.0,0,6,0.0,16431,351104920624801,316,27.05699920654297,-322.46308170047666,0.14999,16,0.0,0.0,1575420030,,,,0,12.810319811856614,1,6.0,27.05699920654297,0.0,0.0,0.0,66.7128,C,31571092000000,
Raw,1732152686999,22159000000,,704805.4015755126,-1416187882840999936,0.0,172.3910279249897,1119.0303881573038,0.0,0,8,0.0,17,278424,316,5.0,967.7132563123758,0.14999,16,0.0,0.0,1605374980,,,,0,11.525563024215739,3,6.0,26.0,0.0,0.0,65.9834962441009,66.7128,C,31571092000000,
Raw,1732152686999,22159000000,,704805.4015755126,-1416187882840999936,0.0,172.3910279249897,1119.0303881573038,0.0,0,30,0.0,16431,351104924901177,797,24.69300079345703,896.1434519643373,0.14999,16,0.0,0.0,1575420030,,,,0,9.582959767157117,1,6.0,24.69300079345703,0.0,0.0,0.0,66.7128,C,31571092000000,
Fix,FLP,37.4255908000,-122.1581753000,3.4698798196043725,0.09055596,12.406,,1732152687244,1.9,,31571092000000,16.418726,0,,,
Status,1732152687000,28,0,1,17,1575420030,0.00,61.0,75.0,0,0,0,0.0
Status,1732152687000,28,1,1,19,1575420030,0.00,202.0,67.0,0,0,0,0.0
Status,1732152687000,28,2,1,22,1575420030,0.00,26.0,64.0,0,0,0,0.0
Status,1732152687000,28,3,1,14,1575420030,0.00,59.0,49.0,0,0,0,0.0
Status,1732152687000,28,4,2,133,1575420030,0.00,191.0,45.0,0,0,0,0.0
Status,1732152687000,28,5,1,13,1575420030,27.20,228.0,43.0,1,0,0,22.2
Status,1732152687000,28,6,1,30,1575420030,29.70,135.0,31.0,1,0,0,24.7
Status,1732152687000,28,7,1,15,1575420030,0.00,268.0,28.0,0,0,0,0.0
Status,1732152687000,28,8,1,24,1575420030,22.00,313.0,22.0,1,0,0,17.0
Status,1732152687000,28,9,1,6,1575420030,30.50,159.0,17.0,1,0,0,25.5
Status,1732152687000,28,10,1,2,1575420030,0.00,43.0,14.0,0,0,0,0.0
Status,1732152687000,28,11,1,12,1575420030,0.00,271.0,2.0,0,0,0,0.0
Status,1732152687000,28,12,1,21,1575420030,0.00,30.0,1.0,0,0,0,0.0
Status,1732152687000,28,13,3,20,1602000000,0.00,102.0,57.0,0,0,0,0.0
Status,1732152687000,28,14,3,11,1602000000,0.00,316.0,32.0,0,0,0,0.0
Status,1732152687000,28,15,3,9,1602000000,0.00,88.0,29.0,0,0,0,0.0
Status,1732152687000,28,16,3,8,1602000000,37.00,242.0,18.0,1,0,0,32.0
Status,1732152687000,28,17,3,19,1602000000,0.00,29.0,18.0,0,0,0,0.0
Status,1732152687000,28,18,3,17,1602000000,37.50,0.0,0.0,0,0,0,32.5
Status,1732152687000,28,19,6,21,1575420030,0.00,356.0,68.0,0,0,0,0.0
Status,1732152687000,28,20,6,19,1575420030,0.00,238.0,42.0,0,0,0,0.0
Status,1732152687000,28,21,6,13,1575420030,0.00,116.0,32.0,0,0,0,0.0
Status,1732152687000,28,22,6,27,1575420030,0.00,68.0,31.0,0,0,0,0.0
Status,1732152687000,28,23,6,4,1575420030,0.00,307.0,25.0,0,0,0,0.0
Status,1732152687000,28,24,6,15,1575420030,0.00,57.0,23.0,0,0,0,0.0
Status,1732152687000,28,25,6,29,1575420030,0.00,190.0,20.0,0,0,0,0.0
Status,1732152687000,28,26,6,26,1575420030,0.00,166.0,10.0,0,0,0,0.0
Status,1732152687000,28,27,6,6,1575420030,0.00,325.0,7.0,0,0,0,0.0
Fix,GPS,37.4255733333,-122.1581983333,22.099999999999998,0.0,5.2,0.0,1732152688000,1.8,160.6,31572092000000,95.2,0,,,
Raw,1732152687999,23159000000,,704769.0222413801,-1416187882840999936,0.0,169.7244645507406,1118.474926551404,0.0,0,24,0.0,16431,351105922779367,487,17.02400016784668,-278.866178719594,0.14999,16,0.0,0.0,1575420030,,,,0,1.0635851217114927,1,6.0,17.02400016784668,0.0,0.0,0.0,66.7128,C,31572092000000,
Raw,1732152687999,23159000000,,704769.0222413801,-1416187882840999936,0.0,169.7244645507406,1118.474926551404,0.0,0,13,0.0,16431,351105928120446,487,22.19499969482422,778.8154628711792,0.14999,16,0.0,0.0,1575420030,,,,0,5.841226900014227,1,6.0,22.19499969482422,0.0,0.0,0.0,66.7128,C,31572092000000,
Raw,1732152687999,23159000000,,704769.0222413801,-1416187882840999936,0.0,169.7244645507406,1118.474926551404,0.0,0,6,0.0,16431,351105920625875,487,25.54199981689453,-321.6216733244876,0.14999,16,0.0,0.0,1575420030,,,,0,10.79691657422935,1,6.0,25.54199981689453,0.0,0.0,0.0,66.7128,C,31572092000000,
Raw,1732152687999,23159000000,,704769.0222413801,-1416187882840999936,0.0,169.7244645507406,1118.474926551404,0.0,0,8,0.0,17,275191,74,5.0,968.0956781474866,0.14999,16,0.0,0.0,1605374980,,,,0,19.20878367869836,3,6.0,32.0,0.0,0.0,65.9834962441009,66.7128,C,31572092000000,
Raw,1732152687999,23159000000,,704769.0222413801,-1416187882840999936,0.0,169.7244645507406,1118.474926551404,0.0,0,30,0.0,16431,351105924898186,396,24.69300079345703,896.8367044510309,0.14999,16,0.0,0.0,1575420030,,,,0,9.582959767157117,1,6.0,24.69300079345703,0.0,0.0,0.0,66.7128,C,31572092000000,
Fix,FLP,37.4255820000,-122.1581860000,3.217384234766018,0.110967465,12.392,180.0,1732152688244,1.8,160.6,31572092000000,14.738508,0,,,
Status,1732152688000,28,0,1,17,1575420030,0.00,61.0,75.0,0,0,0,0.0
Status,1732152688000,28,1,1,19,1575420030,0.00,202.0,67.0,0,0,0,0.0
Status,1732152688000,28,2,1,22,1575420030,0.00,26.0,64.0,0,0,0,0.0
Status,1732152688000,28,3,1,14,1575420030,0.00,59.0,49.0,0,0,0,0.0
Status,1732152688000,28,4,2,135,1575420030,0.00,197.0,45.0,0,0,0,0.0
Status,1732152688000,28,5,1,13,1575420030,28.20,228.0,43.0,1,0,0,23.2
Status,1732152688000,28,6,1,30,1575420030,30.50,135.0,31.0,1,0,0,25.5
Status,1732152688000,28,7,1,15,1575420030,0.00,268.0,28.0,0,0,0,0.0
Status,1732152688000,28,8,1,24,1575420030,24.60,313.0,22.0,1,0,0,19.6
Status,1732152688000,28,9,1,6,1575420030,32.20,159.0,17.0,1,0,0,27.2
Status,1732152688000,28,10,1,2,1575420030,0.00,43.0,14.0,0,0,0,0.0
Status,1732152688000,28,11,1,12,1575420030,0.00,271.0,2.0,0,0,0,0.0
Status,1732152688000,28,12,1,21,1575420030,0.00,30.0,1.0,0,0,0,0.0
Status,1732152688000,28,13,3,20,1602000000,0.00,102.0,57.0,0,0,0,0.0
Status,1732152688000,28,14,3,11,1602000000,0.00,316.0,32.0,0,0,0,0.0
Status,1732152688000,28,15,3,9,1602000000,0.00,88.0,29.0,0,0,0,0.0
Status,1732152688000,28,16,3,8,1602000000,29.30,242.0,18.0,1,0,0,24.3
Status,1732152688000,28,17,3,19,1602000000,0.00,29.0,18.0,0,0,0,0.0
Status,1732152688000,28,18,3,17,1602000000,34.70,0.0,0.0,0,0,0,29.7
Status,1732152688000,28,19,6,21,1575420030,0.00,356.0,68.0,0,0,0,0.0
Status,1732152688000,28,20,6,19,1575420030,0.00,238.0,42.0,0,0,0,0.0
Status,1732152688000,28,21,6,13,1575420030,25.80,116.0,32.0,1,0,0,20.8
Status,1732152688000,28,22,6,27,1575420030,0.00,68.0,31.0,0,0,0,0.0
Status,1732152688000,28,23,6,4,1575420030,0.00,307.0,25.0,0,0,0,0.0
Status,1732152688000,28,24,6,15,1575420030,0.00,57.0,23.0,0,0,0,0.0
Status,1732152688000,28,25,6,29,1575420030,0.00,190.0,20.0,0,0,0,0.0
Status,1732152688000,28,26,6,26,1575420030,0.00,166.0,10.0,0,0,0,0.0
Status,1732152688000,28,27,6,6,1575420030,0.00,325.0,7.0,0,0,0,0.0
Fix,GPS,37.4255683333,-122.1581950000,22.099999999999998,0.0,5.0,0.0,1732152689000,1.7,135.2,31573092000000,85.8,0,,,
Raw,1732152688999,24159000000,,704694.6478720289,-1416187882840999936,0.0,151.5145401434799,1119.5441635336026,0.0,0,24,0.0,16431,351106922780304,797,19.618000030517578,-278.47309406003666,0.14999,16,0.0,0.0,1575420030,,,,0,1.5149016796863206,1,6.0,19.618000030517578,0.0,0.0,0.0,66.7128,C,31573092000000,
Raw,1732152688999,24159000000,,704694.6478720289,-1416187882840999936,0.0,151.5145401434799,1119.5441635336026,0.0,0,13,0.0,16431,351106928117854,396,23.214000701904297,778.7224531219257,0.14999,16,0.0,0.0,1575420030,,,,0,7.424851820966724,1,6.0,23.214000701904297,0.0,0.0,0.0,66.7128,C,31573092000000,
Raw,1732152688999,24159000000,,704694.6478720289,-1416187882840999936,0.0,151.5145401434799,1119.5441635336026,0.0,0,6,0.0,16431,351106920626955,316,27.163000106811523,-321.3872441562892,0.14999,16,0.0,0.0,1575420030,,,,0,12.958800173440752,1,6.0,27.163000106811523,0.0,0.0,0.0,66.7128,C,31573092000000,
Raw,1732152688999,24159000000,,704694.6478720289,-1416187882840999936,0.0,151.5145401434799,1119.5441635336026,0.0,0,13,0.0,16431,351106914712034,396,20.799999237060547,-63.22344674268936,0.14999,16,0.0,0.0,1575420030,,,,0,5.360462082665451,6,6.0,20.799999237060547,0.0,0.0,-38.368923215637125,66.7128,C,31573092000000,
Raw,1732152688999,24159000000,,704694.6478720289,-1416187882840999936,0.0,151.5145401434799,1119.5441635336026,0.0,0,8,0.0,17,271947,316,5.0,968.6061210261109,0.14999,16,0.0,0.0,1605374980,,,,0,10.220228393963907,3,6.0,24.0,0.0,0.0,53.00164953537475,66.7128,C,31573092000000,
Raw,1732152688999,24159000000,,704694.6478720289,-1416187882840999936,0.0,151.5145401434799,1119.5441635336026,0.0,0,30,0.0,16431,351106924895203,316,25.54199981689453,897.4214300774568,0.14999,16,0.0,0.0,1575420030,,,,0,10.79691657422935,1,6.0,25.54199981689453,0.0,0.0,0.0,66.7128,C,31573092000000,
Fix,FLP,37.4255747000,-122.1581904000,3.217384234766018,0.12426097,12.349,180.0,1732152689244,1.7,135.2,31573092000000,15.799389,0,,,
Fix,FLP,37.4255714000,-122.1581924000,3.217384234766018,0.12543169,8.357,180.0,1732152689961,1.7,135.2,31573809000000,15.458414,0,,,
Fix,NLP,37.4256826000,-122.1580655000,5.400000095367432,,24.408,,1732152689961,,,31573809000000,35.22264,0,,,
Status,1732152689000,28,0,1,17,1575420030,0.00,61.0,75.0,0,0,0,0.0
Status,1732152689000,28,1,1,19,1575420030,0.00,202.0,67.0,0,0,0,0.0
Status,1732152689000,28,2,1,22,1575420030,0.00,26.0,64.0,0,0,0,0.0
Status,1732152689000,28,3,1,14,1575420030,0.00,59.0,49.0,0,0,0,0.0
Status,1732152689000,28,4,2,135,1575420030,0.00,197.0,45.0,0,0,0,0.0
Status,1732152689000,28,5,1,13,1575420030,26.10,228.0,43.0,1,0,0,21.1
Status,1732152689000,28,6,1,30,1575420030,27.20,135.0,31.0,1,0,0,22.2
Status,1732152689000,28,7,1,15,1575420030,26.40,268.0,28.0,1,0,0,21.4
Status,1732152689000,28,8,1,24,1575420030,24.70,313.0,22.0,1,0,0,19.7
Status,1732152689000,28,9,1,6,1575420030,31.40,159.0,17.0,1,0,0,26.4
Status,1732152689000,28,10,1,2,1575420030,23.00,43.0,14.0,1,0,0,18.0
Status,1732152689000,28,11,1,12,1575420030,24.70,271.0,2.0,0,0,0,19.7
Status,1732152689000,28,12,1,21,1575420030,0.00,30.0,1.0,0,0,0,0.0
Status,1732152689000,28,13,3,20,1602000000,0.00,102.0,57.0,0,0,0,0.0
Status,1732152689000,28,14,3,11,1602000000,0.00,316.0,32.0,0,0,0,0.0
Status,1732152689000,28,15,3,9,1602000000,0.00,88.0,29.0,0,0,0,0.0
Status,1732152689000,28,16,3,8,1602000000,29.20,242.0,18.0,1,0,0,24.2
Status,1732152689000,28,17,3,19,1602000000,0.00,29.0,18.0,0,0,0,0.0
Status,1732152689000,28,18,3,17,1602000000,35.20,0.0,0.0,0,0,0,30.2
Status,1732152689000,28,19,6,21,1575420030,0.00,356.0,68.0,0,0,0,0.0
Status,1732152689000,28,20,6,19,1575420030,0.00,238.0,42.0,0,0,0,0.0
Status,1732152689000,28,21,6,13,1575420030,25.80,116.0,32.0,1,0,0,20.8
Status,1732152689000,28,22,6,27,1575420030,0.00,68.0,31.0,0,0,0,0.0
Status,1732152689000,28,23,6,4,1575420030,0.00,307.0,25.0,0,0,0,0.0
Status,1732152689000,28,24,6,15,1575420030,0.00,57.0,23.0,0,0,0,0.0
Status,1732152689000,28,25,6,29,1575420030,0.00,190.0,20.0,0,0,0,0.0
Status,1732152689000,28,26,6,26,1575420030,0.00,166.0,10.0,0,0,0,0.0
Status,1732152689000,28,27,6,6,1575420030,0.00,325.0,7.0,0,0,0,0.0
Fix,GPS,37.4255700000,-122.1581950000,22.099999999999998,0.0,4.9,0.0,1732152690000,1.6,141.7,31574092000000,86.5,0,,,
Raw,1732152689999,25159000000,,704663.4804768838,-1416187882840999936,0.0,151.98423815091283,1119.1342087565108,0.0,0,24,0.0,16431,351107922781228,487,19.665000915527344,-278.2280723729423,0.14999,16,0.0,0.0,1575420030,,,,0,3.207784514668861,1,6.0,19.665000915527344,0.0,0.0,0.0,66.7128,C,31574092000000,
Raw,1732152689999,25159000000,,704663.4804768838,-1416187882840999936,0.0,151.98423815091283,1119.1342087565108,0.0,0,13,0.0,16431,351107928115256,487,21.097000122070312,778.874557976599,0.14999,16,0.0,0.0,1575420030,,,,0,4.068477159172898,1,6.0,21.097000122070312,0.0,0.0,0.0,66.7128,C,31574092000000,
Raw,1732152689999,25159000000,,704663.4804768838,-1416187882840999936,0.0,151.98423815091283,1119.1342087565108,0.0,0,6,0.0,16431,351107920628027,316,26.427000045776367,-321.69303345178696,0.14999,16,0.0,0.0,1575420030,,,,0,11.994438391274112,1,6.0,26.427000045776367,0.0,0.0,0.0,66.7128,C,31574092000000,
Raw,1732152689999,25159000000,,704663.4804768838,-1416187882840999936,0.0,151.98423815091283,1119.1342087565108,0.0,0,13,0.0,16431,351107914712246,316,20.799999237060547,-63.80696445029372,0.14999,16,0.0,0.0,1575420030,,,,0,5.360462082665451,6,6.0,20.799999237060547,0.0,0.0,-38.07859575911688,66.7128,C,31574092000000,
Raw,1732152689999,25159000000,,704663.4804768838,-1416187882840999936,0.0,151.98423815091283,1119.1342087565108,0.0,0,8,0.0,17,268711,316,5.0,969.3143400040093,0.14999,16,0.0,0.0,1605374980,,,,0,10.105450102066122,3,6.0,24.0,0.0,0.0,42.81256618055792,66.7128,C,31574092000000,
Raw,1732152689999,25159000000,,704663.4804768838,-1416187882840999936,0.0,151.98423815091283,1119.1342087565108,0.0,0,15,0.0,16431,351107924629307,396,21.367000579833984,591.3953824906847,0.14999,16,0.0,0.0,1575420030,,,,0,4.546720307281125,1,6.0,21.367000579833984,0.0,0.0,0.0,66.7128,C,31574092000000,
Raw,1732152689999,25159000000,,704663.4804768838,-1416187882840999936,0.0,151.98423815091283,1119.1342087565108,0.0,0,2,0.0,16431,351107918055955,797,17.979000091552734,742.9833408252287,0.14999,16,0.0,0.0,1575420030,,,,0,0.0,1,6.0,17.979000091552734,0.0,0.0,0.0,66.7128,C,31574092000000,
Raw,1732152689999,25159000000,,704663.4804768838,-1416187882840999936,0.0,151.98423815091283,1119.1342087565108,0.0,0,12,0.0,17,36247,487,19.732999801635742,-212.64602475607632,0.14999,16,0.0,0.0,1575420030,,,,0,1.732060231450487,1,6.0,19.732999801635742,0.0,0.0,0.0,66.7128,C,31574092000000,
Raw,1732152689999,25159000000,,704663.4804768838,-1416187882840999936,0.0,151.98423815091283,1119.1342087565108,0.0,0,30,0.0,16431,351107924892204,487,22.19499969482422,897.5709332608222,0.14999,16,0.0,0.0,1575420030,,,,0,5.841226900014227,1,6.0,22.19499969482422,0.0,0.0,0.0,66.7128,C,31574092000000,
Fix,FLP,37.4255707000,-122.1581934000,3.050407205174957,0.119619355,5.1,180.0,1732152690244,1.6,141.7,31574092000000,15.280629,0,,,
Status,1732152690000,28,0,1,17,1575420030,0.00,61.0,75.0,0,0,0,0.0
Status,1732152690000,28,1,1,19,1575420030,0.00,202.0,67.0,0,0,0,0.0
Status,1732152690000,28,2,1,22,1575420030,0.00,26.0,64.0,0,0,0,0.0
Status,1732152690000,28,3,1,14,1575420030,0.00,59.0,49.0,0,0,0,0.0
Status,1732152690000,28,4,2,135,1575420030,0.00,197.0,45.0,0,0,0,0.0
Status,1732152690000,28,5,1,13,1575420030,26.10,228.0,43.0,1,0,0,21.1
Status,1732152690000,28,6,1,30,1575420030,35.30,135.0,31.0,1,0,0,30.3
Status,1732152690000,28,7,1,15,1575420030,25.80,268.0,28.0,1,0,0,20.8
Status,1732152690000,28,8,1,24,1575420030,27.70,313.0,22.0,1,0,0,22.7
Status,1732152690000,28,9,1,6,1575420030,31.30,159.0,17.0,1,0,0,26.3
Status,1732152690000,28,10,1,2,1575420030,23.00,43.0,14.0,1,0,0,18.0
Status,1732152690000,28,11,1,12,1575420030,23.00,271.0,2.0,0,0,0,18.0
Status,1732152690000,28,12,1,21,1575420030,0.00,30.0,1.0,0,0,0,0.0
Status,1732152690000,28,13,3,20,1602000000,0.00,102.0,57.0,0,0,0,0.0
Status,1732152690000,28,14,3,11,1602000000,0.00,316.0,32.0,0,0,0,0.0
Status,1732152690000,28,15,3,9,1602000000,0.00,88.0,29.0,0,0,0,0.0
Status,1732152690000,28,16,3,8,1602000000,31.20,242.0,18.0,1,0,0,26.2
Status,1732152690000,28,17,3,19,1602000000,0.00,29.0,18.0,0,0,0,0.0
Status,1732152690000,28,18,3,17,1602000000,34.60,0.0,0.0,0,0,0,29.599998
Status,1732152690000,28,19,6,21,1575420030,0.00,356.0,68.0,0,0,0,0.0
Status,1732152690000,28,20,6,19,1575420030,0.00,238.0,42.0,0,0,0,0.0
Status,1732152690000,28,21,6,13,1575420030,25.70,116.0,32.0,1,0,0,20.7
Status,1732152690000,28,22,6,27,1575420030,0.00,68.0,31.0,0,0,0,0.0
Status,1732152690000,28,23,6,4,1575420030,0.00,307.0,25.0,0,0,0,0.0
Status,1732152690000,28,24,6,15,1575420030,0.00,57.0,23.0,0,0,0,0.0
Status,1732152690000,28,25,6,29,1575420030,0.00,190.0,20.0,0,0,0,0.0
Status,1732152690000,28,26,6,26,1575420030,0.00,166.0,10.0,0,0,0,0.0
Status,1732152690000,28,27,6,6,1575420030,0.00,325.0,7.0,0,0,0,0.0
Fix,GPS,37.4255683333,-122.1581733333,22.099999999999998,0.0,4.8,0.0,1732152691000,1.5,125.1,31575092000000,88.1,0,,,
Raw,1732152690999,26159000000,,704561.0137563901,-1416187882840999936,0.0,152.5924037366213,1119.3413877276676,0.0,0,24,0.0,16431,351108922782145,487,22.684999465942383,-278.4450796350617,0.14999,16,0.0,0.0,1575420030,,,,0,6.608126741538621,1,6.0,22.684999465942383,0.0,0.0,0.0,66.7128,C,31575092000000,
Raw,1732152690999,26159000000,,704561.0137563901,-1416187882840999936,0.0,152.5924037366213,1119.3413877276676,0.0,0,13,0.0,16431,351108928112656,487,21.097000122070312,779.2265733962263,0.14999,16,0.0,0.0,1575420030,,,,0,4.068477159172898,1,6.0,21.097000122070312,0.0,0.0,0.0,66.7128,C,31575092000000,
Raw,1732152690999,26159000000,,704561.0137563901,-1416187882840999936,0.0,152.5924037366213,1119.3413877276676,0.0,0,6,0.0,16431,351108920629097,396,26.31399917602539,-321.10171073025924,0.14999,16,0.0,0.0,1575420030,,,,0,11.828355135502528,1,6.0,26.31399917602539,0.0,0.0,0.0,66.7128,C,31575092000000,
Raw,1732152690999,26159000000,,704561.0137563901,-1416187882840999936,0.0,152.5924037366213,1119.3413877276676,0.0,0,13,0.0,16431,351108914712437,396,20.700000762939453,-63.52319644407975,0.14999,16,0.0,0.0,1575420030,,,,0,5.289556467372456,6,6.0,20.700000762939453,0.0,0.0,-31.59104304185656,66.7128,C,31575092000000,
Raw,1732152690999,26159000000,,704561.0137563901,-1416187882840999936,0.0,152.5924037366213,1119.3413877276676,0.0,0,8,0.0,17,265472,396,5.0,969.4967973459399,0.14999,16,0.0,0.0,1605374980,,,,0,12.552368622666528,3,6.0,23.0,0.0,0.0,38.04570771704604,66.7128,C,31575092000000,
Raw,1732152690999,26159000000,,704561.0137563901,-1416187882840999936,0.0,152.5924037366213,1119.3413877276676,0.0,0,15,0.0,16431,351108924627374,487,20.770999908447266,591.5302512729439,0.14999,16,0.0,0.0,1575420030,,,,0,3.562359853877492,1,6.0,20.770999908447266,0.0,0.0,0.0,66.7128,C,31575092000000,
Raw,1732152690999,26159000000,,704561.0137563901,-1416187882840999936,0.0,152.5924037366213,1119.3413877276676,0.0,0,2,0.0,16431,351108918053475,797,17.979000091552734,743.27621468102,0.14999,16,0.0,0.0,1575420030,,,,0,0.0,1,6.0,17.979000091552734,0.0,0.0,0.0,66.7128,C,31575092000000,
Raw,1732152690999,26159000000,,704561.0137563901,-1416187882840999936,0.0,152.5924037366213,1119.3413877276676,0.0,0,12,0.0,17,36973,487,17.979000091552734,-214.1663764265662,0.14999,16,0.0,0.0,1575420030,,,,0,0.0,1,6.0,17.979000091552734,0.0,0.0,0.0,66.7128,C,31575092000000,
Raw,1732152690999,26159000000,,704561.0137563901,-1416187882840999936,0.0,152.5924037366213,1119.3413877276676,0.0,0,30,0.0,16431,351108924889234,74,30.257999420166016,897.8920538336695,0.14999,16,0.0,0.0,1575420030,,,,0,16.855199365000004,1,6.0,30.257999420166016,0.0,0.0,0.0,66.7128,C,31575092000000,
Fix,FLP,37.4255691000,-122.1581845000,3.050407205174957,0.11391155,5.042,180.0,1732152691245,1.5,125.1,31575092000000,15.4160795,0,,,
Status,1732152691000,28,0,1,17,1575420030,0.00,61.0,75.0,0,0,0,0.0
Status,1732152691000,28,1,1,19,1575420030,0.00,202.0,67.0,0,0,0,0.0
Status,1732152691000,28,2,1,22,1575420030,0.00,26.0,64.0,0,0,0,0.0
Status,1732152691000,28,3,1,14,1575420030,0.00,59.0,49.0,0,0,0,0.0
Status,1732152691000,28,4,2,135,1575420030,0.00,197.0,45.0,0,0,0,0.0
Status,1732152691000,28,5,1,13,1575420030,26.10,228.0,43.0,1,0,0,21.1
Status,1732152691000,28,6,1,30,1575420030,32.10,135.0,31.0,1,0,0,27.099998
Status,1732152691000,28,7,1,15,1575420030,0.00,268.0,28.0,0,0,0,0.0
Status,1732152691000,28,8,1,24,1575420030,27.70,313.0,22.0,1,0,0,22.7
Status,1732152691000,28,9,1,6,1575420030,39.90,159.0,17.0,1,0,0,34.9
Status,1732152691000,28,10,1,2,1575420030,25.40,43.0,14.0,1,0,0,20.4
Status,1732152691000,28,11,1,12,1575420030,22.10,271.0,2.0,0,0,0,17.1
Status,1732152691000,28,12,1,21,1575420030,0.00,30.0,1.0,0,0,0,0.0
Status,1732152691000,28,13,3,20,1602000000,0.00,102.0,57.0,0,0,0,0.0
Status,1732152691000,28,14,3,11,1602000000,0.00,316.0,32.0,0,0,0,0.0
Status,1732152691000,28,15,3,9,1602000000,0.00,88.0,29.0,0,0,0,0.0
Status,1732152691000,28,16,3,8,1602000000,31.40,242.0,18.0,1,0,0,26.4
Status,1732152691000,28,17,3,19,1602000000,0.00,29.0,18.0,0,0,0,0.0
Status,1732152691000,28,18,3,17,1602000000,32.40,0.0,0.0,0,0,0,27.400002
Status,1732152691000,28,19,6,21,1575420030,0.00,356.0,68.0,0,0,0,0.0
Status,1732152691000,28,20,6,19,1575420030,0.00,238.0,42.0,0,0,0,0.0
Status,1732152691000,28,21,6,13,1575420030,25.00,116.0,32.0,1,0,0,20.0
Status,1732152691000,28,22,6,27,1575420030,0.00,68.0,31.0,0,0,0,0.0
Status,1732152691000,28,23,6,4,1575420030,0.00,307.0,25.0,0,0,0,0.0
Status,1732152691000,28,24,6,15,1575420030,0.00,57.0,23.0,0,0,0,0.0
Status,1732152691000,28,25,6,29,1575420030,0.00,190.0,20.0,0,0,0,0.0
Status,1732152691000,28,26,6,26,1575420030,0.00,166.0,10.0,0,0,0,0.0
Status,1732152691000,28,27,6,6,1575420030,0.00,325.0,7.0,0,0,0,0.0
Fix,GPS,37.4255666667,-122.1581716667,22.099999999999998,0.0,4.7,0.0,1732152692000,1.4,120.3,31576092000000,81.8,0,,,
Raw,1732152691999,27159000000,,704494.3530567404,-1416187882840999936,0.0,134.85684721376714,1118.2510258157968,0.0,0,24,0.0,16431,351109922783074,396,22.684999465942383,-278.89702710795785,0.14999,16,0.0,0.0,1575420030,,,,0,6.608126741538621,1,6.0,22.684999465942383,0.0,0.0,0.0,66.7128,C,31576092000000,
Raw,1732152691999,27159000000,,704494.3530567404,-1416187882840999936,0.0,134.85684721376714,1118.2510258157968,0.0,0,13,0.0,16431,351109928110058,487,21.12700080871582,778.567839512777,0.14999,16,0.0,0.0,1575420030,,,,0,5.073299081728107,1,6.0,21.12700080871582,0.0,0.0,0.0,66.7128,C,31576092000000,
Raw,1732152691999,27159000000,,704494.3530567404,-1416187882840999936,0.0,134.85684721376714,1118.2510258157968,0.0,0,6,0.0,16431,351109920630170,58,34.90999984741211,-322.2975039051023,0.14999,16,0.0,0.0,1575420030,,,,0,22.252328878748845,1,6.0,34.90999984741211,0.0,0.0,0.0,66.7128,C,31576092000000,
Raw,1732152691999,27159000000,,704494.3530567404,-1416187882840999936,0.0,134.85684721376714,1118.2510258157968,0.0,0,13,0.0,16431,351109914712654,396,20.0,-63.593488027806295,0.14999,16,0.0,0.0,1575420030,,,,0,4.150035407581686,6,6.0,20.0,0.0,0.0,-28.305469006795317,66.7128,C,31576092000000,
Raw,1732152691999,27159000000,,704494.3530567404,-1416187882840999936,0.0,134.85684721376714,1118.2510258157968,0.0,0,8,0.0,17,262237,316,5.0,968.9424042230324,0.14999,16,0.0,0.0,1605374980,,,,0,12.808608137865843,3,6.0,26.0,0.0,0.0,32.55426663740465,66.7128,C,31576092000000,
Raw,1732152691999,27159000000,,704494.3530567404,-1416187882840999936,0.0,134.85684721376714,1118.2510258157968,0.0,0,2,0.0,16431,351109918050980,487,20.424999237060547,743.078719953709,0.14999,16,0.0,0.0,1575420030,,,,0,2.9320188249561947,1,6.0,20.424999237060547,0.0,0.0,0.0,66.7128,C,31576092000000,
Raw,1732152691999,27159000000,,704494.3530567404,-1416187882840999936,0.0,134.85684721376714,1118.2510258157968,0.0,0,12,0.0,17,37669,487,17.08099937438965,-214.44995859911532,0.14999,16,0.0,0.0,1575420030,,,,0,0.0,1,6.0,17.08099937438965,0.0,0.0,0.0,66.7128,C,31576092000000,
Raw,1732152691999,27159000000,,704494.3530567404,-1416187882840999936,0.0,134.85684721376714,1118.2510258157968,0.0,0,30,0.0,16431,351109924886238,316,27.07900047302246,897.5119310722349,0.14999,16,0.0,0.0,1575420030,,,,0,12.840219633595638,1,6.0,27.07900047302246,0.0,0.0,0.0,66.7128,C,31576092000000,
Fix,FLP,37.4255675000,-122.1581785000,3.1730949172179903,0.10777214,4.971,180.0,1732152692245,1.4,120.3,31576092000000,15.984025,0,,,
Status,1732152692000,28,0,1,17,1575420030,0.00,61.0,75.0,0,0,0,0.0
Status,1732152692000,28,1,1,19,1575420030,0.00,202.0,67.0,0,0,0,0.0
Status,1732152692000,28,2,1,22,1575420030,0.00,26.0,64.0,0,0,0,0.0
Status,1732152692000,28,3,1,14,1575420030,0.00,59.0,49.0,0,0,0,0.0
Status,1732152692000,28,4,2,135,1575420030,0.00,197.0,45.0,0,0,0,0.0
Status,1732152692000,28,5,1,13,1575420030,26.20,228.0,43.0,1,0,0,21.2
Status,1732152692000,28,6,1,30,1575420030,30.80,135.0,31.0,1,0,0,25.8
Status,1732152692000,28,7,1,15,1575420030,23.60,268.0,28.0,1,0,0,18.6
Status,1732152692000,28,8,1,24,1575420030,27.00,313.0,22.0,1,0,0,22.0
Status,1732152692000,28,9,1,6,1575420030,35.80,159.0,17.0,1,0,0,30.8
Status,1732152692000,28,10,1,2,1575420030,0.00,43.0,14.0,0,0,0,0.0
Status,1732152692000,28,11,1,12,1575420030,0.00,271.0,2.0,0,0,0,0.0
Status,1732152692000,28,12,1,21,1575420030,0.00,30.0,1.0,0,0,0,0.0
Status,1732152692000,28,13,3,20,1602000000,0.00,102.0,57.0,0,0,0,0.0
Status,1732152692000,28,14,3,11,1602000000,0.00,316.0,32.0,0,0,0,0.0
Status,1732152692000,28,15,3,9,1602000000,23.00,88.0,29.0,1,0,0,18.0
Status,1732152692000,28,16,3,8,1602000000,31.30,242.0,18.0,1,0,0,26.3
Status,1732152692000,28,17,3,19,1602000000,0.00,29.0,18.0,0,0,0,0.0
Status,1732152692000,28,18,3,17,1602000000,32.40,0.0,0.0,0,0,0,27.400002
Status,1732152692000,28,19,6,21,1575420030,0.00,356.0,68.0,0,0,0,0.0
Status,1732152692000,28,20,6,19,1575420030,0.00,238.0,42.0,0,0,0,0.0
Status,1732152692000,28,21,6,13,1575420030,22.10,116.0,32.0,1,0,0,17.1
Status,1732152692000,28,22,6,27,1575420030,0.00,68.0,31.0,0,0,0,0.0
Status,1732152692000,28,23,6,4,1575420030,0.00,307.0,25.0,0,0,0,0.0
Status,1732152692000,28,24,6,15,1575420030,0.00,57.0,23.0,0,0,0,0.0
Status,1732152692000,28,25,6,29,1575420030,0.00,190.0,20.0,0,0,0,0.0
Status,1732152692000,28,26,6,26,1575420030,0.00,166.0,10.0,0,0,0,0.0
Status,1732152692000,28,27,6,6,1575420030,0.00,325.0,7.0,0,0,0,0.0
Fix,GPS,37.4255583333,-122.1581800000,22.099999999999998,0.0,4.7,0.0,1732152693000,1.4,107.0,31577092000000,81.2,0,,,
Raw,1732152692999,28159000000,,704482.3134776793,-1416187882840999936,0.0,134.09313782390134,1117.693925172402,0.0,0,15,0.0,16431,351110924623373,797,18.55299949645996,592.1845251484369,0.14999,16,0.0,0.0,1575420030,,,,0,0.0,1,6.0,18.55299949645996,0.0,0.0,0.0,66.7128,C,31577092000000,
Raw,1732152692999,28159000000,,704482.3134776793,-1416187882840999936,0.0,134.09313782390134,1117.693925172402,0.0,0,24,0.0,16431,351110922783995,487,22.034000396728516,-278.6468949950803,0.14999,16,0.0,0.0,1575420030,,,,0,5.569770756228751,1,6.0,22.034000396728516,0.0,0.0,0.0,66.7128,C,31577092000000,
Raw,1732152692999,28159000000,,704482.3134776793,-1416187882840999936,0.0,134.09313782390134,1117.693925172402,0.0,0,13,0.0,16431,351110928107460,487,21.1560001373291,778.6222423181596,0.14999,16,0.0,0.0,1575420030,,,,0,5.073299081728107,1,6.0,21.1560001373291,0.0,0.0,0.0,66.7128,C,31577092000000,
Raw,1732152692999,28159000000,,704482.3134776793,-1416187882840999936,0.0,134.09313782390134,1117.693925172402,0.0,0,30,0.0,16431,351110924883209,316,25.840999603271484,897.1975005113219,0.14999,16,0.0,0.0,1575420030,,,,0,11.202700705374859,1,6.0,25.840999603271484,0.0,0.0,0.0,66.7128,C,31577092000000,
Raw,1732152692999,28159000000,,704482.3134776793,-1416187882840999936,0.0,134.09313782390134,1117.693925172402,0.0,0,6,0.0,16431,351110920631246,74,30.826000213623047,-321.5612309249977,0.14999,16,0.0,0.0,1575420030,,,,0,17.54175994059787,1,6.0,30.826000213623047,0.0,0.0,0.0,66.7128,C,31577092000000,
Raw,1732152692999,28159000000,,704482.3134776793,-1416187882840999936,0.0,134.09313782390134,1117.693925172402,0.0,0,13,0.0,16431,351110914712872,487,17.100000381469727,-63.454252154423315,0.14999,16,0.0,0.0,1575420030,,,,0,0.0,6,6.0,17.100000381469727,0.0,0.0,-28.39107012326825,66.7128,C,31577092000000,
Raw,1732152692999,28159000000,,704482.3134776793,-1416187882840999936,0.0,134.09313782390134,1117.693925172402,0.0,0,9,0.0,17,126717,487,5.0,739.4997581648606,0.14999,16,0.0,0.0,1600875010,,,,0,0.854582733302343,3,6.0,18.0,0.0,0.0,30.829614660618038,66.7128,C,31577092000000,
Raw,1732152692999,28159000000,,704482.3134776793,-1416187882840999936,0.0,134.09313782390134,1117.693925172402,0.0,0,8,0.0,17,259001,316,5.0,968.6405882301339,0.14999,16,0.0,0.0,1605374980,,,,0,10.895620927739595,3,6.0,25.0,0.0,0.0,30.829614660618038,66.7128,C,31577092000000,
Fix,FLP,37.4255626000,-122.1581792000,2.6212407435638347,0.11093507,4.9,180.0,1732152693244,1.4,107.0,31577092000000,14.94173,0,,,
Status,1732152693000,28,0,1,17,1575420030,0.00,61.0,75.0,0,0,0,0.0
Status,1732152693000,28,1,1,19,1575420030,0.00,202.0,67.0,0,0,0,0.0
Status,1732152693000,28,2,1,22,1575420030,0.00,26.0,64.0,0,0,0,0.0
Status,1732152693000,28,3,1,14,1575420030,0.00,59.0,49.0,0,0,0,0.0
Status,1732152693000,28,4,2,135,1575420030,0.00,197.0,45.0,0,0,0,0.0
Status,1732152693000,28,5,1,13,1575420030,26.30,228.0,43.0,1,0,0,21.3
Status,1732152693000,28,6,1,30,1575420030,0.00,135.0,31.0,0,0,0,0.0
Status,1732152693000,28,7,1,15,1575420030,23.60,268.0,28.0,1,0,0,18.6
Status,1732152693000,28,8,1,24,1575420030,27.20,313.0,22.0,1,0,0,22.2
Status,1732152693000,28,9,1,6,1575420030,33.60,159.0,17.0,1,0,0,28.599998
Status,1732152693000,28,10,1,2,1575420030,0.00,43.0,14.0,0,0,0,0.0
Status,1732152693000,28,11,1,12,1575420030,0.00,271.0,2.0,0,0,0,0.0
Status,1732152693000,28,12,1,21,1575420030,0.00,30.0,1.0,0,0,0,0.0
Status,1732152693000,28,13,3,20,1602000000,0.00,102.0,57.0,0,0,0,0.0
Status,1732152693000,28,14,3,11,1602000000,0.00,316.0,32.0,0,0,0,0.0
Status,1732152693000,28,15,3,9,1602000000,23.00,88.0,29.0,1,0,0,18.0
Status,1732152693000,28,16,3,8,1602000000,28.80,242.0,18.0,1,0,0,23.8
Status,1732152693000,28,17,3,19,1602000000,0.00,29.0,18.0,0,0,0,0.0
Status,1732152693000,28,18,3,17,1602000000,26.30,0.0,0.0,0,0,0,21.3
Status,1732152693000,28,19,6,21,1575420030,0.00,356.0,68.0,0,0,0,0.0
Status,1732152693000,28,20,6,19,1575420030,0.00,238.0,42.0,0,0,0,0.0
Status,1732152693000,28,21,6,13,1575420030,28.50,116.0,32.0,1,0,0,23.5
Status,1732152693000,28,22,6,27,1575420030,0.00,68.0,31.0,0,0,0,0.0
Status,1732152693000,28,23,6,4,1575420030,0.00,307.0,25.0,0,0,0,0.0
Status,1732152693000,28,24,6,15,1575420030,0.00,57.0,23.0,0,0,0,0.0
Status,1732152693000,28,25,6,29,1575420030,0.00,190.0,20.0,0,0,0,0.0
Status,1732152693000,28,26,6,26,1575420030,0.00,166.0,10.0,0,0,0,0.0
Status,1732152693000,28,27,6,6,1575420030,0.00,325.0,7.0,0,0,0,0.0
Fix,GPS,37.4255400000,-122.1582050000,22.099999999999998,0.0,4.6,0.0,1732152694000,1.4,90.4,31578092000000,78.8,0,,,
Raw,1732152693999,29159000000,,704403.8737959178,-1416187882840999936,0.0,131.29945709007015,1117.3046885849963,0.0,0,15,0.0,16431,351111924621397,797,18.55299949645996,592.2048274763209,0.14999,16,0.0,0.0,1575420030,,,,0,0.0,1,6.0,18.55299949645996,0.0,0.0,0.0,66.7128,C,31578092000000,
Raw,1732152693999,29159000000,,704403.8737959178,-1416187882840999936,0.0,131.29945709007015,1117.3046885849963,0.0,0,24,0.0,16431,351111922784923,487,22.19499969482422,-278.4231048041941,0.14999,16,0.0,0.0,1575420030,,,,0,5.841226900014227,1,6.0,22.19499969482422,0.0,0.0,0.0,66.7128,C,31578092000000,
Raw,1732152693999,29159000000,,704403.8737959178,-1416187882840999936,0.0,131.29945709007015,1117.3046885849963,0.0,0,13,0.0,16431,351111928104863,396,21.274999618530273,778.4823560269497,0.14999,16,0.0,0.0,1575420030,,,,0,7.912038738155618,1,6.0,21.274999618530273,0.0,0.0,0.0,66.7128,C,31578092000000,
Raw,1732152693999,29159000000,,704403.8737959178,-1416187882840999936,0.0,131.29945709007015,1117.3046885849963,0.0,0,6,0.0,16431,351111920632320,235,28.6200008392334,-321.8835594166664,0.14999,16,0.0,0.0,1575420030,,,,0,14.831981561765705,1,6.0,28.6200008392334,0.0,0.0,0.0,66.7128,C,31578092000000,
Raw,1732152693999,29159000000,,704403.8737959178,-1416187882840999936,0.0,131.29945709007015,1117.3046885849963,0.0,0,13,0.0,16431,351111914713080,235,23.5,-63.323889838536545,0.14999,16,0.0,0.0,1575420030,,,,0,9.183027198832043,6,6.0,23.5,0.0,0.0,-30.456586991922777,66.7128,C,31578092000000,
Raw,1732152693999,29159000000,,704403.8737959178,-1416187882840999936,0.0,131.29945709007015,1117.3046885849963,0.0,0,9,0.0,17,124258,487,5.0,735.3707209948047,0.14999,16,0.0,0.0,1600875010,,,,0,0.854582733302343,3,6.0,19.0,0.0,0.0,42.55809862242174,66.7128,C,31578092000000,
Raw,1732152693999,29159000000,,704403.8737959178,-1416187882840999936,0.0,131.29945709007015,1117.3046885849963,0.0,0,8,0.0,17,255765,396,5.0,968.506913835696,0.14999,16,0.0,0.0,1605374980,,,,0,9.535679345837371,3,6.0,22.0,0.0,0.0,42.55809862242174,66.7128,C,31578092000000,
Fix,FLP,37.4255511000,-122.1581915000,2.80199751785526,0.13053347,4.814,180.0,1732152694244,1.4,90.4,31578092000000,15.769025,0,,,
Fix,FLP,37.4255453000,-122.1581978000,3.00616429188797,0.13399719,4.716,180.0,1732152695152,1.4,90.4,31578999000000,18.227459,0,,,
Fix,NLP,37.4255531000,-122.1580641000,5.400000095367432,,104.1,,1732152695152,,,31578999000000,100.0,0,,,
Status,1732152694000,27,0,1,17,1575420030,0.00,61.0,75.0,0,0,0,0.0
Status,1732152694000,27,1,1,19,1575420030,0.00,202.0,67.0,0,0,0,0.0
Status,1732152694000,27,2,1,22,1575420030,0.00,26.0,64.0,0,0,0,0.0
Status,1732152694000,27,3,1,14,1575420030,0.00,59.0,49.0,0,0,0,0.0
Status,1732152694000,27,4,2,135,1575420030,0.00,197.0,45.0,0,0,0,0.0
Status,1732152694000,27,5,1,13,1575420030,26.40,228.0,43.0,1,0,0,21.4
Status,1732152694000,27,6,1,30,1575420030,0.00,135.0,31.0,0,0,0,0.0
Status,1732152694000,27,7,1,15,1575420030,19.40,268.0,28.0,1,0,0,14.4
Status,1732152694000,27,8,1,24,1575420030,25.70,313.0,22.0,1,0,0,20.7
Status,1732152694000,27,9,1,6,1575420030,33.20,159.0,17.0,1,0,0,28.2
Status,1732152694000,27,10,1,2,1575420030,0.00,43.0,14.0,0,0,0,0.0
Status,1732152694000,27,11,1,12,1575420030,0.00,271.0,2.0,0,0,0,0.0
Status,1732152694000,27,12,1,21,1575420030,0.00,30.0,1.0,0,0,0,0.0
Status,1732152694000,27,13,3,20,1602000000,0.00,102.0,57.0,0,0,0,0.0
Status,1732152694000,27,14,3,11,1602000000,0.00,316.0,32.0,0,0,0,0.0
Status,1732152694000,27,15,3,9,1602000000,23.50,88.0,29.0,1,0,0,18.5
Status,1732152694000,27,16,3,8,1602000000,28.70,242.0,18.0,1,0,0,23.7
Status,1732152694000,27,17,3,19,1602000000,0.00,29.0,18.0,0,0,0,0.0
Status,1732152694000,27,18,6,21,1575420030,0.00,356.0,68.0,0,0,0,0.0
Status,1732152694000,27,19,6,19,1575420030,0.00,238.0,42.0,0,0,0,0.0
Status,1732152694000,27,20,6,13,1575420030,28.50,116.0,32.0,1,0,0,23.5
Status,1732152694000,27,21,6,27,1575420030,0.00,68.0,31.0,0,0,0,0.0
Status,1732152694000,27,22,6,4,1575420030,0.00,307.0,25.0,0,0,0,0.0
Status,1732152694000,27,23,6,15,1575420030,0.00,57.0,23.0,0,0,0,0.0
Status,1732152694000,27,24,6,29,1575420030,0.00,190.0,20.0,0,0,0,0.0
Status,1732152694000,27,25,6,26,1575420030,0.00,166.0,10.0,0,0,0,0.0
Status,1732152694000,27,26,6,6,1575420030,0.00,325.0,7.0,0,0,0,0.0
Fix,GPS,37.4255283333,-122.1582166667,22.099999999999998,0.0,4.6,0.0,1732152695000,1.4,93.0,31579092000000,79.2,0,,,
Raw,1732152694999,30159000000,,704389.9057994314,-1416187882840999936,0.0,131.40939642808712,1117.9990504737941,0.0,0,15,0.0,16431,351112924619428,797,14.399999618530273,592.4712200348722,0.14999,16,0.0,0.0,1575420030,,,,0,0.0,1,6.0,14.399999618530273,0.0,0.0,0.0,66.7128,C,31579092000000,
Raw,1732152694999,30159000000,,704389.9057994314,-1416187882840999936,0.0,131.40939642808712,1117.9990504737941,0.0,0,24,0.0,16431,351112922785856,487,20.673999786376953,-278.81270508253573,0.14999,16,0.0,0.0,1575420030,,,,0,3.3868813677273897,1,6.0,20.673999786376953,0.0,0.0,0.0,66.7128,C,31579092000000,
Raw,1732152694999,30159000000,,704389.9057994314,-1416187882840999936,0.0,131.40939642808712,1117.9990504737941,0.0,0,13,0.0,16431,351112928102263,396,21.36400032043457,779.0334922184552,0.14999,16,0.0,0.0,1575420030,,,,0,7.199231612772943,1,6.0,21.36400032043457,0.0,0.0,0.0,66.7128,C,31579092000000,
Raw,1732152694999,30159000000,,704389.9057994314,-1416187882840999936,0.0,131.40939642808712,1117.9990504737941,0.0,0,6,0.0,16431,351112920633397,235,28.24799919128418,-321.3806470611873,0.14999,16,0.0,0.0,1575420030,,,,0,14.368949349694967,1,6.0,28.24799919128418,0.0,0.0,0.0,66.7128,C,31579092000000,
Raw,1732152694999,30159000000,,704389.9057994314,-1416187882840999936,0.0,131.40939642808712,1117.9990504737941,0.0,0,13,0.0,16431,351112914713288,316,23.520000457763672,-62.952129592019816,0.14999,16,0.0,0.0,1575420030,,,,0,9.62628100228727,6,6.0,23.520000457763672,0.0,0.0,-32.74747158505964,66.7128,C,31579092000000,
Raw,1732152694999,30159000000,,704389.9057994314,-1416187882840999936,0.0,131.40939642808712,1117.9990504737941,0.0,0,9,0.0,17,121841,487,5.0,737.9484888852522,0.14999,16,0.0,0.0,1600875010,,,,0,1.8117950462711314,3,6.0,18.0,0.0,0.0,48.69528316076796,66.7128,C,31579092000000,
Raw,1732152694999,30159000000,,704389.9057994314,-1416187882840999936,0.0,131.40939642808712,1117.9990504737941,0.0,0,8,0.0,17,252533,396,5.0,969.3622111207078,0.14999,16,0.0,0.0,1605374980,,,,0,7.182889388501362,3,6.0,23.0,0.0,0.0,48.69528316076796,66.7128,C,31579092000000,
Status,1732152695000,28,0,1,17,1575420030,0.00,61.0,75.0,0,0,0,0.0
Status,1732152695000,28,1,1,19,1575420030,0.00,202.0,67.0,0,0,0,0.0
Status,1732152695000,28,2,1,22,1575420030,0.00,26.0,64.0,0,0,0,0.0
Status,1732152695000,28,3,1,14,1575420030,0.00,59.0,49.0,0,0,0,0.0
Status,1732152695000,28,4,2,135,1575420030,0.00,197.0,45.0,0,0,0,0.0
Status,1732152695000,28,5,1,13,1575420030,26.40,228.0,43.0,1,0,0,21.4
Status,1732152695000,28,6,1,30,1575420030,0.00,135.0,31.0,0,0,0,0.0
Status,1732152695000,28,7,1,15,1575420030,19.40,268.0,28.0,1,0,0,14.4
Status,1732152695000,28,8,1,24,1575420030,24.60,313.0,22.0,1,0,0,19.6
Status,1732152695000,28,9,1,6,1575420030,33.90,159.0,17.0,1,0,0,28.900002
Status,1732152695000,28,10,1,2,1575420030,20.90,43.0,14.0,1,0,0,15.9
Status,1732152695000,28,11,1,12,1575420030,18.90,271.0,2.0,0,0,0,13.9
Status,1732152695000,28,12,1,21,1575420030,0.00,30.0,1.0,0,0,0,0.0
Status,1732152695000,28,13,3,20,1602000000,0.00,102.0,57.0,0,0,0,0.0
Status,1732152695000,28,14,3,11,1602000000,0.00,316.0,32.0,0,0,0,0.0
Status,1732152695000,28,15,3,9,1602000000,21.10,88.0,29.0,1,0,0,16.1
Status,1732152695000,28,16,3,8,1602000000,28.70,242.0,18.0,1,0,0,23.7
Status,1732152695000,28,17,3,19,1602000000,0.00,29.0,18.0,0,0,0,0.0
Status,1732152695000,28,18,3,17,1602000000,31.40,0.0,0.0,0,0,0,26.4
Status,1732152695000,28,19,6,21,1575420030,0.00,356.0,68.0,0,0,0,0.0
Status,1732152695000,28,20,6,19,1575420030,0.00,238.0,42.0,0,0,0,0.0
Status,1732152695000,28,21,6,13,1575420030,28.50,116.0,32.0,1,0,0,23.5
Status,1732152695000,28,22,6,27,1575420030,0.00,68.0,31.0,0,0,0,0.0
Status,1732152695000,28,23,6,4,1575420030,0.00,307.0,25.0,0,0,0,0.0
Status,1732152695000,28,24,6,15,1575420030,0.00,57.0,23.0,0,0,0,0.0
Status,1732152695000,28,25,6,29,1575420030,0.00,190.0,20.0,0,0,0,0.0
Status,1732152695000,28,26,6,26,1575420030,0.00,166.0,10.0,0,0,0,0.0
Status,1732152695000,28,27,6,6,1575420030,0.00,325.0,7.0,0,0,0,0.0
Fix,GPS,37.4255016667,-122.1582383333,22.099999999999998,0.0,4.5,0.0,1732152696000,1.3,82.2,31580092000000,80.5,0,,,
Raw,1732152695999,31159000000,,704275.2952610969,-1416187882840999936,0.0,134.21965713384378,1118.5911272807764,0.0,0,15,0.0,16431,351113924617452,1797,14.399999618530273,591.3205844405858,0.14999,16,0.0,0.0,1575420030,,,,0,0.0,1,6.0,14.399999618530273,0.0,0.0,0.0,66.7128,C,31580092000000,
Raw,1732152695999,31159000000,,704275.2952610969,-1416187882840999936,0.0,134.21965713384378,1118.5911272807764,0.0,0,24,0.0,16431,351113922786783,487,19.618000030517578,-278.20275253610754,0.14999,16,0.0,0.0,1575420030,,,,0,1.5149016796863206,1,6.0,19.618000030517578,0.0,0.0,0.0,66.7128,C,31580092000000,
Raw,1732152695999,31159000000,,704275.2952610969,-1416187882840999936,0.0,134.21965713384378,1118.5911272807764,0.0,0,13,0.0,16431,351113928099662,396,21.434999465942383,778.3993812955977,0.14999,16,0.0,0.0,1575420030,,,,0,6.78971989857699,1,6.0,21.434999465942383,0.0,0.0,0.0,66.7128,C,31580092000000,
Raw,1732152695999,31159000000,,704275.2952610969,-1416187882840999936,0.0,134.21965713384378,1118.5911272807764,0.0,0,6,0.0,16431,351113920634473,235,28.910999298095703,-321.5354000455846,0.14999,16,0.0,0.0,1575420030,,,,0,15.203627112111667,1,6.0,28.910999298095703,0.0,0.0,0.0,66.7128,C,31580092000000,
Raw,1732152695999,31159000000,,704275.2952610969,-1416187882840999936,0.0,134.21965713384378,1118.5911272807764,0.0,0,13,0.0,16431,351113914713492,316,23.493999481201172,-63.09145838223522,0.14999,16,0.0,0.0,1575420030,,,,0,8.570759900055371,6,6.0,23.493999481201172,0.0,0.0,-36.703697154427786,66.7128,C,31580092000000,
Raw,1732152695999,31159000000,,704275.2952610969,-1416187882840999936,0.0,134.21965713384378,1118.5911272807764,0.0,0,9,0.0,17,119415,1797,5.0,738.7720377662893,0.14999,16,0.0,0.0,1600875010,,,,0,0.0,3,6.0,14.0,0.0,0.0,46.20306228665058,66.7128,C,31580092000000,
Raw,1732152695999,31159000000,,704275.2952610969,-1416187882840999936,0.0,134.21965713384378,1118.5911272807764,0.0,0,8,0.0,17,249299,316,5.0,969.0106091664428,0.14999,16,0.0,0.0,1605374980,,,,0,9.236136226444316,3,6.0,24.0,0.0,0.0,46.20306228665058,66.7128,C,31580092000000,
Raw,1732152695999,31159000000,,704275.2952610969,-1416187882840999936,0.0,134.21965713384378,1118.5911272807764,0.0,0,2,0.0,16431,351113918041256,797,15.89799976348877,743.4269257832069,0.14999,16,0.0,0.0,1575420030,,,,0,0.0,1,6.0,15.89799976348877,0.0,0.0,0.0,66.7128,C,31580092000000,
Raw,1732152695999,31159000000,,704275.2952610969,-1416187882840999936,0.0,134.21965713384378,1118.5911272807764,0.0,0,12,0.0,17,40419,797,13.899999618530273,-212.74451659844266,0.14999,16,0.0,0.0,1575420030,,,,0,0.0,1,6.0,13.899999618530273,0.0,0.0,0.0,66.7128,C,31580092000000,
Fix,FLP,37.4255220000,-122.1582190000,1.5806747630049118,0.16789731,4.642,180.0,1732152696244,1.3,82.2,31580092000000,9.77936,0,,,
Status,1732152696000,28,0,1,17,1575420030,0.00,61.0,75.0,0,0,0,0.0
Status,1732152696000,28,1,1,19,1575420030,0.00,202.0,67.0,0,0,0,0.0
Status,1732152696000,28,2,1,22,1575420030,0.00,26.0,64.0,0,0,0,0.0
Status,1732152696000,28,3,1,14,1575420030,0.00,59.0,49.0,0,0,0,0.0
Status,1732152696000,28,4,2,135,1575420030,0.00,197.0,45.0,0,0,0,0.0
Status,1732152696000,28,5,1,13,1575420030,26.50,228.0,43.0,1,0,0,21.5
Status,1732152696000,28,6,1,30,1575420030,26.00,135.0,31.0,1,0,0,21.0
Status,1732152696000,28,7,1,15,1575420030,18.60,268.0,28.0,1,0,0,13.6
Status,1732152696000,28,8,1,24,1575420030,24.60,313.0,22.0,1,0,0,19.6
Status,1732152696000,28,9,1,6,1575420030,33.50,159.0,17.0,1,0,0,28.5
Status,1732152696000,28,10,1,2,1575420030,20.90,43.0,14.0,1,0,0,15.9
Status,1732152696000,28,11,1,12,1575420030,19.50,271.0,2.0,0,0,0,14.5
Status,1732152696000,28,12,1,21,1575420030,0.00,30.0,1.0,0,0,0,0.0
Status,1732152696000,28,13,3,20,1602000000,0.00,102.0,57.0,0,0,0,0.0
Status,1732152696000,28,14,3,11,1602000000,0.00,316.0,32.0,0,0,0,0.0
Status,1732152696000,28,15,3,9,1602000000,0.00,88.0,29.0,0,0,0,0.0
Status,1732152696000,28,16,3,8,1602000000,32.50,242.0,18.0,1,0,0,27.5
Status,1732152696000,28,17,3,19,1602000000,0.00,29.0,18.0,0,0,0,0.0
Status,1732152696000,28,18,3,17,1602000000,35.10,0.0,0.0,0,0,0,30.099998
Status,1732152696000,28,19,6,21,1575420030,0.00,356.0,68.0,0,0,0,0.0
Status,1732152696000,28,20,6,19,1575420030,0.00,238.0,42.0,0,0,0,0.0
Status,1732152696000,28,21,6,13,1575420030,24.40,116.0,32.0,1,0,0,19.4
Status,1732152696000,28,22,6,27,1575420030,0.00,68.0,31.0,0,0,0,0.0
Status,1732152696000,28,23,6,4,1575420030,0.00,307.0,25.0,0,0,0,0.0
Status,1732152696000,28,24,6,15,1575420030,0.00,57.0,23.0,0,0,0,0.0
Status,1732152696000,28,25,6,29,1575420030,0.00,190.0,20.0,0,0,0,0.0
Status,1732152696000,28,26,6,26,1575420030,0.00,166.0,10.0,0,0,0,0.0
Status,1732152696000,28,27,6,6,1575420030,0.00,325.0,7.0,0,0,0,0.0
Fix,GPS,37.4255050000,-122.1582383333,22.099999999999998,0.0,4.5,0.0,1732152697000,1.3,101.2,31581092000000,81.0,0,,,
Fix,FLP,37.4255132000,-122.1582280000,1.9854768381106407,0.17319547,4.6,180.0,1732152697244,1.3,101.2,31581092000000,14.426878,0,,,
Raw,1732152696999,32159000000,,704260.2327574232,-1416187882840999936,0.0,134.6935033153732,1117.185811011911,0.0,0,15,0.0,16431,351114924615475,1797,13.600000381469727,593.9574712278635,0.14999,16,0.0,0.0,1575420030,,,,0,0.0,1,6.0,13.600000381469727,0.0,0.0,0.0,66.7128,C,31581092000000,
Raw,1732152696999,32159000000,,704260.2327574232,-1416187882840999936,0.0,134.6935033153732,1117.185811011911,0.0,0,24,0.0,16431,351114922787712,487,19.634000778198242,-279.1198416721036,0.14999,16,0.0,0.0,1575420030,,,,0,2.150738368163347,1,6.0,19.634000778198242,0.0,0.0,0.0,66.7128,C,31581092000000,
Raw,1732152696999,32159000000,,704260.2327574232,-1416187882840999936,0.0,134.6935033153732,1117.185811011911,0.0,0,13,0.0,16431,351114928097060,396,21.514999389648438,779.9667488832926,0.14999,16,0.0,0.0,1575420030,,,,0,7.141898799740881,1,6.0,21.514999389648438,0.0,0.0,0.0,66.7128,C,31581092000000,
Raw,1732152696999,32159000000,,704260.2327574232,-1416187882840999936,0.0,134.6935033153732,1117.185811011911,0.0,0,6,0.0,16431,351114920635541,235,28.549999237060547,-321.9483224488639,0.14999,16,0.0,0.0,1575420030,,,,0,14.736531264540806,1,6.0,28.549999237060547,0.0,0.0,0.0,66.7128,C,31581092000000,
Raw,1732152696999,32159000000,,704260.2327574232,-1416187882840999936,0.0,134.6935033153732,1117.185811011911,0.0,0,13,0.0,16431,351114914713700,487,19.399999618530273,-62.79547181255788,0.14999,16,0.0,0.0,1575420030,,,,0,3.207784514668861,6,6.0,19.399999618530273,0.0,0.0,-36.07519329436049,66.7128,C,31581092000000,
Raw,1732152696999,32159000000,,704260.2327574232,-1416187882840999936,0.0,134.6935033153732,1117.185811011911,0.0,0,8,0.0,17,246066,235,5.0,968.8316167815304,0.14999,16,0.0,0.0,1605374980,,,,0,14.134360184504475,3,6.0,28.0,0.0,0.0,41.000173056090574,66.7128,C,31581092000000,
Raw,1732152696999,32159000000,,704260.2327574232,-1416187882840999936,0.0,134.6935033153732,1117.185811011911,0.0,0,2,0.0,16431,351114918038776,797,15.89799976348877,743.749997609535,0.14999,16,0.0,0.0,1575420030,,,,0,0.0,1,6.0,15.89799976348877,0.0,0.0,0.0,66.7128,C,31581092000000,
Raw,1732152696999,32159000000,,704260.2327574232,-1416187882840999936,0.0,134.6935033153732,1117.185811011911,0.0,0,12,0.0,17,41154,797,14.5,-214.4191102107515,0.14999,16,0.0,0.0,1575420030,,,,0,0.0,1,6.0,14.5,0.0,0.0,0.0,66.7128,C,31581092000000,
Raw,1732152696999,32159000000,,704260.2327574232,-1416187882840999936,0.0,134.6935033153732,1117.185811011911,0.0,0,30,0.0,16431,351114924871338,396,20.95800018310547,897.8408566590055,0.14999,16,0.0,0.0,1575420030,,,,0,3.8191043479809363,1,6.0,20.95800018310547,0.0,0.0,0.0,66.7128,C,31581092000000,
Status,1732152697000,28,0,1,17,1575420030,0.00,61.0,75.0,0,0,0,0.0
Status,1732152697000,28,1,1,19,1575420030,0.00,202.0,67.0,0,0,0,0.0
Status,1732152697000,28,2,1,22,1575420030,0.00,26.0,64.0,0,0,0,0.0
Status,1732152697000,28,3,1,14,1575420030,0.00,59.0,49.0,0,0,0,0.0
Status,1732152697000,28,4,2,135,1575420030,0.00,197.0,45.0,0,0,0,0.0
Status,1732152697000,28,5,1,13,1575420030,30.00,228.0,43.0,1,0,0,25.0
Status,1732152697000,28,6,1,30,1575420030,0.00,135.0,31.0,0,0,0,0.0
Status,1732152697000,28,7,1,15,1575420030,18.60,268.0,28.0,1,0,0,13.6
Status,1732152697000,28,8,1,24,1575420030,24.60,313.0,22.0,1,0,0,19.6
Status,1732152697000,28,9,1,6,1575420030,33.80,159.0,17.0,1,0,0,28.8
Status,1732152697000,28,10,1,2,1575420030,0.00,43.0,14.0,0,0,0,0.0
Status,1732152697000,28,11,1,12,1575420030,0.00,271.0,2.0,0,0,0,0.0
Status,1732152697000,28,12,1,21,1575420030,0.00,30.0,1.0,0,0,0,0.0
Status,1732152697000,28,13,3,20,1602000000,0.00,102.0,57.0,0,0,0,0.0
Status,1732152697000,28,14,3,11,1602000000,0.00,316.0,32.0,0,0,0,0.0
Status,1732152697000,28,15,3,9,1602000000,0.00,88.0,29.0,0,0,0,0.0
Status,1732152697000,28,16,3,8,1602000000,30.80,242.0,18.0,1,0,0,25.8
Status,1732152697000,28,17,3,19,1602000000,0.00,29.0,18.0,0,0,0,0.0
Status,1732152697000,28,18,3,17,1602000000,32.70,0.0,0.0,0,0,0,27.7
Status,1732152697000,28,19,6,21,1575420030,0.00,356.0,68.0,0,0,0,0.0
Status,1732152697000,28,20,6,19,1575420030,0.00,238.0,42.0,0,0,0,0.0
Status,1732152697000,28,21,6,13,1575420030,22.20,116.0,32.0,1,0,0,17.2
Status,1732152697000,28,22,6,27,1575420030,0.00,68.0,31.0,0,0,0,0.0
Status,1732152697000,28,23,6,4,1575420030,0.00,307.0,25.0,0,0,0,0.0
Status,1732152697000,28,24,6,15,1575420030,0.00,57.0,23.0,0,0,0,0.0
Status,1732152697000,28,25,6,29,1575420030,0.00,190.0,20.0,0,0,0,0.0
Status,1732152697000,28,26,6,26,1575420030,0.00,166.0,10.0,0,0,0,0.0
Status,1732152697000,28,27,6,6,1575420030,0.00,325.0,7.0,0,0,0,0.0
Fix,GPS,37.4255133333,-122.1582333333,22.099999999999998,0.0,4.4,0.0,1732152698000,1.3,139.3,31582092000000,80.6,0,,,
Fix,FLP,37.4255126000,-122.1582305000,1.9854768381106407,0.15942974,4.557,180.0,1732152698244,1.3,139.3,31582092000000,16.742641,0,,,
Raw,1732152697999,33159000000,,704193.1029832645,-1416187882840999936,0.0,134.2219093633379,1116.28294377124,0.0,0,15,0.0,16431,351115924613493,1797,13.600000381469727,594.3761544747529,0.14999,16,0.0,0.0,1575420030,,,,0,0.0,1,6.0,13.600000381469727,0.0,0.0,0.0,66.7128,C,31582092000000,
Raw,1732152697999,33159000000,,704193.1029832645,-1416187882840999936,0.0,134.2219093633379,1116.28294377124,0.0,0,24,0.0,16431,351115922788642,487,19.64900016784668,-279.61378755325404,0.14999,16,0.0,0.0,1575420030,,,,0,2.150738368163347,1,6.0,19.64900016784668,0.0,0.0,0.0,66.7128,C,31582092000000,
Raw,1732152697999,33159000000,,704193.1029832645,-1416187882840999936,0.0,134.2219093633379,1116.28294377124,0.0,0,13,0.0,16431,351115928094463,316,24.993999481201172,779.2508711479044,0.14999,16,0.0,0.0,1575420030,,,,0,10.006745748555877,1,6.0,24.993999481201172,0.0,0.0,0.0,66.7128,C,31582092000000,
Raw,1732152697999,33159000000,,704193.1029832645,-1416187882840999936,0.0,134.2219093633379,1116.28294377124,0.0,0,6,0.0,16431,351115920636617,235,28.809999465942383,-322.29160368624355,0.14999,16,0.0,0.0,1575420030,,,,0,15.066116752430714,1,6.0,28.809999465942383,0.0,0.0,0.0,66.7128,C,31582092000000,
Raw,1732152697999,33159000000,,704193.1029832645,-1416187882840999936,0.0,134.2219093633379,1116.28294377124,0.0,0,13,0.0,16431,351115914713913,396,17.200000762939453,-63.81727821869246,0.14999,16,0.0,0.0,1575420030,,,,0,0.0,6,6.0,17.200000762939453,0.0,0.0,-35.54368762155325,66.7128,C,31582092000000,
Raw,1732152697999,33159000000,,704193.1029832645,-1416187882840999936,0.0,134.2219093633379,1116.28294377124,0.0,0,8,0.0,17,242824,316,5.0,970.1144715259686,0.14999,16,0.0,0.0,1605374980,,,,0,12.113305022904239,3,6.0,25.0,0.0,0.0,38.76172873729885,66.7128,C,31582092000000,
Status,1732152698000,28,0,1,17,1575420030,0.00,61.0,75.0,0,0,0,0.0
Status,1732152698000,28,1,1,19,1575420030,0.00,202.0,67.0,0,0,0,0.0
Status,1732152698000,28,2,1,22,1575420030,0.00,26.0,64.0,0,0,0,0.0
Status,1732152698000,28,3,1,14,1575420030,0.00,59.0,49.0,0,0,0,0.0
Status,1732152698000,28,4,1,13,1575420030,30.00,228.0,43.0,1,0,0,25.0
Status,1732152698000,28,5,2,138,1575420030,0.00,156.0,43.0,0,0,0,0.0
Status,1732152698000,28,6,1,30,1575420030,30.40,135.0,31.0,1,0,0,25.4
Status,1732152698000,28,7,1,15,1575420030,18.60,268.0,28.0,1,0,0,13.6
Status,1732152698000,28,8,1,24,1575420030,24.70,313.0,22.0,1,0,0,19.7
Status,1732152698000,28,9,1,6,1575420030,30.40,159.0,17.0,1,0,0,25.4
Status,1732152698000,28,10,1,2,1575420030,0.00,43.0,14.0,0,0,0,0.0
Status,1732152698000,28,11,1,12,1575420030,0.00,271.0,2.0,0,0,0,0.0
Status,1732152698000,28,12,1,21,1575420030,0.00,30.0,1.0,0,0,0,0.0
Status,1732152698000,28,13,3,20,1602000000,0.00,102.0,57.0,0,0,0,0.0
Status,1732152698000,28,14,3,11,1602000000,0.00,316.0,32.0,0,0,0,0.0
Status,1732152698000,28,15,3,9,1602000000,0.00,88.0,29.0,0,0,0,0.0
Status,1732152698000,28,16,3,8,1602000000,31.30,242.0,18.0,1,0,0,26.3
Status,1732152698000,28,17,3,19,1602000000,0.00,29.0,18.0,0,0,0,0.0
Status,1732152698000,28,18,3,17,1602000000,31.30,0.0,0.0,0,0,0,26.3
Status,1732152698000,28,19,6,21,1575420030,0.00,356.0,68.0,0,0,0,0.0
Status,1732152698000,28,20,6,19,1575420030,0.00,238.0,42.0,0,0,0,0.0
Status,1732152698000,28,21,6,13,1575420030,28.00,116.0,32.0,1,0,0,23.0
Status,1732152698000,28,22,6,27,1575420030,0.00,68.0,31.0,0,0,0,0.0
Status,1732152698000,28,23,6,4,1575420030,0.00,307.0,25.0,0,0,0,0.0
Status,1732152698000,28,24,6,15,1575420030,0.00,57.0,23.0,0,0,0,0.0
Status,1732152698000,28,25,6,29,1575420030,0.00,190.0,20.0,0,0,0,0.0
Status,1732152698000,28,26,6,26,1575420030,0.00,166.0,10.0,0,0,0,0.0
Status,1732152698000,28,27,6,6,1575420030,0.00,325.0,7.0,0,0,0,0.0
Fix,GPS,37.4255133333,-122.1582266667,22.099999999999998,0.0,4.4,0.0,1732152699000,1.3,135.3,31583092000000,81.1,0,,,
Raw,1732152698999,34159000000,,704175.4866294869,-1416187882840999936,0.0,134.75321920811783,1114.2993188097741,0.0,0,15,0.0,16431,351116924611511,797,13.600000381469727,593.1037978299948,0.14999,16,0.0,0.0,1575420030,,,,0,0.0,1,6.0,13.600000381469727,0.0,0.0,0.0,66.7128,C,31583092000000,
Raw,1732152698999,34159000000,,704175.4866294869,-1416187882840999936,0.0,134.75321920811783,1114.2993188097741,0.0,0,24,0.0,16431,351116922789581,487,19.652999877929688,-279.39845279411816,0.14999,16,0.0,0.0,1575420030,,,,0,1.732060231450487,1,6.0,19.652999877929688,0.0,0.0,0.0,66.7128,C,31583092000000,
Raw,1732152698999,34159000000,,704175.4866294869,-1416187882840999936,0.0,134.75321920811783,1114.2993188097741,0.0,0,13,0.0,16431,351116928091866,487,24.957000732421875,777.8349115386395,0.14999,16,0.0,0.0,1575420030,,,,0,8.952618738235818,1,6.0,24.957000732421875,0.0,0.0,0.0,66.7128,C,31583092000000,
Raw,1732152698999,34159000000,,704175.4866294869,-1416187882840999936,0.0,134.75321920811783,1114.2993188097741,0.0,0,6,0.0,16431,351116920637697,316,25.44099998474121,-323.8979034267229,0.14999,16,0.0,0.0,1575420030,,,,0,10.64452863682551,1,6.0,25.44099998474121,0.0,0.0,0.0,66.7128,C,31583092000000,
Raw,1732152698999,34159000000,,704175.4866294869,-1416187882840999936,0.0,134.75321920811783,1114.2993188097741,0.0,0,13,0.0,16431,351116914714125,396,23.0,-63.79237650760361,0.14999,16,0.0,0.0,1575420030,,,,0,8.570759900055371,6,6.0,23.0,0.0,0.0,-32.94875179977741,66.7128,C,31583092000000,
Raw,1732152698999,34159000000,,704175.4866294869,-1416187882840999936,0.0,134.75321920811783,1114.2993188097741,0.0,0,8,0.0,17,239593,316,5.0,968.4990720908654,0.14999,16,0.0,0.0,1605374980,,,,0,12.651302942101667,3,6.0,26.0,0.0,0.0,37.99808742045116,66.7128,C,31583092000000,
Raw,1732152698999,34159000000,,704175.4866294869,-1416187882840999936,0.0,134.75321920811783,1114.2993188097741,0.0,0,30,0.0,16431,351116924865353,396,25.44099998474121,897.343379938223,0.14999,16,0.0,0.0,1575420030,,,,0,10.64452863682551,1,6.0,25.44099998474121,0.0,0.0,0.0,66.7128,C,31583092000000,
Fix,FLP,37.4255123000,-122.1582287000,1.9854768381106407,0.14612529,4.514,180.0,1732152699244,1.3,135.3,31583092000000,15.265955,0,,,
Fix,FLP,37.4255123000,-122.1582278000,1.9854768381106407,0.13425547,4.485,180.0,1732152700014,1.3,135.3,31583862000000,14.929532,0,,,
Fix,NLP,37.4256275000,-122.1580399000,5.400000095367432,,24.733,,1732152700014,,,31583862000000,43.001232,0,,,
Status,1732152699000,28,0,1,17,1575420030,0.00,61.0,75.0,0,0,0,0.0
Status,1732152699000,28,1,1,19,1575420030,0.00,202.0,67.0,0,0,0,0.0
Status,1732152699000,28,2,1,22,1575420030,0.00,26.0,64.0,0,0,0,0.0
Status,1732152699000,28,3,1,14,1575420030,0.00,59.0,49.0,0,0,0,0.0
Status,1732152699000,28,4,1,13,1575420030,29.90,228.0,43.0,1,0,0,24.9
Status,1732152699000,28,5,2,138,1575420030,0.00,156.0,43.0,0,0,0,0.0
Status,1732152699000,28,6,1,30,1575420030,31.40,135.0,31.0,1,0,0,26.4
Status,1732152699000,28,7,1,15,1575420030,21.20,268.0,28.0,1,0,0,16.2
Status,1732152699000,28,8,1,24,1575420030,24.60,313.0,22.0,1,0,0,19.6
Status,1732152699000,28,9,1,6,1575420030,32.20,159.0,17.0,1,0,0,27.2
Status,1732152699000,28,10,1,2,1575420030,0.00,43.0,14.0,0,0,0,0.0
Status,1732152699000,28,11,1,12,1575420030,25.80,271.0,2.0,0,0,0,20.8
Status,1732152699000,28,12,1,21,1575420030,0.00,30.0,1.0,0,0,0,0.0
