# 
# Header Description:
# 
# Version: v3.1.0.3 Platform: 13 Manufacturer: samsung Model: SM-S135DL GNSS Hardware Model Name: MediaTek,MT6631,MTK_MNLD_default,MNL_VER_default
# 
# Raw,utcTimeMillis,TimeNanos,LeapSecond,TimeUncertaintyNanos,FullBiasNanos,BiasNanos,BiasUncertaintyNanos,DriftNanosPerSecond,DriftUncertaintyNanosPerSecond,HardwareClockDiscontinuityCount,Svid,TimeOffsetNanos,State,ReceivedSvTimeNanos,ReceivedSvTimeUncertaintyNanos,Cn0DbHz,PseudorangeRateMetersPerSecond,PseudorangeRateUncertaintyMetersPerSecond,AccumulatedDeltaRangeState,AccumulatedDeltaRangeMeters,AccumulatedDeltaRangeUncertaintyMeters,CarrierFrequencyHz,CarrierCycles,CarrierPhase,CarrierPhaseUncertainty,MultipathIndicator,SnrInDb,ConstellationType,AgcDb,BasebandCn0DbHz,FullInterSignalBiasNanos,FullInterSignalBiasUncertaintyNanos,SatelliteInterSignalBiasNanos,SatelliteInterSignalBiasUncertaintyNanos,CodeType,ChipsetElapsedRealtimeNanos,IsFullTracking
# 
# UncalAccel,utcTimeMillis,elapsedRealtimeNanos,UncalAccelXMps2,UncalAccelYMps2,UncalAccelZMps2,BiasXMps2,BiasYMps2,BiasZMps2
# 
# Accel,utcTimeMillis,elapsedRealtimeNanos,AccelXMps2,AccelYMps2,AccelZMps2
# 
# UncalGyro,utcTimeMillis,elapsedRealtimeNanos,UncalGyroXRadPerSec,UncalGyroYRadPerSec,UncalGyroZRadPerSec,DriftXRadPerSec,DriftYRadPerSec,DriftZRadPerSec
# 
# Gyro,utcTimeMillis,elapsedRealtimeNanos,GyroXRadPerSec,GyroYRadPerSec,GyroZRadPerSec
# 
# UncalMag,utcTimeMillis,elapsedRealtimeNanos,UncalMagXMicroT,UncalMagYMicroT,UncalMagZMicroT,BiasXMicroT,BiasYMicroT,BiasZMicroT
# 
# Mag,utcTimeMillis,elapsedRealtimeNanos,MagXMicroT,MagYMicroT,MagZMicroT
# 
# Pressure,utcTimeMillis,elapsedRealtimeNanos,PressureHpa
# 
# OrientationDeg,utcTimeMillis,elapsedRealtimeNanos,yawDeg,rollDeg,pitchDeg
# 
# Fix,Provider,LatitudeDegrees,LongitudeDegrees,AltitudeMeters,SpeedMps,AccuracyMeters,BearingDegrees,UnixTimeMillis,SpeedAccuracyMps,BearingAccuracyDegrees,elapsedRealtimeNanos,VerticalAccuracyMeters,MockLocation,NumberOfUsedSignals,VerticalSpeedAccuracyMps,SolutionType
# 
# Nav,Svid,Type,Status,MessageId,Sub-messageId,Data(Bytes)
# 
# Status,UnixTimeMillis,SignalCount,SignalIndex,ConstellationType,Svid,CarrierFrequencyHz,Cn0DbHz,AzimuthDegrees,ElevationDegrees,UsedInFix,HasAlmanacData,HasEphemerisData,BasebandCn0DbHz
# 
# Agc,utcTimeMillis,TimeNanos,LeapSecond,TimeUncertaintyNanos,FullBiasNanos,BiasNanos,BiasUncertaintyNanos,DriftNanosPerSecond,DriftUncertaintyNanosPerSecond,HardwareClockDiscontinuityCount,AgcDb,CarrierFrequencyHz,ConstellationType
# 
Fix,FLP,37.4251975000,-122.1584639000,3.1490041498268146,0.20113485,9.288,0.0000000025408307,1732151243237,1.5,45.0,30127084000000,12.266724,0,,,
Status,,26,0,1,17,1575420030,0.00,113.0,80.0,0,0,0,0.0
Status,,26,1,1,22,1575420030,0.00,1.0,68.0,0,0,0,0.0
Status,,26,2,1,14,1575420030,0.00,46.0,56.0,0,0,0,0.0
Status,,26,3,1,19,1575420030,0.00,198.0,55.0,0,0,0,0.0
Status,,26,4,1,13,1575420030,31.80,241.0,51.0,1,0,0,26.8
Status,,26,5,1,30,1575420030,31.50,128.0,41.0,1,0,0,26.5
Status,,26,6,1,15,1575420030,22.30,281.0,30.0,1,0,0,17.3
Status,,26,7,1,2,1575420030,0.00,52.0,19.0,0,0,0,0.0
Status,,26,8,1,24,1575420030,0.00,312.0,12.0,0,0,0,0.0
Status,,26,9,1,6,1575420030,0.00,164.0,8.0,0,0,0,0.0
Status,,26,10,1,7,1575420030,0.00,129.0,8.0,0,0,0,0.0
Status,,26,11,1,21,1575420030,0.00,37.0,7.0,0,0,0,0.0
Status,,26,12,3,20,1602000000,0.00,122.0,49.0,0,0,0,0.0
Status,,26,13,3,9,1602000000,0.00,74.0,36.0,0,0,0,0.0
Status,,26,14,3,8,1602000000,0.00,252.0,27.0,0,0,0,0.0
Status,,26,15,3,19,1602000000,0.00,38.0,27.0,0,0,0,0.0
Status,,26,16,3,11,1602000000,23.20,305.0,24.0,0,0,0,18.2
Status,,26,17,6,21,1575420030,0.00,333.0,68.0,0,0,0,0.0
Status,,26,18,6,19,1575420030,0.00,248.0,49.0,0,0,0,0.0
Status,,26,19,6,27,1575420030,0.00,61.0,37.0,0,0,0,0.0
Status,,26,20,6,29,1575420030,0.00,192.0,29.0,0,0,0,0.0
Status,,26,21,6,13,1575420030,0.00,123.0,25.0,0,0,0,0.0
Status,,26,22,6,15,1575420030,0.00,66.0,23.0,0,0,0,0.0
Status,,26,23,6,4,1575420030,0.00,314.0,21.0,0,0,0,0.0
Status,,26,24,6,26,1575420030,0.00,169.0,3.0,0,0,0,0.0
Status,,26,25,6,6,1575420030,0.00,329.0,2.0,0,0,0,0.0
Fix,GPS,37.4250600000,-122.1584866667,-0.8000000000000007,0.0,37.2,0.0,1732151244001,2.1,179.6,30128084000000,48.4,0,,,
Fix,FLP,37.4252592000,-122.1584232000,2.7806111295615157,0.3386441,10.935,0.0000000013396496,1732151244236,1.5,45.0,30128084000000,12.589669,0,,,
Status,1732151244001,26,0,1,17,1575420030,0.00,113.0,80.0,0,0,0,0.0
Status,1732151244001,26,1,1,22,1575420030,0.00,1.0,68.0,0,0,0,0.0
Status,1732151244001,26,2,1,14,1575420030,0.00,46.0,56.0,0,0,0,0.0
Status,1732151244001,26,3,1,19,1575420030,0.00,198.0,55.0,0,0,0,0.0
Status,1732151244001,26,4,1,13,1575420030,26.00,241.0,51.0,1,0,0,21.0
Status,1732151244001,26,5,1,30,1575420030,28.20,128.0,41.0,1,0,0,23.2
Status,1732151244001,26,6,1,15,1575420030,22.40,281.0,30.0,1,0,0,17.4
Status,1732151244001,26,7,1,2,1575420030,0.00,52.0,19.0,0,0,0,0.0
Status,1732151244001,26,8,1,24,1575420030,0.00,312.0,12.0,0,0,0,0.0
Status,1732151244001,26,9,1,6,1575420030,0.00,164.0,8.0,0,0,0,0.0
Status,1732151244001,26,10,1,7,1575420030,0.00,129.0,8.0,0,0,0,0.0
Status,1732151244001,26,11,1,21,1575420030,0.00,37.0,7.0,0,0,0,0.0
Status,1732151244001,26,12,3,20,1602000000,0.00,122.0,49.0,0,0,0,0.0
Status,1732151244001,26,13,3,9,1602000000,0.00,74.0,36.0,0,0,0,0.0
Status,1732151244001,26,14,3,8,1602000000,0.00,252.0,27.0,0,0,0,0.0
Status,1732151244001,26,15,3,19,1602000000,0.00,38.0,27.0,0,0,0,0.0
Status,1732151244001,26,16,3,11,1602000000,19.20,305.0,24.0,0,0,0,14.200001
Status,1732151244001,26,17,6,21,1575420030,0.00,333.0,68.0,0,0,0,0.0
Status,1732151244001,26,18,6,19,1575420030,0.00,248.0,49.0,0,0,0,0.0
Status,1732151244001,26,19,6,27,1575420030,0.00,61.0,37.0,0,0,0,0.0
Status,1732151244001,26,20,6,29,1575420030,0.00,192.0,29.0,0,0,0,0.0
Status,1732151244001,26,21,6,13,1575420030,0.00,123.0,25.0,0,0,0,0.0
Status,1732151244001,26,22,6,15,1575420030,0.00,66.0,23.0,0,0,0,0.0
Status,1732151244001,26,23,6,4,1575420030,0.00,314.0,21.0,0,0,0,0.0
Status,1732151244001,26,24,6,26,1575420030,0.00,169.0,3.0,0,0,0,0.0
Status,1732151244001,26,25,6,6,1575420030,0.00,329.0,2.0,0,0,0,0.0
Fix,GPS,37.4250633333,-122.1584733333,-0.8000000000000007,0.0,37.9,0.0,1732151245001,2.1,179.9,30129084000000,48.5,0,,,
Fix,FLP,37.4253221000,-122.1583819000,2.613714295951908,0.46340644,12.583,0.00000000085371177,1732151245236,1.5,45.0,30129084000000,9.931778,0,,,
Status,1732151245001,26,0,1,17,1575420030,0.00,113.0,80.0,0,0,0,0.0
Status,1732151245001,26,1,1,22,1575420030,0.00,1.0,68.0,0,0,0,0.0
Status,1732151245001,26,2,1,14,1575420030,0.00,46.0,56.0,0,0,0,0.0
Status,1732151245001,26,3,1,19,1575420030,0.00,198.0,55.0,0,0,0,0.0
Status,1732151245001,26,4,1,13,1575420030,26.00,241.0,51.0,1,0,0,21.0
Status,1732151245001,26,5,1,30,1575420030,28.10,128.0,41.0,1,0,0,23.1
Status,1732151245001,26,6,1,15,1575420030,22.50,281.0,30.0,1,0,0,17.5
Status,1732151245001,26,7,1,2,1575420030,0.00,52.0,19.0,0,0,0,0.0
Status,1732151245001,26,8,1,24,1575420030,0.00,312.0,12.0,0,0,0,0.0
Status,1732151245001,26,9,1,6,1575420030,0.00,164.0,8.0,0,0,0,0.0
Status,1732151245001,26,10,1,7,1575420030,0.00,129.0,8.0,0,0,0,0.0
Status,1732151245001,26,11,1,21,1575420030,0.00,37.0,7.0,0,0,0,0.0
Status,1732151245001,26,12,3,20,1602000000,0.00,122.0,49.0,0,0,0,0.0
Status,1732151245001,26,13,3,9,1602000000,0.00,74.0,36.0,0,0,0,0.0
Status,1732151245001,26,14,3,8,1602000000,0.00,252.0,27.0,0,0,0,0.0
Status,1732151245001,26,15,3,19,1602000000,0.00,38.0,27.0,0,0,0,0.0
Status,1732151245001,26,16,3,11,1602000000,19.20,305.0,24.0,0,0,0,14.200001
Status,1732151245001,26,17,6,21,1575420030,0.00,333.0,68.0,0,0,0,0.0
Status,1732151245001,26,18,6,19,1575420030,0.00,248.0,49.0,0,0,0,0.0
Status,1732151245001,26,19,6,27,1575420030,0.00,61.0,37.0,0,0,0,0.0
Status,1732151245001,26,20,6,29,1575420030,0.00,192.0,29.0,0,0,0,0.0
Status,1732151245001,26,21,6,13,1575420030,0.00,123.0,25.0,0,0,0,0.0
Status,1732151245001,26,22,6,15,1575420030,0.00,66.0,23.0,0,0,0,0.0
Status,1732151245001,26,23,6,4,1575420030,0.00,314.0,21.0,0,0,0,0.0
Status,1732151245001,26,24,6,26,1575420030,0.00,169.0,3.0,0,0,0,0.0
Status,1732151245001,26,25,6,6,1575420030,0.00,329.0,2.0,0,0,0,0.0
Fix,GPS,37.4250650000,-122.1584650000,-0.8000000000000007,0.0,38.8,0.0,1732151246001,2.1,179.9,30130084000000,48.7,0,,,
Fix,FLP,37.4253821000,-122.1583425000,2.7811459808357757,0.56700027,15.606,0.00000000059987804,1732151246236,1.5,45.0,30130084000000,9.592144,0,,,
Fix,NLP,37.4256139000,-122.1580485000,-0.4000000059604645,,104.1,,1732151246379,,,30130227000000,62.18782,0,,,
Status,1732151246001,26,0,1,17,1575420030,0.00,113.0,80.0,0,0,0,0.0
Status,1732151246001,26,1,1,22,1575420030,0.00,1.0,68.0,0,0,0,0.0
Status,1732151246001,26,2,1,14,1575420030,0.00,46.0,56.0,0,0,0,0.0
Status,1732151246001,26,3,1,19,1575420030,22.70,198.0,55.0,1,0,0,17.7
Status,1732151246001,26,4,1,13,1575420030,22.20,241.0,51.0,1,0,0,17.2
Status,1732151246001,26,5,1,30,1575420030,30.80,128.0,41.0,1,0,0,25.8
Status,1732151246001,26,6,1,15,1575420030,22.50,281.0,30.0,1,0,0,17.5
Status,1732151246001,26,7,1,2,1575420030,0.00,52.0,19.0,0,0,0,0.0
Status,1732151246001,26,8,1,24,1575420030,0.00,312.0,12.0,0,0,0,0.0
Status,1732151246001,26,9,1,6,1575420030,0.00,164.0,8.0,0,0,0,0.0
Status,1732151246001,26,10,1,7,1575420030,25.00,129.0,8.0,1,0,0,20.0
Status,1732151246001,26,11,1,21,1575420030,0.00,37.0,7.0,0,0,0,0.0
Status,1732151246001,26,12,3,20,1602000000,0.00,122.0,49.0,0,0,0,0.0
Status,1732151246001,26,13,3,9,1602000000,0.00,74.0,36.0,0,0,0,0.0
Status,1732151246001,26,14,3,8,1602000000,0.00,252.0,27.0,0,0,0,0.0
Status,1732151246001,26,15,3,19,1602000000,0.00,38.0,27.0,0,0,0,0.0
Status,1732151246001,26,16,3,11,1602000000,19.20,305.0,24.0,0,0,0,14.200001
Status,1732151246001,26,17,6,21,1575420030,0.00,333.0,68.0,0,0,0,0.0
Status,1732151246001,26,18,6,19,1575420030,0.00,248.0,49.0,0,0,0,0.0
Status,1732151246001,26,19,6,27,1575420030,0.00,61.0,37.0,0,0,0,0.0
Status,1732151246001,26,20,6,29,1575420030,0.00,192.0,29.0,0,0,0,0.0
Status,1732151246001,26,21,6,13,1575420030,0.00,123.0,25.0,0,0,0,0.0
Status,1732151246001,26,22,6,15,1575420030,0.00,66.0,23.0,0,0,0,0.0
Status,1732151246001,26,23,6,4,1575420030,0.00,314.0,21.0,0,0,0,0.0
Status,1732151246001,26,24,6,26,1575420030,0.00,169.0,3.0,0,0,0,0.0
Status,1732151246001,26,25,6,6,1575420030,0.00,329.0,2.0,0,0,0,0.0
Fix,GPS,37.4250633333,-122.1584516667,-0.8000000000000007,0.0,6.3,0.0,1732151247001,2.1,179.9,30131084000000,45.0,0,,,
Fix,FLP,37.4251895000,-122.1584066000,2.592790062096597,0.087124206,18.962,,1732151247236,2.1,,30131084000000,11.832697,0,,,
Raw,1732151247000,30927000000,,996480.2049823415,-1416186434073999872,0.0,89.50377187565547,1397.5191207338485,0.0,0,15,0.0,16431,349664926163944,797,17.523000717163086,508.18868426652415,0.14999,16,0.0,0.0,1575420030,,,,0,0.0,1,6.0,17.523000717163086,0.0,0.0,0.0,66.7128,C,30131084000000,
Raw,1732151247000,30927000000,,996480.2049823415,-1416186434073999872,0.0,89.50377187565547,1397.5191207338485,0.0,0,13,0.0,16431,349664930597784,487,17.25,713.5825037937192,0.14999,16,0.0,0.0,1575420030,,,,0,0.0,1,6.0,17.25,0.0,0.0,0.0,66.7128,C,30131084000000,
Raw,1732151247000,30927000000,,996480.2049823415,-1416186434073999872,0.0,89.50377187565547,1397.5191207338485,0.0,0,7,0.0,16431,349664919374340,396,20.003999710083008,1032.1670975336915,0.14999,16,0.0,0.0,1575420030,,,,0,2.1853399241693627,1,6.0,20.003999710083008,0.0,0.0,0.0,66.7128,C,30131084000000,
Raw,1732151247000,30927000000,,996480.2049823415,-1416186434073999872,0.0,89.50377187565547,1397.5191207338485,0.0,0,19,0.0,16431,349664930757196,797,17.684999465942383,-25.57930708927923,0.14999,16,0.0,0.0,1575420030,,,,0,0.0,1,6.0,17.684999465942383,0.0,0.0,0.0,66.7128,C,30131084000000,
Raw,1732151247000,30927000000,,996480.2049823415,-1416186434073999872,0.0,89.50377187565547,1397.5191207338485,0.0,0,11,0.0,17,1137,487,20.0,-57.14420919896272,0.14999,16,0.0,0.0,1602000000,,,,0,0.0,3,6.0,20.0,0.0,0.0,108.67631620913818,66.7128,C,30131084000000,
Raw,1732151247000,30927000000,,996480.2049823415,-1416186434073999872,0.0,89.50377187565547,1397.5191207338485,0.0,0,30,0.0,16431,349664928060102,487,25.82900047302246,882.211502111121,0.14999,16,0.0,0.0,1575420030,,,,0,11.174336486605442,1,6.0,25.82900047302246,0.0,0.0,0.0,66.7128,C,30131084000000,
Status,1732151247001,26,0,1,17,1575420030,0.00,113.0,80.0,0,0,0,0.0
Status,1732151247001,26,1,1,22,1575420030,0.00,1.0,68.0,0,0,0,0.0
Status,1732151247001,26,2,1,14,1575420030,0.00,46.0,56.0,0,0,0,0.0
Status,1732151247001,26,3,1,19,1575420030,22.70,198.0,55.0,1,0,0,17.7
Status,1732151247001,26,4,1,13,1575420030,23.80,241.0,51.0,1,0,0,18.8
Status,1732151247001,26,5,1,30,1575420030,30.80,128.0,41.0,1,0,0,25.8
Status,1732151247001,26,6,1,15,1575420030,22.50,281.0,30.0,1,0,0,17.5
Status,1732151247001,26,7,1,2,1575420030,0.00,52.0,19.0,0,0,0,0.0
Status,1732151247001,26,8,1,24,1575420030,0.00,312.0,12.0,0,0,0,0.0
Status,1732151247001,26,9,1,6,1575420030,0.00,164.0,8.0,0,0,0,0.0
Status,1732151247001,26,10,1,7,1575420030,25.00,129.0,8.0,1,0,0,20.0
Status,1732151247001,26,11,1,21,1575420030,0.00,37.0,7.0,0,0,0,0.0
Status,1732151247001,26,12,3,20,1602000000,0.00,122.0,49.0,0,0,0,0.0
Status,1732151247001,26,13,3,9,1602000000,0.00,74.0,36.0,0,0,0,0.0
Status,1732151247001,26,14,3,8,1602000000,0.00,252.0,27.0,0,0,0,0.0
Status,1732151247001,26,15,3,19,1602000000,0.00,38.0,27.0,0,0,0,0.0
Status,1732151247001,26,16,3,11,1602000000,22.80,305.0,24.0,0,0,0,17.8
Status,1732151247001,26,17,6,21,1575420030,0.00,333.0,68.0,0,0,0,0.0
Status,1732151247001,26,18,6,19,1575420030,0.00,248.0,49.0,0,0,0,0.0
Status,1732151247001,26,19,6,27,1575420030,0.00,61.0,37.0,0,0,0,0.0
Status,1732151247001,26,20,6,29,1575420030,0.00,192.0,29.0,0,0,0,0.0
Status,1732151247001,26,21,6,13,1575420030,0.00,123.0,25.0,0,0,0,0.0
Status,1732151247001,26,22,6,15,1575420030,0.00,66.0,23.0,0,0,0,0.0
Status,1732151247001,26,23,6,4,1575420030,0.00,314.0,21.0,0,0,0,0.0
Status,1732151247001,26,24,6,26,1575420030,0.00,169.0,3.0,0,0,0,0.0
Status,1732151247001,26,25,6,6,1575420030,0.00,329.0,2.0,0,0,0,0.0
Fix,GPS,37.4250666667,-122.1584466667,-0.8000000000000007,0.0,6.4,0.0,1732151248001,2.1,179.9,30132084000000,45.2,0,,,
Raw,1732151248000,31927000000,,996475.7227148123,-1416186434073999872,0.0,89.42230351782518,1392.7340002716342,0.0,0,15,0.0,16431,349665926162252,797,17.52199935913086,506.65945903853805,0.14999,16,0.0,0.0,1575420030,,,,0,0.0,1,6.0,17.52199935913086,0.0,0.0,0.0,66.7128,C,30132084000000,
Raw,1732151248000,31927000000,,996475.7227148123,-1416186434073999872,0.0,89.42230351782518,1392.7340002716342,0.0,0,13,0.0,16431,349665930595390,797,18.82200050354004,712.4122162893758,0.14999,16,0.0,0.0,1575420030,,,,0,0.13923902627411078,1,6.0,18.82200050354004,0.0,0.0,0.0,66.7128,C,30132084000000,
Raw,1732151248000,31927000000,,996475.7227148123,-1416186434073999872,0.0,89.42230351782518,1392.7340002716342,0.0,0,7,0.0,16431,349665919370843,396,20.003999710083008,1031.0174375661454,0.14999,16,0.0,0.0,1575420030,,,,0,2.1853399241693627,1,6.0,20.003999710083008,0.0,0.0,0.0,66.7128,C,30132084000000,
Raw,1732151248000,31927000000,,996475.7227148123,-1416186434073999872,0.0,89.42230351782518,1392.7340002716342,0.0,0,19,0.0,16431,349665930757282,797,17.684999465942383,-26.169096683072013,0.14999,16,0.0,0.0,1575420030,,,,0,0.0,1,6.0,17.684999465942383,0.0,0.0,0.0,66.7128,C,30132084000000,
Raw,1732151248000,31927000000,,996475.7227148123,-1416186434073999872,0.0,89.42230351782518,1392.7340002716342,0.0,0,11,0.0,17,1339,797,17.0,-58.6694893679059,0.14999,16,0.0,0.0,1602000000,,,,0,0.5630250076728718,3,6.0,17.0,0.0,0.0,108.67631620913818,66.7128,C,30132084000000,
Raw,1732151248000,31927000000,,996475.7227148123,-1416186434073999872,0.0,89.42230351782518,1392.7340002716342,0.0,0,30,0.0,16431,349665928057162,797,25.82900047302246,881.5415717493651,0.14999,16,0.0,0.0,1575420030,,,,0,11.174336486605442,1,6.0,25.82900047302246,0.0,0.0,0.0,66.7128,C,30132084000000,
Fix,FLP,37.4251326000,-122.1584247000,2.6762397145825556,0.051584713,17.375,,1732151248236,2.1,,30132084000000,12.376304,0,,,
Status,1732151248001,26,0,1,17,1575420030,0.00,113.0,80.0,0,0,0,0.0
Status,1732151248001,26,1,1,22,1575420030,0.00,1.0,68.0,0,0,0,0.0
Status,1732151248001,26,2,1,14,1575420030,0.00,46.0,56.0,0,0,0,0.0
Status,1732151248001,26,3,1,19,1575420030,21.70,198.0,55.0,1,0,0,16.7
Status,1732151248001,26,4,1,13,1575420030,22.80,241.0,51.0,1,0,0,17.8
Status,1732151248001,26,5,1,30,1575420030,21.50,128.0,41.0,1,0,0,16.5
Status,1732151248001,26,6,1,15,1575420030,22.50,281.0,30.0,1,0,0,17.5
Status,1732151248001,26,7,1,2,1575420030,0.00,52.0,19.0,0,0,0,0.0
Status,1732151248001,26,8,1,24,1575420030,0.00,312.0,12.0,0,0,0,0.0
Status,1732151248001,26,9,1,6,1575420030,0.00,164.0,8.0,0,0,0,0.0
Status,1732151248001,26,10,1,7,1575420030,26.40,129.0,8.0,1,0,0,21.4
Status,1732151248001,26,11,1,21,1575420030,0.00,37.0,7.0,0,0,0,0.0
Status,1732151248001,26,12,3,20,1602000000,0.00,122.0,49.0,0,0,0,0.0
Status,1732151248001,26,13,3,9,1602000000,0.00,74.0,36.0,0,0,0,0.0
Status,1732151248001,26,14,3,8,1602000000,0.00,252.0,27.0,0,0,0,0.0
Status,1732151248001,26,15,3,19,1602000000,0.00,38.0,27.0,0,0,0,0.0
Status,1732151248001,26,16,3,11,1602000000,22.70,305.0,24.0,0,0,0,17.7
Status,1732151248001,26,17,6,21,1575420030,0.00,333.0,68.0,0,0,0,0.0
Status,1732151248001,26,18,6,19,1575420030,0.00,248.0,49.0,0,0,0,0.0
Status,1732151248001,26,19,6,27,1575420030,0.00,61.0,37.0,0,0,0,0.0
Status,1732151248001,26,20,6,29,1575420030,0.00,192.0,29.0,0,0,0,0.0
Status,1732151248001,26,21,6,13,1575420030,0.00,123.0,25.0,0,0,0,0.0
Status,1732151248001,26,22,6,15,1575420030,0.00,66.0,23.0,0,0,0,0.0
Status,1732151248001,26,23,6,4,1575420030,0.00,314.0,21.0,0,0,0,0.0
Status,1732151248001,26,24,6,26,1575420030,0.00,169.0,3.0,0,0,0,0.0
Status,1732151248001,26,25,6,6,1575420030,0.00,329.0,2.0,0,0,0,0.0
Fix,GPS,37.4250866667,-122.1584333333,-0.8000000000000007,0.0,6.4,0.0,1732151249001,2.1,179.9,30133084000000,43.5,0,,,
Fix,FLP,37.4251125000,-122.1584283000,2.864060782047474,0.09831826,15.787,,1732151249236,2.1,,30133084000000,12.366234,0,,,
Raw,1732151249000,32927000000,,996440.6984848165,-1416186434073999872,0.0,88.64587602977097,1389.0068980185526,0.0,0,15,0.0,16431,349666926160563,797,17.520999908447266,505.90613581968415,0.14999,16,0.0,0.0,1575420030,,,,0,0.0,1,6.0,17.520999908447266,0.0,0.0,0.0,66.7128,C,30133084000000,
Raw,1732151249000,32927000000,,996440.6984848165,-1416186434073999872,0.0,88.64587602977097,1389.0068980185526,0.0,0,13,0.0,16431,349666930593030,797,17.768999099731445,711.6946195925877,0.14999,16,0.0,0.0,1575420030,,,,0,0.0,1,6.0,17.768999099731445,0.0,0.0,0.0,66.7128,C,30133084000000,
Raw,1732151249000,32927000000,,996440.6984848165,-1416186434073999872,0.0,88.64587602977097,1389.0068980185526,0.0,0,7,0.0,16431,349666919367423,487,21.430999755859375,1029.91423601481,0.14999,16,0.0,0.0,1575420030,,,,0,4.603315100300561,1,6.0,21.430999755859375,0.0,0.0,0.0,66.7128,C,30133084000000,
Raw,1732151249000,32927000000,,996440.6984848165,-1416186434073999872,0.0,88.64587602977097,1389.0068980185526,0.0,0,19,0.0,16431,349666930757336,797,16.676000595092773,-25.72091234188895,0.14999,16,0.0,0.0,1575420030,,,,0,0.0,1,6.0,16.676000595092773,0.0,0.0,0.0,66.7128,C,30133084000000,
Raw,1732151249000,32927000000,,996440.6984848165,-1416186434073999872,0.0,88.64587602977097,1389.0068980185526,0.0,0,11,0.0,17,1551,797,17.0,-58.494917089171985,0.14999,16,0.0,0.0,1602000000,,,,0,0.0,3,6.0,17.0,0.0,0.0,108.67631620913818,66.7128,C,30133084000000,
Raw,1732151249000,32927000000,,996440.6984848165,-1416186434073999872,0.0,88.64587602977097,1389.0068980185526,0.0,0,30,0.0,16431,349666928054216,797,16.468000411987305,880.6887810614044,0.14999,16,0.0,0.0,1575420030,,,,0,0.0,1,6.0,16.468000411987305,0.0,0.0,0.0,66.7128,C,30133084000000,
Status,1732151249001,26,0,1,17,1575420030,0.00,113.0,80.0,0,0,0,0.0
Status,1732151249001,26,1,1,22,1575420030,0.00,1.0,68.0,0,0,0,0.0
Status,1732151249001,26,2,1,14,1575420030,0.00,46.0,56.0,0,0,0,0.0
Status,1732151249001,26,3,1,19,1575420030,21.70,198.0,55.0,1,0,0,16.7
Status,1732151249001,26,4,1,13,1575420030,22.80,241.0,51.0,1,0,0,17.8
Status,1732151249001,26,5,1,30,1575420030,21.50,128.0,41.0,1,0,0,16.5
Status,1732151249001,26,6,1,15,1575420030,22.60,281.0,30.0,1,0,0,17.6
Status,1732151249001,26,7,1,2,1575420030,0.00,52.0,19.0,0,0,0,0.0
Status,1732151249001,26,8,1,24,1575420030,0.00,312.0,12.0,0,0,0,0.0
Status,1732151249001,26,9,1,6,1575420030,0.00,164.0,8.0,0,0,0,0.0
Status,1732151249001,26,10,1,7,1575420030,26.10,129.0,8.0,1,0,0,21.1
Status,1732151249001,26,11,1,21,1575420030,0.00,37.0,7.0,0,0,0,0.0
Status,1732151249001,26,12,3,20,1602000000,0.00,122.0,49.0,0,0,0,0.0
Status,1732151249001,26,13,3,9,1602000000,0.00,74.0,36.0,0,0,0,0.0
Status,1732151249001,26,14,3,8,1602000000,0.00,252.0,27.0,0,0,0,0.0
Status,1732151249001,26,15,3,19,1602000000,0.00,38.0,27.0,0,0,0,0.0
Status,1732151249001,26,16,3,11,1602000000,22.60,305.0,24.0,0,0,0,17.6
Status,1732151249001,26,17,6,21,1575420030,0.00,333.0,68.0,0,0,0,0.0
Status,1732151249001,26,18,6,19,1575420030,0.00,248.0,49.0,0,0,0,0.0
Status,1732151249001,26,19,6,27,1575420030,0.00,61.0,37.0,0,0,0,0.0
Status,1732151249001,26,20,6,29,1575420030,0.00,192.0,29.0,0,0,0,0.0
Status,1732151249001,26,21,6,13,1575420030,0.00,123.0,25.0,0,0,0,0.0
Status,1732151249001,26,22,6,15,1575420030,0.00,66.0,23.0,0,0,0,0.0
Status,1732151249001,26,23,6,4,1575420030,0.00,314.0,21.0,0,0,0,0.0
Status,1732151249001,26,24,6,26,1575420030,0.00,169.0,3.0,0,0,0,0.0
Status,1732151249001,26,25,6,6,1575420030,0.00,329.0,2.0,0,0,0,0.0
Fix,GPS,37.4251083333,-122.1584283333,-0.8000000000000007,0.0,6.4,0.0,1732151250001,2.1,179.9,30134084000000,43.7,0,,,
Raw,1732151250000,33927000000,,996407.0293589574,-1416186434073999872,0.0,88.80559345694562,1388.3210271279593,0.0,0,15,0.0,16431,349667926158904,797,17.55299949645996,506.3181290546392,0.14999,16,0.0,0.0,1575420030,,,,0,0.0,1,6.0,17.55299949645996,0.0,0.0,0.0,66.7128,C,30134084000000,
Raw,1732151250000,33927000000,,996407.0293589574,-1416186434073999872,0.0,88.80559345694562,1388.3210271279593,0.0,0,13,0.0,16431,349667930590656,797,17.768999099731445,711.656059107133,0.14999,16,0.0,0.0,1575420030,,,,0,0.0,1,6.0,17.768999099731445,0.0,0.0,0.0,66.7128,C,30134084000000,
Raw,1732151250000,33927000000,,996407.0293589574,-1416186434073999872,0.0,88.80559345694562,1388.3210271279593,0.0,0,7,0.0,16431,349667919363959,487,21.052000045776367,1030.379842262072,0.14999,16,0.0,0.0,1575420030,,,,0,4.015639546596368,1,6.0,21.052000045776367,0.0,0.0,0.0,66.7128,C,30134084000000,
Raw,1732151250000,33927000000,,996407.0293589574,-1416186434073999872,0.0,88.80559345694562,1388.3210271279593,0.0,0,19,0.0,16431,349667930757422,797,16.676000595092773,-26.28008583939899,0.14999,16,0.0,0.0,1575420030,,,,0,0.0,1,6.0,16.676000595092773,0.0,0.0,0.0,66.7128,C,30134084000000,
Raw,1732151250000,33927000000,,996407.0293589574,-1416186434073999872,0.0,88.80559345694562,1388.3210271279593,0.0,0,11,0.0,17,1745,797,16.0,-57.85953978470911,0.14999,16,0.0,0.0,1602000000,,,,0,0.0,3,6.0,16.0,0.0,0.0,108.67631620913818,66.7128,C,30134084000000,
Raw,1732151250000,33927000000,,996407.0293589574,-1416186434073999872,0.0,88.80559345694562,1388.3210271279593,0.0,0,30,0.0,16431,349667928051278,797,16.468000411987305,881.0584042207755,0.14999,16,0.0,0.0,1575420030,,,,0,0.0,1,6.0,16.468000411987305,0.0,0.0,0.0,66.7128,C,30134084000000,
Fix,FLP,37.4251103000,-122.1584283000,3.113905825511864,0.09880601,14.198,,1732151250236,2.1,,30134084000000,11.747502,0,,,
Fix,FLP,37.4251090000,-122.1584283000,2.9260847580469456,0.09681077,11.783,,1732151251253,2.1,,30135101000000,12.464488,0,,,
Status,1732151250001,26,0,1,17,1575420030,0.00,113.0,80.0,0,0,0,0.0
Status,1732151250001,26,1,1,22,1575420030,0.00,1.0,68.0,0,0,0,0.0
Status,1732151250001,26,2,1,14,1575420030,0.00,46.0,56.0,0,0,0,0.0
Status,1732151250001,26,3,1,19,1575420030,21.70,198.0,55.0,1,0,0,16.7
Status,1732151250001,26,4,1,13,1575420030,22.80,241.0,51.0,1,0,0,17.8
Status,1732151250001,26,5,1,30,1575420030,21.50,128.0,41.0,1,0,0,16.5
Status,1732151250001,26,6,1,15,1575420030,25.40,281.0,30.0,1,0,0,20.4
Status,1732151250001,26,7,1,2,1575420030,0.00,52.0,19.0,0,0,0,0.0
Status,1732151250001,26,8,1,24,1575420030,0.00,312.0,12.0,0,0,0,0.0
Status,1732151250001,26,9,1,6,1575420030,0.00,164.0,8.0,0,0,0,0.0
Status,1732151250001,26,10,1,7,1575420030,26.10,129.0,8.0,1,0,0,21.1
Status,1732151250001,26,11,1,21,1575420030,0.00,37.0,7.0,0,0,0,0.0
Status,1732151250001,26,12,3,20,1602000000,0.00,122.0,49.0,0,0,0,0.0
Status,1732151250001,26,13,3,9,1602000000,0.00,74.0,36.0,0,0,0,0.0
Status,1732151250001,26,14,3,8,1602000000,0.00,252.0,27.0,0,0,0,0.0
Status,1732151250001,26,15,3,19,1602000000,0.00,38.0,27.0,0,0,0,0.0
Status,1732151250001,26,16,3,11,1602000000,22.50,305.0,24.0,0,0,0,17.5
Status,1732151250001,26,17,6,21,1575420030,0.00,333.0,68.0,0,0,0,0.0
Status,1732151250001,26,18,6,19,1575420030,0.00,248.0,49.0,0,0,0,0.0
Status,1732151250001,26,19,6,27,1575420030,0.00,61.0,37.0,0,0,0,0.0
Status,1732151250001,26,20,6,29,1575420030,0.00,192.0,29.0,0,0,0,0.0
Status,1732151250001,26,21,6,13,1575420030,0.00,123.0,25.0,0,0,0,0.0
Status,1732151250001,26,22,6,15,1575420030,0.00,66.0,23.0,0,0,0,0.0
Status,1732151250001,26,23,6,4,1575420030,0.00,314.0,21.0,0,0,0,0.0
Status,1732151250001,26,24,6,26,1575420030,0.00,169.0,3.0,0,0,0,0.0
Status,1732151250001,26,25,6,6,1575420030,0.00,329.0,2.0,0,0,0,0.0
Fix,GPS,37.4251266667,-122.1584233333,-0.8000000000000007,0.0,6.5,0.0,1732151251001,2.1,179.9,30135084000000,43.9,0,,,
Raw,1732151251000,34927000000,,996374.4026208958,-1416186434073999872,0.0,88.53184577772942,1387.506595393473,0.0,0,15,0.0,16431,349668926157186,487,20.44499969482422,506.67084135050965,0.14999,16,0.0,0.0,1575420030,,,,0,3.003439679494623,1,6.0,20.44499969482422,0.0,0.0,0.0,66.7128,C,30135084000000,
Raw,1732151251000,34927000000,,996374.4026208958,-1416186434073999872,0.0,88.53184577772942,1387.506595393473,0.0,0,13,0.0,16431,349668930588284,797,17.768999099731445,711.306970567727,0.14999,16,0.0,0.0,1575420030,,,,0,0.0,1,6.0,17.768999099731445,0.0,0.0,0.0,66.7128,C,30135084000000,
Raw,1732151251000,34927000000,,996374.4026208958,-1416186434073999872,0.0,88.53184577772942,1387.506595393473,0.0,0,7,0.0,16431,349668919360511,487,21.072999954223633,1030.5922501409866,0.14999,16,0.0,0.0,1575420030,,,,0,4.684114656335362,1,6.0,21.072999954223633,0.0,0.0,0.0,66.7128,C,30135084000000,
Raw,1732151251000,34927000000,,996374.4026208958,-1416186434073999872,0.0,88.53184577772942,1387.506595393473,0.0,0,19,0.0,16431,349668930757511,797,16.676000595092773,-26.511727502624733,0.14999,16,0.0,0.0,1575420030,,,,0,0.0,1,6.0,16.676000595092773,0.0,0.0,0.0,66.7128,C,30135084000000,
Raw,1732151251000,34927000000,,996374.4026208958,-1416186434073999872,0.0,88.53184577772942,1387.506595393473,0.0,0,11,0.0,17,1939,797,17.0,-57.80105967039888,0.14999,16,0.0,0.0,1602000000,,,,0,0.0,3,6.0,17.0,0.0,0.0,108.67631620913818,66.7128,C,30135084000000,
Raw,1732151251000,34927000000,,996374.4026208958,-1416186434073999872,0.0,88.53184577772942,1387.506595393473,0.0,0,30,0.0,16431,349668928048340,797,16.468000411987305,880.9586115427552,0.14999,16,0.0,0.0,1575420030,,,,0,0.0,1,6.0,16.468000411987305,0.0,0.0,0.0,66.7128,C,30135084000000,
Fix,NLP,37.4256607000,-122.1580614000,-0.4000000059604645,,26.823,,1732151251253,,,30135101000000,76.923256,0,,,
Status,1732151251001,26,0,1,17,1575420030,0.00,113.0,80.0,0,0,0,0.0
Status,1732151251001,26,1,1,22,1575420030,0.00,1.0,68.0,0,0,0,0.0
Status,1732151251001,26,2,1,14,1575420030,0.00,46.0,56.0,0,0,0,0.0
Status,1732151251001,26,3,1,19,1575420030,21.60,198.0,55.0,1,0,0,16.6
Status,1732151251001,26,4,1,13,1575420030,19.10,241.0,51.0,1,0,0,14.1
Status,1732151251001,26,5,1,30,1575420030,18.80,128.0,41.0,1,0,0,13.799999
Status,1732151251001,26,6,1,15,1575420030,25.50,281.0,30.0,1,0,0,20.5
Status,1732151251001,26,7,1,2,1575420030,0.00,52.0,19.0,0,0,0,0.0
Status,1732151251001,26,8,1,24,1575420030,0.00,312.0,12.0,0,0,0,0.0
Status,1732151251001,26,9,1,6,1575420030,0.00,164.0,8.0,0,0,0,0.0
Status,1732151251001,26,10,1,7,1575420030,26.10,129.0,8.0,1,0,0,21.1
Status,1732151251001,26,11,1,21,1575420030,0.00,37.0,7.0,0,0,0,0.0
Status,1732151251001,26,12,3,20,1602000000,0.00,122.0,49.0,0,0,0,0.0
Status,1732151251001,26,13,3,9,1602000000,0.00,74.0,36.0,0,0,0,0.0
Status,1732151251001,26,14,3,8,1602000000,0.00,252.0,27.0,0,0,0,0.0
Status,1732151251001,26,15,3,19,1602000000,0.00,38.0,27.0,0,0,0,0.0
Status,1732151251001,26,16,3,11,1602000000,22.60,305.0,24.0,0,0,0,17.6
Status,1732151251001,26,17,6,21,1575420030,0.00,333.0,68.0,0,0,0,0.0
Status,1732151251001,26,18,6,19,1575420030,0.00,248.0,49.0,0,0,0,0.0
Status,1732151251001,26,19,6,27,1575420030,0.00,61.0,37.0,0,0,0,0.0
Status,1732151251001,26,20,6,29,1575420030,0.00,192.0,29.0,0,0,0,0.0
Status,1732151251001,26,21,6,13,1575420030,0.00,123.0,25.0,0,0,0,0.0
Status,1732151251001,26,22,6,15,1575420030,0.00,66.0,23.0,0,0,0,0.0
Status,1732151251001,26,23,6,4,1575420030,0.00,314.0,21.0,0,0,0,0.0
Status,1732151251001,26,24,6,26,1575420030,0.00,169.0,3.0,0,0,0,0.0
Status,1732151251001,26,25,6,6,1575420030,0.00,329.0,2.0,0,0,0,0.0
Fix,FLP,37.4251231000,-122.1584198000,2.7173103240330763,0.05343221,6.4,,1732151252236,2.1,,30136084000000,10.328833,0,,,
Fix,GPS,37.4251450000,-122.1584066667,-0.8000000000000007,0.0,6.5,0.0,1732151252000,2.1,179.9,30136084000000,42.9,0,,,
Raw,1732151252000,35927000000,,996315.2992327779,-1416186434073999872,0.0,87.64615971029062,1389.2162172417068,0.0,0,15,0.0,16431,349669926155441,396,20.53499984741211,507.62574763730106,0.14999,16,0.0,0.0,1575420030,,,,0,5.953839806757497,1,6.0,20.53499984741211,0.0,0.0,0.0,66.7128,C,30136084000000,
Raw,1732151252000,35927000000,,996315.2992327779,-1416186434073999872,0.0,87.64615971029062,1389.2162172417068,0.0,0,13,0.0,16431,349669930585902,1797,14.100000381469727,711.8429148571319,0.14999,16,0.0,0.0,1575420030,,,,0,0.0,1,6.0,14.100000381469727,0.0,0.0,0.0,66.7128,C,30136084000000,
Raw,1732151252000,35927000000,,996315.2992327779,-1416186434073999872,0.0,87.64615971029062,1389.2162172417068,0.0,0,7,0.0,16431,349669919357074,797,21.093000411987305,1030.8051226040634,0.14999,16,0.0,0.0,1575420030,,,,0,4.684114656335362,1,6.0,21.093000411987305,0.0,0.0,0.0,66.7128,C,30136084000000,
Raw,1732151252000,35927000000,,996315.2992327779,-1416186434073999872,0.0,87.64615971029062,1389.2162172417068,0.0,0,19,0.0,16431,349669930757579,797,16.562000274658203,-26.4044550195946,0.14999,16,0.0,0.0,1575420030,,,,0,0.0,1,6.0,16.562000274658203,0.0,0.0,0.0,66.7128,C,30136084000000,
Raw,1732151252000,35927000000,,996315.2992327779,-1416186434073999872,0.0,87.64615971029062,1389.2162172417068,0.0,0,11,0.0,17,2012,487,18.0,-57.61908600219757,0.14999,16,0.0,0.0,1602000000,,,,0,3.061799739838872,3,6.0,18.0,0.0,0.0,108.67631620913818,66.7128,C,30136084000000,
Raw,1732151252000,35927000000,,996315.2992327779,-1416186434073999872,0.0,87.64615971029062,1389.2162172417068,0.0,0,30,0.0,16431,349669928045384,1797,13.800000190734863,881.622781060901,0.14999,16,0.0,0.0,1575420030,,,,0,0.0,1,6.0,13.800000190734863,0.0,0.0,0.0,66.7128,C,30136084000000,
Status,1732151252000,26,0,1,17,1575420030,0.00,113.0,80.0,0,0,0,0.0
Status,1732151252000,26,1,1,22,1575420030,0.00,1.0,68.0,0,0,0,0.0
Status,1732151252000,26,2,1,14,1575420030,0.00,46.0,56.0,0,0,0,0.0
Status,1732151252000,26,3,1,19,1575420030,21.50,198.0,55.0,1,0,0,16.5
Status,1732151252000,26,4,1,13,1575420030,19.10,241.0,51.0,1,0,0,14.1
Status,1732151252000,26,5,1,30,1575420030,18.80,128.0,41.0,1,0,0,13.799999
Status,1732151252000,26,6,1,15,1575420030,25.60,281.0,30.0,1,0,0,20.6
Status,1732151252000,26,7,1,2,1575420030,0.00,52.0,19.0,0,0,0,0.0
Status,1732151252000,26,8,1,24,1575420030,0.00,312.0,12.0,0,0,0,0.0
Status,1732151252000,26,9,1,6,1575420030,0.00,164.0,8.0,0,0,0,0.0
Status,1732151252000,26,10,1,7,1575420030,26.10,129.0,8.0,1,0,0,21.1
Status,1732151252000,26,11,1,21,1575420030,0.00,37.0,7.0,0,0,0,0.0
Status,1732151252000,26,12,3,20,1602000000,0.00,122.0,49.0,0,0,0,0.0
Status,1732151252000,26,13,3,9,1602000000,0.00,74.0,36.0,0,0,0,0.0
Status,1732151252000,26,14,3,8,1602000000,0.00,252.0,27.0,0,0,0,0.0
Status,1732151252000,26,15,3,19,1602000000,0.00,38.0,27.0,0,0,0,0.0
Status,1732151252000,26,16,3,11,1602000000,22.20,305.0,24.0,0,0,0,17.2
Status,1732151252000,26,17,6,21,1575420030,0.00,333.0,68.0,0,0,0,0.0
Status,1732151252000,26,18,6,19,1575420030,0.00,248.0,49.0,0,0,0,0.0
Status,1732151252000,26,19,6,27,1575420030,0.00,61.0,37.0,0,0,0,0.0
Status,1732151252000,26,20,6,29,1575420030,0.00,192.0,29.0,0,0,0,0.0
Status,1732151252000,26,21,6,13,1575420030,0.00,123.0,25.0,0,0,0,0.0
Status,1732151252000,26,22,6,15,1575420030,0.00,66.0,23.0,0,0,0,0.0
Status,1732151252000,26,23,6,4,1575420030,0.00,314.0,21.0,0,0,0,0.0
Status,1732151252000,26,24,6,26,1575420030,0.00,169.0,3.0,0,0,0,0.0
Status,1732151252000,26,25,6,6,1575420030,0.00,329.0,2.0,0,0,0,0.0
Fix,GPS,37.4251600000,-122.1583916667,-0.8000000000000007,0.0,6.4,0.0,1732151253000,2.1,179.9,30137084000000,42.9,0,,,
Raw,1732151253000,36927000000,,996258.9060529334,-1416186434073999872,0.0,87.54435130248116,1390.8512559724809,0.0,0,15,0.0,16431,349670926153726,396,20.618000030517578,508.11179558769567,0.14999,16,0.0,0.0,1575420030,,,,0,5.8840732498410695,1,6.0,20.618000030517578,0.0,0.0,0.0,66.7128,C,30137084000000,
Raw,1732151253000,36927000000,,996258.9060529334,-1416186434073999872,0.0,87.54435130248116,1390.8512559724809,0.0,0,13,0.0,16431,349670930583526,797,14.100000381469727,712.3848058238116,0.14999,16,0.0,0.0,1575420030,,,,0,0.0,1,6.0,14.100000381469727,0.0,0.0,0.0,66.7128,C,30137084000000,
Raw,1732151253000,36927000000,,996258.9060529334,-1416186434073999872,0.0,87.54435130248116,1390.8512559724809,0.0,0,7,0.0,16431,349670919353634,797,21.11199951171875,1031.6331044977676,0.14999,16,0.0,0.0,1575420030,,,,0,4.684114656335362,1,6.0,21.11199951171875,0.0,0.0,0.0,66.7128,C,30137084000000,
Raw,1732151253000,36927000000,,996258.9060529334,-1416186434073999872,0.0,87.54435130248116,1390.8512559724809,0.0,0,19,0.0,16431,349670930757667,797,16.452999114990234,-25.74762593121001,0.14999,16,0.0,0.0,1575420030,,,,0,0.0,1,6.0,16.452999114990234,0.0,0.0,0.0,66.7128,C,30137084000000,
Raw,1732151253000,36927000000,,996258.9060529334,-1416186434073999872,0.0,87.54435130248116,1390.8512559724809,0.0,0,11,0.0,17,2203,487,20.0,-57.02158370926844,0.14999,16,0.0,0.0,1602000000,,,,0,0.0,3,6.0,20.0,0.0,0.0,108.67631620913818,66.7128,C,30137084000000,
Raw,1732151253000,36927000000,,996258.9060529334,-1416186434073999872,0.0,87.54435130248116,1390.8512559724809,0.0,0,30,0.0,16431,349670928042443,797,13.800000190734863,881.9985367312119,0.14999,16,0.0,0.0,1575420030,,,,0,0.0,1,6.0,13.800000190734863,0.0,0.0,0.0,66.7128,C,30137084000000,
Fix,FLP,37.4251382000,-122.1584085000,5.400000095367432,0.009277966,6.416,,1732151253236,2.1,,30137084000000,11.448215,0,,,
Status,1732151253000,27,0,1,17,1575420030,0.00,113.0,80.0,0,0,0,0.0
Status,1732151253000,27,1,1,22,1575420030,0.00,1.0,68.0,0,0,0,0.0
Status,1732151253000,27,2,1,14,1575420030,0.00,46.0,56.0,0,0,0,0.0
Status,1732151253000,27,3,1,19,1575420030,21.30,198.0,55.0,1,0,0,16.3
Status,1732151253000,27,4,1,13,1575420030,17.80,241.0,51.0,1,0,0,12.799999
Status,1732151253000,27,5,2,138,1575420030,0.00,156.0,43.0,0,0,0,0.0
Status,1732151253000,27,6,1,30,1575420030,18.80,128.0,41.0,1,0,0,13.799999
Status,1732151253000,27,7,1,15,1575420030,25.70,281.0,30.0,1,0,0,20.7
Status,1732151253000,27,8,1,2,1575420030,0.00,52.0,19.0,0,0,0,0.0
Status,1732151253000,27,9,1,24,1575420030,0.00,312.0,12.0,0,0,0,0.0
Status,1732151253000,27,10,1,6,1575420030,0.00,164.0,8.0,0,0,0,0.0
Status,1732151253000,27,11,1,7,1575420030,22.40,129.0,8.0,1,0,0,17.4
Status,1732151253000,27,12,1,21,1575420030,0.00,37.0,7.0,0,0,0,0.0
Status,1732151253000,27,13,3,20,1602000000,0.00,122.0,49.0,0,0,0,0.0
Status,1732151253000,27,14,3,9,1602000000,0.00,74.0,36.0,0,0,0,0.0
Status,1732151253000,27,15,3,8,1602000000,0.00,252.0,27.0,0,0,0,0.0
Status,1732151253000,27,16,3,19,1602000000,0.00,38.0,27.0,0,0,0,0.0
Status,1732151253000,27,17,3,11,1602000000,31.40,305.0,24.0,0,0,0,26.4
Status,1732151253000,27,18,6,21,1575420030,0.00,333.0,68.0,0,0,0,0.0
Status,1732151253000,27,19,6,19,1575420030,0.00,248.0,49.0,0,0,0,0.0
Status,1732151253000,27,20,6,27,1575420030,0.00,61.0,37.0,0,0,0,0.0
Status,1732151253000,27,21,6,29,1575420030,0.00,192.0,29.0,0,0,0,0.0
Status,1732151253000,27,22,6,13,1575420030,0.00,123.0,25.0,0,0,0,0.0
Status,1732151253000,27,23,6,15,1575420030,0.00,66.0,23.0,0,0,0,0.0
Status,1732151253000,27,24,6,4,1575420030,0.00,314.0,21.0,0,0,0,0.0
Status,1732151253000,27,25,6,26,1575420030,0.00,169.0,3.0,0,0,0,0.0
Status,1732151253000,27,26,6,6,1575420030,0.00,329.0,2.0,0,0,0,0.0
Fix,GPS,37.4251633333,-122.1583866667,-0.8000000000000007,0.0,6.5,0.0,1732151254000,2.1,179.9,30138084000000,44.7,0,,,
Fix,FLP,37.4251484000,-122.1583999000,5.400000095367432,0.019402783,6.433,,1732151254236,2.1,,30138084000000,12.655789,0,,,
Raw,1732151254000,37927000000,,996210.8519754689,-1416186434073999872,0.0,100.96642390133306,1391.7562939614772,0.0,0,15,0.0,16431,349671926152050,487,20.738000869750977,508.7039545607152,0.14999,16,0.0,0.0,1575420030,,,,0,7.122360295897604,1,6.0,20.738000869750977,0.0,0.0,0.0,66.7128,C,30138084000000,
Raw,1732151254000,37927000000,,996210.8519754689,-1416186434073999872,0.0,100.96642390133306,1391.7562939614772,0.0,0,13,0.0,16431,349671930581150,797,12.800000190734863,712.5823470095387,0.14999,16,0.0,0.0,1575420030,,,,0,0.0,1,6.0,12.800000190734863,0.0,0.0,0.0,66.7128,C,30138084000000,
Raw,1732151254000,37927000000,,996210.8519754689,-1416186434073999872,0.0,100.96642390133306,1391.7562939614772,0.0,0,7,0.0,16431,349671919350203,797,17.426000595092773,1031.5137992849388,0.14999,16,0.0,0.0,1575420030,,,,0,0.0,1,6.0,17.426000595092773,0.0,0.0,0.0,66.7128,C,30138084000000,
Raw,1732151254000,37927000000,,996210.8519754689,-1416186434073999872,0.0,100.96642390133306,1391.7562939614772,0.0,0,19,0.0,16431,349671930757793,797,16.334999084472656,-25.5879948131106,0.14999,16,0.0,0.0,1575420030,,,,0,0.0,1,6.0,16.334999084472656,0.0,0.0,0.0,66.7128,C,30138084000000,
Raw,1732151254000,37927000000,,996210.8519754689,-1416186434073999872,0.0,100.96642390133306,1391.7562939614772,0.0,0,11,0.0,17,2498,235,27.0,-57.68323137758161,0.14999,16,0.0,0.0,1602000000,,,,0,12.827524783392986,3,6.0,27.0,0.0,0.0,108.67631620913818,66.7128,C,30138084000000,
Raw,1732151254000,37927000000,,996210.8519754689,-1416186434073999872,0.0,100.96642390133306,1391.7562939614772,0.0,0,30,0.0,16431,349671928039500,797,13.800000190734863,882.3655582192752,0.14999,16,0.0,0.0,1575420030,,,,0,0.0,1,6.0,13.800000190734863,0.0,0.0,0.0,66.7128,C,30138084000000,
Status,1732151254000,27,0,1,17,1575420030,0.00,113.0,80.0,0,0,0,0.0
Status,1732151254000,27,1,1,22,1575420030,0.00,1.0,68.0,0,0,0,0.0
Status,1732151254000,27,2,1,14,1575420030,0.00,46.0,56.0,0,0,0,0.0
Status,1732151254000,27,3,1,19,1575420030,21.20,198.0,55.0,1,0,0,16.2
Status,1732151254000,27,4,1,13,1575420030,24.50,241.0,51.0,1,0,0,19.5
Status,1732151254000,27,5,2,138,1575420030,0.00,156.0,43.0,0,0,0,0.0
Status,1732151254000,27,6,1,30,1575420030,18.90,128.0,41.0,1,0,0,13.9
Status,1732151254000,27,7,1,15,1575420030,25.80,281.0,30.0,1,0,0,20.8
Status,1732151254000,27,8,1,2,1575420030,0.00,52.0,19.0,0,0,0,0.0
Status,1732151254000,27,9,1,24,1575420030,0.00,312.0,12.0,0,0,0,0.0
Status,1732151254000,27,10,1,6,1575420030,0.00,164.0,8.0,0,0,0,0.0
Status,1732151254000,27,11,1,7,1575420030,22.40,129.0,8.0,1,0,0,17.4
Status,1732151254000,27,12,1,21,1575420030,0.00,37.0,7.0,0,0,0,0.0
Status,1732151254000,27,13,3,20,1602000000,0.00,122.0,49.0,0,0,0,0.0
Status,1732151254000,27,14,3,9,1602000000,0.00,74.0,36.0,0,0,0,0.0
Status,1732151254000,27,15,3,8,1602000000,0.00,252.0,27.0,0,0,0,0.0
Status,1732151254000,27,16,3,19,1602000000,0.00,38.0,27.0,0,0,0,0.0
Status,1732151254000,27,17,3,11,1602000000,32.20,305.0,24.0,0,0,0,27.2
Status,1732151254000,27,18,6,21,1575420030,0.00,333.0,68.0,0,0,0,0.0
Status,1732151254000,27,19,6,19,1575420030,0.00,248.0,49.0,0,0,0,0.0
Status,1732151254000,27,20,6,27,1575420030,0.00,61.0,37.0,0,0,0,0.0
Status,1732151254000,27,21,6,29,1575420030,0.00,192.0,29.0,0,0,0,0.0
Status,1732151254000,27,22,6,13,1575420030,0.00,123.0,25.0,0,0,0,0.0
Status,1732151254000,27,23,6,15,1575420030,0.00,66.0,23.0,0,0,0,0.0
Status,1732151254000,27,24,6,4,1575420030,0.00,314.0,21.0,0,0,0,0.0
Status,1732151254000,27,25,6,26,1575420030,0.00,169.0,3.0,0,0,0,0.0
Status,1732151254000,27,26,6,6,1575420030,0.00,329.0,2.0,0,0,0,0.0
Fix,GPS,37.4251650000,-122.1583816667,-0.8000000000000007,0.0,6.5,0.0,1732151255000,2.1,179.9,30139084000000,44.7,0,,,
Fix,FLP,37.4251553000,-122.1583927000,5.400000095367432,0.037547696,6.45,,1732151255236,2.1,,30139084000000,14.51092,0,,,
Raw,1732151255000,38927000000,,996166.5504940755,-1416186434073999872,0.0,101.01170389373276,1394.0966907572408,0.0,0,15,0.0,16431,349672926150349,487,20.783000946044922,509.87944540767427,0.14999,16,0.0,0.0,1575420030,,,,0,5.0,1,6.0,20.783000946044922,0.0,0.0,0.0,66.7128,C,30139084000000,
Raw,1732151255000,38927000000,,996166.5504940755,-1416186434073999872,0.0,101.01170389373276,1394.0966907572408,0.0,0,13,0.0,16431,349672930578752,487,19.47100067138672,714.0188412387686,0.14999,16,0.0,0.0,1575420030,,,,0,1.2820967490054858,1,6.0,19.47100067138672,0.0,0.0,0.0,66.7128,C,30139084000000,
Raw,1732151255000,38927000000,,996166.5504940755,-1416186434073999872,0.0,101.01170389373276,1394.0966907572408,0.0,0,7,0.0,16431,349672919346761,797,17.426000595092773,1032.1446116602456,0.14999,16,0.0,0.0,1575420030,,,,0,0.0,1,6.0,17.426000595092773,0.0,0.0,0.0,66.7128,C,30139084000000,
Raw,1732151255000,38927000000,,996166.5504940755,-1416186434073999872,0.0,101.01170389373276,1394.0966907572408,0.0,0,19,0.0,16431,349672930757876,797,16.222999572753906,-24.815019684199665,0.14999,16,0.0,0.0,1575420030,,,,0,0.0,1,6.0,16.222999572753906,0.0,0.0,0.0,66.7128,C,30139084000000,
Raw,1732151255000,38927000000,,996166.5504940755,-1416186434073999872,0.0,101.01170389373276,1394.0966907572408,0.0,0,11,0.0,17,2711,235,27.0,-57.095186415638594,0.14999,16,0.0,0.0,1602000000,,,,0,13.747082556963495,3,6.0,27.0,0.0,0.0,108.67631620913818,66.7128,C,30139084000000,
Raw,1732151255000,38927000000,,996166.5504940755,-1416186434073999872,0.0,101.01170389373276,1394.0966907572408,0.0,0,30,0.0,16431,349672928036553,797,13.854999542236328,883.1430862729748,0.14999,16,0.0,0.0,1575420030,,,,0,0.0,1,6.0,13.854999542236328,0.0,0.0,0.0,66.7128,C,30139084000000,
Status,1732151255000,27,0,1,17,1575420030,0.00,113.0,80.0,0,0,0,0.0
Status,1732151255000,27,1,1,22,1575420030,0.00,1.0,68.0,0,0,0,0.0
Status,1732151255000,27,2,1,14,1575420030,0.00,46.0,56.0,0,0,0,0.0
Status,1732151255000,27,3,1,19,1575420030,21.10,198.0,55.0,1,0,0,16.1
Status,1732151255000,27,4,1,13,1575420030,25.30,241.0,51.0,1,0,0,20.3
Status,1732151255000,27,5,2,138,1575420030,0.00,156.0,43.0,0,0,0,0.0
Status,1732151255000,27,6,1,30,1575420030,18.90,128.0,41.0,1,0,0,13.9
Status,1732151255000,27,7,1,15,1575420030,25.80,281.0,30.0,1,0,0,20.8
Status,1732151255000,27,8,1,2,1575420030,0.00,52.0,19.0,0,0,0,0.0
Status,1732151255000,27,9,1,24,1575420030,0.00,312.0,12.0,0,0,0,0.0
Status,1732151255000,27,10,1,6,1575420030,0.00,164.0,8.0,0,0,0,0.0
Status,1732151255000,27,11,1,7,1575420030,25.70,129.0,8.0,1,0,0,20.7
Status,1732151255000,27,12,1,21,1575420030,0.00,37.0,7.0,0,0,0,0.0
Status,1732151255000,27,13,3,20,1602000000,0.00,122.0,49.0,0,0,0,0.0
Status,1732151255000,27,14,3,9,1602000000,0.00,74.0,36.0,0,0,0,0.0
Status,1732151255000,27,15,3,8,1602000000,0.00,252.0,27.0,0,0,0,0.0
Status,1732151255000,27,16,3,19,1602000000,0.00,38.0,27.0,0,0,0,0.0
Status,1732151255000,27,17,3,11,1602000000,28.90,305.0,24.0,0,0,0,23.9
Status,1732151255000,27,18,6,21,1575420030,0.00,333.0,68.0,0,0,0,0.0
Status,1732151255000,27,19,6,19,1575420030,0.00,248.0,49.0,0,0,0,0.0
Status,1732151255000,27,20,6,27,1575420030,0.00,61.0,37.0,0,0,0,0.0
Status,1732151255000,27,21,6,29,1575420030,0.00,192.0,29.0,0,0,0,0.0
Status,1732151255000,27,22,6,13,1575420030,0.00,123.0,25.0,0,0,0,0.0
Status,1732151255000,27,23,6,15,1575420030,0.00,66.0,23.0,0,0,0,0.0
Status,1732151255000,27,24,6,4,1575420030,0.00,314.0,21.0,0,0,0,0.0
Status,1732151255000,27,25,6,26,1575420030,0.00,169.0,3.0,0,0,0,0.0
Status,1732151255000,27,26,6,6,1575420030,0.00,329.0,2.0,0,0,0,0.0
Fix,GPS,37.4251733333,-122.1583783333,-0.6999999999999993,0.0,6.5,0.0,1732151256000,2.1,179.9,30140084000000,44.4,0,,,
Fix,FLP,37.4251629000,-122.1583870000,5.400000095367432,0.05671562,6.466,,1732151256236,2.1,,30140084000000,12.868409,0,,,
Raw,1732151256000,39927000000,,996125.0634597352,-1416186434073999872,0.0,100.26463809809452,1394.2966238273405,0.0,0,15,0.0,16431,349673926148652,396,20.826000213623047,509.0559235219263,0.14999,16,0.0,0.0,1575420030,,,,0,5.0,1,6.0,20.826000213623047,0.0,0.0,0.0,66.7128,C,30140084000000,
Raw,1732151256000,39927000000,,996125.0634597352,-1416186434073999872,0.0,100.26463809809452,1394.2966238273405,0.0,0,13,0.0,16431,349673930576350,487,20.34000015258789,714.1335006099762,0.14999,16,0.0,0.0,1575420030,,,,0,2.8060245989687385,1,6.0,20.34000015258789,0.0,0.0,0.0,66.7128,C,30140084000000,
Raw,1732151256000,39927000000,,996125.0634597352,-1416186434073999872,0.0,100.26463809809452,1394.2966238273405,0.0,0,7,0.0,16431,349673919343278,487,20.655000686645508,1030.6941799061526,0.14999,16,0.0,0.0,1575420030,,,,0,3.2913960935074726,1,6.0,20.655000686645508,0.0,0.0,0.0,66.7128,C,30140084000000,
Raw,1732151256000,39927000000,,996125.0634597352,-1416186434073999872,0.0,100.26463809809452,1394.2966238273405,0.0,0,19,0.0,16431,349673930757957,797,16.115999221801758,-24.27535872149805,0.14999,16,0.0,0.0,1575420030,,,,0,0.0,1,6.0,16.115999221801758,0.0,0.0,0.0,66.7128,C,30140084000000,
Raw,1732151256000,39927000000,,996125.0634597352,-1416186434073999872,0.0,100.26463809809452,1394.2966238273405,0.0,0,11,0.0,17,2899,316,24.0,-57.86945399158827,0.14999,16,0.0,0.0,1602000000,,,,0,9.672611603289264,3,6.0,24.0,0.0,0.0,108.67631620913818,66.7128,C,30140084000000,
Raw,1732151256000,39927000000,,996125.0634597352,-1416186434073999872,0.0,100.26463809809452,1394.2966238273405,0.0,0,30,0.0,16431,349673928033606,797,13.906999588012695,883.2325651825962,0.14999,16,0.0,0.0,1575420030,,,,0,0.0,1,6.0,13.906999588012695,0.0,0.0,0.0,66.7128,C,30140084000000,
Fix,FLP,37.4251662000,-122.1583844000,5.400000095367432,0.063813426,6.483,,1732151256397,2.1,,30140245000000,9.206915,0,,,
Fix,NLP,37.4257213000,-122.1580908000,5.400000095367432,,20.9,,1732151256397,,,30140245000000,2.821837,0,,,
Status,1732151256000,27,0,1,17,1575420030,0.00,113.0,80.0,0,0,0,0.0
Status,1732151256000,27,1,1,22,1575420030,0.00,1.0,68.0,0,0,0,0.0
Status,1732151256000,27,2,1,14,1575420030,0.00,46.0,56.0,0,0,0,0.0
Status,1732151256000,27,3,1,19,1575420030,21.10,198.0,55.0,1,0,0,16.1
Status,1732151256000,27,4,1,13,1575420030,23.80,241.0,51.0,1,0,0,18.8
Status,1732151256000,27,5,2,138,1575420030,0.00,156.0,43.0,0,0,0,0.0
Status,1732151256000,27,6,1,30,1575420030,18.90,128.0,41.0,1,0,0,13.9
Status,1732151256000,27,7,1,15,1575420030,25.90,281.0,30.0,1,0,0,20.9
Status,1732151256000,27,8,1,2,1575420030,0.00,52.0,19.0,0,0,0,0.0
Status,1732151256000,27,9,1,24,1575420030,0.00,312.0,12.0,0,0,0,0.0
Status,1732151256000,27,10,1,6,1575420030,0.00,164.0,8.0,0,0,0,0.0
Status,1732151256000,27,11,1,7,1575420030,25.60,129.0,8.0,1,0,0,20.6
Status,1732151256000,27,12,1,21,1575420030,0.00,37.0,7.0,0,0,0,0.0
Status,1732151256000,27,13,3,20,1602000000,0.00,122.0,49.0,0,0,0,0.0
Status,1732151256000,27,14,3,9,1602000000,0.00,74.0,36.0,0,0,0,0.0
Status,1732151256000,27,15,3,8,1602000000,0.00,252.0,27.0,0,0,0,0.0
Status,1732151256000,27,16,3,19,1602000000,0.00,38.0,27.0,0,0,0,0.0
Status,1732151256000,27,17,3,11,1602000000,29.70,305.0,24.0,0,0,0,24.7
Status,1732151256000,27,18,6,21,1575420030,0.00,333.0,68.0,0,0,0,0.0
Status,1732151256000,27,19,6,19,1575420030,0.00,248.0,49.0,0,0,0,0.0
Status,1732151256000,27,20,6,27,1575420030,0.00,61.0,37.0,0,0,0,0.0
Status,1732151256000,27,21,6,29,1575420030,0.00,192.0,29.0,0,0,0,0.0
Status,1732151256000,27,22,6,13,1575420030,0.00,123.0,25.0,0,0,0,0.0
Status,1732151256000,27,23,6,15,1575420030,0.00,66.0,23.0,0,0,0,0.0
Status,1732151256000,27,24,6,4,1575420030,0.00,314.0,21.0,0,0,0,0.0
Status,1732151256000,27,25,6,26,1575420030,0.00,169.0,3.0,0,0,0,0.0
Status,1732151256000,27,26,6,6,1575420030,0.00,329.0,2.0,0,0,0,0.0
Fix,GPS,37.4251900000,-122.1583766667,-0.6999999999999993,0.0,6.5,0.0,1732151257000,2.0,163.9,30141084000000,44.4,0,,,
Fix,FLP,37.4251749000,-122.1583817000,5.400000095367432,0.084607944,6.485,,1732151257236,2.0,,30141084000000,10.2911415,0,,,
Raw,1732151257000,40927000000,,996080.8662171215,-1416186434073999872,0.0,100.15396074137328,1393.1628638914508,0.0,0,15,0.0,16431,349674926146958,396,20.92799949645996,508.8675811026087,0.14999,16,0.0,0.0,1575420030,,,,0,6.875935551678269,1,6.0,20.92799949645996,0.0,0.0,0.0,66.7128,C,30141084000000,
Raw,1732151257000,40927000000,,996080.8662171215,-1416186434073999872,0.0,100.15396074137328,1393.1628638914508,0.0,0,13,0.0,16431,349674930573969,797,18.753000259399414,714.3399618116158,0.14999,16,0.0,0.0,1575420030,,,,0,0.0024505356680020185,1,6.0,18.753000259399414,0.0,0.0,0.0,66.7128,C,30141084000000,
Raw,1732151257000,40927000000,,996080.8662171215,-1416186434073999872,0.0,100.15396074137328,1393.1628638914508,0.0,0,7,0.0,16431,349674919339776,487,20.63599967956543,1029.9595794290315,0.14999,16,0.0,0.0,1575420030,,,,0,2.7056085714677227,1,6.0,20.63599967956543,0.0,0.0,0.0,66.7128,C,30141084000000,
Raw,1732151257000,40927000000,,996080.8662171215,-1416186434073999872,0.0,100.15396074137328,1393.1628638914508,0.0,0,19,0.0,16431,349674930758023,797,16.13800048828125,-24.861849767739887,0.14999,16,0.0,0.0,1575420030,,,,0,0.0,1,6.0,16.13800048828125,0.0,0.0,0.0,66.7128,C,30141084000000,
Raw,1732151257000,40927000000,,996080.8662171215,-1416186434073999872,0.0,100.15396074137328,1393.1628638914508,0.0,0,11,0.0,17,3091,316,25.0,-58.07998240310513,0.14999,16,0.0,0.0,1602000000,,,,0,10.712855047847265,3,6.0,25.0,0.0,0.0,108.67631620913818,66.7128,C,30141084000000,
Raw,1732151257000,40927000000,,996080.8662171215,-1416186434073999872,0.0,100.15396074137328,1393.1628638914508,0.0,0,30,0.0,16431,349674928030645,797,13.916000366210938,883.0838982507225,0.14999,16,0.0,0.0,1575420030,,,,0,0.0,1,6.0,13.916000366210938,0.0,0.0,0.0,66.7128,C,30141084000000,
Status,1732151257000,27,0,1,17,1575420030,0.00,113.0,80.0,0,0,0,0.0
Status,1732151257000,27,1,1,22,1575420030,0.00,1.0,68.0,0,0,0,0.0
Status,1732151257000,27,2,1,14,1575420030,0.00,46.0,56.0,0,0,0,0.0
Status,1732151257000,27,3,1,19,1575420030,24.00,198.0,55.0,1,0,0,19.0
Status,1732151257000,27,4,1,13,1575420030,23.80,241.0,51.0,1,0,0,18.8
Status,1732151257000,27,5,2,138,1575420030,0.00,156.0,43.0,0,0,0,0.0
Status,1732151257000,27,6,1,30,1575420030,18.90,128.0,41.0,1,0,0,13.9
Status,1732151257000,27,7,1,15,1575420030,26.00,281.0,30.0,1,0,0,21.0
Status,1732151257000,27,8,1,2,1575420030,0.00,52.0,19.0,0,0,0,0.0
Status,1732151257000,27,9,1,24,1575420030,0.00,312.0,12.0,0,0,0,0.0
Status,1732151257000,27,10,1,6,1575420030,0.00,164.0,8.0,0,0,0,0.0
Status,1732151257000,27,11,1,7,1575420030,25.60,129.0,8.0,1,0,0,20.6
Status,1732151257000,27,12,1,21,1575420030,0.00,37.0,7.0,0,0,0,0.0
Status,1732151257000,27,13,3,20,1602000000,0.00,122.0,49.0,0,0,0,0.0
Status,1732151257000,27,14,3,9,1602000000,0.00,74.0,36.0,0,0,0,0.0
Status,1732151257000,27,15,3,8,1602000000,0.00,252.0,27.0,0,0,0,0.0
Status,1732151257000,27,16,3,19,1602000000,0.00,38.0,27.0,0,0,0,0.0
Status,1732151257000,27,17,3,11,1602000000,33.40,305.0,24.0,0,0,0,28.400002
Status,1732151257000,27,18,6,21,1575420030,0.00,333.0,68.0,0,0,0,0.0
Status,1732151257000,27,19,6,19,1575420030,0.00,248.0,49.0,0,0,0,0.0
Status,1732151257000,27,20,6,27,1575420030,0.00,61.0,37.0,0,0,0,0.0
Status,1732151257000,27,21,6,29,1575420030,0.00,192.0,29.0,0,0,0,0.0
Status,1732151257000,27,22,6,13,1575420030,0.00,123.0,25.0,0,0,0,0.0
Status,1732151257000,27,23,6,15,1575420030,0.00,66.0,23.0,0,0,0,0.0
Status,1732151257000,27,24,6,4,1575420030,0.00,314.0,21.0,0,0,0,0.0
Status,1732151257000,27,25,6,26,1575420030,0.00,169.0,3.0,0,0,0,0.0
Status,1732151257000,27,26,6,6,1575420030,0.00,329.0,2.0,0,0,0,0.0
Fix,GPS,37.4252050000,-122.1583716667,-0.6999999999999993,0.0,6.4,0.0,1732151258000,2.0,165.1,30142084000000,44.4,0,,,
Raw,1732151258000,41927000000,,996031.2485579607,-1416186434073999872,0.0,100.24195674739832,1390.1005977356328,0.0,0,15,0.0,16431,349675926145263,487,21.010000228881836,508.53252300489834,0.14999,16,0.0,0.0,1575420030,,,,0,6.427118170713365,1,6.0,21.010000228881836,0.0,0.0,0.0,66.7128,C,30142084000000,
Raw,1732151258000,41927000000,,996031.2485579607,-1416186434073999872,0.0,100.24195674739832,1390.1005977356328,0.0,0,13,0.0,16431,349675930571587,797,18.753000259399414,713.1957839371827,0.14999,16,0.0,0.0,1575420030,,,,0,0.0024505356680020185,1,6.0,18.753000259399414,0.0,0.0,0.0,66.7128,C,30142084000000,
Raw,1732151258000,41927000000,,996031.2485579607,-1416186434073999872,0.0,100.24195674739832,1390.1005977356328,0.0,0,7,0.0,16431,349675919336343,487,20.618000030517578,1028.478578037072,0.14999,16,0.0,0.0,1575420030,,,,0,2.7056085714677227,1,6.0,20.618000030517578,0.0,0.0,0.0,66.7128,C,30142084000000,
Raw,1732151258000,41927000000,,996031.2485579607,-1416186434073999872,0.0,100.24195674739832,1390.1005977356328,0.0,0,19,0.0,16431,349675930758096,487,18.95599937438965,-25.869625732178882,0.14999,16,0.0,0.0,1575420030,,,,0,0.40651825743374204,1,6.0,18.95599937438965,0.0,0.0,0.0,66.7128,C,30142084000000,
Raw,1732151258000,41927000000,,996031.2485579607,-1416186434073999872,0.0,100.24195674739832,1390.1005977356328,0.0,0,11,0.0,17,3291,235,27.0,-58.50035391229926,0.14999,16,0.0,0.0,1602000000,,,,0,15.195276263605802,3,6.0,27.0,0.0,0.0,108.67631620913818,66.7128,C,30142084000000,
Raw,1732151258000,41927000000,,996031.2485579607,-1416186434073999872,0.0,100.24195674739832,1390.1005977356328,0.0,0,30,0.0,16431,349675928027700,797,13.925000190734863,882.4502983704432,0.14999,16,0.0,0.0,1575420030,,,,0,0.0,1,6.0,13.925000190734863,0.0,0.0,0.0,66.7128,C,30142084000000,
Fix,FLP,37.4251872000,-122.1583779000,5.400000095367432,0.114180066,6.471,0.0000001036985,1732151258236,2.0,165.1,30142084000000,10.090631,0,,,
Status,1732151258000,27,0,1,17,1575420030,0.00,113.0,80.0,0,0,0,0.0
Status,1732151258000,27,1,1,22,1575420030,0.00,1.0,68.0,0,0,0,0.0
Status,1732151258000,27,2,1,14,1575420030,0.00,46.0,56.0,0,0,0,0.0
Status,1732151258000,27,3,1,19,1575420030,28.60,198.0,55.0,1,0,0,23.6
Status,1732151258000,27,4,1,13,1575420030,23.80,241.0,51.0,1,0,0,18.8
Status,1732151258000,27,5,2,138,1575420030,0.00,156.0,43.0,0,0,0,0.0
Status,1732151258000,27,6,1,30,1575420030,18.90,128.0,41.0,1,0,0,13.9
Status,1732151258000,27,7,1,15,1575420030,33.30,281.0,30.0,1,0,0,28.3
Status,1732151258000,27,8,1,2,1575420030,0.00,52.0,19.0,0,0,0,0.0
Status,1732151258000,27,9,1,24,1575420030,0.00,312.0,12.0,0,0,0,0.0
Status,1732151258000,27,10,1,6,1575420030,0.00,164.0,8.0,0,0,0,0.0
Status,1732151258000,27,11,1,7,1575420030,25.10,129.0,8.0,1,0,0,20.1
Status,1732151258000,27,12,1,21,1575420030,0.00,37.0,7.0,0,0,0,0.0
Status,1732151258000,27,13,3,20,1602000000,0.00,122.0,49.0,0,0,0,0.0
Status,1732151258000,27,14,3,9,1602000000,0.00,74.0,36.0,0,0,0,0.0
Status,1732151258000,27,15,3,8,1602000000,24.70,252.0,27.0,1,0,0,19.7
Status,1732151258000,27,16,3,19,1602000000,0.00,38.0,27.0,0,0,0,0.0
Status,1732151258000,27,17,3,11,1602000000,29.20,305.0,24.0,0,0,0,24.2
Status,1732151258000,27,18,6,21,1575420030,0.00,333.0,68.0,0,0,0,0.0
Status,1732151258000,27,19,6,19,1575420030,0.00,248.0,49.0,0,0,0,0.0
Status,1732151258000,27,20,6,27,1575420030,0.00,61.0,37.0,0,0,0,0.0
Status,1732151258000,27,21,6,29,1575420030,0.00,192.0,29.0,0,0,0,0.0
Status,1732151258000,27,22,6,13,1575420030,0.00,123.0,25.0,0,0,0,0.0
Status,1732151258000,27,23,6,15,1575420030,0.00,66.0,23.0,0,0,0,0.0
Status,1732151258000,27,24,6,4,1575420030,0.00,314.0,21.0,0,0,0,0.0
Status,1732151258000,27,25,6,26,1575420030,0.00,169.0,3.0,0,0,0,0.0
Status,1732151258000,27,26,6,6,1575420030,0.00,329.0,2.0,0,0,0,0.0
Fix,GPS,37.4259750000,-122.1579333333,44.89999999999999,0.0,6.3,0.0,1732151259003,2.0,179.9,30143084000000,42.4,0,,,
Raw,1732151259000,42927000000,,3306926.0868463875,-1416186434073999872,0.0,94.56997761795202,1392.6914025207177,0.0,0,15,0.0,16431,349676926143573,235,28.33099937438965,508.4163305059558,0.14999,16,0.0,0.0,1575420030,,,,0,14.464524216722765,1,6.0,28.33099937438965,0.0,0.0,0.0,66.7128,C,30143084000000,
Raw,1732151259000,42927000000,,3306926.0868463875,-1416186434073999872,0.0,94.56997761795202,1392.6914025207177,0.0,0,13,0.0,16431,349676930569185,487,18.756000518798828,713.4340226955103,0.14999,16,0.0,0.0,1575420030,,,,0,0.13923902627411078,1,6.0,18.756000518798828,0.0,0.0,0.0,66.7128,C,30143084000000,
Raw,1732151259000,42927000000,,3306926.0868463875,-1416186434073999872,0.0,94.56997761795202,1392.6914025207177,0.0,0,7,0.0,16431,349676919332911,487,20.06100082397461,1028.9104554741652,0.14999,16,0.0,0.0,1575420030,,,,0,2.2919165942707007,1,6.0,20.06100082397461,0.0,0.0,0.0,66.7128,C,30143084000000,
Raw,1732151259000,42927000000,,3306926.0868463875,-1416186434073999872,0.0,94.56997761795202,1392.6914025207177,0.0,0,19,0.0,16431,349676930758161,316,23.625999450683594,-25.449409357554565,0.14999,16,0.0,0.0,1575420030,,,,0,8.043582033005398,1,6.0,23.625999450683594,0.0,0.0,0.0,66.7128,C,30143084000000,
Raw,1732151259000,42927000000,,3306926.0868463875,-1416186434073999872,0.0,94.56997761795202,1392.6914025207177,0.0,0,8,0.0,17,728878,487,5.0,940.8259193160014,0.14999,16,0.0,0.0,1605374980,,,,0,3.6899690248713544,3,6.0,20.0,0.0,0.0,-95.66885450047745,66.7128,C,30143084000000,
Raw,1732151259000,42927000000,,3306926.0868463875,-1416186434073999872,0.0,94.56997761795202,1392.6914025207177,0.0,0,11,0.0,17,3483,316,19.700000762939453,-57.90710056517549,0.14999,16,0.0,0.0,1602000000,,,,0,10.062586971397351,3,6.0,19.700000762939453,0.0,0.0,-95.66885450047745,66.7128,C,30143084000000,
Raw,1732151259000,42927000000,,3306926.0868463875,-1416186434073999872,0.0,94.56997761795202,1392.6914025207177,0.0,0,30,0.0,16431,349676928024755,797,13.932999610900879,882.5644931574886,0.14999,16,0.0,0.0,1575420030,,,,0,0.0,1,6.0,13.932999610900879,0.0,0.0,0.0,66.7128,C,30143084000000,
Fix,FLP,37.4255154000,-122.1581995000,5.400000095367432,1.0294075,6.457,0.00000061316337,1732151259236,2.0,179.9,30143084000000,9.63039,0,,,
Status,1732151259003,27,0,1,17,1575420030,0.00,113.0,80.0,0,0,0,0.0
Status,1732151259003,27,1,1,22,1575420030,0.00,1.0,68.0,0,0,0,0.0
Status,1732151259003,27,2,1,14,1575420030,0.00,46.0,56.0,0,0,0,0.0
Status,1732151259003,27,3,1,19,1575420030,28.70,198.0,55.0,1,0,0,23.7
Status,1732151259003,27,4,1,13,1575420030,23.80,241.0,51.0,1,0,0,18.8
Status,1732151259003,27,5,2,138,1575420030,0.00,156.0,43.0,0,0,0,0.0
Status,1732151259003,27,6,1,30,1575420030,17.30,128.0,41.0,1,0,0,12.299999
Status,1732151259003,27,7,1,15,1575420030,30.90,281.0,30.0,1,0,0,25.9
Status,1732151259003,27,8,1,2,1575420030,0.00,52.0,19.0,0,0,0,0.0
Status,1732151259003,27,9,1,24,1575420030,0.00,312.0,12.0,0,0,0,0.0
Status,1732151259003,27,10,1,6,1575420030,0.00,164.0,8.0,0,0,0,0.0
Status,1732151259003,27,11,1,7,1575420030,26.60,129.0,8.0,1,0,0,21.6
Status,1732151259003,27,12,1,21,1575420030,0.00,37.0,7.0,0,0,0,0.0
Status,1732151259003,27,13,3,20,1602000000,0.00,122.0,49.0,0,0,0,0.0
Status,1732151259003,27,14,3,9,1602000000,0.00,74.0,36.0,0,0,0,0.0
Status,1732151259003,27,15,3,8,1602000000,25.20,252.0,27.0,1,0,0,20.2
Status,1732151259003,27,16,3,19,1602000000,0.00,38.0,27.0,0,0,0,0.0
Status,1732151259003,27,17,3,11,1602000000,23.10,305.0,24.0,0,0,0,18.1
Status,1732151259003,27,18,6,21,1575420030,0.00,333.0,68.0,0,0,0,0.0
