# 
# Header Description:
# 
# Version: v3.1.0.3 Platform: 13 Manufacturer: samsung Model: SM-S135DL GNSS Hardware Model Name: MediaTek,MT6631,MTK_MNLD_default,MNL_VER_default
# 
# Raw,utcTimeMillis,TimeNanos,LeapSecond,TimeUncertaintyNanos,FullBiasNanos,BiasNanos,BiasUncertaintyNanos,DriftNanosPerSecond,DriftUncertaintyNanosPerSecond,HardwareClockDiscontinuityCount,Svid,TimeOffsetNanos,State,ReceivedSvTimeNanos,ReceivedSvTimeUncertaintyNanos,Cn0DbHz,PseudorangeRateMetersPerSecond,PseudorangeRateUncertaintyMetersPerSecond,AccumulatedDeltaRangeState,AccumulatedDeltaRangeMeters,AccumulatedDeltaRangeUncertaintyMeters,CarrierFrequencyHz,CarrierCycles,CarrierPhase,CarrierPhaseUncertainty,MultipathIndicator,SnrInDb,ConstellationType,AgcDb,BasebandCn0DbHz,FullInterSignalBiasNanos,FullInterSignalBiasUncertaintyNanos,SatelliteInterSignalBiasNanos,SatelliteInterSignalBiasUncertaintyNanos,CodeType,ChipsetElapsedRealtimeNanos,IsFullTracking
# 
# UncalAccel,utcTimeMillis,elapsedRealtimeNanos,UncalAccelXMps2,UncalAccelYMps2,UncalAccelZMps2,BiasXMps2,BiasYMps2,BiasZMps2
# 
# Accel,utcTimeMillis,elapsedRealtimeNanos,AccelXMps2,AccelYMps2,AccelZMps2
# 
# UncalGyro,utcTimeMillis,elapsedRealtimeNanos,UncalGyroXRadPerSec,UncalGyroYRadPerSec,UncalGyroZRadPerSec,DriftXRadPerSec,DriftYRadPerSec,DriftZRadPerSec
# 
# Gyro,utcTimeMillis,elapsedRealtimeNanos,GyroXRadPerSec,GyroYRadPerSec,GyroZRadPerSec
# 
# UncalMag,utcTimeMillis,elapsedRealtimeNanos,UncalMagXMicroT,UncalMagYMicroT,UncalMagZMicroT,BiasXMicroT,BiasYMicroT,BiasZMicroT
# 
# Mag,utcTimeMillis,elapsedRealtimeNanos,MagXMicroT,MagYMicroT,MagZMicroT
# 
# Pressure,utcTimeMillis,elapsedRealtimeNanos,PressureHpa
# 
# OrientationDeg,utcTimeMillis,elapsedRealtimeNanos,yawDeg,rollDeg,pitchDeg
# 
# Fix,Provider,LatitudeDegrees,LongitudeDegrees,AltitudeMeters,SpeedMps,AccuracyMeters,BearingDegrees,UnixTimeMillis,SpeedAccuracyMps,BearingAccuracyDegrees,elapsedRealtimeNanos,VerticalAccuracyMeters,MockLocation,NumberOfUsedSignals,VerticalSpeedAccuracyMps,SolutionType
# 
# Nav,Svid,Type,Status,MessageId,Sub-messageId,Data(Bytes)
# 
# Status,UnixTimeMillis,SignalCount,SignalIndex,ConstellationType,Svid,CarrierFrequencyHz,Cn0DbHz,AzimuthDegrees,ElevationDegrees,UsedInFix,HasAlmanacData,HasEphemerisData,BasebandCn0DbHz
# 
# Agc,utcTimeMillis,TimeNanos,LeapSecond,TimeUncertaintyNanos,FullBiasNanos,BiasNanos,BiasUncertaintyNanos,DriftNanosPerSecond,DriftUncertaintyNanosPerSecond,HardwareClockDiscontinuityCount,AgcDb,CarrierFrequencyHz,ConstellationType
# 
Fix,FLP,37.4253130000,-122.1583040000,5.400000095367432,0.06280608,12.317,,1732151731243,2.3,,30615091000000,17.982996,0,,,
Fix,FLP,37.4252965000,-122.1583093000,5.400000095367432,0.010353708,8.593,,1732151731854,2.3,,30615702000000,21.156668,0,,,
Fix,NLP,37.4256675000,-122.1581224000,5.400000095367432,,27.296,,1732151731854,,,30615702000000,34.077614,0,,,
Status,,27,0,1,17,1575420030,0.00,90.0,79.0,0,0,0,0.0
Status,,27,1,1,22,1575420030,0.00,10.0,67.0,0,0,0,0.0
Status,,27,2,1,19,1575420030,0.00,200.0,59.0,0,0,0,0.0
Status,,27,3,1,14,1575420030,0.00,51.0,54.0,0,0,0,0.0
Status,,27,4,1,13,1575420030,0.00,236.0,49.0,0,0,0,0.0
Status,,27,5,2,133,1575420030,0.00,191.0,45.0,0,0,0,0.0
Status,,27,6,1,30,1575420030,0.00,130.0,38.0,0,0,0,0.0
Status,,27,7,1,15,1575420030,23.30,276.0,30.0,1,0,0,18.3
Status,,27,8,1,2,1575420030,0.00,48.0,17.0,0,0,0,0.0
Status,,27,9,1,24,1575420030,0.00,313.0,15.0,0,0,0,0.0
Status,,27,10,1,6,1575420030,0.00,162.0,11.0,0,0,0,0.0
Status,,27,11,1,21,1575420030,0.00,34.0,5.0,0,0,0,0.0
Status,,27,12,1,7,1575420030,26.50,131.0,5.0,1,0,0,21.5
Status,,27,13,3,20,1602000000,0.00,116.0,52.0,0,0,0,0.0
Status,,27,14,3,9,1602000000,0.00,79.0,34.0,0,0,0,0.0
Status,,27,15,3,11,1602000000,20.50,309.0,27.0,0,0,0,15.5
Status,,27,16,3,8,1602000000,24.30,248.0,24.0,1,0,0,19.3
Status,,27,17,3,19,1602000000,0.00,34.0,24.0,0,0,0,0.0
Status,,27,18,6,21,1575420030,0.00,341.0,68.0,0,0,0,0.0
Status,,27,19,6,19,1575420030,0.00,244.0,47.0,0,0,0,0.0
Status,,27,20,6,27,1575420030,0.00,63.0,35.0,0,0,0,0.0
Status,,27,21,6,13,1575420030,0.00,121.0,28.0,0,0,0,0.0
Status,,27,22,6,29,1575420030,0.00,191.0,26.0,0,0,0,0.0
Status,,27,23,6,15,1575420030,0.00,63.0,24.0,0,0,0,0.0
Status,,27,24,6,4,1575420030,0.00,312.0,22.0,0,0,0,0.0
Status,,27,25,6,26,1575420030,0.00,168.0,5.0,0,0,0,0.0
Status,,27,26,6,6,1575420030,0.00,328.0,4.0,0,0,0,0.0
Fix,GPS,37.4252600000,-122.1583200000,23.500000000000004,0.0,46.2,0.0,1732151732000,2.3,179.9,30616091000000,49.2,0,,,
Fix,FLP,37.4253056000,-122.1583050000,5.400000095367432,0.03574202,11.496,,1732151732243,1.5,,30616091000000,20.60424,0,,,
Status,1732151732000,27,0,1,17,1575420030,0.00,90.0,79.0,0,0,0,0.0
Status,1732151732000,27,1,1,22,1575420030,0.00,10.0,67.0,0,0,0,0.0
Status,1732151732000,27,2,1,19,1575420030,0.00,200.0,59.0,0,0,0,0.0
Status,1732151732000,27,3,1,14,1575420030,0.00,51.0,54.0,0,0,0,0.0
Status,1732151732000,27,4,1,13,1575420030,27.40,236.0,49.0,1,0,0,22.4
Status,1732151732000,27,5,2,133,1575420030,0.00,191.0,45.0,0,0,0,0.0
Status,1732151732000,27,6,1,30,1575420030,25.30,130.0,38.0,1,0,0,20.3
Status,1732151732000,27,7,1,15,1575420030,23.20,276.0,30.0,1,0,0,18.2
Status,1732151732000,27,8,1,2,1575420030,0.00,48.0,17.0,0,0,0,0.0
Status,1732151732000,27,9,1,24,1575420030,0.00,313.0,15.0,0,0,0,0.0
Status,1732151732000,27,10,1,6,1575420030,0.00,162.0,11.0,0,0,0,0.0
Status,1732151732000,27,11,1,21,1575420030,0.00,34.0,5.0,0,0,0,0.0
Status,1732151732000,27,12,1,7,1575420030,25.90,131.0,5.0,1,0,0,20.9
Status,1732151732000,27,13,3,20,1602000000,0.00,116.0,52.0,0,0,0,0.0
Status,1732151732000,27,14,3,9,1602000000,0.00,79.0,34.0,0,0,0,0.0
Status,1732151732000,27,15,3,11,1602000000,20.40,309.0,27.0,0,0,0,15.4
Status,1732151732000,27,16,3,8,1602000000,24.40,248.0,24.0,1,0,0,19.4
Status,1732151732000,27,17,3,19,1602000000,0.00,34.0,24.0,0,0,0,0.0
Status,1732151732000,27,18,6,21,1575420030,0.00,341.0,68.0,0,0,0,0.0
Status,1732151732000,27,19,6,19,1575420030,0.00,244.0,47.0,0,0,0,0.0
Status,1732151732000,27,20,6,27,1575420030,0.00,63.0,35.0,0,0,0,0.0
Status,1732151732000,27,21,6,13,1575420030,0.00,121.0,28.0,0,0,0,0.0
Status,1732151732000,27,22,6,29,1575420030,0.00,191.0,26.0,0,0,0,0.0
Status,1732151732000,27,23,6,15,1575420030,0.00,63.0,24.0,0,0,0,0.0
Status,1732151732000,27,24,6,4,1575420030,0.00,312.0,22.0,0,0,0,0.0
Status,1732151732000,27,25,6,26,1575420030,0.00,168.0,5.0,0,0,0,0.0
Status,1732151732000,27,26,6,6,1575420030,0.00,328.0,4.0,0,0,0,0.0
Fix,GPS,37.4252450000,-122.1583133333,23.500000000000004,0.0,6.7,0.0,1732151733000,2.3,179.9,30617091000000,48.6,0,,,
Raw,1732151733001,19858000000,,705976.3157884378,-1416186931143000064,0.0,101.33717014232049,1192.0417113996637,0.0,0,7,0.0,16431,350150917736955,487,20.910999298095703,986.8685621422654,0.14999,16,0.0,0.0,1575420030,,,,0,3.765603610061402,1,6.0,20.910999298095703,0.0,0.0,0.0,66.7128,C,30617091000000,
Raw,1732151733001,19858000000,,705976.3157884378,-1416186931143000064,0.0,101.33717014232049,1192.0417113996637,0.0,0,15,0.0,16431,350150925340170,797,18.246000289916992,506.1532945939242,0.14999,16,0.0,0.0,1575420030,,,,0,0.0,1,6.0,18.246000289916992,0.0,0.0,0.0,66.7128,C,30617091000000,
Raw,1732151733001,19858000000,,705976.3157884378,-1416186931143000064,0.0,101.33717014232049,1192.0417113996637,0.0,0,13,0.0,16431,350150929445172,396,22.434999465942383,706.0566120349417,0.14999,16,0.0,0.0,1575420030,,,,0,6.275068669285258,1,6.0,22.434999465942383,0.0,0.0,0.0,66.7128,C,30617091000000,
Raw,1732151733001,19858000000,,705976.3157884378,-1416186931143000064,0.0,101.33717014232049,1192.0417113996637,0.0,0,8,0.0,17,253212,396,5.0,923.1837259256641,0.14999,16,0.0,0.0,1605374980,,,,0,5.292481830174646,3,6.0,21.0,0.0,0.0,106.56785924456022,66.7128,C,30617091000000,
Raw,1732151733001,19858000000,,705976.3157884378,-1416186931143000064,0.0,101.33717014232049,1192.0417113996637,0.0,0,11,0.0,17,139343,797,19.388999938964844,-114.97930612339373,0.14999,16,0.0,0.0,1602000000,,,,0,0.0,3,6.0,19.388999938964844,0.0,0.0,106.56785924456022,66.7128,C,30617091000000,
Raw,1732151733001,19858000000,,705976.3157884378,-1416186931143000064,0.0,101.33717014232049,1192.0417113996637,0.0,0,30,0.0,16431,350150926649254,487,20.266000747680664,856.5931234938088,0.14999,16,0.0,0.0,1575420030,,,,0,2.6727434713950062,1,6.0,20.266000747680664,0.0,0.0,0.0,66.7128,C,30617091000000,
Fix,FLP,37.4252795000,-122.1583084000,5.400000095367432,0.041463725,11.453,,1732151733243,2.3,,30617091000000,20.293236,0,,,
Status,1732151733000,28,0,1,17,1575420030,0.00,90.0,79.0,0,0,0,0.0
Status,1732151733000,28,1,1,22,1575420030,0.00,10.0,67.0,0,0,0,0.0
Status,1732151733000,28,2,1,19,1575420030,0.00,200.0,59.0,0,0,0,0.0
Status,1732151733000,28,3,1,14,1575420030,0.00,51.0,54.0,0,0,0,0.0
Status,1732151733000,28,4,1,13,1575420030,32.90,236.0,49.0,1,0,0,27.900002
Status,1732151733000,28,5,2,133,1575420030,0.00,191.0,45.0,0,0,0,0.0
Status,1732151733000,28,6,1,30,1575420030,0.00,130.0,38.0,0,0,0,0.0
Status,1732151733000,28,7,1,15,1575420030,23.20,276.0,30.0,1,0,0,18.2
Status,1732151733000,28,8,1,2,1575420030,0.00,48.0,17.0,0,0,0,0.0
Status,1732151733000,28,9,1,24,1575420030,0.00,313.0,15.0,0,0,0,0.0
Status,1732151733000,28,10,1,6,1575420030,0.00,162.0,11.0,0,0,0,0.0
Status,1732151733000,28,11,1,21,1575420030,0.00,34.0,5.0,0,0,0,0.0
Status,1732151733000,28,12,1,7,1575420030,29.40,131.0,5.0,1,0,0,24.4
Status,1732151733000,28,13,3,20,1602000000,0.00,116.0,52.0,0,0,0,0.0
Status,1732151733000,28,14,3,9,1602000000,0.00,79.0,34.0,0,0,0,0.0
Status,1732151733000,28,15,3,11,1602000000,24.00,309.0,27.0,0,0,0,19.0
Status,1732151733000,28,16,3,8,1602000000,24.40,248.0,24.0,1,0,0,19.4
Status,1732151733000,28,17,3,19,1602000000,0.00,34.0,24.0,0,0,0,0.0
Status,1732151733000,28,18,3,17,1602000000,28.40,0.0,0.0,0,0,0,23.4
Status,1732151733000,28,19,6,21,1575420030,0.00,341.0,68.0,0,0,0,0.0
Status,1732151733000,28,20,6,19,1575420030,0.00,244.0,47.0,0,0,0,0.0
Status,1732151733000,28,21,6,27,1575420030,0.00,63.0,35.0,0,0,0,0.0
Status,1732151733000,28,22,6,13,1575420030,0.00,121.0,28.0,0,0,0,0.0
Status,1732151733000,28,23,6,29,1575420030,0.00,191.0,26.0,0,0,0,0.0
Status,1732151733000,28,24,6,15,1575420030,0.00,63.0,24.0,0,0,0,0.0
Status,1732151733000,28,25,6,4,1575420030,0.00,312.0,22.0,0,0,0,0.0
Status,1732151733000,28,26,6,26,1575420030,0.00,168.0,5.0,0,0,0,0.0
Status,1732151733000,28,27,6,6,1575420030,0.00,328.0,4.0,0,0,0,0.0
Fix,GPS,37.4252783333,-122.1582916667,23.500000000000004,0.0,6.6,0.0,1732151734000,2.2,179.9,30618091000000,41.5,0,,,
Raw,1732151734001,20858000000,,705974.0746546732,-1416186931143000064,0.0,95.60614315430153,1190.3654196248754,0.0,0,7,0.0,16431,350151917733658,316,24.400999069213867,986.4834218718801,0.14999,16,0.0,0.0,1575420030,,,,0,9.18846705115859,1,6.0,24.400999069213867,0.0,0.0,0.0,66.7128,C,30618091000000,
Raw,1732151734001,20858000000,,705974.0746546732,-1416186931143000064,0.0,95.60614315430153,1190.3654196248754,0.0,0,15,0.0,16431,350151925338483,797,18.21500015258789,505.2071224893804,0.14999,16,0.0,0.0,1575420030,,,,0,0.0,1,6.0,18.21500015258789,0.0,0.0,0.0,66.7128,C,30618091000000,
Raw,1732151734001,20858000000,,705974.0746546732,-1416186931143000064,0.0,95.60614315430153,1190.3654196248754,0.0,0,13,0.0,16431,350151929442815,235,27.915000915527344,704.9512733964606,0.14999,16,0.0,0.0,1575420030,,,,0,13.940508851632803,1,6.0,27.915000915527344,0.0,0.0,0.0,66.7128,C,30618091000000,
Raw,1732151734001,20858000000,,705974.0746546732,-1416186931143000064,0.0,95.60614315430153,1190.3654196248754,0.0,0,8,0.0,17,250134,487,5.0,924.979029576474,0.14999,16,0.0,0.0,1605374980,,,,0,2.4614728431237305,3,6.0,20.0,0.0,0.0,106.56785924456022,66.7128,C,30618091000000,
Raw,1732151734001,20858000000,,705974.0746546732,-1416186931143000064,0.0,95.60614315430153,1190.3654196248754,0.0,0,11,0.0,17,139721,487,19.36400032043457,-116.58723514138943,0.14999,16,0.0,0.0,1602000000,,,,0,2.6078019379353403,3,6.0,19.36400032043457,0.0,0.0,106.56785924456022,66.7128,C,30618091000000,
Fix,FLP,37.4252788000,-122.1583017000,5.400000095367432,0.041161563,11.41,,1732151734243,2.2,,30618091000000,19.215721,0,,,
Status,1732151734000,28,0,1,17,1575420030,0.00,90.0,79.0,0,0,0,0.0
Status,1732151734000,28,1,1,22,1575420030,0.00,10.0,67.0,0,0,0,0.0
Status,1732151734000,28,2,1,19,1575420030,0.00,200.0,59.0,0,0,0,0.0
Status,1732151734000,28,3,1,14,1575420030,0.00,51.0,54.0,0,0,0,0.0
Status,1732151734000,28,4,1,13,1575420030,29.70,236.0,49.0,1,0,0,24.7
Status,1732151734000,28,5,2,133,1575420030,0.00,191.0,45.0,0,0,0,0.0
Status,1732151734000,28,6,1,30,1575420030,25.50,130.0,38.0,1,0,0,20.5
Status,1732151734000,28,7,1,15,1575420030,23.10,276.0,30.0,1,0,0,18.1
Status,1732151734000,28,8,1,2,1575420030,0.00,48.0,17.0,0,0,0,0.0
Status,1732151734000,28,9,1,24,1575420030,0.00,313.0,15.0,0,0,0,0.0
Status,1732151734000,28,10,1,6,1575420030,0.00,162.0,11.0,0,0,0,0.0
Status,1732151734000,28,11,1,21,1575420030,0.00,34.0,5.0,0,0,0,0.0
Status,1732151734000,28,12,1,7,1575420030,32.70,131.0,5.0,1,0,0,27.7
Status,1732151734000,28,13,3,20,1602000000,0.00,116.0,52.0,0,0,0,0.0
Status,1732151734000,28,14,3,9,1602000000,0.00,79.0,34.0,0,0,0,0.0
Status,1732151734000,28,15,3,11,1602000000,24.00,309.0,27.0,0,0,0,19.0
Status,1732151734000,28,16,3,8,1602000000,22.20,248.0,24.0,1,0,0,17.2
Status,1732151734000,28,17,3,19,1602000000,0.00,34.0,24.0,0,0,0,0.0
Status,1732151734000,28,18,3,17,1602000000,26.70,0.0,0.0,0,0,0,21.7
Status,1732151734000,28,19,6,21,1575420030,0.00,341.0,68.0,0,0,0,0.0
Status,1732151734000,28,20,6,19,1575420030,0.00,244.0,47.0,0,0,0,0.0
Status,1732151734000,28,21,6,27,1575420030,0.00,63.0,35.0,0,0,0,0.0
Status,1732151734000,28,22,6,13,1575420030,0.00,121.0,28.0,0,0,0,0.0
Status,1732151734000,28,23,6,29,1575420030,0.00,191.0,26.0,0,0,0,0.0
Status,1732151734000,28,24,6,15,1575420030,0.00,63.0,24.0,0,0,0,0.0
Status,1732151734000,28,25,6,4,1575420030,0.00,312.0,22.0,0,0,0,0.0
Status,1732151734000,28,26,6,26,1575420030,0.00,168.0,5.0,0,0,0,0.0
Status,1732151734000,28,27,6,6,1575420030,0.00,328.0,4.0,0,0,0,0.0
Fix,GPS,37.4252883333,-122.1582866667,23.500000000000004,0.0,6.7,0.0,1732151735000,2.2,179.9,30619091000000,52.7,0,,,
Raw,1732151735001,21858000000,,705973.5534607745,-1416186931143000064,0.0,111.3857274327548,1185.4009757731903,0.0,0,7,0.0,16431,350152917730372,235,27.702999114990234,986.2869027713095,0.14999,16,0.0,0.0,1575420030,,,,0,13.671157357636657,1,6.0,27.702999114990234,0.0,0.0,0.0,66.7128,C,30619091000000,
Raw,1732151735001,21858000000,,705973.5534607745,-1416186931143000064,0.0,111.3857274327548,1185.4009757731903,0.0,0,15,0.0,16431,350152925336809,797,18.094999313354492,503.90898142362556,0.14999,16,0.0,0.0,1575420030,,,,0,0.0,1,6.0,18.094999313354492,0.0,0.0,0.0,66.7128,C,30619091000000,
Raw,1732151735001,21858000000,,705973.5534607745,-1416186931143000064,0.0,111.3857274327548,1185.4009757731903,0.0,0,13,0.0,16431,350152929440495,316,24.746000289916992,703.8472820520495,0.14999,16,0.0,0.0,1575420030,,,,0,9.67857030420079,1,6.0,24.746000289916992,0.0,0.0,0.0,66.7128,C,30619091000000,
Raw,1732151735001,21858000000,,705973.5534607745,-1416186931143000064,0.0,111.3857274327548,1185.4009757731903,0.0,0,8,0.0,17,247073,797,5.0,924.6877908207888,0.14999,16,0.0,0.0,1605374980,,,,0,0.0,3,6.0,16.0,0.0,0.0,106.56785924456022,66.7128,C,30619091000000,
Raw,1732151735001,21858000000,,705973.5534607745,-1416186931143000064,0.0,111.3857274327548,1185.4009757731903,0.0,0,11,0.0,17,140113,797,17.200000762939453,-118.69064606539646,0.14999,16,0.0,0.0,1602000000,,,,0,2.6078019379353403,3,6.0,17.200000762939453,0.0,0.0,106.56785924456022,66.7128,C,30619091000000,
Raw,1732151735001,21858000000,,705973.5534607745,-1416186931143000064,0.0,111.3857274327548,1185.4009757731903,0.0,0,30,0.0,16431,350152926643527,487,20.4689998626709,854.5463515092373,0.14999,16,0.0,0.0,1575420030,,,,0,3.052514982527123,1,6.0,20.4689998626709,0.0,0.0,0.0,66.7128,C,30619091000000,
Fix,FLP,37.4252824000,-122.1582958000,5.400000095367432,0.028145434,11.396,,1732151735243,2.2,,30619091000000,19.815428,0,,,
Status,1732151735000,28,0,1,17,1575420030,0.00,90.0,79.0,0,0,0,0.0
Status,1732151735000,28,1,1,22,1575420030,0.00,10.0,67.0,0,0,0,0.0
Status,1732151735000,28,2,1,19,1575420030,0.00,200.0,59.0,0,0,0,0.0
Status,1732151735000,28,3,1,14,1575420030,0.00,51.0,54.0,0,0,0,0.0
Status,1732151735000,28,4,1,13,1575420030,29.70,236.0,49.0,1,0,0,24.7
Status,1732151735000,28,5,2,133,1575420030,0.00,191.0,45.0,0,0,0,0.0
Status,1732151735000,28,6,1,30,1575420030,0.00,130.0,38.0,0,0,0,0.0
Status,1732151735000,28,7,1,15,1575420030,23.00,276.0,30.0,1,0,0,18.0
Status,1732151735000,28,8,1,2,1575420030,0.00,48.0,17.0,0,0,0,0.0
Status,1732151735000,28,9,1,24,1575420030,0.00,313.0,15.0,0,0,0,0.0
Status,1732151735000,28,10,1,6,1575420030,0.00,162.0,11.0,0,0,0,0.0
Status,1732151735000,28,11,1,21,1575420030,0.00,34.0,5.0,0,0,0,0.0
Status,1732151735000,28,12,1,7,1575420030,28.90,131.0,5.0,1,0,0,23.9
Status,1732151735000,28,13,3,20,1602000000,0.00,116.0,52.0,0,0,0,0.0
Status,1732151735000,28,14,3,9,1602000000,0.00,79.0,34.0,0,0,0,0.0
Status,1732151735000,28,15,3,11,1602000000,22.20,309.0,27.0,0,0,0,17.2
Status,1732151735000,28,16,3,8,1602000000,22.00,248.0,24.0,1,0,0,17.0
Status,1732151735000,28,17,3,19,1602000000,0.00,34.0,24.0,0,0,0,0.0
Status,1732151735000,28,18,3,17,1602000000,25.40,0.0,0.0,0,0,0,20.4
Status,1732151735000,28,19,6,21,1575420030,0.00,341.0,68.0,0,0,0,0.0
Status,1732151735000,28,20,6,19,1575420030,0.00,244.0,47.0,0,0,0,0.0
Status,1732151735000,28,21,6,27,1575420030,0.00,63.0,35.0,0,0,0,0.0
Status,1732151735000,28,22,6,13,1575420030,0.00,121.0,28.0,0,0,0,0.0
Status,1732151735000,28,23,6,29,1575420030,0.00,191.0,26.0,0,0,0,0.0
Status,1732151735000,28,24,6,15,1575420030,0.00,63.0,24.0,0,0,0,0.0
Status,1732151735000,28,25,6,4,1575420030,0.00,312.0,22.0,0,0,0,0.0
Status,1732151735000,28,26,6,26,1575420030,0.00,168.0,5.0,0,0,0,0.0
Status,1732151735000,28,27,6,6,1575420030,0.00,328.0,4.0,0,0,0,0.0
Fix,GPS,37.4252950000,-122.1582850000,23.500000000000004,0.0,6.7,0.0,1732151736000,2.3,179.9,30620091000000,53.0,0,,,
Fix,FLP,37.4252874000,-122.1582916000,5.400000095367432,0.012035357,9.887,,1732151736243,2.3,,30620091000000,19.779608,0,,,
Raw,1732151736001,22858000000,,705973.1365056555,-1416186931143000064,0.0,111.864218042337,1182.7933750629206,0.0,0,7,0.0,16431,350153917727084,396,23.854000091552734,985.1327827958073,0.14999,16,0.0,0.0,1575420030,,,,0,8.372064753262627,1,6.0,23.854000091552734,0.0,0.0,0.0,66.7128,C,30620091000000,
Raw,1732151736001,22858000000,,705973.1365056555,-1416186931143000064,0.0,111.864218042337,1182.7933750629206,0.0,0,15,0.0,16431,350153925335129,797,17.981000900268555,503.12067501736516,0.14999,16,0.0,0.0,1575420030,,,,0,0.0,1,6.0,17.981000900268555,0.0,0.0,0.0,66.7128,C,30620091000000,
Raw,1732151736001,22858000000,,705973.1365056555,-1416186931143000064,0.0,111.864218042337,1182.7933750629206,0.0,0,13,0.0,16431,350153929438147,487,24.746000289916992,703.7035861707103,0.14999,16,0.0,0.0,1575420030,,,,0,9.67857030420079,1,6.0,24.746000289916992,0.0,0.0,0.0,66.7128,C,30620091000000,
Raw,1732151736001,22858000000,,705973.1365056555,-1416186931143000064,0.0,111.864218042337,1182.7933750629206,0.0,0,8,0.0,17,243992,797,5.0,923.5168177148057,0.14999,16,0.0,0.0,1605374980,,,,0,0.0,3,6.0,17.0,0.0,0.0,106.56785924456022,66.7128,C,30620091000000,
Raw,1732151736001,22858000000,,705973.1365056555,-1416186931143000064,0.0,111.864218042337,1182.7933750629206,0.0,0,11,0.0,17,140471,797,17.0,-119.11083482423338,0.14999,16,0.0,0.0,1602000000,,,,0,0.0,3,6.0,17.0,0.0,0.0,106.56785924456022,66.7128,C,30620091000000,
Fix,FLP,37.4252900000,-122.1582894000,3.5982146799788275,0.0038119343,9.872,,1732151736725,2.3,,30620572000000,15.14038,0,,,
Fix,NLP,37.4256612000,-122.1581028000,5.400000095367432,,26.255,,1732151736724,,,30620572000000,33.57478,0,,,
Status,1732151736000,28,0,1,17,1575420030,0.00,90.0,79.0,0,0,0,0.0
Status,1732151736000,28,1,1,22,1575420030,0.00,10.0,67.0,0,0,0,0.0
Status,1732151736000,28,2,1,19,1575420030,0.00,200.0,59.0,0,0,0,0.0
Status,1732151736000,28,3,1,14,1575420030,0.00,51.0,54.0,0,0,0,0.0
Status,1732151736000,28,4,1,13,1575420030,24.80,236.0,49.0,1,0,0,19.8
Status,1732151736000,28,5,2,133,1575420030,0.00,191.0,45.0,0,0,0,0.0
Status,1732151736000,28,6,1,30,1575420030,0.00,130.0,38.0,0,0,0,0.0
Status,1732151736000,28,7,1,15,1575420030,23.00,276.0,30.0,1,0,0,18.0
Status,1732151736000,28,8,1,2,1575420030,0.00,48.0,17.0,0,0,0,0.0
Status,1732151736000,28,9,1,24,1575420030,0.00,313.0,15.0,0,0,0,0.0
Status,1732151736000,28,10,1,6,1575420030,0.00,162.0,11.0,0,0,0,0.0
Status,1732151736000,28,11,1,21,1575420030,0.00,34.0,5.0,0,0,0,0.0
Status,1732151736000,28,12,1,7,1575420030,29.80,131.0,5.0,1,0,0,24.8
Status,1732151736000,28,13,3,20,1602000000,0.00,116.0,52.0,0,0,0,0.0
Status,1732151736000,28,14,3,9,1602000000,0.00,79.0,34.0,0,0,0,0.0
Status,1732151736000,28,15,3,11,1602000000,22.20,309.0,27.0,0,0,0,17.2
Status,1732151736000,28,16,3,8,1602000000,22.00,248.0,24.0,1,0,0,17.0
Status,1732151736000,28,17,3,19,1602000000,0.00,34.0,24.0,0,0,0,0.0
Status,1732151736000,28,18,3,17,1602000000,24.30,0.0,0.0,0,0,0,19.3
Status,1732151736000,28,19,6,21,1575420030,0.00,341.0,68.0,0,0,0,0.0
Status,1732151736000,28,20,6,19,1575420030,0.00,244.0,47.0,0,0,0,0.0
Status,1732151736000,28,21,6,27,1575420030,0.00,63.0,35.0,0,0,0,0.0
Status,1732151736000,28,22,6,13,1575420030,0.00,121.0,28.0,0,0,0,0.0
Status,1732151736000,28,23,6,29,1575420030,0.00,191.0,26.0,0,0,0,0.0
Status,1732151736000,28,24,6,15,1575420030,0.00,63.0,24.0,0,0,0,0.0
Status,1732151736000,28,25,6,4,1575420030,0.00,312.0,22.0,0,0,0,0.0
Status,1732151736000,28,26,6,26,1575420030,0.00,168.0,5.0,0,0,0,0.0
Status,1732151736000,28,27,6,6,1575420030,0.00,328.0,4.0,0,0,0,0.0
Fix,GPS,37.4252983333,-122.1582816667,23.500000000000004,0.0,6.7,0.0,1732151737000,2.3,179.9,30621091000000,53.4,0,,,
Raw,1732151737001,23858000000,,705972.4068341972,-1416186931143000064,0.0,111.03123668995218,1181.6880913206564,0.0,0,7,0.0,16431,350154917723799,316,24.829999923706055,984.852452712393,0.14999,16,0.0,0.0,1575420030,,,,0,9.807571036301544,1,6.0,24.829999923706055,0.0,0.0,0.0,66.7128,C,30621091000000,
Raw,1732151737001,23858000000,,705972.4068341972,-1416186931143000064,0.0,111.03123668995218,1181.6880913206564,0.0,0,15,0.0,16431,350154925333435,797,17.96299934387207,503.5177086423004,0.14999,16,0.0,0.0,1575420030,,,,0,0.0,1,6.0,17.96299934387207,0.0,0.0,0.0,66.7128,C,30621091000000,
Raw,1732151737001,23858000000,,705972.4068341972,-1416186931143000064,0.0,111.03123668995218,1181.6880913206564,0.0,0,13,0.0,16431,350154929435795,487,19.777999877929688,704.4437616577767,0.14999,16,0.0,0.0,1575420030,,,,0,1.8594349398762988,1,6.0,19.777999877929688,0.0,0.0,0.0,66.7128,C,30621091000000,
Raw,1732151737001,23858000000,,705972.4068341972,-1416186931143000064,0.0,111.03123668995218,1181.6880913206564,0.0,0,8,0.0,17,240913,487,5.0,921.5297560479638,0.14999,16,0.0,0.0,1605374980,,,,0,0.0,3,6.0,18.0,0.0,0.0,106.56785924456022,66.7128,C,30621091000000,
Raw,1732151737001,23858000000,,705972.4068341972,-1416186931143000064,0.0,111.03123668995218,1181.6880913206564,0.0,0,11,0.0,17,140867,797,17.0,-118.32642460345802,0.14999,16,0.0,0.0,1602000000,,,,0,0.0,3,6.0,17.0,0.0,0.0,106.56785924456022,66.7128,C,30621091000000,
Fix,FLP,37.4252927000,-122.1582870000,3.749375510047247,0.004334081,9.858,,1732151737243,2.3,,30621091000000,15.124104,0,,,
Status,1732151737000,28,0,1,17,1575420030,0.00,90.0,79.0,0,0,0,0.0
Status,1732151737000,28,1,1,22,1575420030,0.00,10.0,67.0,0,0,0,0.0
Status,1732151737000,28,2,1,19,1575420030,0.00,200.0,59.0,0,0,0,0.0
Status,1732151737000,28,3,1,14,1575420030,0.00,51.0,54.0,0,0,0,0.0
Status,1732151737000,28,4,1,13,1575420030,24.80,236.0,49.0,1,0,0,19.8
Status,1732151737000,28,5,2,133,1575420030,0.00,191.0,45.0,0,0,0,0.0
Status,1732151737000,28,6,1,30,1575420030,23.40,130.0,38.0,1,0,0,18.4
Status,1732151737000,28,7,1,15,1575420030,23.10,276.0,30.0,1,0,0,18.1
Status,1732151737000,28,8,1,2,1575420030,0.00,48.0,17.0,0,0,0,0.0
Status,1732151737000,28,9,1,24,1575420030,0.00,313.0,15.0,0,0,0,0.0
Status,1732151737000,28,10,1,6,1575420030,0.00,162.0,11.0,0,0,0,0.0
Status,1732151737000,28,11,1,21,1575420030,0.00,34.0,5.0,0,0,0,0.0
Status,1732151737000,28,12,1,7,1575420030,30.10,131.0,5.0,1,0,0,25.1
Status,1732151737000,28,13,3,20,1602000000,0.00,116.0,52.0,0,0,0,0.0
Status,1732151737000,28,14,3,9,1602000000,0.00,79.0,34.0,0,0,0,0.0
Status,1732151737000,28,15,3,11,1602000000,20.40,309.0,27.0,0,0,0,15.4
Status,1732151737000,28,16,3,8,1602000000,22.50,248.0,24.0,1,0,0,17.5
Status,1732151737000,28,17,3,19,1602000000,0.00,34.0,24.0,0,0,0,0.0
Status,1732151737000,28,18,3,17,1602000000,23.90,0.0,0.0,0,0,0,18.9
Status,1732151737000,28,19,6,21,1575420030,0.00,341.0,68.0,0,0,0,0.0
Status,1732151737000,28,20,6,19,1575420030,0.00,244.0,47.0,0,0,0,0.0
Status,1732151737000,28,21,6,27,1575420030,0.00,63.0,35.0,0,0,0,0.0
Status,1732151737000,28,22,6,13,1575420030,0.00,121.0,28.0,0,0,0,0.0
Status,1732151737000,28,23,6,29,1575420030,0.00,191.0,26.0,0,0,0,0.0
Status,1732151737000,28,24,6,15,1575420030,0.00,63.0,24.0,0,0,0,0.0
Status,1732151737000,28,25,6,4,1575420030,0.00,312.0,22.0,0,0,0,0.0
Status,1732151737000,28,26,6,26,1575420030,0.00,168.0,5.0,0,0,0,0.0
Status,1732151737000,28,27,6,6,1575420030,0.00,328.0,4.0,0,0,0,0.0
Fix,GPS,37.4252933333,-122.1582833333,23.500000000000004,0.0,6.7,0.0,1732151738000,2.3,179.9,30622091000000,53.8,0,,,
Raw,1732151738001,24858000000,,705971.1559688402,-1416186931143000064,0.0,111.49688831897197,1180.9114214506167,0.0,0,7,0.0,16431,350155917720514,316,25.101999282836914,984.697095768585,0.14999,16,0.0,0.0,1575420030,,,,0,10.183461452803375,1,6.0,25.101999282836914,0.0,0.0,0.0,66.7128,C,30622091000000,
Raw,1732151738001,24858000000,,705971.1559688402,-1416186931143000064,0.0,111.49688831897197,1180.9114214506167,0.0,0,30,0.0,16431,350155926634950,487,18.389999389648438,854.308856085569,0.14999,16,0.0,0.0,1575420030,,,,0,0.0,1,6.0,18.389999389648438,0.0,0.0,0.0,66.7128,C,30622091000000,
Raw,1732151738001,24858000000,,705971.1559688402,-1416186931143000064,0.0,111.49688831897197,1180.9114214506167,0.0,0,15,0.0,16431,350155925331745,487,18.07200050354004,503.62762925505456,0.14999,16,0.0,0.0,1575420030,,,,0,2.5751481790332758,1,6.0,18.07200050354004,0.0,0.0,0.0,66.7128,C,30622091000000,
Raw,1732151738001,24858000000,,705971.1559688402,-1416186931143000064,0.0,111.49688831897197,1180.9114214506167,0.0,0,13,0.0,16431,350155929433445,797,19.777999877929688,704.2524458998216,0.14999,16,0.0,0.0,1575420030,,,,0,1.8594349398762988,1,6.0,19.777999877929688,0.0,0.0,0.0,66.7128,C,30622091000000,
Raw,1732151738001,24858000000,,705971.1559688402,-1416186931143000064,0.0,111.49688831897197,1180.9114214506167,0.0,0,8,0.0,17,237842,487,5.0,921.917831233999,0.14999,16,0.0,0.0,1605374980,,,,0,0.0,3,6.0,18.0,0.0,0.0,106.56785924456022,66.7128,C,30622091000000,
Raw,1732151738001,24858000000,,705971.1559688402,-1416186931143000064,0.0,111.49688831897197,1180.9114214506167,0.0,0,11,0.0,17,141267,797,17.5,-118.79773777472708,0.14999,16,0.0,0.0,1602000000,,,,0,0.0,3,6.0,17.5,0.0,0.0,106.56785924456022,66.7128,C,30622091000000,
Fix,FLP,37.4252929000,-122.1582857000,5.400000095367432,0.0048425067,6.685,,1732151738243,2.3,,30622091000000,10.545282,0,,,
Status,1732151738000,26,0,1,17,1575420030,0.00,90.0,79.0,0,0,0,0.0
Status,1732151738000,26,1,1,22,1575420030,0.00,10.0,67.0,0,0,0,0.0
Status,1732151738000,26,2,1,19,1575420030,0.00,200.0,59.0,0,0,0,0.0
Status,1732151738000,26,3,1,14,1575420030,0.00,51.0,54.0,0,0,0,0.0
Status,1732151738000,26,4,1,13,1575420030,24.70,236.0,49.0,1,0,0,19.7
Status,1732151738000,26,5,1,30,1575420030,25.50,130.0,38.0,1,0,0,20.5
Status,1732151738000,26,6,1,15,1575420030,23.20,276.0,30.0,1,0,0,18.2
Status,1732151738000,26,7,1,2,1575420030,0.00,48.0,17.0,0,0,0,0.0
Status,1732151738000,26,8,1,24,1575420030,0.00,313.0,15.0,0,0,0,0.0
Status,1732151738000,26,9,1,6,1575420030,0.00,162.0,11.0,0,0,0,0.0
Status,1732151738000,26,10,1,21,1575420030,0.00,34.0,5.0,0,0,0,0.0
Status,1732151738000,26,11,1,7,1575420030,29.80,131.0,5.0,1,0,0,24.8
Status,1732151738000,26,12,3,20,1602000000,0.00,116.0,52.0,0,0,0,0.0
Status,1732151738000,26,13,3,9,1602000000,0.00,79.0,34.0,0,0,0,0.0
Status,1732151738000,26,14,3,11,1602000000,20.40,309.0,27.0,0,0,0,15.4
Status,1732151738000,26,15,3,8,1602000000,21.20,248.0,24.0,1,0,0,16.2
Status,1732151738000,26,16,3,19,1602000000,0.00,34.0,24.0,0,0,0,0.0
Status,1732151738000,26,17,6,21,1575420030,0.00,341.0,68.0,0,0,0,0.0
Status,1732151738000,26,18,6,19,1575420030,0.00,244.0,47.0,0,0,0,0.0
Status,1732151738000,26,19,6,27,1575420030,0.00,63.0,35.0,0,0,0,0.0
Status,1732151738000,26,20,6,13,1575420030,0.00,121.0,28.0,0,0,0,0.0
Status,1732151738000,26,21,6,29,1575420030,0.00,191.0,26.0,0,0,0,0.0
Status,1732151738000,26,22,6,15,1575420030,0.00,63.0,24.0,0,0,0,0.0
Status,1732151738000,26,23,6,4,1575420030,0.00,312.0,22.0,0,0,0,0.0
Status,1732151738000,26,24,6,26,1575420030,0.00,168.0,5.0,0,0,0,0.0
Status,1732151738000,26,25,6,6,1575420030,0.00,328.0,4.0,0,0,0,0.0
Fix,GPS,37.4253066667,-122.1582733333,23.500000000000004,0.0,6.7,0.0,1732151739000,2.2,179.9,30623091000000,54.3,0,,,
Raw,1732151739001,25858000000,,705969.9051034832,-1416186931143000064,0.0,111.05618935683312,1181.994129595978,0.0,0,7,0.0,16431,350156917717229,487,24.77400016784668,985.5933715341187,0.14999,16,0.0,0.0,1575420030,,,,0,9.721783774619333,1,6.0,24.77400016784668,0.0,0.0,0.0,66.7128,C,30623091000000,
Raw,1732151739001,25858000000,,705969.9051034832,-1416186931143000064,0.0,111.05618935683312,1181.994129595978,0.0,0,30,0.0,16431,350156926632130,487,20.51799964904785,854.8481453809409,0.14999,16,0.0,0.0,1575420030,,,,0,3.1449189352620266,1,6.0,20.51799964904785,0.0,0.0,0.0,66.7128,C,30623091000000,
Raw,1732151739001,25858000000,,705969.9051034832,-1416186931143000064,0.0,111.05618935683312,1181.994129595978,0.0,0,15,0.0,16431,350156925330065,797,18.176000595092773,503.74470446390507,0.14999,16,0.0,0.0,1575420030,,,,0,2.5751481790332758,1,6.0,18.176000595092773,0.0,0.0,0.0,66.7128,C,30623091000000,
Raw,1732151739001,25858000000,,705969.9051034832,-1416186931143000064,0.0,111.05618935683312,1181.994129595978,0.0,0,13,0.0,16431,350156929431096,797,19.71500015258789,703.9110694575066,0.14999,16,0.0,0.0,1575420030,,,,0,0.0,1,6.0,19.71500015258789,0.0,0.0,0.0,66.7128,C,30623091000000,
Raw,1732151739001,25858000000,,705969.9051034832,-1416186931143000064,0.0,111.05618935683312,1181.994129595978,0.0,0,8,0.0,17,234761,487,5.0,925.0161410898003,0.14999,16,0.0,0.0,1605374980,,,,0,0.0,3,6.0,19.0,0.0,0.0,106.56785924456022,66.7128,C,30623091000000,
Raw,1732151739001,25858000000,,705969.9051034832,-1416186931143000064,0.0,111.05618935683312,1181.994129595978,0.0,0,11,0.0,17,141663,797,16.200000762939453,-118.25391839923118,0.14999,16,0.0,0.0,1602000000,,,,0,0.0,3,6.0,16.200000762939453,0.0,0.0,106.56785924456022,66.7128,C,30623091000000,
Fix,FLP,37.4252983000,-122.1582810000,5.400000095367432,0.020682788,6.685,,1732151739243,2.2,,30623091000000,9.069452,0,,,
Status,1732151739000,26,0,1,17,1575420030,0.00,90.0,79.0,0,0,0,0.0
Status,1732151739000,26,1,1,22,1575420030,0.00,10.0,67.0,0,0,0,0.0
Status,1732151739000,26,2,1,19,1575420030,0.00,200.0,59.0,0,0,0,0.0
Status,1732151739000,26,3,1,14,1575420030,0.00,51.0,54.0,0,0,0,0.0
Status,1732151739000,26,4,1,13,1575420030,24.70,236.0,49.0,1,0,0,19.7
Status,1732151739000,26,5,1,30,1575420030,25.10,130.0,37.0,1,0,0,20.1
Status,1732151739000,26,6,1,15,1575420030,23.30,276.0,30.0,1,0,0,18.3
Status,1732151739000,26,7,1,2,1575420030,0.00,48.0,17.0,0,0,0,0.0
Status,1732151739000,26,8,1,24,1575420030,0.00,313.0,15.0,0,0,0,0.0
Status,1732151739000,26,9,1,6,1575420030,0.00,162.0,11.0,0,0,0,0.0
Status,1732151739000,26,10,1,21,1575420030,0.00,34.0,5.0,0,0,0,0.0
Status,1732151739000,26,11,1,7,1575420030,29.80,131.0,5.0,1,0,0,24.8
Status,1732151739000,26,12,3,20,1602000000,0.00,116.0,52.0,0,0,0,0.0
Status,1732151739000,26,13,3,9,1602000000,0.00,79.0,34.0,0,0,0,0.0
Status,1732151739000,26,14,3,11,1602000000,19.60,309.0,27.0,0,0,0,14.6
Status,1732151739000,26,15,3,8,1602000000,21.20,248.0,24.0,1,0,0,16.2
Status,1732151739000,26,16,3,19,1602000000,0.00,34.0,24.0,0,0,0,0.0
Status,1732151739000,26,17,6,21,1575420030,0.00,341.0,68.0,0,0,0,0.0
Status,1732151739000,26,18,6,19,1575420030,0.00,244.0,47.0,0,0,0,0.0
Status,1732151739000,26,19,6,27,1575420030,0.00,63.0,35.0,0,0,0,0.0
Status,1732151739000,26,20,6,13,1575420030,0.00,121.0,28.0,0,0,0,0.0
Status,1732151739000,26,21,6,29,1575420030,0.00,191.0,26.0,0,0,0,0.0
Status,1732151739000,26,22,6,15,1575420030,0.00,63.0,24.0,0,0,0,0.0
Status,1732151739000,26,23,6,4,1575420030,0.00,312.0,22.0,0,0,0,0.0
Status,1732151739000,26,24,6,26,1575420030,0.00,168.0,5.0,0,0,0,0.0
Status,1732151739000,26,25,6,6,1575420030,0.00,328.0,4.0,0,0,0,0.0
Fix,GPS,37.4253133333,-122.1582716667,23.500000000000004,0.0,6.7,0.0,1732151740000,2.2,179.9,30624091000000,54.9,0,,,
Fix,FLP,37.4253044000,-122.1582775000,5.400000095367432,0.037560847,6.7,,1732151740243,2.2,,30624091000000,8.232708,0,,,
Raw,1732151740001,26858000000,,705969.0711932452,-1416186931143000064,0.0,111.88583690058825,1181.7429915411815,0.0,0,7,0.0,16431,350157917713944,797,24.77400016784668,984.1237059957144,0.14999,16,0.0,0.0,1575420030,,,,0,9.721783774619333,1,6.0,24.77400016784668,0.0,0.0,0.0,66.7128,C,30624091000000,
Raw,1732151740001,26858000000,,705969.0711932452,-1416186931143000064,0.0,111.88583690058825,1181.7429915411815,0.0,0,30,0.0,16431,350157926629254,487,20.106000900268555,854.5247948041156,0.14999,16,0.0,0.0,1575420030,,,,0,2.476443825523032,1,6.0,20.106000900268555,0.0,0.0,0.0,66.7128,C,30624091000000,
Raw,1732151740001,26858000000,,705969.0711932452,-1416186931143000064,0.0,111.88583690058825,1181.7429915411815,0.0,0,15,0.0,16431,350157925328392,487,18.27199935913086,503.527557826537,0.14999,16,0.0,0.0,1575420030,,,,0,2.476443825523032,1,6.0,18.27199935913086,0.0,0.0,0.0,66.7128,C,30624091000000,
Raw,1732151740001,26858000000,,705969.0711932452,-1416186931143000064,0.0,111.88583690058825,1181.7429915411815,0.0,0,13,0.0,16431,350157929428748,797,19.655000686645508,704.1122343996982,0.14999,16,0.0,0.0,1575420030,,,,0,0.0,1,6.0,19.655000686645508,0.0,0.0,0.0,66.7128,C,30624091000000,
Raw,1732151740001,26858000000,,705969.0711932452,-1416186931143000064,0.0,111.88583690058825,1181.7429915411815,0.0,0,8,0.0,17,231681,797,5.0,922.2254829439809,0.14999,16,0.0,0.0,1605374980,,,,0,0.0,3,6.0,15.0,0.0,0.0,106.56785924456022,66.7128,C,30624091000000,
Raw,1732151740001,26858000000,,705969.0711932452,-1416186931143000064,0.0,111.88583690058825,1181.7429915411815,0.0,0,11,0.0,17,142062,797,16.18000030517578,-117.39809847637231,0.14999,16,0.0,0.0,1602000000,,,,0,0.0,3,6.0,16.18000030517578,0.0,0.0,106.56785924456022,66.7128,C,30624091000000,
Status,1732151740000,27,0,1,17,1575420030,0.00,90.0,79.0,0,0,0,0.0
Status,1732151740000,27,1,1,22,1575420030,0.00,10.0,67.0,0,0,0,0.0
Status,1732151740000,27,2,1,19,1575420030,0.00,200.0,59.0,0,0,0,0.0
Status,1732151740000,27,3,1,14,1575420030,0.00,51.0,54.0,0,0,0,0.0
Status,1732151740000,27,4,1,13,1575420030,24.50,236.0,49.0,1,0,0,19.5
Status,1732151740000,27,5,1,30,1575420030,24.20,130.0,37.0,1,0,0,19.2
Status,1732151740000,27,6,1,15,1575420030,23.40,276.0,30.0,1,0,0,18.4
Status,1732151740000,27,7,1,2,1575420030,0.00,48.0,17.0,0,0,0,0.0
Status,1732151740000,27,8,1,24,1575420030,0.00,313.0,15.0,0,0,0,0.0
Status,1732151740000,27,9,1,6,1575420030,0.00,162.0,11.0,0,0,0,0.0
Status,1732151740000,27,10,1,21,1575420030,0.00,34.0,5.0,0,0,0,0.0
Status,1732151740000,27,11,1,7,1575420030,29.80,131.0,5.0,1,0,0,24.8
Status,1732151740000,27,12,3,20,1602000000,0.00,116.0,52.0,0,0,0,0.0
Status,1732151740000,27,13,3,9,1602000000,0.00,79.0,34.0,0,0,0,0.0
Status,1732151740000,27,14,3,11,1602000000,19.70,309.0,27.0,0,0,0,14.700001
Status,1732151740000,27,15,3,8,1602000000,21.20,248.0,24.0,1,0,0,16.2
Status,1732151740000,27,16,3,19,1602000000,0.00,34.0,24.0,0,0,0,0.0
Status,1732151740000,27,17,3,17,1602000000,25.30,0.0,0.0,0,0,0,20.3
Status,1732151740000,27,18,6,21,1575420030,0.00,341.0,68.0,0,0,0,0.0
Status,1732151740000,27,19,6,19,1575420030,0.00,244.0,47.0,0,0,0,0.0
Status,1732151740000,27,20,6,27,1575420030,0.00,63.0,35.0,0,0,0,0.0
Status,1732151740000,27,21,6,13,1575420030,0.00,121.0,28.0,0,0,0,0.0
Status,1732151740000,27,22,6,29,1575420030,0.00,191.0,26.0,0,0,0,0.0
Status,1732151740000,27,23,6,15,1575420030,0.00,63.0,24.0,0,0,0,0.0
Status,1732151740000,27,24,6,4,1575420030,0.00,312.0,22.0,0,0,0,0.0
Status,1732151740000,27,25,6,26,1575420030,0.00,168.0,5.0,0,0,0,0.0
Status,1732151740000,27,26,6,6,1575420030,0.00,328.0,4.0,0,0,0,0.0
Fix,GPS,37.4252950000,-122.1582933333,23.500000000000004,0.0,6.7,0.0,1732151741000,2.2,179.9,30625091000000,55.2,0,,,
Fix,FLP,37.4253008000,-122.1582836000,5.400000095367432,0.02466651,6.7,,1732151741244,2.2,,30625091000000,9.783022,0,,,
Raw,1732151741001,27858000000,,705968.341521787,-1416186931143000064,0.0,112.15502286074438,1183.8730036022673,0.0,0,7,0.0,16431,350158917710657,487,24.77400016784668,986.2232547411011,0.14999,16,0.0,0.0,1575420030,,,,0,9.721783774619333,1,6.0,24.77400016784668,0.0,0.0,0.0,66.7128,C,30625091000000,
Raw,1732151741001,27858000000,,705968.341521787,-1416186931143000064,0.0,112.15502286074438,1183.8730036022673,0.0,0,30,0.0,16431,350158926626379,487,19.24799919128418,855.6388676248442,0.14999,16,0.0,0.0,1575420030,,,,0,0.9620295467606645,1,6.0,19.24799919128418,0.0,0.0,0.0,66.7128,C,30625091000000,
Raw,1732151741001,27858000000,,705968.341521787,-1416186931143000064,0.0,112.15502286074438,1183.8730036022673,0.0,0,15,0.0,16431,350158925326710,797,18.363000869750977,504.8041421871702,0.14999,16,0.0,0.0,1575420030,,,,0,2.476443825523032,1,6.0,18.363000869750977,0.0,0.0,0.0,66.7128,C,30625091000000,
Raw,1732151741001,27858000000,,705968.341521787,-1416186931143000064,0.0,112.15502286074438,1183.8730036022673,0.0,0,13,0.0,16431,350158929426414,797,19.545000076293945,705.3024990230123,0.14999,16,0.0,0.0,1575420030,,,,0,0.0,1,6.0,19.545000076293945,0.0,0.0,0.0,66.7128,C,30625091000000,
Raw,1732151741001,27858000000,,705968.341521787,-1416186931143000064,0.0,112.15502286074438,1183.8730036022673,0.0,0,8,0.0,17,228606,797,5.0,919.5339408054971,0.14999,16,0.0,0.0,1605374980,,,,0,0.0,3,6.0,17.0,0.0,0.0,106.56785924456022,66.7128,C,30625091000000,
Raw,1732151741001,27858000000,,705968.341521787,-1416186931143000064,0.0,112.15502286074438,1183.8730036022673,0.0,0,11,0.0,17,142441,797,16.180999755859375,-116.56530509852308,0.14999,16,0.0,0.0,1602000000,,,,0,0.0,3,6.0,16.180999755859375,0.0,0.0,106.56785924456022,66.7128,C,30625091000000,
Fix,FLP,37.4252988000,-122.1582870000,5.400000095367432,0.01738908,6.7,,1732151741890,2.2,,30625738000000,9.2712145,0,,,
Fix,NLP,37.4257057000,-122.1581009000,5.400000095367432,,19.36,,1732151741890,,,30625738000000,14.078532,0,,,
Status,1732151741000,27,0,1,17,1575420030,0.00,90.0,79.0,0,0,0,0.0
Status,1732151741000,27,1,1,22,1575420030,0.00,10.0,67.0,0,0,0,0.0
Status,1732151741000,27,2,1,19,1575420030,0.00,200.0,59.0,0,0,0,0.0
Status,1732151741000,27,3,1,14,1575420030,0.00,51.0,54.0,0,0,0,0.0
Status,1732151741000,27,4,1,13,1575420030,24.40,236.0,49.0,1,0,0,19.4
Status,1732151741000,27,5,1,30,1575420030,24.20,130.0,37.0,1,0,0,19.2
Status,1732151741000,27,6,1,15,1575420030,23.50,276.0,30.0,1,0,0,18.5
Status,1732151741000,27,7,1,2,1575420030,0.00,48.0,17.0,0,0,0,0.0
Status,1732151741000,27,8,1,24,1575420030,0.00,313.0,15.0,0,0,0,0.0
Status,1732151741000,27,9,1,6,1575420030,0.00,162.0,11.0,0,0,0,0.0
Status,1732151741000,27,10,1,21,1575420030,0.00,34.0,5.0,0,0,0,0.0
Status,1732151741000,27,11,1,7,1575420030,25.40,131.0,5.0,1,0,0,20.4
Status,1732151741000,27,12,3,20,1602000000,0.00,116.0,52.0,0,0,0,0.0
Status,1732151741000,27,13,3,9,1602000000,0.00,79.0,34.0,0,0,0,0.0
Status,1732151741000,27,14,3,11,1602000000,19.70,309.0,27.0,0,0,0,14.700001
Status,1732151741000,27,15,3,8,1602000000,28.70,248.0,24.0,1,0,0,23.7
Status,1732151741000,27,16,3,19,1602000000,0.00,34.0,24.0,0,0,0,0.0
Status,1732151741000,27,17,3,17,1602000000,26.70,0.0,0.0,0,0,0,21.7
Status,1732151741000,27,18,6,21,1575420030,0.00,341.0,68.0,0,0,0,0.0
Status,1732151741000,27,19,6,19,1575420030,0.00,244.0,47.0,0,0,0,0.0
Status,1732151741000,27,20,6,27,1575420030,0.00,63.0,35.0,0,0,0,0.0
Status,1732151741000,27,21,6,13,1575420030,0.00,121.0,28.0,0,0,0,0.0
Status,1732151741000,27,22,6,29,1575420030,0.00,191.0,26.0,0,0,0,0.0
Status,1732151741000,27,23,6,15,1575420030,0.00,63.0,24.0,0,0,0,0.0
Status,1732151741000,27,24,6,4,1575420030,0.00,312.0,22.0,0,0,0,0.0
Status,1732151741000,27,25,6,26,1575420030,0.00,168.0,5.0,0,0,0,0.0
Status,1732151741000,27,26,6,6,1575420030,0.00,328.0,4.0,0,0,0,0.0
Fix,GPS,37.4252700000,-122.1583133333,23.500000000000004,0.0,6.7,0.0,1732151742000,2.2,179.9,30626091000000,54.8,0,,,
Raw,1732151742001,28858000000,,705966.8821788706,-1416186931143000064,0.0,111.05603666330809,1186.4237396138233,0.0,0,7,0.0,16431,350159917707377,797,20.368999481201172,986.9808056758302,0.14999,16,0.0,0.0,1575420030,,,,0,2.8647046464057326,1,6.0,20.368999481201172,0.0,0.0,0.0,66.7128,C,30626091000000,
Raw,1732151742001,28858000000,,705966.8821788706,-1416186931143000064,0.0,111.05603666330809,1186.4237396138233,0.0,0,30,0.0,16431,350159926623522,797,19.24799919128418,856.5288250457734,0.14999,16,0.0,0.0,1575420030,,,,0,0.9620295467606645,1,6.0,19.24799919128418,0.0,0.0,0.0,66.7128,C,30626091000000,
Raw,1732151742001,28858000000,,705966.8821788706,-1416186931143000064,0.0,111.05603666330809,1186.4237396138233,0.0,0,15,0.0,16431,350159925325024,487,18.450000762939453,506.0137335116278,0.14999,16,0.0,0.0,1575420030,,,,0,2.476443825523032,1,6.0,18.450000762939453,0.0,0.0,0.0,66.7128,C,30626091000000,
Raw,1732151742001,28858000000,,705966.8821788706,-1416186931143000064,0.0,111.05603666330809,1186.4237396138233,0.0,0,13,0.0,16431,350159929424059,487,19.44099998474121,706.0949866867315,0.14999,16,0.0,0.0,1575420030,,,,0,0.0,1,6.0,19.44099998474121,0.0,0.0,0.0,66.7128,C,30626091000000,
Raw,1732151742001,28858000000,,705966.8821788706,-1416186931143000064,0.0,111.05603666330809,1186.4237396138233,0.0,0,8,0.0,17,225527,487,5.0,921.2667840469005,0.14999,16,0.0,0.0,1605374980,,,,0,9.436974992327128,3,6.0,19.0,0.0,0.0,106.56785924456022,66.7128,C,30626091000000,
Raw,1732151742001,28858000000,,705966.8821788706,-1416186931143000064,0.0,111.05603666330809,1186.4237396138233,0.0,0,11,0.0,17,142828,797,23.700000762939453,-116.16818857228513,0.14999,16,0.0,0.0,1602000000,,,,0,0.0,3,6.0,23.700000762939453,0.0,0.0,106.56785924456022,66.7128,C,30626091000000,
Fix,FLP,37.4252898000,-122.1582950000,5.400000095367432,0.009884713,6.7,,1732151742243,2.2,,30626091000000,10.520939,0,,,
Status,1732151742000,26,0,1,17,1575420030,0.00,90.0,79.0,0,0,0,0.0
Status,1732151742000,26,1,1,22,1575420030,0.00,10.0,67.0,0,0,0,0.0
Status,1732151742000,26,2,1,19,1575420030,0.00,200.0,59.0,0,0,0,0.0
Status,1732151742000,26,3,1,14,1575420030,0.00,51.0,54.0,0,0,0,0.0
Status,1732151742000,26,4,1,13,1575420030,24.50,236.0,49.0,1,0,0,19.5
Status,1732151742000,26,5,1,30,1575420030,23.00,130.0,37.0,1,0,0,18.0
Status,1732151742000,26,6,1,15,1575420030,23.60,276.0,30.0,1,0,0,18.6
Status,1732151742000,26,7,1,2,1575420030,0.00,48.0,17.0,0,0,0,0.0
Status,1732151742000,26,8,1,24,1575420030,0.00,313.0,15.0,0,0,0,0.0
Status,1732151742000,26,9,1,6,1575420030,0.00,162.0,11.0,0,0,0,0.0
Status,1732151742000,26,10,1,21,1575420030,0.00,34.0,5.0,0,0,0,0.0
Status,1732151742000,26,11,1,7,1575420030,25.40,131.0,5.0,1,0,0,20.4
Status,1732151742000,26,12,3,20,1602000000,0.00,116.0,52.0,0,0,0,0.0
Status,1732151742000,26,13,3,9,1602000000,0.00,79.0,34.0,0,0,0,0.0
Status,1732151742000,26,14,3,11,1602000000,19.80,309.0,27.0,0,0,0,14.799999
Status,1732151742000,26,15,3,8,1602000000,0.00,248.0,24.0,0,0,0,0.0
Status,1732151742000,26,16,3,19,1602000000,0.00,34.0,24.0,0,0,0,0.0
Status,1732151742000,26,17,6,21,1575420030,0.00,341.0,68.0,0,0,0,0.0
Status,1732151742000,26,18,6,19,1575420030,0.00,244.0,47.0,0,0,0,0.0
Status,1732151742000,26,19,6,27,1575420030,0.00,63.0,35.0,0,0,0,0.0
Status,1732151742000,26,20,6,13,1575420030,0.00,121.0,28.0,0,0,0,0.0
Status,1732151742000,26,21,6,29,1575420030,0.00,191.0,26.0,0,0,0,0.0
Status,1732151742000,26,22,6,15,1575420030,0.00,63.0,24.0,0,0,0,0.0
Status,1732151742000,26,23,6,4,1575420030,0.00,312.0,22.0,0,0,0,0.0
Status,1732151742000,26,24,6,26,1575420030,0.00,168.0,5.0,0,0,0,0.0
Status,1732151742000,26,25,6,6,1575420030,0.00,328.0,4.0,0,0,0,0.0
Fix,GPS,37.4252900000,-122.1583083333,23.500000000000004,0.0,6.7,0.0,1732151743000,2.2,179.9,30627091000000,41.9,0,,,
Fix,FLP,37.4252898000,-122.1582997000,5.400000095367432,0.009221239,6.7,,1732151743243,2.2,,30627091000000,10.51559,0,,,
Raw,1732151743001,29858000000,,705966.6215819212,-1416186931143000064,0.0,92.9708310548406,1188.7377382633958,0.0,0,7,0.0,16431,350160917704084,797,20.368999481201172,987.0799479360235,0.14999,16,0.0,0.0,1575420030,,,,0,2.8647046464057326,1,6.0,20.368999481201172,0.0,0.0,0.0,66.7128,C,30627091000000,
Raw,1732151743001,29858000000,,705966.6215819212,-1416186931143000064,0.0,92.9708310548406,1188.7377382633958,0.0,0,30,0.0,16431,350160926620664,797,18.020000457763672,857.1001706483305,0.14999,16,0.0,0.0,1575420030,,,,0,0.0,1,6.0,18.020000457763672,0.0,0.0,0.0,66.7128,C,30627091000000,
Raw,1732151743001,29858000000,,705966.6215819212,-1416186931143000064,0.0,92.9708310548406,1188.7377382633958,0.0,0,15,0.0,16431,350160925323343,487,18.562999725341797,506.21517720431666,0.14999,16,0.0,0.0,1575420030,,,,0,3.5050073750290016,1,6.0,18.562999725341797,0.0,0.0,0.0,66.7128,C,30627091000000,
Raw,1732151743001,29858000000,,705966.6215819212,-1416186931143000064,0.0,92.9708310548406,1188.7377382633958,0.0,0,13,0.0,16431,350160929421647,396,19.54800033569336,706.839808015419,0.14999,16,0.0,0.0,1575420030,,,,0,4.88792244964003,1,6.0,19.54800033569336,0.0,0.0,0.0,66.7128,C,30627091000000,
Raw,1732151743001,29858000000,,705966.6215819212,-1416186931143000064,0.0,92.9708310548406,1188.7377382633958,0.0,0,11,0.0,17,143207,797,17.0,-115.4656505115441,0.14999,16,0.0,0.0,1602000000,,,,0,0.0,3,6.0,17.0,0.0,0.0,106.56785924456022,66.7128,C,30627091000000,
Status,1732151743000,27,0,1,17,1575420030,0.00,90.0,79.0,0,0,0,0.0
Status,1732151743000,27,1,1,22,1575420030,0.00,10.0,67.0,0,0,0,0.0
Status,1732151743000,27,2,1,19,1575420030,0.00,200.0,59.0,0,0,0,0.0
Status,1732151743000,27,3,1,14,1575420030,0.00,51.0,54.0,0,0,0,0.0
Status,1732151743000,27,4,1,13,1575420030,24.70,236.0,49.0,1,0,0,19.7
Status,1732151743000,27,5,1,30,1575420030,23.00,130.0,37.0,1,0,0,18.0
Status,1732151743000,27,6,1,15,1575420030,26.50,276.0,30.0,1,0,0,21.5
Status,1732151743000,27,7,1,2,1575420030,0.00,48.0,17.0,0,0,0,0.0
Status,1732151743000,27,8,1,24,1575420030,0.00,313.0,15.0,0,0,0,0.0
Status,1732151743000,27,9,1,6,1575420030,0.00,162.0,11.0,0,0,0,0.0
Status,1732151743000,27,10,1,21,1575420030,0.00,34.0,5.0,0,0,0,0.0
Status,1732151743000,27,11,1,7,1575420030,21.40,131.0,5.0,1,0,0,16.4
Status,1732151743000,27,12,3,20,1602000000,0.00,116.0,52.0,0,0,0,0.0
Status,1732151743000,27,13,3,9,1602000000,0.00,79.0,34.0,0,0,0,0.0
Status,1732151743000,27,14,3,11,1602000000,19.80,309.0,27.0,0,0,0,14.799999
Status,1732151743000,27,15,3,8,1602000000,25.10,248.0,24.0,1,0,0,20.1
Status,1732151743000,27,16,3,19,1602000000,0.00,34.0,24.0,0,0,0,0.0
Status,1732151743000,27,17,3,17,1602000000,24.50,0.0,0.0,0,0,0,19.5
Status,1732151743000,27,18,6,21,1575420030,0.00,341.0,68.0,0,0,0,0.0
Status,1732151743000,27,19,6,19,1575420030,0.00,244.0,47.0,0,0,0,0.0
Status,1732151743000,27,20,6,27,1575420030,0.00,63.0,35.0,0,0,0,0.0
Status,1732151743000,27,21,6,13,1575420030,0.00,121.0,28.0,0,0,0,0.0
Status,1732151743000,27,22,6,29,1575420030,0.00,191.0,26.0,0,0,0,0.0
Status,1732151743000,27,23,6,15,1575420030,0.00,63.0,24.0,0,0,0,0.0
Status,1732151743000,27,24,6,4,1575420030,0.00,312.0,22.0,0,0,0,0.0
Status,1732151743000,27,25,6,26,1575420030,0.00,168.0,5.0,0,0,0,0.0
Status,1732151743000,27,26,6,6,1575420030,0.00,328.0,4.0,0,0,0,0.0
Fix,GPS,37.4253316667,-122.1582916667,23.500000000000004,0.0,6.7,0.0,1732151744000,2.2,179.9,30628091000000,42.4,0,,,
Raw,1732151744001,30858000000,,705966.1003880225,-1416186931143000064,0.0,92.86828462832686,1189.246418806894,0.0,0,7,0.0,16431,350161917700795,487,16.36400032043457,987.0625724883607,0.14999,16,0.0,0.0,1575420030,,,,0,0.0,1,6.0,16.36400032043457,0.0,0.0,0.0,66.7128,C,30628091000000,
Raw,1732151744001,30858000000,,705966.1003880225,-1416186931143000064,0.0,92.86828462832686,1189.246418806894,0.0,0,30,0.0,16431,350161926617804,797,18.020000457763672,857.3208481253306,0.14999,16,0.0,0.0,1575420030,,,,0,0.0,1,6.0,18.020000457763672,0.0,0.0,0.0,66.7128,C,30628091000000,
Raw,1732151744001,30858000000,,705966.1003880225,-1416186931143000064,0.0,92.86828462832686,1189.246418806894,0.0,0,15,0.0,16431,350161925321685,487,21.49799919128418,506.0869519755756,0.14999,16,0.0,0.0,1575420030,,,,0,4.7361999956595975,1,6.0,21.49799919128418,0.0,0.0,0.0,66.7128,C,30628091000000,
Raw,1732151744001,30858000000,,705966.1003880225,-1416186931143000064,0.0,92.86828462832686,1189.246418806894,0.0,0,13,0.0,16431,350161929419250,396,19.6560001373291,706.7222217639901,0.14999,16,0.0,0.0,1575420030,,,,0,5.1106497719992205,1,6.0,19.6560001373291,0.0,0.0,0.0,66.7128,C,30628091000000,
Raw,1732151744001,30858000000,,705966.1003880225,-1416186931143000064,0.0,92.86828462832686,1189.246418806894,0.0,0,8,0.0,17,219364,487,5.0,924.7466950900977,0.14999,16,0.0,0.0,1605374980,,,,0,4.3748461253911595,3,6.0,18.0,0.0,0.0,106.56785924456022,66.7128,C,30628091000000,
Raw,1732151744001,30858000000,,705966.1003880225,-1416186931143000064,0.0,92.86828462832686,1189.246418806894,0.0,0,11,0.0,17,143593,487,20.100000381469727,-115.9644219239854,0.14999,16,0.0,0.0,1602000000,,,,0,0.0,3,6.0,20.100000381469727,0.0,0.0,106.56785924456022,66.7128,C,30628091000000,
Fix,FLP,37.4253061000,-122.1582967000,5.400000095367432,0.03957415,6.7,,1732151744244,2.2,,30628091000000,10.357419,0,,,
Status,1732151744000,27,0,1,17,1575420030,0.00,90.0,79.0,0,0,0,0.0
Status,1732151744000,27,1,1,22,1575420030,0.00,10.0,67.0,0,0,0,0.0
Status,1732151744000,27,2,1,19,1575420030,0.00,200.0,59.0,0,0,0,0.0
Status,1732151744000,27,3,1,14,1575420030,0.00,51.0,54.0,0,0,0,0.0
Status,1732151744000,27,4,1,13,1575420030,24.80,236.0,49.0,1,0,0,19.8
Status,1732151744000,27,5,1,30,1575420030,19.10,130.0,37.0,1,0,0,14.1
Status,1732151744000,27,6,1,15,1575420030,30.40,276.0,30.0,1,0,0,25.4
Status,1732151744000,27,7,1,2,1575420030,0.00,48.0,17.0,0,0,0,0.0
Status,1732151744000,27,8,1,24,1575420030,0.00,313.0,15.0,0,0,0,0.0
Status,1732151744000,27,9,1,6,1575420030,0.00,162.0,11.0,0,0,0,0.0
Status,1732151744000,27,10,1,21,1575420030,0.00,34.0,5.0,0,0,0,0.0
Status,1732151744000,27,11,1,7,1575420030,25.10,131.0,5.0,1,0,0,20.1
Status,1732151744000,27,12,3,20,1602000000,0.00,116.0,52.0,0,0,0,0.0
Status,1732151744000,27,13,3,9,1602000000,0.00,79.0,34.0,0,0,0,0.0
Status,1732151744000,27,14,3,11,1602000000,23.90,309.0,27.0,0,0,0,18.9
Status,1732151744000,27,15,3,8,1602000000,21.70,248.0,24.0,1,0,0,16.7
Status,1732151744000,27,16,3,19,1602000000,0.00,34.0,24.0,0,0,0,0.0
Status,1732151744000,27,17,3,17,1602000000,24.70,0.0,0.0,0,0,0,19.7
Status,1732151744000,27,18,6,21,1575420030,0.00,341.0,68.0,0,0,0,0.0
Status,1732151744000,27,19,6,19,1575420030,0.00,244.0,47.0,0,0,0,0.0
Status,1732151744000,27,20,6,27,1575420030,0.00,63.0,35.0,0,0,0,0.0
Status,1732151744000,27,21,6,13,1575420030,0.00,121.0,28.0,0,0,0,0.0
Status,1732151744000,27,22,6,29,1575420030,0.00,191.0,26.0,0,0,0,0.0
Status,1732151744000,27,23,6,15,1575420030,0.00,63.0,24.0,0,0,0,0.0
Status,1732151744000,27,24,6,4,1575420030,0.00,312.0,22.0,0,0,0,0.0
Status,1732151744000,27,25,6,26,1575420030,0.00,168.0,5.0,0,0,0,0.0
Status,1732151744000,27,26,6,6,1575420030,0.00,328.0,4.0,0,0,0,0.0
Fix,GPS,37.4253550000,-122.1582983333,23.500000000000004,0.0,6.6,0.0,1732151745000,2.1,179.9,30629091000000,42.2,0,,,
Raw,1732151745001,31858000000,,705965.3707165642,-1416186931143000064,0.0,91.42704861901066,1187.1595600905505,0.0,0,7,0.0,16431,350162917697481,487,20.106000900268555,986.7223110480347,0.14999,16,0.0,0.0,1575420030,,,,0,2.476443825523032,1,6.0,20.106000900268555,0.0,0.0,0.0,66.7128,C,30629091000000,
Raw,1732151745001,31858000000,,705965.3707165642,-1416186931143000064,0.0,91.42704861901066,1187.1595600905505,0.0,0,30,0.0,16431,350162926614941,797,14.100000381469727,856.6189543732218,0.14999,16,0.0,0.0,1575420030,,,,0,0.0,1,6.0,14.100000381469727,0.0,0.0,0.0,66.7128,C,30629091000000,
Raw,1732151745001,31858000000,,705965.3707165642,-1416186931143000064,0.0,91.42704861901066,1187.1595600905505,0.0,0,15,0.0,16431,350162925320014,396,25.368000030517578,505.44898500417247,0.14999,16,0.0,0.0,1575420030,,,,0,10.543757376258535,1,6.0,25.368000030517578,0.0,0.0,0.0,66.7128,C,30629091000000,
Raw,1732151745001,31858000000,,705965.3707165642,-1416186931143000064,0.0,91.42704861901066,1187.1595600905505,0.0,0,13,0.0,16431,350162929416920,487,19.759000778198242,706.2319460977203,0.14999,16,0.0,0.0,1575420030,,,,0,5.1106497719992205,1,6.0,19.759000778198242,0.0,0.0,0.0,66.7128,C,30629091000000,
Raw,1732151745001,31858000000,,705965.3707165642,-1416186931143000064,0.0,91.42704861901066,1187.1595600905505,0.0,0,8,0.0,17,216279,797,5.0,919.1607284614083,0.14999,16,0.0,0.0,1605374980,,,,0,0.0,3,6.0,17.0,0.0,0.0,106.56785924456022,66.7128,C,30629091000000,
Raw,1732151745001,31858000000,,705965.3707165642,-1416186931143000064,0.0,91.42704861901066,1187.1595600905505,0.0,0,11,0.0,17,144015,487,16.700000762939453,-116.32311518761796,0.14999,16,0.0,0.0,1602000000,,,,0,2.501225267834001,3,6.0,16.700000762939453,0.0,0.0,106.56785924456022,66.7128,C,30629091000000,
Fix,FLP,37.4253261000,-122.1582973000,5.400000095367432,0.09641107,6.685,,1732151745243,2.1,,30629091000000,10.802512,0,,,
Status,1732151745000,27,0,1,17,1575420030,0.00,90.0,79.0,0,0,0,0.0
Status,1732151745000,27,1,1,22,1575420030,0.00,10.0,67.0,0,0,0,0.0
Status,1732151745000,27,2,1,19,1575420030,0.00,200.0,59.0,0,0,0,0.0
Status,1732151745000,27,3,1,14,1575420030,0.00,51.0,54.0,0,0,0,0.0
Status,1732151745000,27,4,1,13,1575420030,24.90,236.0,49.0,1,0,0,19.9
Status,1732151745000,27,5,1,30,1575420030,19.10,130.0,37.0,1,0,0,14.1
Status,1732151745000,27,6,1,15,1575420030,26.00,276.0,30.0,1,0,0,21.0
Status,1732151745000,27,7,1,2,1575420030,0.00,48.0,17.0,0,0,0,0.0
Status,1732151745000,27,8,1,24,1575420030,0.00,313.0,15.0,0,0,0,0.0
Status,1732151745000,27,9,1,6,1575420030,0.00,162.0,11.0,0,0,0,0.0
Status,1732151745000,27,10,1,21,1575420030,0.00,34.0,5.0,0,0,0,0.0
Status,1732151745000,27,11,1,7,1575420030,29.30,131.0,5.0,1,0,0,24.3
Status,1732151745000,27,12,3,20,1602000000,0.00,116.0,52.0,0,0,0,0.0
Status,1732151745000,27,13,3,9,1602000000,0.00,79.0,34.0,0,0,0,0.0
Status,1732151745000,27,14,3,11,1602000000,28.70,309.0,27.0,0,0,0,23.7
Status,1732151745000,27,15,3,8,1602000000,21.70,248.0,24.0,1,0,0,16.7
Status,1732151745000,27,16,3,19,1602000000,0.00,34.0,24.0,0,0,0,0.0
Status,1732151745000,27,17,3,17,1602000000,29.30,0.0,0.0,0,0,0,24.3
Status,1732151745000,27,18,6,21,1575420030,0.00,341.0,68.0,0,0,0,0.0
Status,1732151745000,27,19,6,19,1575420030,0.00,244.0,47.0,0,0,0,0.0
Status,1732151745000,27,20,6,27,1575420030,0.00,63.0,35.0,0,0,0,0.0
Status,1732151745000,27,21,6,13,1575420030,0.00,121.0,28.0,0,0,0,0.0
Status,1732151745000,27,22,6,29,1575420030,0.00,191.0,26.0,0,0,0,0.0
Status,1732151745000,27,23,6,15,1575420030,0.00,63.0,24.0,0,0,0,0.0
Status,1732151745000,27,24,6,4,1575420030,0.00,312.0,22.0,0,0,0,0.0
Status,1732151745000,27,25,6,26,1575420030,0.00,168.0,5.0,0,0,0,0.0
Status,1732151745000,27,26,6,6,1575420030,0.00,328.0,4.0,0,0,0,0.0
Fix,GPS,37.4253616667,-122.1583066667,23.500000000000004,0.0,6.6,0.0,1732151746000,2.1,167.3,30630091000000,42.3,0,,,
Raw,1732151746001,32858000000,,705964.5889257161,-1416186931143000064,0.0,90.47683045055878,1188.5578949730914,0.0,0,7,0.0,16431,350163917694193,316,24.253000259399414,987.718007824259,0.14999,16,0.0,0.0,1575420030,,,,0,8.95621017497835,1,6.0,24.253000259399414,0.0,0.0,0.0,66.7128,C,30630091000000,
Raw,1732151746001,32858000000,,705964.5889257161,-1416186931143000064,0.0,90.47683045055878,1188.5578949730914,0.0,0,30,0.0,16431,350163926612083,797,14.100000381469727,857.1515536566594,0.14999,16,0.0,0.0,1575420030,,,,0,0.0,1,6.0,14.100000381469727,0.0,0.0,0.0,66.7128,C,30630091000000,
Raw,1732151746001,32858000000,,705964.5889257161,-1416186931143000064,0.0,90.47683045055878,1188.5578949730914,0.0,0,15,0.0,16431,350163925318313,487,21.003000259399414,506.26618854531586,0.14999,16,0.0,0.0,1575420030,,,,0,3.935089760935498,1,6.0,21.003000259399414,0.0,0.0,0.0,66.7128,C,30630091000000,
Raw,1732151746001,32858000000,,705964.5889257161,-1416186931143000064,0.0,90.47683045055878,1188.5578949730914,0.0,0,13,0.0,16431,350163929414566,797,19.856000900268555,706.2568942672253,0.14999,16,0.0,0.0,1575420030,,,,0,5.1106497719992205,1,6.0,19.856000900268555,0.0,0.0,0.0,66.7128,C,30630091000000,
Raw,1732151746001,32858000000,,705964.5889257161,-1416186931143000064,0.0,90.47683045055878,1188.5578949730914,0.0,0,8,0.0,17,213211,487,5.0,920.5196298940874,0.14999,16,0.0,0.0,1605374980,,,,0,0.0,3,6.0,18.0,0.0,0.0,106.56785924456022,66.7128,C,30630091000000,
Raw,1732151746001,32858000000,,705964.5889257161,-1416186931143000064,0.0,90.47683045055878,1188.5578949730914,0.0,0,11,0.0,17,144443,316,16.700000762939453,-115.53536977282334,0.14999,16,0.0,0.0,1602000000,,,,0,9.415233079502844,3,6.0,16.700000762939453,0.0,0.0,106.56785924456022,66.7128,C,30630091000000,
Fix,FLP,37.4253410000,-122.1583010000,5.400000095367432,0.13478835,6.671,0.0,1732151746244,2.1,167.3,30630091000000,12.157487,0,,,
Fix,FLP,37.4253487000,-122.1583029000,5.400000095367432,0.15103155,6.657,0.0,1732151746767,2.1,167.3,30630615000000,13.23044,0,,,
Fix,NLP,37.4257060000,-122.1581067000,5.400000095367432,,20.48,,1732151746767,,,30630615000000,12.600652,0,,,
Status,1732151746000,28,0,1,17,1575420030,0.00,90.0,79.0,0,0,0,0.0
Status,1732151746000,28,1,1,22,1575420030,0.00,10.0,67.0,0,0,0,0.0
Status,1732151746000,28,2,1,19,1575420030,0.00,200.0,59.0,0,0,0,0.0
Status,1732151746000,28,3,1,14,1575420030,0.00,51.0,54.0,0,0,0,0.0
Status,1732151746000,28,4,1,13,1575420030,24.90,236.0,49.0,1,0,0,19.9
Status,1732151746000,28,5,2,135,1575420030,0.00,197.0,45.0,0,0,0,0.0
Status,1732151746000,28,6,1,30,1575420030,19.10,130.0,37.0,1,0,0,14.1
Status,1732151746000,28,7,1,15,1575420030,26.10,276.0,30.0,1,0,0,21.1
Status,1732151746000,28,8,1,2,1575420030,0.00,48.0,17.0,0,0,0,0.0
Status,1732151746000,28,9,1,24,1575420030,0.00,313.0,15.0,0,0,0,0.0
Status,1732151746000,28,10,1,6,1575420030,0.00,162.0,11.0,0,0,0,0.0
Status,1732151746000,28,11,1,21,1575420030,0.00,34.0,5.0,0,0,0,0.0
Status,1732151746000,28,12,1,7,1575420030,29.90,131.0,5.0,1,0,0,24.9
Status,1732151746000,28,13,3,20,1602000000,0.00,116.0,52.0,0,0,0,0.0
Status,1732151746000,28,14,3,9,1602000000,0.00,79.0,34.0,0,0,0,0.0
Status,1732151746000,28,15,3,11,1602000000,32.60,309.0,27.0,0,0,0,27.599998
Status,1732151746000,28,16,3,8,1602000000,21.60,248.0,24.0,1,0,0,16.6
Status,1732151746000,28,17,3,19,1602000000,0.00,34.0,24.0,0,0,0,0.0
Status,1732151746000,28,18,3,17,1602000000,23.20,0.0,0.0,0,0,0,18.2
Status,1732151746000,28,19,6,21,1575420030,0.00,341.0,68.0,0,0,0,0.0
Status,1732151746000,28,20,6,19,1575420030,0.00,244.0,47.0,0,0,0,0.0
Status,1732151746000,28,21,6,27,1575420030,0.00,63.0,35.0,0,0,0,0.0
Status,1732151746000,28,22,6,13,1575420030,0.00,121.0,28.0,0,0,0,0.0
Status,1732151746000,28,23,6,29,1575420030,0.00,191.0,26.0,0,0,0,0.0
Status,1732151746000,28,24,6,15,1575420030,0.00,63.0,24.0,0,0,0,0.0
Status,1732151746000,28,25,6,4,1575420030,0.00,312.0,22.0,0,0,0,0.0
Status,1732151746000,28,26,6,26,1575420030,0.00,168.0,5.0,0,0,0,0.0
Status,1732151746000,28,27,6,6,1575420030,0.00,328.0,4.0,0,0,0,0.0
