# 
# Header Description:
# 
# Version: v3.1.0.3 Platform: 13 Manufacturer: samsung Model: SM-S135DL GNSS Hardware Model Name: MediaTek,MT6631,MTK_MNLD_default,MNL_VER_default
# 
# Raw,utcTimeMillis,TimeNanos,LeapSecond,TimeUncertaintyNanos,FullBiasNanos,BiasNanos,BiasUncertaintyNanos,DriftNanosPerSecond,DriftUncertaintyNanosPerSecond,HardwareClockDiscontinuityCount,Svid,TimeOffsetNanos,State,ReceivedSvTimeNanos,ReceivedSvTimeUncertaintyNanos,Cn0DbHz,PseudorangeRateMetersPerSecond,PseudorangeRateUncertaintyMetersPerSecond,AccumulatedDeltaRangeState,AccumulatedDeltaRangeMeters,AccumulatedDeltaRangeUncertaintyMeters,CarrierFrequencyHz,CarrierCycles,CarrierPhase,CarrierPhaseUncertainty,MultipathIndicator,SnrInDb,ConstellationType,AgcDb,BasebandCn0DbHz,FullInterSignalBiasNanos,FullInterSignalBiasUncertaintyNanos,SatelliteInterSignalBiasNanos,SatelliteInterSignalBiasUncertaintyNanos,CodeType,ChipsetElapsedRealtimeNanos,IsFullTracking
# 
# UncalAccel,utcTimeMillis,elapsedRealtimeNanos,UncalAccelXMps2,UncalAccelYMps2,UncalAccelZMps2,BiasXMps2,BiasYMps2,BiasZMps2
# 
# Accel,utcTimeMillis,elapsedRealtimeNanos,AccelXMps2,AccelYMps2,AccelZMps2
# 
# UncalGyro,utcTimeMillis,elapsedRealtimeNanos,UncalGyroXRadPerSec,UncalGyroYRadPerSec,UncalGyroZRadPerSec,DriftXRadPerSec,DriftYRadPerSec,DriftZRadPerSec
# 
# Gyro,utcTimeMillis,elapsedRealtimeNanos,GyroXRadPerSec,GyroYRadPerSec,GyroZRadPerSec
# 
# UncalMag,utcTimeMillis,elapsedRealtimeNanos,UncalMagXMicroT,UncalMagYMicroT,UncalMagZMicroT,BiasXMicroT,BiasYMicroT,BiasZMicroT
# 
# Mag,utcTimeMillis,elapsedRealtimeNanos,MagXMicroT,MagYMicroT,MagZMicroT
# 
# Pressure,utcTimeMillis,elapsedRealtimeNanos,PressureHpa
# 
# OrientationDeg,utcTimeMillis,elapsedRealtimeNanos,yawDeg,rollDeg,pitchDeg
# 
# Fix,Provider,LatitudeDegrees,LongitudeDegrees,AltitudeMeters,SpeedMps,AccuracyMeters,BearingDegrees,UnixTimeMillis,SpeedAccuracyMps,BearingAccuracyDegrees,elapsedRealtimeNanos,VerticalAccuracyMeters,MockLocation,NumberOfUsedSignals,VerticalSpeedAccuracyMps,SolutionType
# 
# Nav,Svid,Type,Status,MessageId,Sub-messageId,Data(Bytes)
# 
# Status,UnixTimeMillis,SignalCount,SignalIndex,ConstellationType,Svid,CarrierFrequencyHz,Cn0DbHz,AzimuthDegrees,ElevationDegrees,UsedInFix,HasAlmanacData,HasEphemerisData,BasebandCn0DbHz
# 
# Agc,utcTimeMillis,TimeNanos,LeapSecond,TimeUncertaintyNanos,FullBiasNanos,BiasNanos,BiasUncertaintyNanos,DriftNanosPerSecond,DriftUncertaintyNanosPerSecond,HardwareClockDiscontinuityCount,AgcDb,CarrierFrequencyHz,ConstellationType
# 
Fix,FLP,37.4253184000,-122.1585438000,2.721915806522117,0.2546863,5.528,180.0,1732153190520,2.2,179.9,32074368000000,11.551269,0,,,
Status,,25,0,1,19,1575420030,0.00,204.0,72.0,0,0,0,0.0
Status,,25,1,1,17,1575420030,0.00,54.0,71.0,0,0,0,0.0
Status,,25,2,1,22,1575420030,0.00,33.0,62.0,0,0,0,0.0
Status,,25,3,1,14,1575420030,0.00,63.0,46.0,0,0,0,0.0
Status,,25,4,1,13,1575420030,30.60,224.0,40.0,0,0,0,25.6
Status,,25,5,1,30,1575420030,0.00,137.0,27.0,0,0,0,0.0
Status,,25,6,1,15,1575420030,21.90,264.0,27.0,0,0,0,16.9
Status,,25,7,1,24,1575420030,0.00,313.0,25.0,0,0,0,0.0
Status,,25,8,1,6,1575420030,26.30,157.0,20.0,0,0,0,21.3
Status,,25,9,1,2,1575420030,0.00,40.0,12.0,0,0,0,0.0
Status,,25,10,1,12,1575420030,0.00,273.0,5.0,0,0,0,0.0
Status,,25,11,3,20,1602000000,0.00,93.0,59.0,0,0,0,0.0
Status,,25,12,3,11,1602000000,0.00,320.0,35.0,0,0,0,0.0
Status,,25,13,3,9,1602000000,0.00,92.0,27.0,0,0,0,0.0
Status,,25,14,3,19,1602000000,0.00,27.0,15.0,0,0,0,0.0
Status,,25,15,3,8,1602000000,0.00,238.0,14.0,0,0,0,0.0
Status,,25,16,6,21,1575420030,0.00,3.0,67.0,0,0,0,0.0
Status,,25,17,6,19,1575420030,0.00,234.0,40.0,0,0,0,0.0
Status,,25,18,6,13,1575420030,0.00,113.0,35.0,0,0,0,0.0
Status,,25,19,6,27,1575420030,0.00,71.0,29.0,0,0,0,0.0
Status,,25,20,6,4,1575420030,0.00,304.0,26.0,0,0,0,0.0
Status,,25,21,6,15,1575420030,0.00,54.0,23.0,0,0,0,0.0
Status,,25,22,6,29,1575420030,0.00,189.0,17.0,0,0,0,0.0
Status,,25,23,6,26,1575420030,0.00,165.0,13.0,0,0,0,0.0
Status,,25,24,6,6,1575420030,0.00,323.0,9.0,0,0,0,0.0
Status,,25,0,1,19,1575420030,0.00,204.0,72.0,0,0,0,0.0
Status,,25,1,1,17,1575420030,0.00,54.0,71.0,0,0,0,0.0
Status,,25,2,1,22,1575420030,0.00,33.0,62.0,0,0,0,0.0
Status,,25,3,1,14,1575420030,0.00,63.0,46.0,0,0,0,0.0
Status,,25,4,1,13,1575420030,22.40,224.0,40.0,1,0,0,17.4
Status,,25,5,1,30,1575420030,31.20,137.0,27.0,1,0,0,26.2
Status,,25,6,1,15,1575420030,21.90,264.0,27.0,1,0,0,16.9
Status,,25,7,1,24,1575420030,0.00,313.0,25.0,0,0,0,0.0
Status,,25,8,1,6,1575420030,30.60,157.0,20.0,1,0,0,25.6
Status,,25,9,1,2,1575420030,0.00,40.0,12.0,0,0,0,0.0
Status,,25,10,1,12,1575420030,25.30,273.0,5.0,0,0,0,20.3
Status,,25,11,3,20,1602000000,0.00,93.0,59.0,0,0,0,0.0
Status,,25,12,3,11,1602000000,0.00,320.0,35.0,0,0,0,0.0
Status,,25,13,3,9,1602000000,26.90,92.0,27.0,1,0,0,21.9
Status,,25,14,3,19,1602000000,0.00,27.0,15.0,0,0,0,0.0
Status,,25,15,3,8,1602000000,0.00,238.0,14.0,0,0,0,0.0
Status,,25,16,6,21,1575420030,0.00,3.0,67.0,0,0,0,0.0
Status,,25,17,6,19,1575420030,0.00,234.0,40.0,0,0,0,0.0
Status,,25,18,6,13,1575420030,0.00,113.0,35.0,0,0,0,0.0
Status,,25,19,6,27,1575420030,0.00,71.0,29.0,0,0,0,0.0
Status,,25,20,6,4,1575420030,0.00,304.0,26.0,0,0,0,0.0
Status,,25,21,6,15,1575420030,0.00,54.0,23.0,0,0,0,0.0
Status,,25,22,6,29,1575420030,0.00,189.0,17.0,0,0,0,0.0
Status,,25,23,6,26,1575420030,0.00,165.0,13.0,0,0,0,0.0
Status,,25,24,6,6,1575420030,0.00,323.0,9.0,0,0,0,0.0
Fix,GPS,37.4253233333,-122.1584316667,24.099999999999998,0.0,5.5,0.0,1732153192287,2.1,179.9,32076368000000,100.1,0,,,
Raw,1732153192286,19514000000,,27504456.099425957,-1416188390772000256,0.0,200.3230508661843,1123.973372772728,0.0,0,6,0.0,16431,351610207166804,316,25.58099937438965,-311.8193656298099,0.14999,16,0.0,0.0,1575420030,,,,0,10.857564872888705,1,6.0,25.58099937438965,0.0,0.0,0.0,66.7128,C,32076368000000,
Raw,1732153192286,19514000000,,27504456.099425957,-1416188390772000256,0.0,200.3230508661843,1123.973372772728,0.0,0,13,0.0,16431,351610212779415,797,17.38599967956543,823.2622761182174,0.14999,16,0.0,0.0,1575420030,,,,0,0.0,1,6.0,17.38599967956543,0.0,0.0,0.0,66.7128,C,32076368000000,
Raw,1732153192286,19514000000,,27504456.099425957,-1416188390772000256,0.0,200.3230508661843,1123.973372772728,0.0,0,30,0.0,16431,351610209368470,396,26.218000411987305,928.7188854923452,0.14999,16,0.0,0.0,1575420030,,,,0,11.726878748510513,1,6.0,26.218000411987305,0.0,0.0,0.0,66.7128,C,32076368000000,
Raw,1732153192286,19514000000,,27504456.099425957,-1416188390772000256,0.0,200.3230508661843,1123.973372772728,0.0,0,12,0.0,17,396373,487,20.341999053955078,-208.41473158286914,0.14999,16,0.0,0.0,1575420030,,,,0,2.852928763856257,1,6.0,20.341999053955078,0.0,0.0,0.0,66.7128,C,32076368000000,
Raw,1732153192286,19514000000,,27504456.099425957,-1416188390772000256,0.0,200.3230508661843,1123.973372772728,0.0,0,15,0.0,16431,351610209600081,1797,16.871999740600586,645.2224751795441,0.14999,16,0.0,0.0,1575420030,,,,0,0.0,1,6.0,16.871999740600586,0.0,0.0,0.0,66.7128,C,32076368000000,
Raw,1732153192286,19514000000,,27504456.099425957,-1416188390772000256,0.0,200.3230508661843,1123.973372772728,0.0,0,9,0.0,17,882827,396,5.0,764.3997560684323,0.14999,16,0.0,0.0,1600875010,,,,0,6.9804674464291105,3,6.0,23.0,0.0,0.0,38.373807249897055,66.7128,C,32076368000000,
Fix,FLP,37.4253201000,-122.1584875000,2.5188292528439256,0.09301799,5.533,,1732153192520,2.1,,32076368000000,10.627379,0,,,
Fix,FLP,37.4253215000,-122.1584653000,2.4190396652620283,0.045438927,5.5,,1732153193042,2.1,,32076890000000,10.436285,0,,,
Fix,NLP,37.4255754000,-122.1580607000,5.400000095367432,,28.377,,1732153193042,,,32076890000000,54.800396,0,,,
Status,1732153192287,25,0,1,19,1575420030,0.00,204.0,72.0,0,0,0,0.0
Status,1732153192287,25,1,1,17,1575420030,0.00,54.0,71.0,0,0,0,0.0
Status,1732153192287,25,2,1,22,1575420030,0.00,33.0,62.0,0,0,0,0.0
Status,1732153192287,25,3,1,14,1575420030,0.00,63.0,46.0,0,0,0,0.0
Status,1732153192287,25,4,1,13,1575420030,22.40,224.0,40.0,1,0,0,17.4
Status,1732153192287,25,5,1,30,1575420030,0.00,137.0,27.0,0,0,0,0.0
Status,1732153192287,25,6,1,15,1575420030,21.00,264.0,27.0,1,0,0,16.0
Status,1732153192287,25,7,1,24,1575420030,0.00,313.0,25.0,0,0,0,0.0
Status,1732153192287,25,8,1,6,1575420030,29.20,157.0,20.0,1,0,0,24.2
Status,1732153192287,25,9,1,2,1575420030,0.00,40.0,12.0,0,0,0,0.0
Status,1732153192287,25,10,1,12,1575420030,25.20,273.0,5.0,0,0,0,20.2
Status,1732153192287,25,11,3,20,1602000000,0.00,93.0,59.0,0,0,0,0.0
Status,1732153192287,25,12,3,11,1602000000,0.00,320.0,35.0,0,0,0,0.0
Status,1732153192287,25,13,3,9,1602000000,23.60,92.0,27.0,1,0,0,18.6
Status,1732153192287,25,14,3,19,1602000000,0.00,27.0,15.0,0,0,0,0.0
Status,1732153192287,25,15,3,8,1602000000,25.50,238.0,14.0,1,0,0,20.5
Status,1732153192287,25,16,6,21,1575420030,0.00,3.0,67.0,0,0,0,0.0
Status,1732153192287,25,17,6,19,1575420030,0.00,234.0,40.0,0,0,0,0.0
Status,1732153192287,25,18,6,13,1575420030,0.00,113.0,35.0,0,0,0,0.0
Status,1732153192287,25,19,6,27,1575420030,0.00,71.0,29.0,0,0,0,0.0
Status,1732153192287,25,20,6,4,1575420030,0.00,304.0,26.0,0,0,0,0.0
Status,1732153192287,25,21,6,15,1575420030,0.00,54.0,23.0,0,0,0,0.0
Status,1732153192287,25,22,6,29,1575420030,0.00,189.0,17.0,0,0,0,0.0
Status,1732153192287,25,23,6,26,1575420030,0.00,165.0,13.0,0,0,0,0.0
Status,1732153192287,25,24,6,6,1575420030,0.00,323.0,9.0,0,0,0,0.0
Fix,GPS,37.4253400000,-122.1584016667,24.099999999999998,0.0,5.4,0.0,1732153193289,2.0,156.6,32077368000000,100.1,0,,,
Raw,1732153193289,20514000000,,25444587.735425953,-1416188390775000064,0.0,204.98092867364699,1119.444282315999,0.0,0,6,0.0,16431,351611210167842,396,24.194000244140625,-312.7487662461017,0.14999,16,0.0,0.0,1575420030,,,,0,8.896476879752822,1,6.0,24.194000244140625,0.0,0.0,0.0,66.7128,C,32077368000000,
Raw,1732153193289,20514000000,,25444587.735425953,-1416188390775000064,0.0,204.98092867364699,1119.444282315999,0.0,0,13,0.0,16431,351611215776671,797,17.38599967956543,822.2790301975375,0.14999,16,0.0,0.0,1575420030,,,,0,0.0,1,6.0,17.38599967956543,0.0,0.0,0.0,66.7128,C,32077368000000,
Raw,1732153193289,20514000000,,25444587.735425953,-1416188390775000064,0.0,204.98092867364699,1119.444282315999,0.0,0,12,0.0,17,397068,487,20.242000579833984,-209.5260633570414,0.14999,16,0.0,0.0,1575420030,,,,0,2.6671272484516506,1,6.0,20.242000579833984,0.0,0.0,0.0,66.7128,C,32077368000000,
Raw,1732153193289,20514000000,,25444587.735425953,-1416188390775000064,0.0,204.98092867364699,1119.444282315999,0.0,0,15,0.0,16431,351611212597942,797,15.991999626159668,643.9927673608673,0.14999,16,0.0,0.0,1575420030,,,,0,0.0,1,6.0,15.991999626159668,0.0,0.0,0.0,66.7128,C,32077368000000,
Raw,1732153193289,20514000000,,25444587.735425953,-1416188390775000064,0.0,204.98092867364699,1119.444282315999,0.0,0,9,0.0,17,880300,487,5.0,761.8998031002924,0.14999,16,0.0,0.0,1600875010,,,,0,1.9615554741221306,3,6.0,19.0,0.0,0.0,38.373807249897055,66.7128,C,32077368000000,
Raw,1732153193289,20514000000,,25444587.735425953,-1416188390775000064,0.0,204.98092867364699,1119.444282315999,0.0,0,8,0.0,17,626556,487,5.0,991.619453710011,0.14999,16,0.0,0.0,1605374980,,,,0,5.0,3,6.0,20.0,0.0,0.0,38.373807249897055,66.7128,C,32077368000000,
Fix,FLP,37.4253288000,-122.1584425000,2.4190396652620283,0.054474425,5.483,,1732153193521,2.0,,32077368000000,12.025865,0,,,
Status,1732153193289,25,0,1,19,1575420030,0.00,204.0,72.0,0,0,0,0.0
Status,1732153193289,25,1,1,17,1575420030,0.00,54.0,71.0,0,0,0,0.0
Status,1732153193289,25,2,1,22,1575420030,0.00,33.0,62.0,0,0,0,0.0
Status,1732153193289,25,3,1,14,1575420030,0.00,63.0,46.0,0,0,0,0.0
Status,1732153193289,25,4,1,13,1575420030,22.40,224.0,40.0,1,0,0,17.4
Status,1732153193289,25,5,1,30,1575420030,26.10,137.0,27.0,1,0,0,21.1
Status,1732153193289,25,6,1,15,1575420030,21.00,264.0,27.0,1,0,0,16.0
Status,1732153193289,25,7,1,24,1575420030,0.00,313.0,25.0,0,0,0,0.0
Status,1732153193289,25,8,1,6,1575420030,30.40,157.0,20.0,1,0,0,25.4
Status,1732153193289,25,9,1,2,1575420030,19.80,40.0,12.0,1,0,0,14.799999
Status,1732153193289,25,10,1,12,1575420030,24.80,273.0,5.0,0,0,0,19.8
Status,1732153193289,25,11,3,20,1602000000,0.00,93.0,59.0,0,0,0,0.0
Status,1732153193289,25,12,3,11,1602000000,0.00,320.0,35.0,0,0,0,0.0
Status,1732153193289,25,13,3,9,1602000000,0.00,92.0,27.0,0,0,0,0.0
Status,1732153193289,25,14,3,19,1602000000,0.00,27.0,15.0,0,0,0,0.0
Status,1732153193289,25,15,3,8,1602000000,0.00,238.0,14.0,0,0,0,0.0
Status,1732153193289,25,16,6,21,1575420030,0.00,3.0,67.0,0,0,0,0.0
Status,1732153193289,25,17,6,19,1575420030,0.00,234.0,40.0,0,0,0,0.0
Status,1732153193289,25,18,6,13,1575420030,0.00,113.0,35.0,0,0,0,0.0
Status,1732153193289,25,19,6,27,1575420030,0.00,71.0,29.0,0,0,0,0.0
Status,1732153193289,25,20,6,4,1575420030,0.00,304.0,26.0,0,0,0,0.0
Status,1732153193289,25,21,6,15,1575420030,0.00,54.0,23.0,0,0,0,0.0
Status,1732153193289,25,22,6,29,1575420030,0.00,189.0,17.0,0,0,0,0.0
Status,1732153193289,25,23,6,26,1575420030,0.00,165.0,13.0,0,0,0,0.0
Status,1732153193289,25,24,6,6,1575420030,0.00,323.0,9.0,0,0,0,0.0
Fix,GPS,37.4253366667,-122.1583850000,24.099999999999998,0.0,5.5,0.0,1732153194289,1.9,178.4,32078368000000,100.1,0,,,
Raw,1732153194290,21514000000,,23714455.8186317,-1416188390776000000,0.0,211.8470475155401,1116.7771815619487,0.0,0,6,0.0,16431,351612211168888,396,25.408000946044922,-313.0219881918359,0.14999,16,0.0,0.0,1575420030,,,,0,10.597711188184338,1,6.0,25.408000946044922,0.0,0.0,0.0,66.7128,C,32078368000000,
Raw,1732153194290,21514000000,,23714455.8186317,-1416188390776000000,0.0,211.8470475155401,1116.7771815619487,0.0,0,13,0.0,16431,351612216773929,396,17.38599967956543,821.2628917181806,0.14999,16,0.0,0.0,1575420030,,,,0,0.0,1,6.0,17.38599967956543,0.0,0.0,0.0,66.7128,C,32078368000000,
Raw,1732153194290,21514000000,,23714455.8186317,-1416188390776000000,0.0,211.8470475155401,1116.7771815619487,0.0,0,12,0.0,17,397768,487,19.76799964904785,-210.71079942882633,0.14999,16,0.0,0.0,1575420030,,,,0,1.8814267726648453,1,6.0,19.76799964904785,0.0,0.0,0.0,66.7128,C,32078368000000,
Raw,1732153194290,21514000000,,23714455.8186317,-1416188390776000000,0.0,211.8470475155401,1116.7771815619487,0.0,0,15,0.0,16431,351612213595795,797,15.991999626159668,643.1408129243985,0.14999,16,0.0,0.0,1575420030,,,,0,0.0,1,6.0,15.991999626159668,0.0,0.0,0.0,66.7128,C,32078368000000,
Raw,1732153194290,21514000000,,23714455.8186317,-1416188390776000000,0.0,211.8470475155401,1116.7771815619487,0.0,0,30,0.0,16431,351612213362327,396,21.0939998626709,928.2254041953569,0.14999,16,0.0,0.0,1575420030,,,,0,4.132574977193741,1,6.0,21.0939998626709,0.0,0.0,0.0,66.7128,C,32078368000000,
Raw,1732153194290,21514000000,,23714455.8186317,-1416188390776000000,0.0,211.8470475155401,1116.7771815619487,0.0,0,2,0.0,16431,351612206775765,797,14.800000190734863,784.4616935684945,0.14999,16,0.0,0.0,1575420030,,,,0,0.0,1,6.0,14.800000190734863,0.0,0.0,0.0,66.7128,C,32078368000000,
Fix,FLP,37.4253326000,-122.1584199000,2.4190396652620283,0.07345509,5.466,,1732153194520,1.9,,32078368000000,11.886455,0,,,
Status,1732153194289,26,0,1,19,1575420030,0.00,204.0,72.0,0,0,0,0.0
Status,1732153194289,26,1,1,17,1575420030,0.00,54.0,71.0,0,0,0,0.0
Status,1732153194289,26,2,1,22,1575420030,0.00,33.0,62.0,0,0,0,0.0
Status,1732153194289,26,3,1,14,1575420030,0.00,63.0,46.0,0,0,0,0.0
Status,1732153194289,26,4,2,133,1575420030,0.00,191.0,45.0,0,0,0,0.0
Status,1732153194289,26,5,1,13,1575420030,27.30,224.0,40.0,1,0,0,22.3
Status,1732153194289,26,6,1,30,1575420030,0.00,137.0,27.0,0,0,0,0.0
Status,1732153194289,26,7,1,15,1575420030,21.00,264.0,27.0,1,0,0,16.0
Status,1732153194289,26,8,1,24,1575420030,0.00,313.0,25.0,0,0,0,0.0
Status,1732153194289,26,9,1,6,1575420030,28.50,157.0,20.0,1,0,0,23.5
Status,1732153194289,26,10,1,2,1575420030,32.00,40.0,12.0,1,0,0,27.0
Status,1732153194289,26,11,1,12,1575420030,25.70,273.0,5.0,0,0,0,20.7
Status,1732153194289,26,12,3,20,1602000000,0.00,93.0,59.0,0,0,0,0.0
Status,1732153194289,26,13,3,11,1602000000,0.00,320.0,35.0,0,0,0,0.0
Status,1732153194289,26,14,3,9,1602000000,0.00,92.0,27.0,0,0,0,0.0
Status,1732153194289,26,15,3,19,1602000000,0.00,27.0,15.0,0,0,0,0.0
Status,1732153194289,26,16,3,8,1602000000,0.00,238.0,14.0,0,0,0,0.0
Status,1732153194289,26,17,6,21,1575420030,0.00,3.0,67.0,0,0,0,0.0
Status,1732153194289,26,18,6,19,1575420030,0.00,234.0,40.0,0,0,0,0.0
Status,1732153194289,26,19,6,13,1575420030,0.00,113.0,35.0,0,0,0,0.0
Status,1732153194289,26,20,6,27,1575420030,0.00,71.0,29.0,0,0,0,0.0
Status,1732153194289,26,21,6,4,1575420030,0.00,304.0,26.0,0,0,0,0.0
Status,1732153194289,26,22,6,15,1575420030,0.00,54.0,23.0,0,0,0,0.0
Status,1732153194289,26,23,6,29,1575420030,0.00,189.0,17.0,0,0,0,0.0
Status,1732153194289,26,24,6,26,1575420030,0.00,165.0,13.0,0,0,0,0.0
Status,1732153194289,26,25,6,6,1575420030,0.00,323.0,9.0,0,0,0,0.0
Fix,GPS,37.4252066667,-122.1584750000,24.099999999999998,0.0,5.2,0.0,1732153195295,1.8,153.8,32079368000000,100.1,0,,,
Raw,1732153195290,22514000000,,22647836.257441808,-1416188390776000000,0.0,176.97063757641737,1114.4219322526105,0.0,0,6,0.0,16431,351613211169928,396,23.458999633789062,-313.948136718993,0.14999,16,0.0,0.0,1575420030,,,,0,7.824588821128279,1,6.0,23.458999633789062,0.0,0.0,0.0,66.7128,C,32079368000000,
Raw,1732153195290,22514000000,,22647836.257441808,-1416188390776000000,0.0,176.97063757641737,1114.4219322526105,0.0,0,13,0.0,16431,351613216771202,487,22.319000244140625,820.6513131271852,0.14999,16,0.0,0.0,1575420030,,,,0,6.046945621206494,1,6.0,22.319000244140625,0.0,0.0,0.0,66.7128,C,32079368000000,
Raw,1732153195290,22514000000,,22647836.257441808,-1416188390776000000,0.0,176.97063757641737,1114.4219322526105,0.0,0,12,0.0,17,398469,487,20.68199920654297,-211.9299147286071,0.14999,16,0.0,0.0,1575420030,,,,0,3.387613828801152,1,6.0,20.68199920654297,0.0,0.0,0.0,66.7128,C,32079368000000,
Raw,1732153195290,22514000000,,22647836.257441808,-1416188390776000000,0.0,176.97063757641737,1114.4219322526105,0.0,0,15,0.0,16431,351613213593651,487,15.991999626159668,642.5290484997381,0.14999,16,0.0,0.0,1575420030,,,,0,0.0,1,6.0,15.991999626159668,0.0,0.0,0.0,66.7128,C,32079368000000,
Raw,1732153195290,22514000000,,22647836.257441808,-1416188390776000000,0.0,176.97063757641737,1114.4219322526105,0.0,0,2,0.0,16431,351613206773145,316,26.95199966430664,784.6865523029536,0.14999,16,0.0,0.0,1575420030,,,,0,12.696454705343664,1,6.0,26.95199966430664,0.0,0.0,0.0,66.7128,C,32079368000000,
Fix,FLP,37.4252701000,-122.1584440000,2.4190396652620283,0.6243962,5.416,180.0,1732153195520,1.8,153.8,32079368000000,11.821687,0,,,
Status,1732153195295,25,0,1,19,1575420030,0.00,204.0,72.0,0,0,0,0.0
Status,1732153195295,25,1,1,17,1575420030,0.00,54.0,71.0,0,0,0,0.0
Status,1732153195295,25,2,1,22,1575420030,0.00,33.0,62.0,0,0,0,0.0
Status,1732153195295,25,3,1,14,1575420030,0.00,63.0,46.0,0,0,0,0.0
Status,1732153195295,25,4,1,13,1575420030,23.10,224.0,40.0,0,0,0,18.1
Status,1732153195295,25,5,1,30,1575420030,0.00,137.0,27.0,0,0,0,0.0
Status,1732153195295,25,6,1,15,1575420030,0.00,264.0,27.0,0,0,0,0.0
Status,1732153195295,25,7,1,24,1575420030,0.00,313.0,25.0,0,0,0,0.0
Status,1732153195295,25,8,1,6,1575420030,28.50,157.0,20.0,0,0,0,23.5
Status,1732153195295,25,9,1,2,1575420030,30.80,40.0,12.0,0,0,0,25.8
Status,1732153195295,25,10,1,12,1575420030,26.90,273.0,5.0,0,0,0,21.9
Status,1732153195295,25,11,3,20,1602000000,0.00,93.0,59.0,0,0,0,0.0
Status,1732153195295,25,12,3,11,1602000000,0.00,320.0,35.0,0,0,0,0.0
Status,1732153195295,25,13,3,9,1602000000,0.00,92.0,27.0,0,0,0,0.0
Status,1732153195295,25,14,3,19,1602000000,0.00,27.0,15.0,0,0,0,0.0
Status,1732153195295,25,15,3,8,1602000000,0.00,238.0,14.0,0,0,0,0.0
Status,1732153195295,25,16,6,21,1575420030,0.00,3.0,67.0,0,0,0,0.0
Status,1732153195295,25,17,6,19,1575420030,0.00,234.0,40.0,0,0,0,0.0
Status,1732153195295,25,18,6,13,1575420030,0.00,113.0,35.0,0,0,0,0.0
Status,1732153195295,25,19,6,27,1575420030,0.00,71.0,29.0,0,0,0,0.0
Status,1732153195295,25,20,6,4,1575420030,0.00,304.0,26.0,0,0,0,0.0
Status,1732153195295,25,21,6,15,1575420030,0.00,54.0,23.0,0,0,0,0.0
Status,1732153195295,25,22,6,29,1575420030,0.00,189.0,17.0,0,0,0,0.0
Status,1732153195295,25,23,6,26,1575420030,0.00,165.0,13.0,0,0,0,0.0
Status,1732153195295,25,24,6,6,1575420030,0.00,323.0,9.0,0,0,0,0.0
Status,,25,0,1,19,1575420030,0.00,204.0,72.0,0,0,0,0.0
Status,,25,1,1,17,1575420030,0.00,54.0,71.0,0,0,0,0.0
Status,,25,2,1,22,1575420030,0.00,33.0,62.0,0,0,0,0.0
Status,,25,3,1,14,1575420030,0.00,63.0,46.0,0,0,0,0.0
Status,,25,4,1,13,1575420030,23.10,224.0,40.0,1,0,0,18.1
Status,,25,5,1,30,1575420030,0.00,137.0,27.0,0,0,0,0.0
Status,,25,6,1,15,1575420030,0.00,264.0,27.0,0,0,0,0.0
Status,,25,7,1,24,1575420030,21.10,313.0,25.0,1,0,0,16.1
Status,,25,8,1,6,1575420030,28.50,157.0,20.0,1,0,0,23.5
Status,,25,9,1,2,1575420030,30.80,40.0,12.0,1,0,0,25.8
Status,,25,10,1,12,1575420030,25.70,273.0,5.0,0,0,0,20.7
Status,,25,11,3,20,1602000000,0.00,93.0,59.0,0,0,0,0.0
Status,,25,12,3,11,1602000000,0.00,320.0,35.0,0,0,0,0.0
Status,,25,13,3,9,1602000000,0.00,92.0,27.0,0,0,0,0.0
Status,,25,14,3,19,1602000000,0.00,27.0,15.0,0,0,0,0.0
Status,,25,15,3,8,1602000000,0.00,238.0,14.0,0,0,0,0.0
Status,,25,16,6,21,1575420030,0.00,3.0,67.0,0,0,0,0.0
Status,,25,17,6,19,1575420030,0.00,234.0,40.0,0,0,0,0.0
Status,,25,18,6,13,1575420030,0.00,113.0,35.0,0,0,0,0.0
Status,,25,19,6,27,1575420030,0.00,71.0,29.0,0,0,0,0.0
Status,,25,20,6,4,1575420030,0.00,304.0,26.0,0,0,0,0.0
Status,,25,21,6,15,1575420030,0.00,54.0,23.0,0,0,0,0.0
Status,,25,22,6,29,1575420030,0.00,189.0,17.0,0,0,0,0.0
Status,,25,23,6,26,1575420030,0.00,165.0,13.0,0,0,0,0.0
Status,,25,24,6,6,1575420030,0.00,323.0,9.0,0,0,0,0.0
Fix,GPS,37.4252083333,-122.1584683333,24.099999999999998,0.0,5.3,0.0,1732153197296,1.8,179.9,32081368000000,100.1,0,,,
Raw,1732153197297,24514000000,,21867099.471861962,-1416188390783000064,0.0,180.33341980247184,1110.4340143859997,0.0,0,6,0.0,16431,351615218172030,797,23.458999633789062,-315.97028574297286,0.14999,16,0.0,0.0,1575420030,,,,0,7.824588821128279,1,6.0,23.458999633789062,0.0,0.0,0.0,66.7128,C,32081368000000,
Raw,1732153197297,24514000000,,21867099.471861962,-1416188390783000064,0.0,180.33341980247184,1110.4340143859997,0.0,0,13,0.0,16431,351615223765711,797,18.149999618530273,820.6778873412576,0.14999,16,0.0,0.0,1575420030,,,,0,0.0,1,6.0,18.149999618530273,0.0,0.0,0.0,66.7128,C,32081368000000,
Raw,1732153197297,24514000000,,21867099.471861962,-1416188390783000064,0.0,180.33341980247184,1110.4340143859997,0.0,0,24,0.0,16431,351615220237552,797,16.097999572753906,-255.1344299261755,0.14999,16,0.0,0.0,1575420030,,,,0,0.0,1,6.0,16.097999572753906,0.0,0.0,0.0,66.7128,C,32081368000000,
Raw,1732153197297,24514000000,,21867099.471861962,-1416188390783000064,0.0,180.33341980247184,1110.4340143859997,0.0,0,12,0.0,17,399875,487,20.68199920654297,-211.8823413104075,0.14999,16,0.0,0.0,1575420030,,,,0,3.387613828801152,1,6.0,20.68199920654297,0.0,0.0,0.0,66.7128,C,32081368000000,
Raw,1732153197297,24514000000,,21867099.471861962,-1416188390783000064,0.0,180.33341980247184,1110.4340143859997,0.0,0,2,0.0,16431,351615213767863,797,25.775999069213867,784.0558328444793,0.14999,16,0.0,0.0,1575420030,,,,0,11.109869862863778,1,6.0,25.775999069213867,0.0,0.0,0.0,66.7128,C,32081368000000,
Fix,FLP,37.4252290000,-122.1584565000,2.368635293144208,0.63175946,5.4,180.0,1732153197520,1.8,179.9,32081368000000,11.57967,0,,,
Fix,FLP,37.4252195000,-122.1584611000,2.6959770774148533,0.48895288,5.366,180.0,1732153197908,1.8,179.9,32081755000000,12.830584,0,,,
Fix,NLP,37.4256373000,-122.1580985000,-0.4000000059604645,,22.325,,1732153197907,,,32081755000000,35.465878,0,,,
Status,1732153197296,25,0,1,19,1575420030,0.00,204.0,72.0,0,0,0,0.0
Status,1732153197296,25,1,1,17,1575420030,0.00,54.0,71.0,0,0,0,0.0
Status,1732153197296,25,2,1,22,1575420030,0.00,33.0,62.0,0,0,0,0.0
Status,1732153197296,25,3,1,14,1575420030,0.00,63.0,46.0,0,0,0,0.0
Status,1732153197296,25,4,1,13,1575420030,23.20,224.0,40.0,1,0,0,18.2
Status,1732153197296,25,5,1,30,1575420030,0.00,137.0,27.0,0,0,0,0.0
Status,1732153197296,25,6,1,15,1575420030,0.00,264.0,27.0,0,0,0,0.0
Status,1732153197296,25,7,1,24,1575420030,21.10,313.0,25.0,1,0,0,16.1
Status,1732153197296,25,8,1,6,1575420030,19.70,157.0,20.0,1,0,0,14.700001
Status,1732153197296,25,9,1,2,1575420030,30.80,40.0,12.0,1,0,0,25.8
Status,1732153197296,25,10,1,12,1575420030,23.80,273.0,5.0,0,0,0,18.8
Status,1732153197296,25,11,3,20,1602000000,0.00,93.0,59.0,0,0,0,0.0
Status,1732153197296,25,12,3,11,1602000000,0.00,320.0,35.0,0,0,0,0.0
Status,1732153197296,25,13,3,9,1602000000,0.00,92.0,27.0,0,0,0,0.0
Status,1732153197296,25,14,3,19,1602000000,0.00,27.0,15.0,0,0,0,0.0
Status,1732153197296,25,15,3,8,1602000000,0.00,238.0,14.0,0,0,0,0.0
Status,1732153197296,25,16,6,21,1575420030,0.00,3.0,67.0,0,0,0,0.0
Status,1732153197296,25,17,6,19,1575420030,0.00,234.0,40.0,0,0,0,0.0
Status,1732153197296,25,18,6,13,1575420030,0.00,113.0,35.0,0,0,0,0.0
Status,1732153197296,25,19,6,27,1575420030,0.00,71.0,29.0,0,0,0,0.0
Status,1732153197296,25,20,6,4,1575420030,0.00,304.0,26.0,0,0,0,0.0
Status,1732153197296,25,21,6,15,1575420030,0.00,54.0,23.0,0,0,0,0.0
Status,1732153197296,25,22,6,29,1575420030,0.00,189.0,17.0,0,0,0,0.0
Status,1732153197296,25,23,6,26,1575420030,0.00,165.0,13.0,0,0,0,0.0
Status,1732153197296,25,24,6,6,1575420030,0.00,323.0,9.0,0,0,0,0.0
Fix,GPS,37.4252133333,-122.1584650000,24.099999999999998,0.0,5.3,0.0,1732153198298,1.8,179.9,32082368000000,100.1,0,,,
Fix,FLP,37.4252159000,-122.1584626000,2.7035340137927375,0.34610003,5.333,180.0,1732153198520,1.8,179.9,32082368000000,12.58503,0,,,
Raw,1732153198298,25514000000,,21165018.767750323,-1416188390784000000,0.0,182.4250284327051,1110.878487566483,0.0,0,6,0.0,16431,351616219173067,797,14.699999809265137,-315.34021670232556,0.14999,16,0.0,0.0,1575420030,,,,0,0.0,1,6.0,14.699999809265137,0.0,0.0,0.0,66.7128,C,32082368000000,
Raw,1732153198298,25514000000,,21165018.767750323,-1416188390784000000,0.0,182.4250284327051,1110.878487566483,0.0,0,13,0.0,16431,351616224762959,797,18.170000076293945,820.7908742094816,0.14999,16,0.0,0.0,1575420030,,,,0,0.0,1,6.0,18.170000076293945,0.0,0.0,0.0,66.7128,C,32082368000000,
Raw,1732153198298,25514000000,,21165018.767750323,-1416188390784000000,0.0,182.4250284327051,1110.878487566483,0.0,0,24,0.0,16431,351616221238404,797,16.097999572753906,-254.6253850597566,0.14999,16,0.0,0.0,1575420030,,,,0,0.0,1,6.0,16.097999572753906,0.0,0.0,0.0,66.7128,C,32082368000000,
Raw,1732153198298,25514000000,,21165018.767750323,-1416188390784000000,0.0,182.4250284327051,1110.878487566483,0.0,0,12,0.0,17,400581,487,18.761999130249023,-211.47699162897055,0.14999,16,0.0,0.0,1575420030,,,,0,0.05810402351951005,1,6.0,18.761999130249023,0.0,0.0,0.0,66.7128,C,32082368000000,
Raw,1732153198298,25514000000,,21165018.767750323,-1416188390784000000,0.0,182.4250284327051,1110.878487566483,0.0,0,2,0.0,16431,351616214765248,797,25.775999069213867,783.6278579143478,0.14999,16,0.0,0.0,1575420030,,,,0,11.109869862863778,1,6.0,25.775999069213867,0.0,0.0,0.0,66.7128,C,32082368000000,
Status,1732153198298,25,0,1,19,1575420030,0.00,204.0,72.0,0,0,0,0.0
Status,1732153198298,25,1,1,17,1575420030,0.00,54.0,71.0,0,0,0,0.0
Status,1732153198298,25,2,1,22,1575420030,0.00,33.0,62.0,0,0,0,0.0
Status,1732153198298,25,3,1,14,1575420030,0.00,63.0,46.0,0,0,0,0.0
Status,1732153198298,25,4,1,13,1575420030,23.10,224.0,40.0,1,0,0,18.1
Status,1732153198298,25,5,1,30,1575420030,0.00,137.0,27.0,0,0,0,0.0
Status,1732153198298,25,6,1,15,1575420030,0.00,264.0,27.0,0,0,0,0.0
Status,1732153198298,25,7,1,24,1575420030,24.00,313.0,25.0,1,0,0,19.0
Status,1732153198298,25,8,1,6,1575420030,19.70,157.0,20.0,1,0,0,14.700001
Status,1732153198298,25,9,1,2,1575420030,19.90,40.0,12.0,1,0,0,14.9
Status,1732153198298,25,10,1,12,1575420030,0.00,273.0,5.0,0,0,0,0.0
Status,1732153198298,25,11,3,20,1602000000,0.00,93.0,59.0,0,0,0,0.0
Status,1732153198298,25,12,3,11,1602000000,0.00,320.0,35.0,0,0,0,0.0
Status,1732153198298,25,13,3,9,1602000000,0.00,92.0,27.0,0,0,0,0.0
Status,1732153198298,25,14,3,19,1602000000,0.00,27.0,15.0,0,0,0,0.0
Status,1732153198298,25,15,3,8,1602000000,0.00,238.0,14.0,0,0,0,0.0
Status,1732153198298,25,16,6,21,1575420030,0.00,3.0,67.0,0,0,0,0.0
Status,1732153198298,25,17,6,19,1575420030,0.00,234.0,40.0,0,0,0,0.0
Status,1732153198298,25,18,6,13,1575420030,0.00,113.0,35.0,0,0,0,0.0
Status,1732153198298,25,19,6,27,1575420030,0.00,71.0,29.0,0,0,0,0.0
Status,1732153198298,25,20,6,4,1575420030,0.00,304.0,26.0,0,0,0,0.0
Status,1732153198298,25,21,6,15,1575420030,0.00,54.0,23.0,0,0,0,0.0
Status,1732153198298,25,22,6,29,1575420030,0.00,189.0,17.0,0,0,0,0.0
Status,1732153198298,25,23,6,26,1575420030,0.00,165.0,13.0,0,0,0,0.0
Status,1732153198298,25,24,6,6,1575420030,0.00,323.0,9.0,0,0,0,0.0
Fix,GPS,37.4252083333,-122.1584950000,24.2,0.0,5.2,0.0,1732153199301,1.7,179.9,32083368000000,100.1,0,,,
Raw,1732153199298,26514000000,,20267296.050523058,-1416188390784999936,0.0,183.0672573989542,1112.5694465656727,0.0,0,6,0.0,16431,351617220174119,1797,14.699999809265137,-314.9681777053116,0.14999,16,0.0,0.0,1575420030,,,,0,0.0,1,6.0,14.699999809265137,0.0,0.0,0.0,66.7128,C,32083368000000,
Raw,1732153199298,26514000000,,20267296.050523058,-1416188390784999936,0.0,183.0672573989542,1112.5694465656727,0.0,0,13,0.0,16431,351617225760231,797,18.149999618530273,821.707591678148,0.14999,16,0.0,0.0,1575420030,,,,0,0.0,1,6.0,18.149999618530273,0.0,0.0,0.0,66.7128,C,32083368000000,
Raw,1732153199298,26514000000,,20267296.050523058,-1416188390784999936,0.0,183.0672573989542,1112.5694465656727,0.0,0,24,0.0,16431,351617222239295,487,19.009000778198242,-253.72107198821848,0.14999,16,0.0,0.0,1575420030,,,,0,0.551052725090873,1,6.0,19.009000778198242,0.0,0.0,0.0,66.7128,C,32083368000000,
Raw,1732153199298,26514000000,,20267296.050523058,-1416188390784999936,0.0,183.0672573989542,1112.5694465656727,0.0,0,2,0.0,16431,351617215762637,1797,14.899999618530273,784.122175462828,0.14999,16,0.0,0.0,1575420030,,,,0,0.0,1,6.0,14.899999618530273,0.0,0.0,0.0,66.7128,C,32083368000000,
Fix,FLP,37.4252112000,-122.1584762000,2.9340724505015157,0.23666668,5.3,180.0,1732153199520,1.7,179.9,32083368000000,11.641871,0,,,
Status,1732153199301,25,0,1,19,1575420030,0.00,204.0,72.0,0,0,0,0.0
Status,1732153199301,25,1,1,17,1575420030,0.00,54.0,71.0,0,0,0,0.0
Status,1732153199301,25,2,1,22,1575420030,0.00,33.0,62.0,0,0,0,0.0
Status,1732153199301,25,3,1,14,1575420030,0.00,63.0,46.0,0,0,0,0.0
Status,1732153199301,25,4,1,13,1575420030,23.10,224.0,40.0,1,0,0,18.1
Status,1732153199301,25,5,1,30,1575420030,19.80,137.0,27.0,1,0,0,14.799999
Status,1732153199301,25,6,1,15,1575420030,0.00,264.0,27.0,0,0,0,0.0
Status,1732153199301,25,7,1,24,1575420030,24.00,313.0,25.0,1,0,0,19.0
Status,1732153199301,25,8,1,6,1575420030,19.70,157.0,20.0,1,0,0,14.700001
Status,1732153199301,25,9,1,2,1575420030,19.90,40.0,12.0,1,0,0,14.9
Status,1732153199301,25,10,1,12,1575420030,0.00,273.0,5.0,0,0,0,0.0
Status,1732153199301,25,11,3,20,1602000000,0.00,93.0,59.0,0,0,0,0.0
Status,1732153199301,25,12,3,11,1602000000,0.00,320.0,35.0,0,0,0,0.0
Status,1732153199301,25,13,3,9,1602000000,0.00,92.0,27.0,0,0,0,0.0
Status,1732153199301,25,14,3,19,1602000000,0.00,27.0,15.0,0,0,0,0.0
Status,1732153199301,25,15,3,8,1602000000,0.00,238.0,14.0,0,0,0,0.0
Status,1732153199301,25,16,6,21,1575420030,0.00,3.0,67.0,0,0,0,0.0
Status,1732153199301,25,17,6,19,1575420030,0.00,234.0,40.0,0,0,0,0.0
Status,1732153199301,25,18,6,13,1575420030,0.00,113.0,35.0,0,0,0,0.0
Status,1732153199301,25,19,6,27,1575420030,0.00,71.0,29.0,0,0,0,0.0
Status,1732153199301,25,20,6,4,1575420030,0.00,304.0,26.0,0,0,0,0.0
Status,1732153199301,25,21,6,15,1575420030,0.00,54.0,23.0,0,0,0,0.0
Status,1732153199301,25,22,6,29,1575420030,0.00,189.0,17.0,0,0,0,0.0
Status,1732153199301,25,23,6,26,1575420030,0.00,165.0,13.0,0,0,0,0.0
Status,1732153199301,25,24,6,6,1575420030,0.00,323.0,9.0,0,0,0,0.0
Fix,GPS,37.4252016667,-122.1585133333,24.2,0.0,5.1,0.0,1732153200303,1.7,179.9,32084368000000,100.1,0,,,
Raw,1732153200302,27514000000,,19251586.709362783,-1416188390788000256,0.0,184.72156449798038,1115.925195971715,0.0,0,6,0.0,16431,351618223175167,797,14.699999809265137,-313.3888238462343,0.14999,16,0.0,0.0,1575420030,,,,0,0.0,1,6.0,14.699999809265137,0.0,0.0,0.0,66.7128,C,32084368000000,
Raw,1732153200302,27514000000,,19251586.709362783,-1416188390788000256,0.0,184.72156449798038,1115.925195971715,0.0,0,13,0.0,16431,351618228757488,797,18.131000518798828,822.8616187368177,0.14999,16,0.0,0.0,1575420030,,,,0,0.0,1,6.0,18.131000518798828,0.0,0.0,0.0,66.7128,C,32084368000000,
Raw,1732153200302,27514000000,,19251586.709362783,-1416188390788000256,0.0,184.72156449798038,1115.925195971715,0.0,0,24,0.0,16431,351618225240141,797,19.009000778198242,-253.24951906368153,0.14999,16,0.0,0.0,1575420030,,,,0,0.551052725090873,1,6.0,19.009000778198242,0.0,0.0,0.0,66.7128,C,32084368000000,
Raw,1732153200302,27514000000,,19251586.709362783,-1416188390788000256,0.0,184.72156449798038,1115.925195971715,0.0,0,30,0.0,16431,351618225343732,797,14.800000190734863,928.4885446647734,0.14999,16,0.0,0.0,1575420030,,,,0,0.0,1,6.0,14.800000190734863,0.0,0.0,0.0,66.7128,C,32084368000000,
Raw,1732153200302,27514000000,,19251586.709362783,-1416188390788000256,0.0,184.72156449798038,1115.925195971715,0.0,0,2,0.0,16431,351618218760021,797,14.899999618530273,784.8350334011624,0.14999,16,0.0,0.0,1575420030,,,,0,0.0,1,6.0,14.899999618530273,0.0,0.0,0.0,66.7128,C,32084368000000,
Fix,FLP,37.4252058000,-122.1584925000,3.184501317037766,0.18138333,5.233,180.0,1732153200520,1.7,179.9,32084368000000,11.713963,0,,,
Status,1732153200303,26,0,1,19,1575420030,0.00,204.0,72.0,0,0,0,0.0
Status,1732153200303,26,1,1,17,1575420030,0.00,54.0,71.0,0,0,0,0.0
Status,1732153200303,26,2,1,22,1575420030,0.00,33.0,62.0,0,0,0,0.0
Status,1732153200303,26,3,1,14,1575420030,0.00,63.0,46.0,0,0,0,0.0
Status,1732153200303,26,4,2,135,1575420030,0.00,197.0,45.0,0,0,0,0.0
Status,1732153200303,26,5,1,13,1575420030,23.20,224.0,40.0,1,0,0,18.2
Status,1732153200303,26,6,1,30,1575420030,19.80,137.0,27.0,1,0,0,14.799999
Status,1732153200303,26,7,1,15,1575420030,0.00,264.0,27.0,0,0,0,0.0
Status,1732153200303,26,8,1,24,1575420030,24.00,313.0,25.0,1,0,0,19.0
Status,1732153200303,26,9,1,6,1575420030,31.50,157.0,20.0,1,0,0,26.5
Status,1732153200303,26,10,1,2,1575420030,0.00,40.0,12.0,0,0,0,0.0
Status,1732153200303,26,11,1,12,1575420030,0.00,273.0,5.0,0,0,0,0.0
Status,1732153200303,26,12,3,20,1602000000,0.00,93.0,59.0,0,0,0,0.0
Status,1732153200303,26,13,3,11,1602000000,0.00,320.0,35.0,0,0,0,0.0
Status,1732153200303,26,14,3,9,1602000000,0.00,92.0,27.0,0,0,0,0.0
Status,1732153200303,26,15,3,19,1602000000,0.00,27.0,15.0,0,0,0,0.0
Status,1732153200303,26,16,3,8,1602000000,0.00,238.0,14.0,0,0,0,0.0
Status,1732153200303,26,17,6,21,1575420030,0.00,3.0,67.0,0,0,0,0.0
Status,1732153200303,26,18,6,19,1575420030,0.00,234.0,40.0,0,0,0,0.0
Status,1732153200303,26,19,6,13,1575420030,0.00,113.0,35.0,0,0,0,0.0
Status,1732153200303,26,20,6,27,1575420030,0.00,71.0,29.0,0,0,0,0.0
Status,1732153200303,26,21,6,4,1575420030,0.00,304.0,26.0,0,0,0,0.0
Status,1732153200303,26,22,6,15,1575420030,0.00,54.0,23.0,0,0,0,0.0
Status,1732153200303,26,23,6,29,1575420030,0.00,189.0,17.0,0,0,0,0.0
Status,1732153200303,26,24,6,26,1575420030,0.00,165.0,13.0,0,0,0,0.0
Status,1732153200303,26,25,6,6,1575420030,0.00,323.0,9.0,0,0,0,0.0
Fix,GPS,37.4252166667,-122.1585066667,24.2,0.0,5.1,0.0,1732153201302,1.7,179.9,32085368000000,100.1,0,,,
Raw,1732153201304,28514000000,,18605873.3338782,-1416188390790000128,0.0,185.16167813494,1118.2787162850072,0.0,0,6,0.0,16431,351619225176232,316,26.5049991607666,-313.0770878734616,0.14999,16,0.0,0.0,1575420030,,,,0,12.115139569393211,1,6.0,26.5049991607666,0.0,0.0,0.0,66.7128,C,32085368000000,
Raw,1732153201304,28514000000,,18605873.3338782,-1416188390790000128,0.0,185.16167813494,1118.2787162850072,0.0,0,13,0.0,16431,351619230754735,487,18.19499969482422,823.1946326642149,0.14999,16,0.0,0.0,1575420030,,,,0,1.2416857285760488,1,6.0,18.19499969482422,0.0,0.0,0.0,66.7128,C,32085368000000,
Raw,1732153201304,28514000000,,18605873.3338782,-1416188390790000128,0.0,185.16167813494,1118.2787162850072,0.0,0,24,0.0,16431,351619227240984,487,19.009000778198242,-252.36615873785436,0.14999,16,0.0,0.0,1575420030,,,,0,0.551052725090873,1,6.0,19.009000778198242,0.0,0.0,0.0,66.7128,C,32085368000000,
Raw,1732153201304,28514000000,,18605873.3338782,-1416188390790000128,0.0,185.16167813494,1118.2787162850072,0.0,0,30,0.0,16431,351619227340634,797,14.800000190734863,928.7706401680038,0.14999,16,0.0,0.0,1575420030,,,,0,0.0,1,6.0,14.800000190734863,0.0,0.0,0.0,66.7128,C,32085368000000,
Fix,FLP,37.4252106000,-122.1584988000,5.400000095367432,0.053355437,5.216,,1732153201520,1.7,,32085368000000,15.330656,0,,,
Status,1732153201302,26,0,1,19,1575420030,0.00,204.0,72.0,0,0,0,0.0
Status,1732153201302,26,1,1,17,1575420030,0.00,54.0,71.0,0,0,0,0.0
Status,1732153201302,26,2,1,22,1575420030,0.00,33.0,62.0,0,0,0,0.0
Status,1732153201302,26,3,1,14,1575420030,0.00,63.0,46.0,0,0,0,0.0
Status,1732153201302,26,4,2,135,1575420030,0.00,197.0,45.0,0,0,0,0.0
Status,1732153201302,26,5,1,13,1575420030,25.90,224.0,40.0,1,0,0,20.9
Status,1732153201302,26,6,1,30,1575420030,26.60,137.0,27.0,1,0,0,21.6
Status,1732153201302,26,7,1,15,1575420030,0.00,264.0,27.0,0,0,0,0.0
Status,1732153201302,26,8,1,24,1575420030,24.00,313.0,25.0,1,0,0,19.0
Status,1732153201302,26,9,1,6,1575420030,30.80,157.0,20.0,1,0,0,25.8
Status,1732153201302,26,10,1,2,1575420030,0.00,40.0,12.0,0,0,0,0.0
Status,1732153201302,26,11,1,12,1575420030,22.00,273.0,5.0,0,0,0,17.0
Status,1732153201302,26,12,3,20,1602000000,0.00,93.0,59.0,0,0,0,0.0
Status,1732153201302,26,13,3,11,1602000000,0.00,320.0,35.0,0,0,0,0.0
Status,1732153201302,26,14,3,9,1602000000,0.00,92.0,27.0,0,0,0,0.0
Status,1732153201302,26,15,3,19,1602000000,0.00,27.0,15.0,0,0,0,0.0
Status,1732153201302,26,16,3,8,1602000000,0.00,238.0,14.0,0,0,0,0.0
Status,1732153201302,26,17,6,21,1575420030,0.00,3.0,67.0,0,0,0,0.0
Status,1732153201302,26,18,6,19,1575420030,0.00,234.0,40.0,0,0,0,0.0
Status,1732153201302,26,19,6,13,1575420030,0.00,113.0,35.0,0,0,0,0.0
Status,1732153201302,26,20,6,27,1575420030,0.00,71.0,29.0,0,0,0,0.0
Status,1732153201302,26,21,6,4,1575420030,0.00,304.0,26.0,0,0,0,0.0
Status,1732153201302,26,22,6,15,1575420030,0.00,54.0,23.0,0,0,0,0.0
Status,1732153201302,26,23,6,29,1575420030,0.00,189.0,17.0,0,0,0,0.0
Status,1732153201302,26,24,6,26,1575420030,0.00,165.0,13.0,0,0,0,0.0
Status,1732153201302,26,25,6,6,1575420030,0.00,323.0,9.0,0,0,0,0.0
Fix,GPS,37.4252233333,-122.1584900000,24.2,0.0,5.1,0.0,1732153202302,1.7,179.9,32086368000000,100.1,0,,,
Raw,1732153202304,29514000000,,18005077.699453,-1416188390790000128,0.0,185.63968521502628,1121.6231748769103,0.0,0,6,0.0,16431,351620225177266,396,25.798999786376953,-311.228228741947,0.14999,16,0.0,0.0,1575420030,,,,0,11.145322522850744,1,6.0,25.798999786376953,0.0,0.0,0.0,66.7128,C,32086368000000,
Raw,1732153202304,29514000000,,18005077.699453,-1416188390790000128,0.0,185.63968521502628,1121.6231748769103,0.0,0,13,0.0,16431,351620230752021,797,20.868999481201172,824.230469512045,0.14999,16,0.0,0.0,1575420030,,,,0,3.7266184026124547,1,6.0,20.868999481201172,0.0,0.0,0.0,66.7128,C,32086368000000,
Raw,1732153202304,29514000000,,18005077.699453,-1416188390790000128,0.0,185.63968521502628,1121.6231748769103,0.0,0,24,0.0,16431,351620227241809,487,19.03499984741211,-251.5327876678697,0.14999,16,0.0,0.0,1575420030,,,,0,1.4602102010283686,1,6.0,19.03499984741211,0.0,0.0,0.0,66.7128,C,32086368000000,
Raw,1732153202304,29514000000,,18005077.699453,-1416188390790000128,0.0,185.63968521502628,1121.6231748769103,0.0,0,12,0.0,17,403386,487,16.958999633789062,-208.00431793406523,0.14999,16,0.0,0.0,1575420030,,,,0,0.0,1,6.0,16.958999633789062,0.0,0.0,0.0,66.7128,C,32086368000000,
Raw,1732153202304,29514000000,,18005077.699453,-1416188390790000128,0.0,185.63968521502628,1121.6231748769103,0.0,0,30,0.0,16431,351620227337527,487,21.610000610351562,929.0053480866994,0.14999,16,0.0,0.0,1575420030,,,,0,4.9640335318887425,1,6.0,21.610000610351562,0.0,0.0,0.0,66.7128,C,32086368000000,
Fix,FLP,37.4252167000,-122.1584949000,5.400000095367432,0.028876174,5.2,,1732153202520,1.7,,32086368000000,11.668101,0,,,
Fix,FLP,37.4252196000,-122.1584930000,5.400000095367432,0.04471741,5.15,,1732153203079,1.7,,32086927000000,11.660969,0,,,
Fix,NLP,37.4257214000,-122.1580844000,5.400000095367432,,34.4,,1732153203079,,,32086927000000,13.147993,0,,,
Status,1732153202302,26,0,1,19,1575420030,0.00,204.0,72.0,0,0,0,0.0
Status,1732153202302,26,1,1,17,1575420030,0.00,54.0,71.0,0,0,0,0.0
Status,1732153202302,26,2,1,22,1575420030,0.00,33.0,62.0,0,0,0,0.0
Status,1732153202302,26,3,1,14,1575420030,0.00,63.0,46.0,0,0,0,0.0
Status,1732153202302,26,4,2,135,1575420030,0.00,197.0,45.0,0,0,0,0.0
Status,1732153202302,26,5,1,13,1575420030,25.90,224.0,40.0,1,0,0,20.9
Status,1732153202302,26,6,1,30,1575420030,26.50,137.0,27.0,1,0,0,21.5
Status,1732153202302,26,7,1,15,1575420030,0.00,264.0,27.0,0,0,0,0.0
Status,1732153202302,26,8,1,24,1575420030,24.10,313.0,25.0,1,0,0,19.1
Status,1732153202302,26,9,1,6,1575420030,28.30,157.0,20.0,1,0,0,23.3
Status,1732153202302,26,10,1,2,1575420030,0.00,40.0,12.0,0,0,0,0.0
Status,1732153202302,26,11,1,12,1575420030,23.60,273.0,5.0,0,0,0,18.6
Status,1732153202302,26,12,3,20,1602000000,0.00,93.0,59.0,0,0,0,0.0
Status,1732153202302,26,13,3,11,1602000000,0.00,320.0,35.0,0,0,0,0.0
Status,1732153202302,26,14,3,9,1602000000,0.00,92.0,27.0,0,0,0,0.0
Status,1732153202302,26,15,3,19,1602000000,0.00,27.0,15.0,0,0,0,0.0
Status,1732153202302,26,16,3,8,1602000000,0.00,238.0,14.0,0,0,0,0.0
Status,1732153202302,26,17,6,21,1575420030,0.00,3.0,67.0,0,0,0,0.0
Status,1732153202302,26,18,6,19,1575420030,0.00,234.0,40.0,0,0,0,0.0
Status,1732153202302,26,19,6,13,1575420030,0.00,113.0,35.0,0,0,0,0.0
Status,1732153202302,26,20,6,27,1575420030,0.00,71.0,29.0,0,0,0,0.0
Status,1732153202302,26,21,6,4,1575420030,0.00,304.0,26.0,0,0,0,0.0
Status,1732153202302,26,22,6,15,1575420030,0.00,54.0,23.0,0,0,0,0.0
Status,1732153202302,26,23,6,29,1575420030,0.00,189.0,17.0,0,0,0,0.0
Status,1732153202302,26,24,6,26,1575420030,0.00,165.0,13.0,0,0,0,0.0
Status,1732153202302,26,25,6,6,1575420030,0.00,323.0,9.0,0,0,0,0.0
Fix,GPS,37.4252300000,-122.1584666667,24.2,0.0,5.1,0.0,1732153203301,1.6,179.9,32087368000000,100.1,0,,,
Raw,1732153203303,30514000000,,17427751.63476594,-1416188390789000192,0.0,182.78924066326755,1123.525850659657,0.0,0,6,0.0,16431,351621224178305,797,23.266000747680664,-311.22497665281224,0.14999,16,0.0,0.0,1575420030,,,,0,7.507743127013433,1,6.0,23.266000747680664,0.0,0.0,0.0,66.7128,C,32087368000000,
Raw,1732153203303,30514000000,,17427751.63476594,-1416188390789000192,0.0,182.78924066326755,1123.525850659657,0.0,0,13,0.0,16431,351621229749274,396,20.920000076293945,824.9973121300162,0.14999,16,0.0,0.0,1575420030,,,,0,5.3861031039077325,1,6.0,20.920000076293945,0.0,0.0,0.0,66.7128,C,32087368000000,
Raw,1732153203303,30514000000,,17427751.63476594,-1416188390789000192,0.0,182.78924066326755,1123.525850659657,0.0,0,24,0.0,16431,351621226242646,797,19.059999465942383,-251.05668181854412,0.14999,16,0.0,0.0,1575420030,,,,0,1.4602102010283686,1,6.0,19.059999465942383,0.0,0.0,0.0,66.7128,C,32087368000000,
Raw,1732153203303,30514000000,,17427751.63476594,-1416188390789000192,0.0,182.78924066326755,1123.525850659657,0.0,0,12,0.0,17,404078,797,18.6299991607666,-207.36946367654824,0.14999,16,0.0,0.0,1575420030,,,,0,0.0,1,6.0,18.6299991607666,0.0,0.0,0.0,66.7128,C,32087368000000,
Raw,1732153203303,30514000000,,17427751.63476594,-1416188390789000192,0.0,182.78924066326755,1123.525850659657,0.0,0,30,0.0,16431,351621226334435,487,21.541000366210938,929.6291916995746,0.14999,16,0.0,0.0,1575420030,,,,0,2.6671272484516506,1,6.0,21.541000366210938,0.0,0.0,0.0,66.7128,C,32087368000000,
Fix,FLP,37.4252236000,-122.1584837000,5.400000095367432,0.06399358,5.142,,1732153203520,1.6,,32087368000000,10.6789465,0,,,
Status,1732153203301,25,0,1,19,1575420030,0.00,204.0,72.0,0,0,0,0.0
Status,1732153203301,25,1,1,17,1575420030,0.00,54.0,71.0,0,0,0,0.0
Status,1732153203301,25,2,1,22,1575420030,0.00,33.0,62.0,0,0,0,0.0
Status,1732153203301,25,3,1,14,1575420030,0.00,63.0,46.0,0,0,0,0.0
Status,1732153203301,25,4,1,13,1575420030,29.40,224.0,40.0,0,0,0,24.4
Status,1732153203301,25,5,1,30,1575420030,0.00,137.0,27.0,0,0,0,0.0
Status,1732153203301,25,6,1,15,1575420030,0.00,264.0,27.0,0,0,0,0.0
Status,1732153203301,25,7,1,24,1575420030,24.10,313.0,25.0,0,0,0,19.1
Status,1732153203301,25,8,1,6,1575420030,28.30,157.0,20.0,0,0,0,23.3
Status,1732153203301,25,9,1,2,1575420030,0.00,40.0,12.0,0,0,0,0.0
Status,1732153203301,25,10,1,12,1575420030,26.00,273.0,5.0,0,0,0,21.0
Status,1732153203301,25,11,3,20,1602000000,0.00,93.0,59.0,0,0,0,0.0
Status,1732153203301,25,12,3,11,1602000000,0.00,320.0,35.0,0,0,0,0.0
Status,1732153203301,25,13,3,9,1602000000,0.00,92.0,27.0,0,0,0,0.0
Status,1732153203301,25,14,3,19,1602000000,0.00,27.0,15.0,0,0,0,0.0
Status,1732153203301,25,15,3,8,1602000000,0.00,238.0,14.0,0,0,0,0.0
Status,1732153203301,25,16,6,21,1575420030,0.00,3.0,67.0,0,0,0,0.0
Status,1732153203301,25,17,6,19,1575420030,0.00,234.0,40.0,0,0,0,0.0
Status,1732153203301,25,18,6,13,1575420030,0.00,113.0,35.0,0,0,0,0.0
Status,1732153203301,25,19,6,27,1575420030,0.00,71.0,29.0,0,0,0,0.0
Status,1732153203301,25,20,6,4,1575420030,0.00,304.0,26.0,0,0,0,0.0
Status,1732153203301,25,21,6,15,1575420030,0.00,54.0,23.0,0,0,0,0.0
Status,1732153203301,25,22,6,29,1575420030,0.00,189.0,17.0,0,0,0,0.0
Status,1732153203301,25,23,6,26,1575420030,0.00,165.0,13.0,0,0,0,0.0
Status,1732153203301,25,24,6,6,1575420030,0.00,323.0,9.0,0,0,0,0.0
Status,,25,0,1,19,1575420030,0.00,204.0,72.0,0,0,0,0.0
Status,,25,1,1,17,1575420030,0.00,54.0,71.0,0,0,0,0.0
Status,,25,2,1,22,1575420030,0.00,33.0,62.0,0,0,0,0.0
Status,,25,3,1,14,1575420030,0.00,63.0,46.0,0,0,0,0.0
Status,,25,4,1,13,1575420030,29.30,224.0,40.0,1,0,0,24.3
Status,,25,5,1,30,1575420030,0.00,137.0,27.0,0,0,0,0.0
Status,,25,6,1,15,1575420030,28.70,264.0,27.0,1,0,0,23.7
Status,,25,7,1,24,1575420030,28.10,313.0,25.0,1,0,0,23.1
Status,,25,8,1,6,1575420030,21.90,157.0,20.0,1,0,0,16.9
Status,,25,9,1,2,1575420030,0.00,40.0,12.0,0,0,0,0.0
Status,,25,10,1,12,1575420030,27.60,273.0,5.0,0,0,0,22.6
Status,,25,11,3,20,1602000000,0.00,93.0,59.0,0,0,0,0.0
Status,,25,12,3,11,1602000000,0.00,320.0,35.0,0,0,0,0.0
Status,,25,13,3,9,1602000000,0.00,92.0,27.0,0,0,0,0.0
Status,,25,14,3,19,1602000000,0.00,27.0,15.0,0,0,0,0.0
Status,,25,15,3,8,1602000000,0.00,238.0,14.0,0,0,0,0.0
Status,,25,16,6,21,1575420030,0.00,3.0,67.0,0,0,0,0.0
Status,,25,17,6,19,1575420030,0.00,234.0,40.0,0,0,0,0.0
Status,,25,18,6,13,1575420030,0.00,113.0,35.0,0,0,0,0.0
Status,,25,19,6,27,1575420030,0.00,71.0,29.0,0,0,0,0.0
Status,,25,20,6,4,1575420030,0.00,304.0,26.0,0,0,0,0.0
Status,,25,21,6,15,1575420030,0.00,54.0,23.0,0,0,0,0.0
Status,,25,22,6,29,1575420030,0.00,189.0,17.0,0,0,0,0.0
Status,,25,23,6,26,1575420030,0.00,165.0,13.0,0,0,0,0.0
Status,,25,24,6,6,1575420030,0.00,323.0,9.0,0,0,0,0.0
Fix,GPS,37.4252433333,-122.1584716667,24.2,0.0,5.2,0.0,1732153205301,1.7,179.9,32089368000000,100.1,0,,,
Raw,1732153205302,32514000000,,16859078.222708326,-1416188390788000256,0.0,183.6665667602113,1129.425486175662,0.0,0,6,0.0,16431,351623223180359,797,16.871999740600586,-309.19311781984436,0.14999,16,0.0,0.0,1575420030,,,,0,0.0,1,6.0,16.871999740600586,0.0,0.0,0.0,66.7128,C,32089368000000,
Raw,1732153205302,32514000000,,16859078.222708326,-1416188390788000256,0.0,183.6665667602113,1129.425486175662,0.0,0,13,0.0,16431,351623228743773,396,24.309999465942383,826.323699912827,0.14999,16,0.0,0.0,1575420030,,,,0,7.453793328488816,1,6.0,24.309999465942383,0.0,0.0,0.0,66.7128,C,32089368000000,
Raw,1732153205302,32514000000,,16859078.222708326,-1416188390788000256,0.0,183.6665667602113,1129.425486175662,0.0,0,24,0.0,16431,351623225244362,396,23.097999572753906,-250.17239232439275,0.14999,16,0.0,0.0,1575420030,,,,0,7.289903756183385,1,6.0,23.097999572753906,0.0,0.0,0.0,66.7128,C,32089368000000,
Raw,1732153205302,32514000000,,16859078.222708326,-1416188390788000256,0.0,183.6665667602113,1129.425486175662,0.0,0,12,0.0,17,405454,487,22.611000061035156,-206.75955758853627,0.14999,16,0.0,0.0,1575420030,,,,0,6.541649535522331,1,6.0,22.611000061035156,0.0,0.0,0.0,66.7128,C,32089368000000,
Raw,1732153205302,32514000000,,16859078.222708326,-1416188390788000256,0.0,183.6665667602113,1129.425486175662,0.0,0,15,0.0,16431,351623225572232,316,23.743999481201172,646.8376484775197,0.14999,16,0.0,0.0,1575420030,,,,0,8.229835009707855,1,6.0,23.743999481201172,0.0,0.0,0.0,66.7128,C,32089368000000,
Fix,FLP,37.4252354000,-122.1584777000,5.400000095367432,0.11724607,5.116,0.0000000026645923,1732153205521,1.7,179.9,32089368000000,9.416359,0,,,
Status,1732153205301,25,0,1,19,1575420030,0.00,204.0,72.0,0,0,0,0.0
Status,1732153205301,25,1,1,17,1575420030,0.00,54.0,71.0,0,0,0,0.0
Status,1732153205301,25,2,1,22,1575420030,0.00,33.0,62.0,0,0,0,0.0
Status,1732153205301,25,3,1,14,1575420030,0.00,63.0,46.0,0,0,0,0.0
Status,1732153205301,25,4,1,13,1575420030,29.20,224.0,40.0,1,0,0,24.2
Status,1732153205301,25,5,1,30,1575420030,0.00,137.0,27.0,0,0,0,0.0
Status,1732153205301,25,6,1,15,1575420030,28.00,264.0,27.0,1,0,0,23.0
Status,1732153205301,25,7,1,24,1575420030,29.80,313.0,25.0,1,0,0,24.8
Status,1732153205301,25,8,1,6,1575420030,25.00,157.0,20.0,1,0,0,20.0
Status,1732153205301,25,9,1,2,1575420030,0.00,40.0,12.0,0,0,0,0.0
Status,1732153205301,25,10,1,12,1575420030,30.80,273.0,5.0,0,0,0,25.8
Status,1732153205301,25,11,3,20,1602000000,0.00,93.0,59.0,0,0,0,0.0
Status,1732153205301,25,12,3,11,1602000000,0.00,320.0,35.0,0,0,0,0.0
Status,1732153205301,25,13,3,9,1602000000,0.00,92.0,27.0,0,0,0,0.0
Status,1732153205301,25,14,3,19,1602000000,0.00,27.0,15.0,0,0,0,0.0
Status,1732153205301,25,15,3,8,1602000000,0.00,238.0,14.0,0,0,0,0.0
Status,1732153205301,25,16,6,21,1575420030,0.00,3.0,67.0,0,0,0,0.0
Status,1732153205301,25,17,6,19,1575420030,0.00,234.0,40.0,0,0,0,0.0
Status,1732153205301,25,18,6,13,1575420030,0.00,113.0,35.0,0,0,0,0.0
Status,1732153205301,25,19,6,27,1575420030,0.00,71.0,29.0,0,0,0,0.0
Status,1732153205301,25,20,6,4,1575420030,0.00,304.0,26.0,0,0,0,0.0
Status,1732153205301,25,21,6,15,1575420030,0.00,54.0,23.0,0,0,0,0.0
Status,1732153205301,25,22,6,29,1575420030,0.00,189.0,17.0,0,0,0,0.0
Status,1732153205301,25,23,6,26,1575420030,0.00,165.0,13.0,0,0,0,0.0
Status,1732153205301,25,24,6,6,1575420030,0.00,323.0,9.0,0,0,0,0.0
Fix,GPS,37.4252633333,-122.1584883333,24.2,0.0,5.2,0.0,1732153206301,1.7,179.9,32090368000000,100.1,0,,,
Fix,FLP,37.4252500000,-122.1584825000,5.400000095367432,0.19484021,5.133,0.0,1732153206520,1.7,179.9,32090368000000,9.517854,0,,,
Raw,1732153206303,33514000000,,16363782.240312396,-1416188390789000192,0.0,180.93979123926127,1130.207572006415,0.0,0,6,0.0,16431,351624224181378,487,19.979000091552734,-309.29839259097747,0.14999,16,0.0,0.0,1575420030,,,,0,2.184453654117264,1,6.0,19.979000091552734,0.0,0.0,0.0,66.7128,C,32090368000000,
Raw,1732153206303,33514000000,,16363782.240312396,-1416188390789000192,0.0,180.93979123926127,1130.207572006415,0.0,0,13,0.0,16431,351624229741018,487,24.22100067138672,826.146042929238,0.14999,16,0.0,0.0,1575420030,,,,0,6.420589880561578,1,6.0,24.22100067138672,0.0,0.0,0.0,66.7128,C,32090368000000,
Raw,1732153206303,33514000000,,16363782.240312396,-1416188390789000192,0.0,180.93979123926127,1130.207572006415,0.0,0,24,0.0,16431,351624226245183,316,24.83799934387207,-250.0377558342146,0.14999,16,0.0,0.0,1575420030,,,,0,9.80933459710474,1,6.0,24.83799934387207,0.0,0.0,0.0,66.7128,C,32090368000000,
Raw,1732153206303,33514000000,,16363782.240312396,-1416188390789000192,0.0,180.93979123926127,1130.207572006415,0.0,0,12,0.0,17,406139,316,25.798999786376953,-206.41060842437892,0.14999,16,0.0,0.0,1575420030,,,,0,11.145322522850744,1,6.0,25.798999786376953,0.0,0.0,0.0,66.7128,C,32090368000000,
Raw,1732153206303,33514000000,,16363782.240312396,-1416188390789000192,0.0,180.93979123926127,1130.207572006415,0.0,0,15,0.0,16431,351624226570018,396,23.02899932861328,646.7045915734927,0.14999,16,0.0,0.0,1575420030,,,,0,7.178900460928125,1,6.0,23.02899932861328,0.0,0.0,0.0,66.7128,C,32090368000000,
Status,1732153206301,26,0,1,19,1575420030,0.00,204.0,72.0,0,0,0,0.0
Status,1732153206301,26,1,1,17,1575420030,0.00,54.0,71.0,0,0,0,0.0
Status,1732153206301,26,2,1,22,1575420030,0.00,33.0,62.0,0,0,0,0.0
Status,1732153206301,26,3,1,14,1575420030,0.00,63.0,46.0,0,0,0,0.0
Status,1732153206301,26,4,2,138,1575420030,0.00,156.0,43.0,0,0,0,0.0
Status,1732153206301,26,5,1,13,1575420030,29.20,224.0,40.0,1,0,0,24.2
Status,1732153206301,26,6,1,30,1575420030,24.30,137.0,27.0,1,0,0,19.3
Status,1732153206301,26,7,1,15,1575420030,30.50,264.0,27.0,1,0,0,25.5
Status,1732153206301,26,8,1,24,1575420030,29.40,313.0,25.0,1,0,0,24.4
Status,1732153206301,26,9,1,6,1575420030,24.90,157.0,20.0,1,0,0,19.9
Status,1732153206301,26,10,1,2,1575420030,0.00,40.0,12.0,0,0,0,0.0
Status,1732153206301,26,11,1,12,1575420030,32.50,273.0,5.0,0,0,0,27.5
Status,1732153206301,26,12,3,20,1602000000,0.00,93.0,59.0,0,0,0,0.0
Status,1732153206301,26,13,3,11,1602000000,0.00,320.0,35.0,0,0,0,0.0
Status,1732153206301,26,14,3,9,1602000000,0.00,92.0,27.0,0,0,0,0.0
Status,1732153206301,26,15,3,19,1602000000,0.00,27.0,15.0,0,0,0,0.0
Status,1732153206301,26,16,3,8,1602000000,0.00,238.0,14.0,0,0,0,0.0
Status,1732153206301,26,17,6,21,1575420030,0.00,3.0,67.0,0,0,0,0.0
Status,1732153206301,26,18,6,19,1575420030,0.00,234.0,40.0,0,0,0,0.0
Status,1732153206301,26,19,6,13,1575420030,0.00,113.0,35.0,0,0,0,0.0
Status,1732153206301,26,20,6,27,1575420030,0.00,71.0,29.0,0,0,0,0.0
Status,1732153206301,26,21,6,4,1575420030,0.00,304.0,26.0,0,0,0,0.0
Status,1732153206301,26,22,6,15,1575420030,0.00,54.0,23.0,0,0,0,0.0
Status,1732153206301,26,23,6,29,1575420030,0.00,189.0,17.0,0,0,0,0.0
Status,1732153206301,26,24,6,26,1575420030,0.00,165.0,13.0,0,0,0,0.0
Status,1732153206301,26,25,6,6,1575420030,0.00,323.0,9.0,0,0,0,0.0
Fix,GPS,37.4252750000,-122.1584916667,24.099999999999998,0.0,5.2,0.0,1732153207301,1.7,179.9,32091368000000,41.6,0,,,
Raw,1732153207303,34514000000,,15923976.312973157,-1416188390789000192,0.0,103.62569615976226,1134.510605224871,0.0,0,6,0.0,16431,351625224182389,487,19.94499969482422,-308.068313104971,0.14999,16,0.0,0.0,1575420030,,,,0,1.0175212967433507,1,6.0,19.94499969482422,0.0,0.0,0.0,66.7128,C,32091368000000,
Raw,1732153207303,34514000000,,15923976.312973157,-1416188390789000192,0.0,103.62569615976226,1134.510605224871,0.0,0,13,0.0,16431,351625229738240,396,24.18199920654297,827.4069243451919,0.14999,16,0.0,0.0,1575420030,,,,0,7.824588821128279,1,6.0,24.18199920654297,0.0,0.0,0.0,66.7128,C,32091368000000,
Raw,1732153207303,34514000000,,15923976.312973157,-1416188390789000192,0.0,103.62569615976226,1134.510605224871,0.0,0,24,0.0,16431,351625226245928,396,24.423999786376953,-248.34634427523753,0.14999,16,0.0,0.0,1575420030,,,,0,9.211543687899908,1,6.0,24.423999786376953,0.0,0.0,0.0,66.7128,C,32091368000000,
Raw,1732153207303,34514000000,,15923976.312973157,-1416188390789000192,0.0,103.62569615976226,1134.510605224871,0.0,0,12,0.0,17,406826,235,27.472999572753906,-205.65333624014715,0.14999,16,0.0,0.0,1575420030,,,,0,13.379167186230887,1,6.0,27.472999572753906,0.0,0.0,0.0,66.7128,C,32091368000000,
Raw,1732153207303,34514000000,,15923976.312973157,-1416188390789000192,0.0,103.62569615976226,1134.510605224871,0.0,0,15,0.0,16431,351625226567866,316,25.530000686645508,648.304898178281,0.14999,16,0.0,0.0,1575420030,,,,0,10.784110822969298,1,6.0,25.530000686645508,0.0,0.0,0.0,66.7128,C,32091368000000,
Raw,1732153207303,34514000000,,15923976.312973157,-1416188390789000192,0.0,103.62569615976226,1134.510605224871,0.0,0,30,0.0,16431,351625226321964,797,19.315000534057617,932.702508848734,0.14999,16,0.0,0.0,1575420030,,,,0,1.0175212967433507,1,6.0,19.315000534057617,0.0,0.0,0.0,66.7128,C,32091368000000,
Fix,FLP,37.4252630000,-122.1584866000,5.400000095367432,0.22751996,5.15,0.0,1732153207521,1.7,179.9,32091368000000,9.0819,0,,,
Fix,FLP,37.4252681000,-122.1584885000,5.400000095367432,0.20845747,5.166,0.0,1732153207940,1.7,179.9,32091788000000,9.461224,0,,,
Fix,NLP,37.4257125000,-122.1580794000,5.400000095367432,,17.635,,1732153207940,,,32091788000000,18.731037,0,,,
Status,1732153207301,26,0,1,19,1575420030,0.00,204.0,72.0,0,0,0,0.0
Status,1732153207301,26,1,1,17,1575420030,0.00,54.0,71.0,0,0,0,0.0
Status,1732153207301,26,2,1,22,1575420030,0.00,33.0,62.0,0,0,0,0.0
Status,1732153207301,26,3,1,14,1575420030,0.00,63.0,46.0,0,0,0,0.0
Status,1732153207301,26,4,2,138,1575420030,0.00,156.0,43.0,0,0,0,0.0
Status,1732153207301,26,5,1,13,1575420030,29.10,224.0,40.0,1,0,0,24.1
Status,1732153207301,26,6,1,30,1575420030,21.90,137.0,27.0,1,0,0,16.9
Status,1732153207301,26,7,1,15,1575420030,0.00,264.0,27.0,0,0,0,0.0
Status,1732153207301,26,8,1,24,1575420030,25.60,313.0,25.0,1,0,0,20.6
Status,1732153207301,26,9,1,6,1575420030,25.00,157.0,20.0,1,0,0,20.0
Status,1732153207301,26,10,1,2,1575420030,0.00,40.0,12.0,0,0,0,0.0
Status,1732153207301,26,11,1,12,1575420030,30.30,273.0,5.0,0,0,0,25.3
Status,1732153207301,26,12,3,20,1602000000,0.00,93.0,59.0,0,0,0,0.0
Status,1732153207301,26,13,3,11,1602000000,0.00,320.0,35.0,0,0,0,0.0
Status,1732153207301,26,14,3,9,1602000000,0.00,92.0,27.0,0,0,0,0.0
Status,1732153207301,26,15,3,19,1602000000,0.00,27.0,15.0,0,0,0,0.0
Status,1732153207301,26,16,3,8,1602000000,0.00,238.0,14.0,0,0,0,0.0
Status,1732153207301,26,17,6,21,1575420030,0.00,3.0,67.0,0,0,0,0.0
Status,1732153207301,26,18,6,19,1575420030,0.00,234.0,40.0,0,0,0,0.0
Status,1732153207301,26,19,6,13,1575420030,0.00,113.0,35.0,0,0,0,0.0
Status,1732153207301,26,20,6,27,1575420030,0.00,71.0,29.0,0,0,0,0.0
Status,1732153207301,26,21,6,4,1575420030,0.00,304.0,26.0,0,0,0,0.0
Status,1732153207301,26,22,6,15,1575420030,0.00,54.0,23.0,0,0,0,0.0
Status,1732153207301,26,23,6,29,1575420030,0.00,189.0,17.0,0,0,0,0.0
Status,1732153207301,26,24,6,26,1575420030,0.00,165.0,13.0,0,0,0,0.0
Status,1732153207301,26,25,6,6,1575420030,0.00,323.0,9.0,0,0,0,0.0
Fix,GPS,37.4252850000,-122.1584916667,24.099999999999998,0.0,5.2,0.0,1732153208301,1.7,179.9,32092368000000,41.6,0,,,
Raw,1732153208303,35514000000,,15472473.960635794,-1416188390789000192,0.0,103.66394588778067,1133.8937221247136,0.0,0,6,0.0,16431,351626224183407,487,19.979000091552734,-308.58846153286424,0.14999,16,0.0,0.0,1575420030,,,,0,3.300754208585508,1,6.0,19.979000091552734,0.0,0.0,0.0,66.7128,C,32092368000000,
Raw,1732153208303,35514000000,,15472473.960635794,-1416188390789000192,0.0,103.66394588778067,1133.8937221247136,0.0,0,13,0.0,16431,351626229735479,487,24.125999450683594,827.2588149143128,0.14999,16,0.0,0.0,1575420030,,,,0,7.234579431320345,1,6.0,24.125999450683594,0.0,0.0,0.0,66.7128,C,32092368000000,
Raw,1732153208303,35514000000,,15472473.960635794,-1416188390789000192,0.0,103.66394588778067,1133.8937221247136,0.0,0,24,0.0,16431,351626226246762,797,20.634000778198242,-248.0750735829842,0.14999,16,0.0,0.0,1575420030,,,,0,3.300754208585508,1,6.0,20.634000778198242,0.0,0.0,0.0,66.7128,C,32092368000000,
Raw,1732153208303,35514000000,,15472473.960635794,-1416188390789000192,0.0,103.66394588778067,1133.8937221247136,0.0,0,12,0.0,17,407515,316,25.256999969482422,-206.15494775997234,0.14999,16,0.0,0.0,1575420030,,,,0,10.407223517950584,1,6.0,25.256999969482422,0.0,0.0,0.0,66.7128,C,32092368000000,
Raw,1732153208303,35514000000,,15472473.960635794,-1416188390789000192,0.0,103.66394588778067,1133.8937221247136,0.0,0,30,0.0,16431,351626226318849,797,16.871999740600586,933.1068829034306,0.14999,16,0.0,0.0,1575420030,,,,0,0.0,1,6.0,16.871999740600586,0.0,0.0,0.0,66.7128,C,32092368000000,
Fix,FLP,37.4252754000,-122.1584897000,5.400000095367432,0.22472265,5.183,0.0,1732153208520,1.7,179.9,32092368000000,9.129131,0,,,
Status,1732153208301,26,0,1,19,1575420030,0.00,204.0,72.0,0,0,0,0.0
Status,1732153208301,26,1,1,17,1575420030,0.00,54.0,71.0,0,0,0,0.0
