# 
# Header Description:
# 
# Version: v3.1.0.3 Platform: 13 Manufacturer: samsung Model: SM-S135DL GNSS Hardware Model Name: MediaTek,MT6631,MTK_MNLD_default,MNL_VER_default
# 
# Raw,utcTimeMillis,TimeNanos,LeapSecond,TimeUncertaintyNanos,FullBiasNanos,BiasNanos,BiasUncertaintyNanos,DriftNanosPerSecond,DriftUncertaintyNanosPerSecond,HardwareClockDiscontinuityCount,Svid,TimeOffsetNanos,State,ReceivedSvTimeNanos,ReceivedSvTimeUncertaintyNanos,Cn0DbHz,PseudorangeRateMetersPerSecond,PseudorangeRateUncertaintyMetersPerSecond,AccumulatedDeltaRangeState,AccumulatedDeltaRangeMeters,AccumulatedDeltaRangeUncertaintyMeters,CarrierFrequencyHz,CarrierCycles,CarrierPhase,CarrierPhaseUncertainty,MultipathIndicator,SnrInDb,ConstellationType,AgcDb,BasebandCn0DbHz,FullInterSignalBiasNanos,FullInterSignalBiasUncertaintyNanos,SatelliteInterSignalBiasNanos,SatelliteInterSignalBiasUncertaintyNanos,CodeType,ChipsetElapsedRealtimeNanos,IsFullTracking
# 
# UncalAccel,utcTimeMillis,elapsedRealtimeNanos,UncalAccelXMps2,UncalAccelYMps2,UncalAccelZMps2,BiasXMps2,BiasYMps2,BiasZMps2
# 
# Accel,utcTimeMillis,elapsedRealtimeNanos,AccelXMps2,AccelYMps2,AccelZMps2
# 
# UncalGyro,utcTimeMillis,elapsedRealtimeNanos,UncalGyroXRadPerSec,UncalGyroYRadPerSec,UncalGyroZRadPerSec,DriftXRadPerSec,DriftYRadPerSec,DriftZRadPerSec
# 
# Gyro,utcTimeMillis,elapsedRealtimeNanos,GyroXRadPerSec,GyroYRadPerSec,GyroZRadPerSec
# 
# UncalMag,utcTimeMillis,elapsedRealtimeNanos,UncalMagXMicroT,UncalMagYMicroT,UncalMagZMicroT,BiasXMicroT,BiasYMicroT,BiasZMicroT
# 
# Mag,utcTimeMillis,elapsedRealtimeNanos,MagXMicroT,MagYMicroT,MagZMicroT
# 
# Pressure,utcTimeMillis,elapsedRealtimeNanos,PressureHpa
# 
# OrientationDeg,utcTimeMillis,elapsedRealtimeNanos,yawDeg,rollDeg,pitchDeg
# 
# Fix,Provider,LatitudeDegrees,LongitudeDegrees,AltitudeMeters,SpeedMps,AccuracyMeters,BearingDegrees,UnixTimeMillis,SpeedAccuracyMps,BearingAccuracyDegrees,elapsedRealtimeNanos,VerticalAccuracyMeters,MockLocation,NumberOfUsedSignals,VerticalSpeedAccuracyMps,SolutionType
# 
# Nav,Svid,Type,Status,MessageId,Sub-messageId,Data(Bytes)
# 
# Status,UnixTimeMillis,SignalCount,SignalIndex,ConstellationType,Svid,CarrierFrequencyHz,Cn0DbHz,AzimuthDegrees,ElevationDegrees,UsedInFix,HasAlmanacData,HasEphemerisData,BasebandCn0DbHz
# 
# Agc,utcTimeMillis,TimeNanos,LeapSecond,TimeUncertaintyNanos,FullBiasNanos,BiasNanos,BiasUncertaintyNanos,DriftNanosPerSecond,DriftUncertaintyNanosPerSecond,HardwareClockDiscontinuityCount,AgcDb,CarrierFrequencyHz,ConstellationType
# 
Fix,FLP,37.4250580000,-122.1585703000,5.400000095367432,0.03148904,5.442,,1732152085244,2.0,,30969091000000,18.51331,0,,,
Status,,28,0,1,17,1575420030,0.00,77.0,78.0,0,0,0,0.0
Status,,28,1,1,22,1575420030,0.00,16.0,66.0,0,0,0,0.0
Status,,28,2,1,19,1575420030,0.00,200.0,62.0,0,0,0,0.0
Status,,28,3,1,14,1575420030,0.00,54.0,52.0,0,0,0,0.0
Status,,28,4,1,13,1575420030,27.90,233.0,47.0,1,0,0,22.9
Status,,28,5,2,133,1575420030,0.00,191.0,45.0,0,0,0,0.0
Status,,28,6,1,30,1575420030,26.00,132.0,35.0,1,0,0,21.0
Status,,28,7,1,15,1575420030,17.90,273.0,30.0,1,0,0,12.9
Status,,28,8,1,24,1575420030,0.00,313.0,17.0,0,0,0,0.0
Status,,28,9,1,2,1575420030,0.00,46.0,16.0,0,0,0,0.0
Status,,28,10,1,6,1575420030,26.10,161.0,13.0,1,0,0,21.1
Status,,28,11,1,21,1575420030,0.00,33.0,4.0,0,0,0,0.0
Status,,28,12,1,7,1575420030,31.00,132.0,3.0,0,0,0,26.0
Status,,28,13,3,20,1602000000,0.00,111.0,54.0,0,0,0,0.0
Status,,28,14,3,9,1602000000,0.00,82.0,32.0,0,0,0,0.0
Status,,28,15,3,11,1602000000,0.00,312.0,29.0,0,0,0,0.0
Status,,28,16,3,19,1602000000,0.00,32.0,22.0,0,0,0,0.0
Status,,28,17,3,8,1602000000,26.40,245.0,21.0,1,0,0,21.4
Status,,28,18,3,17,1602000000,29.20,0.0,0.0,0,0,0,24.2
Status,,28,19,6,21,1575420030,0.00,346.0,68.0,0,0,0,0.0
Status,,28,20,6,19,1575420030,0.00,242.0,45.0,0,0,0,0.0
Status,,28,21,6,27,1575420030,0.00,65.0,33.0,0,0,0,0.0
Status,,28,22,6,13,1575420030,0.00,119.0,29.0,0,0,0,0.0
Status,,28,23,6,15,1575420030,0.00,61.0,24.0,0,0,0,0.0
Status,,28,24,6,29,1575420030,0.00,191.0,24.0,0,0,0,0.0
Status,,28,25,6,4,1575420030,0.00,310.0,23.0,0,0,0,0.0
Status,,28,26,6,26,1575420030,0.00,167.0,7.0,0,0,0,0.0
Status,,28,27,6,6,1575420030,0.00,327.0,5.0,0,0,0,0.0
Fix,GPS,37.4250583333,-122.1585600000,23.599999999999998,0.0,5.5,0.0,1732152086000,2.0,179.9,30970091000000,71.7,0,,,
Raw,1732152086000,18408000000,,704948.6256588884,-1416187285592000000,0.0,193.29543317265794,1119.002747267992,0.0,0,7,0.0,16431,350503916581828,316,25.968000411987305,976.9785874161985,0.14999,16,0.0,0.0,1575420030,,,,0,11.36626207608983,1,6.0,25.968000411987305,0.0,0.0,0.0,66.7128,C,30970091000000,
Raw,1732152086000,18408000000,,704948.6256588884,-1416187285592000000,0.0,193.29543317265794,1119.002747267992,0.0,0,6,0.0,16431,350503918954889,487,21.097000122070312,-323.7810605099534,0.14999,16,0.0,0.0,1575420030,,,,0,4.101331957750997,1,6.0,21.097000122070312,0.0,0.0,0.0,66.7128,C,30970091000000,
Raw,1732152086000,18408000000,,704948.6256588884,-1416187285592000000,0.0,193.29543317265794,1119.002747267992,0.0,0,13,0.0,16431,350503928605999,487,22.93400001525879,720.7868103954874,0.14999,16,0.0,0.0,1575420030,,,,0,5.53966979371187,1,6.0,22.93400001525879,0.0,0.0,0.0,66.7128,C,30970091000000,
Raw,1732152086000,18408000000,,704948.6256588884,-1416187285592000000,0.0,193.29543317265794,1119.002747267992,0.0,0,30,0.0,16431,350503925640768,797,21.049999237060547,860.1628952785941,0.14999,16,0.0,0.0,1575420030,,,,0,4.018608574018224,1,6.0,21.049999237060547,0.0,0.0,0.0,66.7128,C,30970091000000,
Raw,1732152086000,18408000000,,704948.6256588884,-1416187285592000000,0.0,193.29543317265794,1119.002747267992,0.0,0,8,0.0,17,162549,487,5.0,930.0371373583688,0.14999,16,0.0,0.0,1605374980,,,,0,6.30533463025183,3,6.0,20.0,0.0,0.0,108.67631620913818,66.7128,C,30970091000000,
Raw,1732152086000,18408000000,,704948.6256588884,-1416187285592000000,0.0,193.29543317265794,1119.002747267992,0.0,0,15,0.0,16431,350503924734123,1797,12.899999618530273,525.9168906835521,0.14999,16,0.0,0.0,1575420030,,,,0,0.0,1,6.0,12.899999618530273,0.0,0.0,0.0,66.7128,C,30970091000000,
Fix,FLP,37.4250583000,-122.1585657000,5.400000095367432,0.030299848,5.457,,1732152086243,2.0,,30970091000000,18.264332,0,,,
Status,1732152086000,28,0,1,17,1575420030,0.00,77.0,78.0,0,0,0,0.0
Status,1732152086000,28,1,1,22,1575420030,0.00,16.0,66.0,0,0,0,0.0
Status,1732152086000,28,2,1,19,1575420030,0.00,200.0,62.0,0,0,0,0.0
Status,1732152086000,28,3,1,14,1575420030,0.00,54.0,52.0,0,0,0,0.0
Status,1732152086000,28,4,1,13,1575420030,23.80,233.0,47.0,1,0,0,18.8
Status,1732152086000,28,5,2,135,1575420030,0.00,197.0,45.0,0,0,0,0.0
Status,1732152086000,28,6,1,30,1575420030,26.00,132.0,35.0,1,0,0,21.0
Status,1732152086000,28,7,1,15,1575420030,17.90,273.0,30.0,1,0,0,12.9
Status,1732152086000,28,8,1,24,1575420030,0.00,313.0,17.0,0,0,0,0.0
Status,1732152086000,28,9,1,2,1575420030,0.00,46.0,16.0,0,0,0,0.0
Status,1732152086000,28,10,1,6,1575420030,26.10,161.0,13.0,1,0,0,21.1
Status,1732152086000,28,11,1,21,1575420030,0.00,33.0,4.0,0,0,0,0.0
Status,1732152086000,28,12,1,7,1575420030,33.80,132.0,3.0,0,0,0,28.8
Status,1732152086000,28,13,3,20,1602000000,0.00,111.0,54.0,0,0,0,0.0
Status,1732152086000,28,14,3,9,1602000000,0.00,82.0,32.0,0,0,0,0.0
Status,1732152086000,28,15,3,11,1602000000,0.00,312.0,29.0,0,0,0,0.0
Status,1732152086000,28,16,3,19,1602000000,0.00,32.0,22.0,0,0,0,0.0
Status,1732152086000,28,17,3,8,1602000000,0.00,245.0,21.0,0,0,0,0.0
Status,1732152086000,28,18,3,17,1602000000,30.00,0.0,0.0,0,0,0,25.0
Status,1732152086000,28,19,6,21,1575420030,0.00,346.0,68.0,0,0,0,0.0
Status,1732152086000,28,20,6,19,1575420030,0.00,242.0,45.0,0,0,0,0.0
Status,1732152086000,28,21,6,27,1575420030,0.00,65.0,33.0,0,0,0,0.0
Status,1732152086000,28,22,6,13,1575420030,0.00,119.0,29.0,0,0,0,0.0
Status,1732152086000,28,23,6,15,1575420030,0.00,61.0,24.0,0,0,0,0.0
Status,1732152086000,28,24,6,29,1575420030,0.00,191.0,24.0,0,0,0,0.0
Status,1732152086000,28,25,6,4,1575420030,0.00,310.0,23.0,0,0,0,0.0
Status,1732152086000,28,26,6,26,1575420030,0.00,167.0,7.0,0,0,0,0.0
Status,1732152086000,28,27,6,6,1575420030,0.00,327.0,5.0,0,0,0,0.0
Fix,GPS,37.4250583333,-122.1585583333,23.599999999999998,0.0,5.6,0.0,1732152087000,2.0,179.9,30971091000000,70.0,0,,,
Fix,FLP,37.4250584000,-122.1585625000,5.400000095367432,0.028777555,5.485,,1732152087243,2.0,,30971091000000,13.940451,0,,,
Raw,1732152087000,19408000000,,704932.103812298,-1416187285592000000,0.0,199.09362622499663,1118.4904883660286,0.0,0,7,0.0,16431,350504916578573,235,28.836000442504883,975.9433080693628,0.14999,16,0.0,0.0,1575420030,,,,0,15.105319205786474,1,6.0,28.836000442504883,0.0,0.0,0.0,66.7128,C,30971091000000,
Raw,1732152087000,19408000000,,704932.103812298,-1416187285592000000,0.0,199.09362622499663,1118.4904883660286,0.0,0,6,0.0,16431,350504918955969,487,21.097000122070312,-324.028776785188,0.14999,16,0.0,0.0,1575420030,,,,0,4.101331957750997,1,6.0,21.097000122070312,0.0,0.0,0.0,66.7128,C,30971091000000,
Raw,1732152087000,19408000000,,704932.103812298,-1416187285592000000,0.0,199.09362622499663,1118.4904883660286,0.0,0,13,0.0,16431,350504928603590,487,18.802000045776367,720.2373931653816,0.14999,16,0.0,0.0,1575420030,,,,0,0.09271567113885837,1,6.0,18.802000045776367,0.0,0.0,0.0,66.7128,C,30971091000000,
Raw,1732152087000,19408000000,,704932.103812298,-1416187285592000000,0.0,199.09362622499663,1118.4904883660286,0.0,0,30,0.0,16431,350504925637900,797,21.049999237060547,859.6656043914764,0.14999,16,0.0,0.0,1575420030,,,,0,4.018608574018224,1,6.0,21.049999237060547,0.0,0.0,0.0,66.7128,C,30971091000000,
Raw,1732152087000,19408000000,,704932.103812298,-1416187285592000000,0.0,199.09362622499663,1118.4904883660286,0.0,0,15,0.0,16431,350504924732368,1797,12.899999618530273,525.6967707075465,0.14999,16,0.0,0.0,1575420030,,,,0,0.0,1,6.0,12.899999618530273,0.0,0.0,0.0,66.7128,C,30971091000000,
Fix,FLP,37.4250585000,-122.1585608000,5.400000095367432,0.027323777,5.533,,1732152087865,2.0,,30971713000000,16.076216,0,,,
Fix,NLP,37.4256752000,-122.1581404000,-0.4000000059604645,,104.1,,1732152087865,,,30971713000000,20.729273,0,,,
Status,1732152087000,28,0,1,17,1575420030,0.00,77.0,78.0,0,0,0,0.0
Status,1732152087000,28,1,1,22,1575420030,0.00,16.0,66.0,0,0,0,0.0
Status,1732152087000,28,2,1,19,1575420030,0.00,200.0,62.0,0,0,0,0.0
Status,1732152087000,28,3,1,14,1575420030,0.00,54.0,52.0,0,0,0,0.0
Status,1732152087000,28,4,1,13,1575420030,23.90,233.0,47.0,1,0,0,18.9
Status,1732152087000,28,5,2,135,1575420030,0.00,197.0,45.0,0,0,0,0.0
Status,1732152087000,28,6,1,30,1575420030,22.60,132.0,35.0,1,0,0,17.6
Status,1732152087000,28,7,1,15,1575420030,0.00,273.0,30.0,0,0,0,0.0
Status,1732152087000,28,8,1,24,1575420030,0.00,313.0,17.0,0,0,0,0.0
Status,1732152087000,28,9,1,2,1575420030,0.00,46.0,16.0,0,0,0,0.0
Status,1732152087000,28,10,1,6,1575420030,26.10,161.0,13.0,1,0,0,21.1
Status,1732152087000,28,11,1,21,1575420030,0.00,33.0,4.0,0,0,0,0.0
Status,1732152087000,28,12,1,7,1575420030,32.70,132.0,3.0,1,0,0,27.7
Status,1732152087000,28,13,3,20,1602000000,0.00,111.0,54.0,0,0,0,0.0
Status,1732152087000,28,14,3,9,1602000000,0.00,82.0,32.0,0,0,0,0.0
Status,1732152087000,28,15,3,11,1602000000,0.00,312.0,29.0,0,0,0,0.0
Status,1732152087000,28,16,3,19,1602000000,0.00,32.0,22.0,0,0,0,0.0
Status,1732152087000,28,17,3,8,1602000000,0.00,245.0,21.0,0,0,0,0.0
Status,1732152087000,28,18,3,17,1602000000,27.50,0.0,0.0,0,0,0,22.5
Status,1732152087000,28,19,6,21,1575420030,0.00,346.0,68.0,0,0,0,0.0
Status,1732152087000,28,20,6,19,1575420030,0.00,242.0,45.0,0,0,0,0.0
Status,1732152087000,28,21,6,27,1575420030,0.00,65.0,33.0,0,0,0,0.0
Status,1732152087000,28,22,6,13,1575420030,0.00,119.0,29.0,0,0,0,0.0
Status,1732152087000,28,23,6,15,1575420030,0.00,61.0,24.0,0,0,0,0.0
Status,1732152087000,28,24,6,29,1575420030,0.00,191.0,24.0,0,0,0,0.0
Status,1732152087000,28,25,6,4,1575420030,0.00,310.0,23.0,0,0,0,0.0
Status,1732152087000,28,26,6,26,1575420030,0.00,167.0,7.0,0,0,0,0.0
Status,1732152087000,28,27,6,6,1575420030,0.00,327.0,5.0,0,0,0,0.0
Fix,GPS,37.4250683333,-122.1585200000,23.599999999999998,0.0,5.6,0.0,1732152088000,2.0,179.9,30972091000000,69.5,0,,,
Raw,1732152088000,20408000000,,704881.6001235094,-1416187285592000000,0.0,194.12874536101364,1112.8573832213417,0.0,0,7,0.0,16431,350505916575323,396,27.722999572753906,975.2647364421917,0.14999,16,0.0,0.0,1575420030,,,,0,13.698471498504151,1,6.0,27.722999572753906,0.0,0.0,0.0,66.7128,C,30972091000000,
Raw,1732152088000,20408000000,,704881.6001235094,-1416187285592000000,0.0,194.12874536101364,1112.8573832213417,0.0,0,6,0.0,16431,350505918957058,487,21.0939998626709,-326.44498609546565,0.14999,16,0.0,0.0,1575420030,,,,0,4.018608574018224,1,6.0,21.0939998626709,0.0,0.0,0.0,66.7128,C,30972091000000,
Raw,1732152088000,20408000000,,704881.6001235094,-1416187285592000000,0.0,194.12874536101364,1112.8573832213417,0.0,0,13,0.0,16431,350505928601191,487,18.909000396728516,719.0509381321968,0.14999,16,0.0,0.0,1575420030,,,,0,3.8507600729122293,1,6.0,18.909000396728516,0.0,0.0,0.0,66.7128,C,30972091000000,
Raw,1732152088000,20408000000,,704881.6001235094,-1416187285592000000,0.0,194.12874536101364,1112.8573832213417,0.0,0,30,0.0,16431,350505925635043,797,17.632999420166016,857.4253795618043,0.14999,16,0.0,0.0,1575420030,,,,0,0.0,1,6.0,17.632999420166016,0.0,0.0,0.0,66.7128,C,30972091000000,
Fix,FLP,37.4250620000,-122.1585467000,5.400000095367432,0.036641907,5.542,,1732152088243,2.0,,30972091000000,15.050505,0,,,
Status,1732152088000,27,0,1,17,1575420030,0.00,77.0,78.0,0,0,0,0.0
Status,1732152088000,27,1,1,22,1575420030,0.00,16.0,66.0,0,0,0,0.0
Status,1732152088000,27,2,1,19,1575420030,0.00,200.0,62.0,0,0,0,0.0
Status,1732152088000,27,3,1,14,1575420030,0.00,54.0,52.0,0,0,0,0.0
Status,1732152088000,27,4,1,13,1575420030,24.00,233.0,47.0,1,0,0,19.0
Status,1732152088000,27,5,2,135,1575420030,0.00,197.0,45.0,0,0,0,0.0
Status,1732152088000,27,6,1,30,1575420030,22.70,132.0,35.0,1,0,0,17.7
Status,1732152088000,27,7,1,15,1575420030,0.00,273.0,30.0,0,0,0,0.0
Status,1732152088000,27,8,1,24,1575420030,0.00,313.0,18.0,0,0,0,0.0
Status,1732152088000,27,9,1,2,1575420030,0.00,46.0,16.0,0,0,0,0.0
Status,1732152088000,27,10,1,6,1575420030,26.00,161.0,13.0,1,0,0,21.0
Status,1732152088000,27,11,1,21,1575420030,0.00,33.0,4.0,0,0,0,0.0
Status,1732152088000,27,12,1,7,1575420030,31.20,132.0,3.0,0,0,0,26.2
Status,1732152088000,27,13,3,20,1602000000,0.00,111.0,54.0,0,0,0,0.0
Status,1732152088000,27,14,3,9,1602000000,0.00,82.0,32.0,0,0,0,0.0
Status,1732152088000,27,15,3,11,1602000000,0.00,312.0,29.0,0,0,0,0.0
Status,1732152088000,27,16,3,19,1602000000,0.00,32.0,22.0,0,0,0,0.0
Status,1732152088000,27,17,3,8,1602000000,27.60,245.0,21.0,1,0,0,22.6
Status,1732152088000,27,18,6,21,1575420030,0.00,346.0,68.0,0,0,0,0.0
Status,1732152088000,27,19,6,19,1575420030,0.00,242.0,45.0,0,0,0,0.0
Status,1732152088000,27,20,6,27,1575420030,0.00,65.0,33.0,0,0,0,0.0
Status,1732152088000,27,21,6,13,1575420030,0.00,119.0,29.0,0,0,0,0.0
Status,1732152088000,27,22,6,15,1575420030,0.00,61.0,24.0,0,0,0,0.0
Status,1732152088000,27,23,6,29,1575420030,0.00,191.0,24.0,0,0,0,0.0
Status,1732152088000,27,24,6,4,1575420030,0.00,310.0,23.0,0,0,0,0.0
Status,1732152088000,27,25,6,26,1575420030,0.00,167.0,7.0,0,0,0,0.0
Status,1732152088000,27,26,6,6,1575420030,0.00,327.0,5.0,0,0,0,0.0
Fix,GPS,37.4250833333,-122.1584900000,23.599999999999998,0.0,5.6,0.0,1732152089000,2.0,179.9,30973091000000,68.5,0,,,
Fix,FLP,37.4250712000,-122.1585235000,5.400000095367432,0.061678287,5.557,,1732152089243,2.0,,30973091000000,15.374845,0,,,
Raw,1732152089000,21408000000,,704838.3410299134,-1416187285592000000,0.0,194.66613749787368,1107.806204805681,0.0,0,7,0.0,16431,350506916572070,316,26.15999984741211,974.8025681177293,0.14999,16,0.0,0.0,1575420030,,,,0,11.647042552915691,1,6.0,26.15999984741211,0.0,0.0,0.0,66.7128,C,30973091000000,
Raw,1732152089000,21408000000,,704838.3410299134,-1416187285592000000,0.0,194.66613749787368,1107.806204805681,0.0,0,6,0.0,16431,350506918958144,487,21.010000228881836,-327.4380347419659,0.14999,16,0.0,0.0,1575420030,,,,0,1.3095114681491191,1,6.0,21.010000228881836,0.0,0.0,0.0,66.7128,C,30973091000000,
Raw,1732152089000,21408000000,,704838.3410299134,-1416187285592000000,0.0,194.66613749787368,1107.806204805681,0.0,0,13,0.0,16431,350506928598778,487,18.992000579833984,717.7333309900498,0.14999,16,0.0,0.0,1575420030,,,,0,3.236350196751694,1,6.0,18.992000579833984,0.0,0.0,0.0,66.7128,C,30973091000000,
Raw,1732152089000,21408000000,,704838.3410299134,-1416187285592000000,0.0,194.66613749787368,1107.806204805681,0.0,0,30,0.0,16431,350506925632195,487,17.707000732421875,856.0018936891134,0.14999,16,0.0,0.0,1575420030,,,,0,0.7224036010983799,1,6.0,17.707000732421875,0.0,0.0,0.0,66.7128,C,30973091000000,
Raw,1732152089000,21408000000,,704838.3410299134,-1416187285592000000,0.0,194.66613749787368,1107.806204805681,0.0,0,8,0.0,17,153288,487,5.0,929.1014165973037,0.14999,16,0.0,0.0,1605374980,,,,0,7.948020105426345,3,6.0,19.0,0.0,0.0,108.67631620913818,66.7128,C,30973091000000,
Status,1732152089000,28,0,1,17,1575420030,0.00,77.0,78.0,0,0,0,0.0
Status,1732152089000,28,1,1,22,1575420030,0.00,16.0,66.0,0,0,0,0.0
Status,1732152089000,28,2,1,19,1575420030,0.00,200.0,62.0,0,0,0,0.0
Status,1732152089000,28,3,1,14,1575420030,0.00,54.0,52.0,0,0,0,0.0
Status,1732152089000,28,4,1,13,1575420030,27.40,233.0,47.0,1,0,0,22.4
Status,1732152089000,28,5,2,135,1575420030,0.00,197.0,45.0,0,0,0,0.0
Status,1732152089000,28,6,1,30,1575420030,28.50,132.0,35.0,1,0,0,23.5
Status,1732152089000,28,7,1,15,1575420030,23.50,273.0,30.0,1,0,0,18.5
Status,1732152089000,28,8,1,24,1575420030,0.00,313.0,18.0,0,0,0,0.0
Status,1732152089000,28,9,1,2,1575420030,0.00,46.0,16.0,0,0,0,0.0
Status,1732152089000,28,10,1,6,1575420030,22.50,161.0,13.0,1,0,0,17.5
Status,1732152089000,28,11,1,21,1575420030,0.00,33.0,4.0,0,0,0,0.0
Status,1732152089000,28,12,1,7,1575420030,33.60,132.0,3.0,0,0,0,28.599998
Status,1732152089000,28,13,3,20,1602000000,0.00,111.0,54.0,0,0,0,0.0
Status,1732152089000,28,14,3,9,1602000000,0.00,82.0,32.0,0,0,0,0.0
Status,1732152089000,28,15,3,11,1602000000,0.00,312.0,29.0,0,0,0,0.0
Status,1732152089000,28,16,3,19,1602000000,0.00,32.0,22.0,0,0,0,0.0
Status,1732152089000,28,17,3,8,1602000000,23.00,245.0,21.0,1,0,0,18.0
Status,1732152089000,28,18,3,17,1602000000,23.70,0.0,0.0,0,0,0,18.7
Status,1732152089000,28,19,6,21,1575420030,0.00,346.0,68.0,0,0,0,0.0
Status,1732152089000,28,20,6,19,1575420030,0.00,242.0,45.0,0,0,0,0.0
Status,1732152089000,28,21,6,27,1575420030,0.00,65.0,33.0,0,0,0,0.0
Status,1732152089000,28,22,6,13,1575420030,0.00,119.0,29.0,0,0,0,0.0
Status,1732152089000,28,23,6,15,1575420030,0.00,61.0,24.0,0,0,0,0.0
Status,1732152089000,28,24,6,29,1575420030,0.00,191.0,24.0,0,0,0,0.0
Status,1732152089000,28,25,6,4,1575420030,0.00,310.0,23.0,0,0,0,0.0
Status,1732152089000,28,26,6,26,1575420030,0.00,167.0,7.0,0,0,0,0.0
Status,1732152089000,28,27,6,6,1575420030,0.00,327.0,5.0,0,0,0,0.0
Fix,GPS,37.4250833333,-122.1584900000,23.599999999999998,0.0,5.7,0.0,1732152090000,2.0,179.9,30974091000000,72.9,0,,,
Raw,1732152090000,22408000000,,704822.705212951,-1416187285592000000,0.0,142.54399913971199,1103.2689844813842,0.0,0,7,0.0,16431,350507916568822,316,28.591999053955078,974.0832989179578,0.14999,16,0.0,0.0,1575420030,,,,0,14.79844879768776,1,6.0,28.591999053955078,0.0,0.0,0.0,66.7128,C,30974091000000,
Raw,1732152090000,22408000000,,704822.705212951,-1416187285592000000,0.0,142.54399913971199,1103.2689844813842,0.0,0,6,0.0,16431,350507918959250,797,17.54800033569336,-328.4654161580458,0.14999,16,0.0,0.0,1575420030,,,,0,0.0,1,6.0,17.54800033569336,0.0,0.0,0.0,66.7128,C,30974091000000,
Raw,1732152090000,22408000000,,704822.705212951,-1416187285592000000,0.0,142.54399913971199,1103.2689844813842,0.0,0,13,0.0,16431,350507928596387,487,22.434999465942383,717.4239179380876,0.14999,16,0.0,0.0,1575420030,,,,0,6.275068669285258,1,6.0,22.434999465942383,0.0,0.0,0.0,66.7128,C,30974091000000,
Raw,1732152090000,22408000000,,704822.705212951,-1416187285592000000,0.0,142.54399913971199,1103.2689844813842,0.0,0,30,0.0,16431,350507925629357,487,23.496000289916992,855.0718891134109,0.14999,16,0.0,0.0,1575420030,,,,0,7.8533500713746305,1,6.0,23.496000289916992,0.0,0.0,0.0,66.7128,C,30974091000000,
Raw,1732152090000,22408000000,,704822.705212951,-1416187285592000000,0.0,142.54399913971199,1103.2689844813842,0.0,0,8,0.0,17,150200,797,5.0,925.2025193041461,0.14999,16,0.0,0.0,1605374980,,,,0,0.8937707307331308,3,6.0,15.0,0.0,0.0,108.67631620913818,66.7128,C,30974091000000,
Raw,1732152090000,22408000000,,704822.705212951,-1416187285592000000,0.0,142.54399913971199,1103.2689844813842,0.0,0,15,0.0,16431,350507924727172,797,18.458999633789062,522.1504139645313,0.14999,16,0.0,0.0,1575420030,,,,0,0.0,1,6.0,18.458999633789062,0.0,0.0,0.0,66.7128,C,30974091000000,
Fix,FLP,37.4250768000,-122.1585093000,5.400000095367432,0.074316844,5.585,,1732152090243,2.0,,30974091000000,15.372587,0,,,
Status,1732152090000,28,0,1,17,1575420030,0.00,77.0,78.0,0,0,0,0.0
Status,1732152090000,28,1,1,22,1575420030,0.00,16.0,66.0,0,0,0,0.0
Status,1732152090000,28,2,1,19,1575420030,0.00,200.0,62.0,0,0,0,0.0
Status,1732152090000,28,3,1,14,1575420030,0.00,54.0,52.0,0,0,0,0.0
Status,1732152090000,28,4,1,13,1575420030,24.20,233.0,47.0,1,0,0,19.2
Status,1732152090000,28,5,2,135,1575420030,0.00,197.0,45.0,0,0,0,0.0
Status,1732152090000,28,6,1,30,1575420030,25.80,132.0,35.0,1,0,0,20.8
Status,1732152090000,28,7,1,15,1575420030,20.90,273.0,30.0,1,0,0,15.9
Status,1732152090000,28,8,1,24,1575420030,0.00,313.0,18.0,0,0,0,0.0
Status,1732152090000,28,9,1,2,1575420030,0.00,46.0,16.0,0,0,0,0.0
Status,1732152090000,28,10,1,6,1575420030,22.50,161.0,13.0,1,0,0,17.5
Status,1732152090000,28,11,1,21,1575420030,0.00,33.0,4.0,0,0,0,0.0
Status,1732152090000,28,12,1,7,1575420030,30.60,132.0,3.0,0,0,0,25.6
Status,1732152090000,28,13,3,20,1602000000,0.00,111.0,54.0,0,0,0,0.0
Status,1732152090000,28,14,3,9,1602000000,0.00,82.0,32.0,0,0,0,0.0
Status,1732152090000,28,15,3,11,1602000000,0.00,312.0,29.0,0,0,0,0.0
Status,1732152090000,28,16,3,19,1602000000,0.00,32.0,22.0,0,0,0,0.0
Status,1732152090000,28,17,3,8,1602000000,21.90,245.0,21.0,1,0,0,16.9
Status,1732152090000,28,18,3,17,1602000000,23.50,0.0,0.0,0,0,0,18.5
Status,1732152090000,28,19,6,21,1575420030,0.00,346.0,68.0,0,0,0,0.0
Status,1732152090000,28,20,6,19,1575420030,0.00,242.0,45.0,0,0,0,0.0
Status,1732152090000,28,21,6,27,1575420030,0.00,65.0,33.0,0,0,0,0.0
Status,1732152090000,28,22,6,13,1575420030,0.00,119.0,29.0,0,0,0,0.0
Status,1732152090000,28,23,6,15,1575420030,0.00,61.0,24.0,0,0,0,0.0
Status,1732152090000,28,24,6,29,1575420030,0.00,191.0,24.0,0,0,0,0.0
Status,1732152090000,28,25,6,4,1575420030,0.00,310.0,23.0,0,0,0,0.0
Status,1732152090000,28,26,6,26,1575420030,0.00,167.0,7.0,0,0,0,0.0
Status,1732152090000,28,27,6,6,1575420030,0.00,327.0,5.0,0,0,0,0.0
Fix,GPS,37.4250883333,-122.1584733333,23.599999999999998,0.0,5.7,0.0,1732152091000,2.0,179.9,30975091000000,70.5,0,,,
Raw,1732152091000,23408000000,,704800.1375171352,-1416187285592000000,0.0,126.0158666659817,1101.7385332254464,0.0,0,7,0.0,16431,350508916565570,316,25.64900016784668,973.1166851102813,0.14999,16,0.0,0.0,1575420030,,,,0,10.927302672156205,1,6.0,25.64900016784668,0.0,0.0,0.0,66.7128,C,30975091000000,
Raw,1732152091000,23408000000,,704800.1375171352,-1416187285592000000,0.0,126.0158666659817,1101.7385332254464,0.0,0,6,0.0,16431,350508918960347,1797,17.54800033569336,-329.1012460423032,0.14999,16,0.0,0.0,1575420030,,,,0,0.0,1,6.0,17.54800033569336,0.0,0.0,0.0,66.7128,C,30975091000000,
Raw,1732152091000,23408000000,,704800.1375171352,-1416187285592000000,0.0,126.0158666659817,1101.7385332254464,0.0,0,13,0.0,16431,350508928593997,487,19.24799919128418,717.3049843925886,0.14999,16,0.0,0.0,1575420030,,,,0,0.9620295467606645,1,6.0,19.24799919128418,0.0,0.0,0.0,66.7128,C,30975091000000,
Raw,1732152091000,23408000000,,704800.1375171352,-1416187285592000000,0.0,126.0158666659817,1101.7385332254464,0.0,0,30,0.0,16431,350508925626484,487,20.816999435424805,854.7781790061279,0.14999,16,0.0,0.0,1575420030,,,,0,3.67960400020692,1,6.0,20.816999435424805,0.0,0.0,0.0,66.7128,C,30975091000000,
Raw,1732152091000,23408000000,,704800.1375171352,-1416187285592000000,0.0,126.0158666659817,1101.7385332254464,0.0,0,8,0.0,17,147110,487,5.0,925.7382198957713,0.14999,16,0.0,0.0,1605374980,,,,0,0.0,3,6.0,20.0,0.0,0.0,108.67631620913818,66.7128,C,30975091000000,
Raw,1732152091000,23408000000,,704800.1375171352,-1416187285592000000,0.0,126.0158666659817,1101.7385332254464,0.0,0,15,0.0,16431,350508924725425,797,15.937000274658203,522.4351111390695,0.14999,16,0.0,0.0,1575420030,,,,0,0.0,1,6.0,15.937000274658203,0.0,0.0,0.0,66.7128,C,30975091000000,
Fix,FLP,37.4250822000,-122.1584938000,5.400000095367432,0.08580227,5.614,,1732152091244,2.0,,30975091000000,15.739839,0,,,
Status,1732152091000,28,0,1,17,1575420030,0.00,77.0,78.0,0,0,0,0.0
Status,1732152091000,28,1,1,22,1575420030,0.00,16.0,66.0,0,0,0,0.0
Status,1732152091000,28,2,1,19,1575420030,0.00,200.0,62.0,0,0,0,0.0
Status,1732152091000,28,3,1,14,1575420030,0.00,54.0,52.0,0,0,0,0.0
Status,1732152091000,28,4,1,13,1575420030,24.30,233.0,47.0,1,0,0,19.3
Status,1732152091000,28,5,2,135,1575420030,0.00,197.0,45.0,0,0,0,0.0
Status,1732152091000,28,6,1,30,1575420030,25.80,132.0,35.0,1,0,0,20.8
Status,1732152091000,28,7,1,15,1575420030,20.90,273.0,30.0,1,0,0,15.9
Status,1732152091000,28,8,1,24,1575420030,0.00,313.0,18.0,0,0,0,0.0
Status,1732152091000,28,9,1,2,1575420030,0.00,46.0,16.0,0,0,0,0.0
Status,1732152091000,28,10,1,6,1575420030,22.50,161.0,13.0,1,0,0,17.5
Status,1732152091000,28,11,1,21,1575420030,0.00,33.0,4.0,0,0,0,0.0
Status,1732152091000,28,12,1,7,1575420030,33.30,132.0,3.0,0,0,0,28.3
Status,1732152091000,28,13,3,20,1602000000,0.00,111.0,54.0,0,0,0,0.0
Status,1732152091000,28,14,3,9,1602000000,0.00,82.0,32.0,0,0,0,0.0
Status,1732152091000,28,15,3,11,1602000000,0.00,312.0,29.0,0,0,0,0.0
Status,1732152091000,28,16,3,19,1602000000,0.00,32.0,22.0,0,0,0,0.0
Status,1732152091000,28,17,3,8,1602000000,22.70,245.0,21.0,1,0,0,17.7
Status,1732152091000,28,18,3,17,1602000000,23.60,0.0,0.0,0,0,0,18.6
Status,1732152091000,28,19,6,21,1575420030,0.00,346.0,68.0,0,0,0,0.0
Status,1732152091000,28,20,6,19,1575420030,0.00,242.0,45.0,0,0,0,0.0
Status,1732152091000,28,21,6,27,1575420030,0.00,65.0,33.0,0,0,0,0.0
Status,1732152091000,28,22,6,13,1575420030,0.00,119.0,29.0,0,0,0,0.0
Status,1732152091000,28,23,6,15,1575420030,0.00,61.0,24.0,0,0,0,0.0
Status,1732152091000,28,24,6,29,1575420030,0.00,191.0,24.0,0,0,0,0.0
Status,1732152091000,28,25,6,4,1575420030,0.00,310.0,23.0,0,0,0,0.0
Status,1732152091000,28,26,6,26,1575420030,0.00,167.0,7.0,0,0,0,0.0
Status,1732152091000,28,27,6,6,1575420030,0.00,327.0,5.0,0,0,0,0.0
Fix,GPS,37.4250850000,-122.1584716667,23.599999999999998,0.0,5.8,0.0,1732152092000,2.0,179.9,30976091000000,71.5,0,,,
Raw,1732152092000,24408000000,,704788.5148931933,-1416187285592000000,0.0,127.57923204639593,1099.2471788596938,0.0,0,7,0.0,16431,350509916562319,235,28.270999908447266,972.6246904826118,0.14999,16,0.0,0.0,1575420030,,,,0,14.405243799281113,1,6.0,28.270999908447266,0.0,0.0,0.0,66.7128,C,30976091000000,
Raw,1732152092000,24408000000,,704788.5148931933,-1416187285592000000,0.0,127.57923204639593,1099.2471788596938,0.0,0,6,0.0,16431,350509918961446,1797,17.54800033569336,-329.6507097308252,0.14999,16,0.0,0.0,1575420030,,,,0,0.0,1,6.0,17.54800033569336,0.0,0.0,0.0,66.7128,C,30976091000000,
Raw,1732152092000,24408000000,,704788.5148931933,-1416187285592000000,0.0,127.57923204639593,1099.2471788596938,0.0,0,13,0.0,16431,350509928591608,797,19.277000427246094,716.7191902225899,0.14999,16,0.0,0.0,1575420030,,,,0,1.9653617360752698,1,6.0,19.277000427246094,0.0,0.0,0.0,66.7128,C,30976091000000,
Raw,1732152092000,24408000000,,704788.5148931933,-1416187285592000000,0.0,127.57923204639593,1099.2471788596938,0.0,0,30,0.0,16431,350509925623633,487,20.816999435424805,854.8398757828554,0.14999,16,0.0,0.0,1575420030,,,,0,3.67960400020692,1,6.0,20.816999435424805,0.0,0.0,0.0,66.7128,C,30976091000000,
Raw,1732152092000,24408000000,,704788.5148931933,-1416187285592000000,0.0,127.57923204639593,1099.2471788596938,0.0,0,8,0.0,17,144018,487,5.0,925.3242487151792,0.14999,16,0.0,0.0,1605374980,,,,0,0.3013213985971124,3,6.0,18.0,0.0,0.0,108.67631620913818,66.7128,C,30976091000000,
Raw,1732152092000,24408000000,,704788.5148931933,-1416187285592000000,0.0,127.57923204639593,1099.2471788596938,0.0,0,15,0.0,16431,350509924723685,487,15.937000274658203,521.4154882784968,0.14999,16,0.0,0.0,1575420030,,,,0,0.0,1,6.0,15.937000274658203,0.0,0.0,0.0,66.7128,C,30976091000000,
Fix,FLP,37.4250839000,-122.1584844000,5.400000095367432,0.08512326,5.657,,1732152092243,2.0,,30976091000000,16.300373,0,,,
Fix,FLP,37.4250845000,-122.1584797000,5.400000095367432,0.08281819,5.685,,1732152092743,2.0,,30976591000000,15.121647,0,,,
Fix,NLP,37.4257227000,-122.1580964000,5.400000095367432,,15.01,,1732152092743,,,30976591000000,6.795679,0,,,
Status,1732152092000,28,0,1,17,1575420030,0.00,77.0,78.0,0,0,0,0.0
Status,1732152092000,28,1,1,22,1575420030,0.00,16.0,66.0,0,0,0,0.0
Status,1732152092000,28,2,1,19,1575420030,0.00,200.0,62.0,0,0,0,0.0
Status,1732152092000,28,3,1,14,1575420030,0.00,54.0,52.0,0,0,0,0.0
Status,1732152092000,28,4,1,13,1575420030,24.20,233.0,47.0,1,0,0,19.2
Status,1732152092000,28,5,2,135,1575420030,0.00,197.0,45.0,0,0,0,0.0
Status,1732152092000,28,6,1,30,1575420030,25.60,132.0,35.0,1,0,0,20.6
Status,1732152092000,28,7,1,15,1575420030,20.90,273.0,30.0,1,0,0,15.9
Status,1732152092000,28,8,1,24,1575420030,0.00,313.0,18.0,0,0,0,0.0
Status,1732152092000,28,9,1,2,1575420030,0.00,46.0,16.0,0,0,0,0.0
Status,1732152092000,28,10,1,6,1575420030,16.60,161.0,13.0,1,0,0,11.6
Status,1732152092000,28,11,1,21,1575420030,0.00,33.0,4.0,0,0,0,0.0
Status,1732152092000,28,12,1,7,1575420030,32.60,132.0,3.0,0,0,0,27.599998
Status,1732152092000,28,13,3,20,1602000000,0.00,111.0,54.0,0,0,0,0.0
Status,1732152092000,28,14,3,9,1602000000,0.00,82.0,32.0,0,0,0,0.0
Status,1732152092000,28,15,3,11,1602000000,0.00,312.0,29.0,0,0,0,0.0
Status,1732152092000,28,16,3,19,1602000000,0.00,32.0,22.0,0,0,0,0.0
Status,1732152092000,28,17,3,8,1602000000,0.00,245.0,21.0,0,0,0,0.0
Status,1732152092000,28,18,3,17,1602000000,24.10,0.0,0.0,0,0,0,19.1
Status,1732152092000,28,19,6,21,1575420030,0.00,346.0,68.0,0,0,0,0.0
Status,1732152092000,28,20,6,19,1575420030,0.00,242.0,45.0,0,0,0,0.0
Status,1732152092000,28,21,6,27,1575420030,0.00,65.0,33.0,0,0,0,0.0
Status,1732152092000,28,22,6,13,1575420030,0.00,119.0,29.0,0,0,0,0.0
Status,1732152092000,28,23,6,15,1575420030,0.00,61.0,24.0,0,0,0,0.0
Status,1732152092000,28,24,6,29,1575420030,0.00,191.0,24.0,0,0,0,0.0
Status,1732152092000,28,25,6,4,1575420030,0.00,310.0,23.0,0,0,0,0.0
Status,1732152092000,28,26,6,26,1575420030,0.00,167.0,7.0,0,0,0,0.0
Status,1732152092000,28,27,6,6,1575420030,0.00,327.0,5.0,0,0,0,0.0
Fix,GPS,37.4250866667,-122.1584550000,23.599999999999998,0.0,5.8,0.0,1732152093000,2.0,179.9,30977091000000,70.3,0,,,
Raw,1732152093000,25408000000,,704768.9701219902,-1416187285592000000,0.0,126.11722971767652,1100.268650877775,0.0,0,7,0.0,16431,350510916559074,235,27.583999633789062,973.1821914771382,0.14999,16,0.0,0.0,1575420030,,,,0,13.533283198678648,1,6.0,27.583999633789062,0.0,0.0,0.0,66.7128,C,30977091000000,
Raw,1732152093000,25408000000,,704768.9701219902,-1416187285592000000,0.0,126.11722971767652,1100.268650877775,0.0,0,6,0.0,16431,350510918962545,1797,11.600000381469727,-329.4005776179477,0.14999,16,0.0,0.0,1575420030,,,,0,0.0,1,6.0,11.600000381469727,0.0,0.0,0.0,66.7128,C,30977091000000,
Raw,1732152093000,25408000000,,704768.9701219902,-1416187285592000000,0.0,126.11722971767652,1100.268650877775,0.0,0,13,0.0,16431,350510928589218,487,19.218000411987305,717.0283245240548,0.14999,16,0.0,0.0,1575420030,,,,0,0.0,1,6.0,19.218000411987305,0.0,0.0,0.0,66.7128,C,30977091000000,
Raw,1732152093000,25408000000,,704768.9701219902,-1416187285592000000,0.0,126.11722971767652,1100.268650877775,0.0,0,30,0.0,16431,350510925620772,487,20.621000289916992,855.2054106016,0.14999,16,0.0,0.0,1575420030,,,,0,3.3268290319526184,1,6.0,20.621000289916992,0.0,0.0,0.0,66.7128,C,30977091000000,
Raw,1732152093000,25408000000,,704768.9701219902,-1416187285592000000,0.0,126.11722971767652,1100.268650877775,0.0,0,15,0.0,16431,350510924721955,797,15.885000228881836,521.996775982123,0.14999,16,0.0,0.0,1575420030,,,,0,0.0,1,6.0,15.885000228881836,0.0,0.0,0.0,66.7128,C,30977091000000,
Fix,FLP,37.4250855000,-122.1584711000,5.400000095367432,0.0816933,5.714,,1732152093243,2.0,,30977091000000,12.806389,0,,,
Status,1732152093000,28,0,1,17,1575420030,0.00,77.0,78.0,0,0,0,0.0
Status,1732152093000,28,1,1,22,1575420030,0.00,16.0,66.0,0,0,0,0.0
Status,1732152093000,28,2,1,19,1575420030,0.00,200.0,62.0,0,0,0,0.0
Status,1732152093000,28,3,1,14,1575420030,0.00,54.0,52.0,0,0,0,0.0
Status,1732152093000,28,4,1,13,1575420030,24.20,233.0,47.0,1,0,0,19.2
Status,1732152093000,28,5,2,135,1575420030,0.00,197.0,45.0,0,0,0,0.0
Status,1732152093000,28,6,1,30,1575420030,25.60,132.0,35.0,1,0,0,20.6
Status,1732152093000,28,7,1,15,1575420030,25.30,273.0,30.0,1,0,0,20.3
Status,1732152093000,28,8,1,24,1575420030,0.00,313.0,18.0,0,0,0,0.0
Status,1732152093000,28,9,1,2,1575420030,0.00,46.0,16.0,0,0,0,0.0
Status,1732152093000,28,10,1,6,1575420030,16.60,161.0,13.0,1,0,0,11.6
Status,1732152093000,28,11,1,21,1575420030,0.00,33.0,4.0,0,0,0,0.0
Status,1732152093000,28,12,1,7,1575420030,30.40,132.0,3.0,0,0,0,25.4
Status,1732152093000,28,13,3,20,1602000000,0.00,111.0,54.0,0,0,0,0.0
Status,1732152093000,28,14,3,9,1602000000,0.00,82.0,32.0,0,0,0,0.0
Status,1732152093000,28,15,3,11,1602000000,0.00,312.0,29.0,0,0,0,0.0
Status,1732152093000,28,16,3,19,1602000000,0.00,32.0,22.0,0,0,0,0.0
Status,1732152093000,28,17,3,8,1602000000,0.00,245.0,21.0,0,0,0,0.0
Status,1732152093000,28,18,3,17,1602000000,24.10,0.0,0.0,0,0,0,19.1
Status,1732152093000,28,19,6,21,1575420030,0.00,346.0,68.0,0,0,0,0.0
Status,1732152093000,28,20,6,19,1575420030,0.00,242.0,45.0,0,0,0,0.0
Status,1732152093000,28,21,6,27,1575420030,0.00,65.0,33.0,0,0,0,0.0
Status,1732152093000,28,22,6,13,1575420030,0.00,119.0,29.0,0,0,0,0.0
Status,1732152093000,28,23,6,15,1575420030,0.00,61.0,24.0,0,0,0,0.0
Status,1732152093000,28,24,6,29,1575420030,0.00,191.0,24.0,0,0,0,0.0
Status,1732152093000,28,25,6,4,1575420030,0.00,310.0,23.0,0,0,0,0.0
Status,1732152093000,28,26,6,26,1575420030,0.00,167.0,7.0,0,0,0,0.0
Status,1732152093000,28,27,6,6,1575420030,0.00,327.0,5.0,0,0,0,0.0
Fix,GPS,37.4250983333,-122.1584466667,23.599999999999998,0.0,5.9,0.0,1732152094000,2.0,179.9,30978091000000,70.8,0,,,
Raw,1732152094000,26408000000,,704751.5101263821,-1416187285592000000,0.0,126.17384084207902,1100.7107365791549,0.0,0,7,0.0,16431,350511916555830,316,25.444000244140625,973.6546735699993,0.14999,16,0.0,0.0,1575420030,,,,0,10.660609671863607,1,6.0,25.444000244140625,0.0,0.0,0.0,66.7128,C,30978091000000,
Raw,1732152094000,26408000000,,704751.5101263821,-1416187285592000000,0.0,126.17384084207902,1100.7107365791549,0.0,0,6,0.0,16431,350511918963644,797,11.600000381469727,-329.7194217284006,0.14999,16,0.0,0.0,1575420030,,,,0,0.0,1,6.0,11.600000381469727,0.0,0.0,0.0,66.7128,C,30978091000000,
Raw,1732152094000,26408000000,,704751.5101263821,-1416187285592000000,0.0,126.17384084207902,1100.7107365791549,0.0,0,13,0.0,16431,350511928586827,797,19.16200065612793,716.5891531156166,0.14999,16,0.0,0.0,1575420030,,,,0,0.0,1,6.0,19.16200065612793,0.0,0.0,0.0,66.7128,C,30978091000000,
Raw,1732152094000,26408000000,,704751.5101263821,-1416187285592000000,0.0,126.17384084207902,1100.7107365791549,0.0,0,30,0.0,16431,350511925617918,487,20.621000289916992,855.3685725593314,0.14999,16,0.0,0.0,1575420030,,,,0,3.3268290319526184,1,6.0,20.621000289916992,0.0,0.0,0.0,66.7128,C,30978091000000,
Raw,1732152094000,26408000000,,704751.5101263821,-1416187285592000000,0.0,126.17384084207902,1100.7107365791549,0.0,0,15,0.0,16431,350511924720255,487,20.266000747680664,521.7526370049367,0.14999,16,0.0,0.0,1575420030,,,,0,2.6727434713950062,1,6.0,20.266000747680664,0.0,0.0,0.0,66.7128,C,30978091000000,
Fix,FLP,37.4250911000,-122.1584615000,5.400000095367432,0.09284868,5.757,,1732152094243,2.0,,30978091000000,13.218778,0,,,
Status,1732152094000,28,0,1,17,1575420030,0.00,77.0,78.0,0,0,0,0.0
Status,1732152094000,28,1,1,22,1575420030,0.00,16.0,66.0,0,0,0,0.0
Status,1732152094000,28,2,1,19,1575420030,0.00,200.0,62.0,0,0,0,0.0
Status,1732152094000,28,3,1,14,1575420030,0.00,54.0,52.0,0,0,0,0.0
Status,1732152094000,28,4,1,13,1575420030,24.10,233.0,47.0,1,0,0,19.1
Status,1732152094000,28,5,2,135,1575420030,0.00,197.0,45.0,0,0,0,0.0
Status,1732152094000,28,6,1,30,1575420030,25.70,132.0,35.0,1,0,0,20.7
Status,1732152094000,28,7,1,15,1575420030,25.30,273.0,30.0,1,0,0,20.3
Status,1732152094000,28,8,1,24,1575420030,0.00,313.0,18.0,0,0,0,0.0
Status,1732152094000,28,9,1,2,1575420030,0.00,46.0,16.0,0,0,0,0.0
Status,1732152094000,28,10,1,6,1575420030,16.60,161.0,13.0,1,0,0,11.6
Status,1732152094000,28,11,1,21,1575420030,0.00,33.0,4.0,0,0,0,0.0
Status,1732152094000,28,12,1,7,1575420030,30.20,132.0,3.0,0,0,0,25.2
Status,1732152094000,28,13,3,20,1602000000,0.00,111.0,54.0,0,0,0,0.0
Status,1732152094000,28,14,3,9,1602000000,0.00,82.0,32.0,0,0,0,0.0
Status,1732152094000,28,15,3,11,1602000000,0.00,312.0,29.0,0,0,0,0.0
Status,1732152094000,28,16,3,19,1602000000,0.00,32.0,22.0,0,0,0,0.0
Status,1732152094000,28,17,3,8,1602000000,0.00,245.0,21.0,0,0,0,0.0
Status,1732152094000,28,18,3,17,1602000000,24.00,0.0,0.0,0,0,0,19.0
Status,1732152094000,28,19,6,21,1575420030,0.00,346.0,68.0,0,0,0,0.0
Status,1732152094000,28,20,6,19,1575420030,0.00,242.0,45.0,0,0,0,0.0
Status,1732152094000,28,21,6,27,1575420030,0.00,65.0,33.0,0,0,0,0.0
Status,1732152094000,28,22,6,13,1575420030,0.00,119.0,29.0,0,0,0,0.0
Status,1732152094000,28,23,6,15,1575420030,0.00,61.0,24.0,0,0,0,0.0
Status,1732152094000,28,24,6,29,1575420030,0.00,191.0,24.0,0,0,0,0.0
Status,1732152094000,28,25,6,4,1575420030,0.00,310.0,23.0,0,0,0,0.0
Status,1732152094000,28,26,6,26,1575420030,0.00,167.0,7.0,0,0,0,0.0
Status,1732152094000,28,27,6,6,1575420030,0.00,327.0,5.0,0,0,0,0.0
Fix,GPS,37.4251116667,-122.1584383333,23.599999999999998,0.0,5.9,0.0,1732152095000,2.1,179.9,30979091000000,71.1,0,,,
Raw,1732152095000,27408000000,,704736.603980878,-1416187285592000000,0.0,126.16798759028644,1101.7990823135008,0.0,0,7,0.0,16431,350512916552584,487,25.209999084472656,974.5065350896358,0.14999,16,0.0,0.0,1575420030,,,,0,10.345440778864452,1,6.0,25.209999084472656,0.0,0.0,0.0,66.7128,C,30979091000000,
Raw,1732152095000,27408000000,,704736.603980878,-1416187285592000000,0.0,126.16798759028644,1101.7990823135008,0.0,0,6,0.0,16431,350512918964743,797,11.600000381469727,-329.118853782047,0.14999,16,0.0,0.0,1575420030,,,,0,0.0,1,6.0,11.600000381469727,0.0,0.0,0.0,66.7128,C,30979091000000,
Raw,1732152095000,27408000000,,704736.603980878,-1416187285592000000,0.0,126.16798759028644,1101.7990823135008,0.0,0,13,0.0,16431,350512928584436,487,19.107999801635742,717.4390633817723,0.14999,16,0.0,0.0,1575420030,,,,0,0.0,1,6.0,19.107999801635742,0.0,0.0,0.0,66.7128,C,30979091000000,
Raw,1732152095000,27408000000,,704736.603980878,-1416187285592000000,0.0,126.16798759028644,1101.7990823135008,0.0,0,30,0.0,16431,350512925615058,797,20.67099952697754,855.9394535777265,0.14999,16,0.0,0.0,1575420030,,,,0,3.416375079047504,1,6.0,20.67099952697754,0.0,0.0,0.0,66.7128,C,30979091000000,
Raw,1732152095000,27408000000,,704736.603980878,-1416187285592000000,0.0,126.16798759028644,1101.7990823135008,0.0,0,15,0.0,16431,350512924718512,487,20.283000946044922,521.9955680633016,0.14999,16,0.0,0.0,1575420030,,,,0,3.3268290319526184,1,6.0,20.283000946044922,0.0,0.0,0.0,66.7128,C,30979091000000,
Fix,FLP,37.4251004000,-122.1584519000,5.400000095367432,0.11414196,5.8,0.0000003822496,1732152095243,2.1,179.9,30979091000000,13.581907,0,,,
Status,1732152095000,27,0,1,17,1575420030,0.00,77.0,78.0,0,0,0,0.0
Status,1732152095000,27,1,1,22,1575420030,0.00,16.0,66.0,0,0,0,0.0
Status,1732152095000,27,2,1,19,1575420030,0.00,200.0,62.0,0,0,0,0.0
Status,1732152095000,27,3,1,14,1575420030,0.00,54.0,52.0,0,0,0,0.0
Status,1732152095000,27,4,1,13,1575420030,24.00,233.0,47.0,1,0,0,19.0
Status,1732152095000,27,5,1,30,1575420030,25.70,132.0,35.0,1,0,0,20.7
Status,1732152095000,27,6,1,15,1575420030,25.30,273.0,30.0,1,0,0,20.3
Status,1732152095000,27,7,1,24,1575420030,0.00,313.0,18.0,0,0,0,0.0
Status,1732152095000,27,8,1,2,1575420030,0.00,46.0,16.0,0,0,0,0.0
Status,1732152095000,27,9,1,6,1575420030,18.40,161.0,13.0,1,0,0,13.4
Status,1732152095000,27,10,1,21,1575420030,0.00,33.0,4.0,0,0,0,0.0
Status,1732152095000,27,11,1,7,1575420030,22.60,132.0,3.0,0,0,0,17.6
Status,1732152095000,27,12,3,20,1602000000,0.00,111.0,54.0,0,0,0,0.0
Status,1732152095000,27,13,3,9,1602000000,0.00,82.0,32.0,0,0,0,0.0
Status,1732152095000,27,14,3,11,1602000000,0.00,312.0,29.0,0,0,0,0.0
Status,1732152095000,27,15,3,19,1602000000,0.00,32.0,22.0,0,0,0,0.0
Status,1732152095000,27,16,3,8,1602000000,22.90,245.0,21.0,1,0,0,17.9
Status,1732152095000,27,17,3,17,1602000000,24.00,0.0,0.0,0,0,0,19.0
Status,1732152095000,27,18,6,21,1575420030,0.00,346.0,68.0,0,0,0,0.0
Status,1732152095000,27,19,6,19,1575420030,0.00,242.0,45.0,0,0,0,0.0
Status,1732152095000,27,20,6,27,1575420030,0.00,65.0,33.0,0,0,0,0.0
Status,1732152095000,27,21,6,13,1575420030,0.00,119.0,29.0,0,0,0,0.0
Status,1732152095000,27,22,6,15,1575420030,0.00,61.0,24.0,0,0,0,0.0
Status,1732152095000,27,23,6,29,1575420030,0.00,191.0,24.0,0,0,0,0.0
Status,1732152095000,27,24,6,4,1575420030,0.00,310.0,23.0,0,0,0,0.0
Status,1732152095000,27,25,6,26,1575420030,0.00,167.0,7.0,0,0,0,0.0
Status,1732152095000,27,26,6,6,1575420030,0.00,327.0,5.0,0,0,0,0.0
Fix,GPS,37.4251250000,-122.1584266667,23.599999999999998,0.0,6.0,0.0,1732152096000,2.1,179.9,30980091000000,63.6,0,,,
Raw,1732152096000,28408000000,,704723.2092976802,-1416187285592000000,0.0,122.21710625260371,1105.0190727599133,0.0,0,7,0.0,16431,350513916549334,797,17.632999420166016,974.821244401046,0.14999,16,0.0,0.0,1575420030,,,,0,0.0,1,6.0,17.632999420166016,0.0,0.0,0.0,66.7128,C,30980091000000,
Raw,1732152096000,28408000000,,704723.2092976802,-1416187285592000000,0.0,122.21710625260371,1105.0190727599133,0.0,0,6,0.0,16431,350513918965823,1797,13.399999618530273,-327.9944207345033,0.14999,16,0.0,0.0,1575420030,,,,0,0.0,1,6.0,13.399999618530273,0.0,0.0,0.0,66.7128,C,30980091000000,
Raw,1732152096000,28408000000,,704723.2092976802,-1416187285592000000,0.0,122.21710625260371,1105.0190727599133,0.0,0,13,0.0,16431,350513928582014,797,18.999000549316406,719.0451308301705,0.14999,16,0.0,0.0,1575420030,,,,0,0.0,1,6.0,18.999000549316406,0.0,0.0,0.0,66.7128,C,30980091000000,
Raw,1732152096000,28408000000,,704723.2092976802,-1416187285592000000,0.0,122.21710625260371,1105.0190727599133,0.0,0,30,0.0,16431,350513925612202,797,20.67099952697754,856.7431841781688,0.14999,16,0.0,0.0,1575420030,,,,0,3.416375079047504,1,6.0,20.67099952697754,0.0,0.0,0.0,66.7128,C,30980091000000,
Raw,1732152096000,28408000000,,704723.2092976802,-1416187285592000000,0.0,122.21710625260371,1105.0190727599133,0.0,0,8,0.0,17,131571,797,5.0,927.7796266779508,0.14999,16,0.0,0.0,1605374980,,,,0,0.7007430172095139,3,6.0,17.0,0.0,0.0,108.67631620913818,66.7128,C,30980091000000,
Raw,1732152096000,28408000000,,704723.2092976802,-1416187285592000000,0.0,122.21710625260371,1105.0190727599133,0.0,0,15,0.0,16431,350513924716740,487,20.27400016784668,523.1342173862057,0.14999,16,0.0,0.0,1575420030,,,,0,2.476443825523032,1,6.0,20.27400016784668,0.0,0.0,0.0,66.7128,C,30980091000000,
Fix,FLP,37.4251115000,-122.1584415000,5.400000095367432,0.13941821,5.842,0.00000032916216,1732152096243,2.1,179.9,30980091000000,13.508148,0,,,
Status,1732152096000,27,0,1,17,1575420030,0.00,77.0,78.0,0,0,0,0.0
Status,1732152096000,27,1,1,22,1575420030,0.00,16.0,66.0,0,0,0,0.0
Status,1732152096000,27,2,1,19,1575420030,0.00,200.0,62.0,0,0,0,0.0
Status,1732152096000,27,3,1,14,1575420030,0.00,54.0,52.0,0,0,0,0.0
Status,1732152096000,27,4,1,13,1575420030,23.90,233.0,47.0,1,0,0,18.9
Status,1732152096000,27,5,1,30,1575420030,23.10,132.0,35.0,1,0,0,18.1
Status,1732152096000,27,6,1,15,1575420030,0.00,273.0,30.0,0,0,0,0.0
Status,1732152096000,27,7,1,24,1575420030,0.00,313.0,18.0,0,0,0,0.0
Status,1732152096000,27,8,1,2,1575420030,0.00,46.0,16.0,0,0,0,0.0
Status,1732152096000,27,9,1,6,1575420030,18.40,161.0,13.0,1,0,0,13.4
Status,1732152096000,27,10,1,21,1575420030,0.00,33.0,4.0,0,0,0,0.0
Status,1732152096000,27,11,1,7,1575420030,22.60,132.0,3.0,0,0,0,17.6
Status,1732152096000,27,12,3,20,1602000000,0.00,111.0,54.0,0,0,0,0.0
Status,1732152096000,27,13,3,9,1602000000,0.00,82.0,32.0,0,0,0,0.0
Status,1732152096000,27,14,3,11,1602000000,0.00,312.0,29.0,0,0,0,0.0
Status,1732152096000,27,15,3,19,1602000000,0.00,32.0,22.0,0,0,0,0.0
Status,1732152096000,27,16,3,8,1602000000,22.90,245.0,21.0,1,0,0,17.9
Status,1732152096000,27,17,3,17,1602000000,24.00,0.0,0.0,0,0,0,19.0
Status,1732152096000,27,18,6,21,1575420030,0.00,346.0,68.0,0,0,0,0.0
Status,1732152096000,27,19,6,19,1575420030,0.00,242.0,45.0,0,0,0,0.0
Status,1732152096000,27,20,6,27,1575420030,0.00,65.0,33.0,0,0,0,0.0
Status,1732152096000,27,21,6,13,1575420030,0.00,119.0,29.0,0,0,0,0.0
Status,1732152096000,27,22,6,15,1575420030,0.00,61.0,24.0,0,0,0,0.0
Status,1732152096000,27,23,6,29,1575420030,0.00,191.0,24.0,0,0,0,0.0
Status,1732152096000,27,24,6,4,1575420030,0.00,310.0,23.0,0,0,0,0.0
Status,1732152096000,27,25,6,26,1575420030,0.00,167.0,7.0,0,0,0,0.0
Status,1732152096000,27,26,6,6,1575420030,0.00,327.0,5.0,0,0,0,0.0
Fix,GPS,37.4251366667,-122.1584166667,23.599999999999998,0.0,6.0,0.0,1732152097000,2.1,179.9,30981091000000,62.8,0,,,
Fix,FLP,37.4251230000,-122.1584311000,5.400000095367432,0.16468537,5.885,0.00000027219167,1732152097243,2.1,179.9,30981091000000,12.9763155,0,,,
Raw,1732152097000,29408000000,,704709.137062414,-1416187285592000000,0.0,122.6277754881546,1108.2996982588606,0.0,0,7,0.0,16431,350514916546081,797,17.632999420166016,975.6290633421148,0.14999,16,0.0,0.0,1575420030,,,,0,0.0,1,6.0,17.632999420166016,0.0,0.0,0.0,66.7128,C,30981091000000,
Raw,1732152097000,29408000000,,704709.137062414,-1416187285592000000,0.0,122.6277754881546,1108.2996982588606,0.0,0,6,0.0,16431,350514918966915,487,13.399999618530273,-326.77479439214426,0.14999,16,0.0,0.0,1575420030,,,,0,0.0,1,6.0,13.399999618530273,0.0,0.0,0.0,66.7128,C,30981091000000,
Raw,1732152097000,29408000000,,704709.137062414,-1416187285592000000,0.0,122.6277754881546,1108.2996982588606,0.0,0,13,0.0,16431,350514928579614,797,18.895999908447266,719.6916926085726,0.14999,16,0.0,0.0,1575420030,,,,0,0.0,1,6.0,18.895999908447266,0.0,0.0,0.0,66.7128,C,30981091000000,
Raw,1732152097000,29408000000,,704709.137062414,-1416187285592000000,0.0,122.6277754881546,1108.2996982588606,0.0,0,30,0.0,16431,350514925609346,797,18.097999572753906,858.2111772135894,0.14999,16,0.0,0.0,1575420030,,,,0,0.0,1,6.0,18.097999572753906,0.0,0.0,0.0,66.7128,C,30981091000000,
Raw,1732152097000,29408000000,,704709.137062414,-1416187285592000000,0.0,122.6277754881546,1108.2996982588606,0.0,0,8,0.0,17,128475,797,5.0,928.8676231816565,0.14999,16,0.0,0.0,1605374980,,,,0,0.7007430172095139,3,6.0,17.0,0.0,0.0,108.67631620913818,66.7128,C,30981091000000,
Fix,FLP,37.4251290000,-122.1584256000,5.400000095367432,0.17363,5.933,0.00000015934803,1732152097914,2.1,179.9,30981762000000,22.545862,0,,,
Fix,NLP,37.4257213000,-122.1580844000,5.400000095367432,,36.9,,1732152097914,,,30981762000000,13.259243,0,,,
Status,1732152097000,27,0,1,17,1575420030,0.00,77.0,78.0,0,0,0,0.0
Status,1732152097000,27,1,1,22,1575420030,0.00,16.0,66.0,0,0,0,0.0
Status,1732152097000,27,2,1,19,1575420030,0.00,200.0,62.0,0,0,0,0.0
Status,1732152097000,27,3,1,14,1575420030,0.00,54.0,52.0,0,0,0,0.0
Status,1732152097000,27,4,1,13,1575420030,21.40,233.0,47.0,1,0,0,16.4
Status,1732152097000,27,5,1,30,1575420030,23.10,132.0,35.0,1,0,0,18.1
Status,1732152097000,27,6,1,15,1575420030,27.90,273.0,30.0,1,0,0,22.9
Status,1732152097000,27,7,1,24,1575420030,0.00,313.0,18.0,0,0,0,0.0
Status,1732152097000,27,8,1,2,1575420030,0.00,46.0,16.0,0,0,0,0.0
Status,1732152097000,27,9,1,6,1575420030,21.30,161.0,13.0,1,0,0,16.3
Status,1732152097000,27,10,1,21,1575420030,0.00,33.0,4.0,0,0,0,0.0
Status,1732152097000,27,11,1,7,1575420030,22.60,132.0,3.0,0,0,0,17.6
Status,1732152097000,27,12,3,20,1602000000,0.00,111.0,54.0,0,0,0,0.0
Status,1732152097000,27,13,3,9,1602000000,0.00,82.0,32.0,0,0,0,0.0
Status,1732152097000,27,14,3,11,1602000000,0.00,312.0,29.0,0,0,0,0.0
Status,1732152097000,27,15,3,19,1602000000,0.00,32.0,22.0,0,0,0,0.0
Status,1732152097000,27,16,3,8,1602000000,23.10,245.0,21.0,1,0,0,18.1
Status,1732152097000,27,17,3,17,1602000000,27.50,0.0,0.0,0,0,0,22.5
Status,1732152097000,27,18,6,21,1575420030,0.00,346.0,68.0,0,0,0,0.0
Status,1732152097000,27,19,6,19,1575420030,0.00,242.0,45.0,0,0,0,0.0
Status,1732152097000,27,20,6,27,1575420030,0.00,65.0,33.0,0,0,0,0.0
Status,1732152097000,27,21,6,13,1575420030,0.00,119.0,29.0,0,0,0,0.0
Status,1732152097000,27,22,6,15,1575420030,0.00,61.0,24.0,0,0,0,0.0
Status,1732152097000,27,23,6,29,1575420030,0.00,191.0,24.0,0,0,0,0.0
Status,1732152097000,27,24,6,4,1575420030,0.00,310.0,23.0,0,0,0,0.0
Status,1732152097000,27,25,6,26,1575420030,0.00,167.0,7.0,0,0,0,0.0
Status,1732152097000,27,26,6,6,1575420030,0.00,327.0,5.0,0,0,0,0.0
Fix,GPS,37.4251516667,-122.1584133333,23.599999999999998,0.0,6.1,0.0,1732152098000,2.1,162.8,30982091000000,62.1,0,,,
Raw,1732152098000,30408000000,,704688.3935452439,-1416187285592000000,0.0,122.37223014956723,1111.6225564348636,0.0,0,7,0.0,16431,350515916542825,797,17.632999420166016,976.6478964096119,0.14999,16,0.0,0.0,1575420030,,,,0,0.0,1,6.0,17.632999420166016,0.0,0.0,0.0,66.7128,C,30982091000000,
Raw,1732152098000,30408000000,,704688.3935452439,-1416187285592000000,0.0,122.37223014956723,1111.6225564348636,0.0,0,6,0.0,16431,350515918968000,797,16.261999130249023,-326.6802050567396,0.14999,16,0.0,0.0,1575420030,,,,0,0.0,1,6.0,16.261999130249023,0.0,0.0,0.0,66.7128,C,30982091000000,
Raw,1732152098000,30408000000,,704688.3935452439,-1416187285592000000,0.0,122.37223014956723,1111.6225564348636,0.0,0,13,0.0,16431,350515928577238,797,16.36400032043457,720.8177517006836,0.14999,16,0.0,0.0,1575420030,,,,0,0.0,1,6.0,16.36400032043457,0.0,0.0,0.0,66.7128,C,30982091000000,
Raw,1732152098000,30408000000,,704688.3935452439,-1416187285592000000,0.0,122.37223014956723,1111.6225564348636,0.0,0,30,0.0,16431,350515925606482,1797,18.097999572753906,858.9207830627892,0.14999,16,0.0,0.0,1575420030,,,,0,0.0,1,6.0,18.097999572753906,0.0,0.0,0.0,66.7128,C,30982091000000,
Raw,1732152098000,30408000000,,704688.3935452439,-1416187285592000000,0.0,122.37223014956723,1111.6225564348636,0.0,0,8,0.0,17,125369,487,5.0,929.8919738959233,0.14999,16,0.0,0.0,1605374980,,,,0,1.0826018553899601,3,6.0,18.0,0.0,0.0,108.67631620913818,66.7128,C,30982091000000,
Raw,1732152098000,30408000000,,704688.3935452439,-1416187285592000000,0.0,122.37223014956723,1111.6225564348636,0.0,0,15,0.0,16431,350515924713311,396,22.878999710083008,524.7494836010137,0.14999,16,0.0,0.0,1575420030,,,,0,6.953035258879332,1,6.0,22.878999710083008,0.0,0.0,0.0,66.7128,C,30982091000000,
Fix,FLP,37.4251367000,-122.1584217000,5.400000095367432,0.18869688,5.957,0.000000109294746,1732152098243,2.1,162.8,30982091000000,20.604536,0,,,
Status,1732152098000,27,0,1,17,1575420030,0.00,77.0,78.0,0,0,0,0.0
Status,1732152098000,27,1,1,22,1575420030,0.00,16.0,66.0,0,0,0,0.0
Status,1732152098000,27,2,1,19,1575420030,0.00,200.0,62.0,0,0,0,0.0
Status,1732152098000,27,3,1,14,1575420030,0.00,54.0,52.0,0,0,0,0.0
Status,1732152098000,27,4,1,13,1575420030,29.70,233.0,47.0,1,0,0,24.7
Status,1732152098000,27,5,1,30,1575420030,23.10,132.0,35.0,1,0,0,18.1
Status,1732152098000,27,6,1,15,1575420030,27.20,273.0,30.0,1,0,0,22.2
Status,1732152098000,27,7,1,24,1575420030,0.00,313.0,18.0,0,0,0,0.0
Status,1732152098000,27,8,1,2,1575420030,0.00,46.0,16.0,0,0,0,0.0
Status,1732152098000,27,9,1,6,1575420030,24.40,161.0,13.0,1,0,0,19.4
Status,1732152098000,27,10,1,21,1575420030,0.00,33.0,4.0,0,0,0,0.0
Status,1732152098000,27,11,1,7,1575420030,18.80,132.0,3.0,0,0,0,13.799999
Status,1732152098000,27,12,3,20,1602000000,0.00,111.0,54.0,0,0,0,0.0
Status,1732152098000,27,13,3,9,1602000000,0.00,82.0,32.0,0,0,0,0.0
Status,1732152098000,27,14,3,11,1602000000,0.00,312.0,29.0,0,0,0,0.0
Status,1732152098000,27,15,3,19,1602000000,0.00,32.0,22.0,0,0,0,0.0
Status,1732152098000,27,16,3,8,1602000000,23.80,245.0,21.0,1,0,0,18.8
Status,1732152098000,27,17,3,17,1602000000,27.60,0.0,0.0,0,0,0,22.6
Status,1732152098000,27,18,6,21,1575420030,0.00,346.0,68.0,0,0,0,0.0
Status,1732152098000,27,19,6,19,1575420030,0.00,242.0,45.0,0,0,0,0.0
Status,1732152098000,27,20,6,27,1575420030,0.00,65.0,33.0,0,0,0,0.0
Status,1732152098000,27,21,6,13,1575420030,0.00,119.0,29.0,0,0,0,0.0
Status,1732152098000,27,22,6,15,1575420030,0.00,61.0,24.0,0,0,0,0.0
Status,1732152098000,27,23,6,29,1575420030,0.00,191.0,24.0,0,0,0,0.0
Status,1732152098000,27,24,6,4,1575420030,0.00,310.0,23.0,0,0,0,0.0
Status,1732152098000,27,25,6,26,1575420030,0.00,167.0,7.0,0,0,0,0.0
Status,1732152098000,27,26,6,6,1575420030,0.00,327.0,5.0,0,0,0,0.0
Fix,GPS,37.4251600000,-122.1584133333,23.599999999999998,0.0,6.1,0.0,1732152099000,2.0,160.2,30983091000000,58.0,0,,,
Raw,1732152099000,31408000000,,704660.2490747116,-1416187285592000000,0.0,119.28222218150697,1111.3111971909204,0.0,0,7,0.0,16431,350516916539569,1797,13.800000190734863,976.2563448777895,0.14999,16,0.0,0.0,1575420030,,,,0,0.0,1,6.0,13.800000190734863,0.0,0.0,0.0,66.7128,C,30983091000000,
Raw,1732152099000,31408000000,,704660.2490747116,-1416187285592000000,0.0,119.28222218150697,1111.3111971909204,0.0,0,6,0.0,16431,350516918969098,487,19.42799949645996,-326.1804983319791,0.14999,16,0.0,0.0,1575420030,,,,0,1.3095114681491191,1,6.0,19.42799949645996,0.0,0.0,0.0,66.7128,C,30983091000000,
Raw,1732152099000,31408000000,,704660.2490747116,-1416187285592000000,0.0,119.28222218150697,1111.3111971909204,0.0,0,13,0.0,16431,350516928574874,316,24.746000289916992,720.3737021585433,0.14999,16,0.0,0.0,1575420030,,,,0,9.67857030420079,1,6.0,24.746000289916992,0.0,0.0,0.0,66.7128,C,30983091000000,
Raw,1732152099000,31408000000,,704660.2490747116,-1416187285592000000,0.0,119.28222218150697,1111.3111971909204,0.0,0,30,0.0,16431,350516925603617,1797,18.097999572753906,858.6851459757693,0.14999,16,0.0,0.0,1575420030,,,,0,0.0,1,6.0,18.097999572753906,0.0,0.0,0.0,66.7128,C,30983091000000,
Raw,1732152099000,31408000000,,704660.2490747116,-1416187285592000000,0.0,119.28222218150697,1111.3111971909204,0.0,0,8,0.0,17,122281,487,5.0,929.6584540295145,0.14999,16,0.0,0.0,1605374980,,,,0,2.3006184380154515,3,6.0,20.0,0.0,0.0,108.67631620913818,66.7128,C,30983091000000,
Raw,1732152099000,31408000000,,704660.2490747116,-1416187285592000000,0.0,119.28222218150697,1111.3111971909204,0.0,0,15,0.0,16431,350516924711561,487,22.20400047302246,524.3431582928363,0.14999,16,0.0,0.0,1575420030,,,,0,5.88167813342218,1,6.0,22.20400047302246,0.0,0.0,0.0,66.7128,C,30983091000000,
Fix,FLP,37.4251468000,-122.1584185000,5.400000095367432,0.20607437,6.0,0.00000004922369,1732152099243,2.0,160.2,30983091000000,20.251154,0,,,
Status,1732152099000,27,0,1,17,1575420030,0.00,77.0,78.0,0,0,0,0.0
Status,1732152099000,27,1,1,22,1575420030,0.00,16.0,66.0,0,0,0,0.0
Status,1732152099000,27,2,1,19,1575420030,0.00,200.0,62.0,0,0,0,0.0
Status,1732152099000,27,3,1,14,1575420030,0.00,54.0,52.0,0,0,0,0.0
Status,1732152099000,27,4,1,13,1575420030,29.80,233.0,47.0,1,0,0,24.8
Status,1732152099000,27,5,1,30,1575420030,17.90,132.0,35.0,1,0,0,12.9
Status,1732152099000,27,6,1,15,1575420030,26.60,273.0,30.0,1,0,0,21.6
Status,1732152099000,27,7,1,24,1575420030,0.00,313.0,18.0,0,0,0,0.0
Status,1732152099000,27,8,1,2,1575420030,0.00,46.0,16.0,0,0,0,0.0
Status,1732152099000,27,9,1,6,1575420030,28.20,161.0,13.0,1,0,0,23.2
Status,1732152099000,27,10,1,21,1575420030,0.00,33.0,4.0,0,0,0,0.0
Status,1732152099000,27,11,1,7,1575420030,18.80,132.0,3.0,0,0,0,13.799999
Status,1732152099000,27,12,3,20,1602000000,0.00,111.0,54.0,0,0,0,0.0
Status,1732152099000,27,13,3,9,1602000000,0.00,82.0,32.0,0,0,0,0.0
Status,1732152099000,27,14,3,11,1602000000,0.00,312.0,29.0,0,0,0,0.0
Status,1732152099000,27,15,3,19,1602000000,0.00,32.0,22.0,0,0,0,0.0
Status,1732152099000,27,16,3,8,1602000000,27.50,245.0,21.0,1,0,0,22.5
Status,1732152099000,27,17,3,17,1602000000,26.40,0.0,0.0,0,0,0,21.4
Status,1732152099000,27,18,6,21,1575420030,0.00,346.0,68.0,0,0,0,0.0
Status,1732152099000,27,19,6,19,1575420030,0.00,242.0,45.0,0,0,0,0.0
Status,1732152099000,27,20,6,27,1575420030,0.00,65.0,33.0,0,0,0,0.0
Status,1732152099000,27,21,6,13,1575420030,0.00,119.0,29.0,0,0,0,0.0
Status,1732152099000,27,22,6,15,1575420030,0.00,61.0,24.0,0,0,0,0.0
Status,1732152099000,27,23,6,29,1575420030,0.00,191.0,24.0,0,0,0,0.0
Status,1732152099000,27,24,6,4,1575420030,0.00,310.0,23.0,0,0,0,0.0
Status,1732152099000,27,25,6,26,1575420030,0.00,167.0,7.0,0,0,0,0.0
Status,1732152099000,27,26,6,6,1575420030,0.00,327.0,5.0,0,0,0,0.0
Fix,GPS,37.4251766667,-122.1584150000,23.599999999999998,0.0,6.1,0.0,1732152100000,2.0,141.6,30984091000000,54.9,0,,,
Raw,1732152100000,32408000000,,704636.4305135388,-1416187285592000000,0.0,116.82250763582314,1112.1758177909924,0.0,0,7,0.0,16431,350517916536311,797,13.800000190734863,976.8094787811922,0.14999,16,0.0,0.0,1575420030,,,,0,0.0,1,6.0,13.800000190734863,0.0,0.0,0.0,66.7128,C,30984091000000,
Raw,1732152100000,32408000000,,704636.4305135388,-1416187285592000000,0.0,116.82250763582314,1112.1758177909924,0.0,0,6,0.0,16431,350517918970162,396,23.160999298095703,-325.6630444922261,0.14999,16,0.0,0.0,1575420030,,,,0,7.358450361340873,1,6.0,23.160999298095703,0.0,0.0,0.0,66.7128,C,30984091000000,
Raw,1732152100000,32408000000,,704636.4305135388,-1416187285592000000,0.0,116.82250763582314,1112.1758177909924,0.0,0,13,0.0,16431,350517928572467,487,24.791000366210938,721.4955335347792,0.14999,16,0.0,0.0,1575420030,,,,0,10.927302672156205,1,6.0,24.791000366210938,0.0,0.0,0.0,66.7128,C,30984091000000,
Raw,1732152100000,32408000000,,704636.4305135388,-1416187285592000000,0.0,116.82250763582314,1112.1758177909924,0.0,0,30,0.0,16431,350517925600752,1797,12.899999618530273,858.9841523425002,0.14999,16,0.0,0.0,1575420030,,,,0,0.0,1,6.0,12.899999618530273,0.0,0.0,0.0,66.7128,C,30984091000000,
Raw,1732152100000,32408000000,,704636.4305135388,-1416187285592000000,0.0,116.82250763582314,1112.1758177909924,0.0,0,8,0.0,17,119186,487,5.0,929.607573871195,0.14999,16,0.0,0.0,1605374980,,,,0,7.776864032721035,3,6.0,18.0,0.0,0.0,108.67631620913818,66.7128,C,30984091000000,
Raw,1732152100000,32408000000,,704636.4305135388,-1416187285592000000,0.0,116.82250763582314,1112.1758177909924,0.0,0,15,0.0,16431,350517924709788,487,21.586000442504883,524.2377441464546,0.14999,16,0.0,0.0,1575420030,,,,0,4.88792244964003,1,6.0,21.586000442504883,0.0,0.0,0.0,66.7128,C,30984091000000,
Fix,FLP,37.4251603000,-122.1584171000,5.400000095367432,0.23189011,6.028,0.000000013336956,1732152100243,2.0,141.6,30984091000000,21.556152,0,,,
Status,1732152100000,28,0,1,17,1575420030,0.00,77.0,78.0,0,0,0,0.0
Status,1732152100000,28,1,1,22,1575420030,0.00,16.0,66.0,0,0,0,0.0
Status,1732152100000,28,2,1,19,1575420030,0.00,200.0,62.0,0,0,0,0.0
Status,1732152100000,28,3,1,14,1575420030,0.00,54.0,52.0,0,0,0,0.0
Status,1732152100000,28,4,1,13,1575420030,25.40,233.0,47.0,1,0,0,20.4
Status,1732152100000,28,5,2,138,1575420030,0.00,156.0,43.0,0,0,0,0.0
Status,1732152100000,28,6,1,30,1575420030,17.90,132.0,35.0,1,0,0,12.9
Status,1732152100000,28,7,1,15,1575420030,0.00,273.0,30.0,0,0,0,0.0
Status,1732152100000,28,8,1,24,1575420030,0.00,313.0,18.0,0,0,0,0.0
Status,1732152100000,28,9,1,2,1575420030,0.00,46.0,16.0,0,0,0,0.0
Status,1732152100000,28,10,1,6,1575420030,28.00,161.0,13.0,1,0,0,23.0
Status,1732152100000,28,11,1,21,1575420030,0.00,33.0,4.0,0,0,0,0.0
