# 
# Header Description:
# 
# Version: v3.1.0.3 Platform: 13 Manufacturer: samsung Model: SM-S135DL GNSS Hardware Model Name: MediaTek,MT6631,MTK_MNLD_default,MNL_VER_default
# 
# Raw,utcTimeMillis,TimeNanos,LeapSecond,TimeUncertaintyNanos,FullBiasNanos,BiasNanos,BiasUncertaintyNanos,DriftNanosPerSecond,DriftUncertaintyNanosPerSecond,HardwareClockDiscontinuityCount,Svid,TimeOffsetNanos,State,ReceivedSvTimeNanos,ReceivedSvTimeUncertaintyNanos,Cn0DbHz,PseudorangeRateMetersPerSecond,PseudorangeRateUncertaintyMetersPerSecond,AccumulatedDeltaRangeState,AccumulatedDeltaRangeMeters,AccumulatedDeltaRangeUncertaintyMeters,CarrierFrequencyHz,CarrierCycles,CarrierPhase,CarrierPhaseUncertainty,MultipathIndicator,SnrInDb,ConstellationType,AgcDb,BasebandCn0DbHz,FullInterSignalBiasNanos,FullInterSignalBiasUncertaintyNanos,SatelliteInterSignalBiasNanos,SatelliteInterSignalBiasUncertaintyNanos,CodeType,ChipsetElapsedRealtimeNanos,IsFullTracking
# 
# UncalAccel,utcTimeMillis,elapsedRealtimeNanos,UncalAccelXMps2,UncalAccelYMps2,UncalAccelZMps2,BiasXMps2,BiasYMps2,BiasZMps2
# 
# Accel,utcTimeMillis,elapsedRealtimeNanos,AccelXMps2,AccelYMps2,AccelZMps2
# 
# UncalGyro,utcTimeMillis,elapsedRealtimeNanos,UncalGyroXRadPerSec,UncalGyroYRadPerSec,UncalGyroZRadPerSec,DriftXRadPerSec,DriftYRadPerSec,DriftZRadPerSec
# 
# Gyro,utcTimeMillis,elapsedRealtimeNanos,GyroXRadPerSec,GyroYRadPerSec,GyroZRadPerSec
# 
# UncalMag,utcTimeMillis,elapsedRealtimeNanos,UncalMagXMicroT,UncalMagYMicroT,UncalMagZMicroT,BiasXMicroT,BiasYMicroT,BiasZMicroT
# 
# Mag,utcTimeMillis,elapsedRealtimeNanos,MagXMicroT,MagYMicroT,MagZMicroT
# 
# Pressure,utcTimeMillis,elapsedRealtimeNanos,PressureHpa
# 
# OrientationDeg,utcTimeMillis,elapsedRealtimeNanos,yawDeg,rollDeg,pitchDeg
# 
# Fix,Provider,LatitudeDegrees,LongitudeDegrees,AltitudeMeters,SpeedMps,AccuracyMeters,BearingDegrees,UnixTimeMillis,SpeedAccuracyMps,BearingAccuracyDegrees,elapsedRealtimeNanos,VerticalAccuracyMeters,MockLocation,NumberOfUsedSignals,VerticalSpeedAccuracyMps,SolutionType
# 
# Nav,Svid,Type,Status,MessageId,Sub-messageId,Data(Bytes)
# 
# Status,UnixTimeMillis,SignalCount,SignalIndex,ConstellationType,Svid,CarrierFrequencyHz,Cn0DbHz,AzimuthDegrees,ElevationDegrees,UsedInFix,HasAlmanacData,HasEphemerisData,BasebandCn0DbHz
# 
# Agc,utcTimeMillis,TimeNanos,LeapSecond,TimeUncertaintyNanos,FullBiasNanos,BiasNanos,BiasUncertaintyNanos,DriftNanosPerSecond,DriftUncertaintyNanosPerSecond,HardwareClockDiscontinuityCount,AgcDb,CarrierFrequencyHz,ConstellationType
# 
Fix,FLP,37.4248016000,-122.1585045000,3.421687075266914,0.56573004,8.647,180.0,1732151605535,2.1,179.9,30489383000000,9.156336,0,,,
Status,,27,0,1,17,1575420030,0.00,96.0,80.0,0,0,0,0.0
Status,,27,1,1,22,1575420030,0.00,8.0,67.0,0,0,0,0.0
Status,,27,2,1,19,1575420030,0.00,199.0,58.0,0,0,0,0.0
Status,,27,3,1,14,1575420030,0.00,50.0,54.0,0,0,0,0.0
Status,,27,4,1,13,1575420030,27.00,237.0,49.0,1,0,0,22.0
Status,,27,5,2,135,1575420030,0.00,197.0,45.0,0,0,0,0.0
Status,,27,6,1,30,1575420030,28.60,130.0,39.0,1,0,0,23.6
Status,,27,7,1,15,1575420030,22.60,277.0,30.0,1,0,0,17.6
Status,,27,8,1,2,1575420030,0.00,49.0,18.0,0,0,0,0.0
Status,,27,9,1,24,1575420030,0.00,313.0,14.0,0,0,0,0.0
Status,,27,10,1,6,1575420030,0.00,163.0,10.0,0,0,0,0.0
Status,,27,11,1,21,1575420030,0.00,35.0,6.0,0,0,0,0.0
Status,,27,12,1,7,1575420030,26.70,130.0,6.0,1,0,0,21.7
Status,,27,13,3,20,1602000000,0.00,117.0,51.0,0,0,0,0.0
Status,,27,14,3,9,1602000000,0.00,78.0,34.0,0,0,0,0.0
Status,,27,15,3,11,1602000000,22.20,308.0,26.0,0,0,0,17.2
Status,,27,16,3,8,1602000000,26.60,249.0,25.0,1,0,0,21.6
Status,,27,17,3,19,1602000000,0.00,35.0,25.0,0,0,0,0.0
Status,,27,18,6,21,1575420030,0.00,338.0,68.0,0,0,0,0.0
Status,,27,19,6,19,1575420030,0.00,245.0,47.0,0,0,0,0.0
Status,,27,20,6,27,1575420030,0.00,63.0,35.0,0,0,0,0.0
Status,,27,21,6,13,1575420030,0.00,122.0,27.0,0,0,0,0.0
Status,,27,22,6,29,1575420030,0.00,192.0,27.0,0,0,0,0.0
Status,,27,23,6,15,1575420030,0.00,64.0,24.0,0,0,0,0.0
Status,,27,24,6,4,1575420030,0.00,313.0,22.0,0,0,0,0.0
Status,,27,25,6,26,1575420030,0.00,168.0,4.0,0,0,0,0.0
Status,,27,26,6,6,1575420030,0.00,328.0,3.0,0,0,0,0.0
Fix,GPS,37.4248066667,-122.1584816667,23.400000000000002,0.0,5.9,0.0,1732151606000,2.1,179.9,30490090000000,68.4,0,,,
Raw,1732151606000,17267000000,,701901.4134104735,-1416186806733999872,0.0,189.41583426224037,1225.0394176511606,0.0,0,7,0.0,16431,350023918156313,487,21.695999145507812,993.1270683068195,0.14999,16,0.0,0.0,1575420030,,,,0,5.114540863849741,1,6.0,21.695999145507812,0.0,0.0,0.0,66.7128,C,30490090000000,
Raw,1732151606000,17267000000,,701901.4134104735,-1416186806733999872,0.0,189.41583426224037,1225.0394176511606,0.0,0,15,0.0,16431,350023925553342,1797,17.639999389648438,501.58773311608223,0.14999,16,0.0,0.0,1575420030,,,,0,0.0,1,6.0,17.639999389648438,0.0,0.0,0.0,66.7128,C,30490090000000,
Raw,1732151606000,17267000000,,701901.4134104735,-1416186806733999872,0.0,189.41583426224037,1225.0394176511606,0.0,0,30,0.0,16431,350023927012118,396,23.570999145507812,857.0094838198876,0.14999,16,0.0,0.0,1575420030,,,,0,7.993644878195605,1,6.0,23.570999145507812,0.0,0.0,0.0,66.7128,C,30490090000000,
Raw,1732151606000,17267000000,,701901.4134104735,-1416186806733999872,0.0,189.41583426224037,1225.0394176511606,0.0,0,13,0.0,16431,350023929743513,797,21.95199966430664,702.2971040783525,0.14999,16,0.0,0.0,1575420030,,,,0,5.485789236014735,1,6.0,21.95199966430664,0.0,0.0,0.0,66.7128,C,30490090000000,
Raw,1732151606000,17267000000,,701901.4134104735,-1416186806733999872,0.0,189.41583426224037,1225.0394176511606,0.0,0,8,0.0,17,644400,487,5.0,922.6279650565654,0.14999,16,0.0,0.0,1605374980,,,,0,6.603165738278731,3,6.0,19.0,0.0,0.0,108.67631620913818,66.7128,C,30490090000000,
Raw,1732151606000,17267000000,,701901.4134104735,-1416186806733999872,0.0,189.41583426224037,1225.0394176511606,0.0,0,11,0.0,17,92612,797,21.600000381469727,-103.83130589505824,0.14999,16,0.0,0.0,1602000000,,,,0,0.0,3,6.0,21.600000381469727,0.0,0.0,108.67631620913818,66.7128,C,30490090000000,
Fix,FLP,37.4248016000,-122.1584963000,3.3382284253034378,0.509549,8.689,180.0,1732151606242,2.1,179.9,30490090000000,11.283389,0,,,
Status,1732151606000,27,0,1,17,1575420030,0.00,96.0,80.0,0,0,0,0.0
Status,1732151606000,27,1,1,22,1575420030,0.00,8.0,67.0,0,0,0,0.0
Status,1732151606000,27,2,1,19,1575420030,0.00,199.0,58.0,0,0,0,0.0
Status,1732151606000,27,3,1,14,1575420030,0.00,50.0,54.0,0,0,0,0.0
Status,1732151606000,27,4,1,13,1575420030,22.60,237.0,49.0,1,0,0,17.6
Status,1732151606000,27,5,2,135,1575420030,0.00,197.0,45.0,0,0,0,0.0
Status,1732151606000,27,6,1,30,1575420030,28.40,130.0,39.0,1,0,0,23.4
Status,1732151606000,27,7,1,15,1575420030,22.60,277.0,30.0,1,0,0,17.6
Status,1732151606000,27,8,1,2,1575420030,0.00,49.0,18.0,0,0,0,0.0
Status,1732151606000,27,9,1,24,1575420030,0.00,313.0,14.0,0,0,0,0.0
Status,1732151606000,27,10,1,6,1575420030,0.00,163.0,10.0,0,0,0,0.0
Status,1732151606000,27,11,1,21,1575420030,0.00,35.0,6.0,0,0,0,0.0
Status,1732151606000,27,12,1,7,1575420030,26.70,130.0,6.0,1,0,0,21.7
Status,1732151606000,27,13,3,20,1602000000,0.00,117.0,51.0,0,0,0,0.0
Status,1732151606000,27,14,3,9,1602000000,0.00,78.0,34.0,0,0,0,0.0
Status,1732151606000,27,15,3,11,1602000000,22.20,308.0,26.0,0,0,0,17.2
Status,1732151606000,27,16,3,8,1602000000,23.40,249.0,25.0,1,0,0,18.4
Status,1732151606000,27,17,3,19,1602000000,0.00,35.0,25.0,0,0,0,0.0
Status,1732151606000,27,18,6,21,1575420030,0.00,338.0,68.0,0,0,0,0.0
Status,1732151606000,27,19,6,19,1575420030,0.00,245.0,47.0,0,0,0,0.0
Status,1732151606000,27,20,6,27,1575420030,0.00,63.0,35.0,0,0,0,0.0
Status,1732151606000,27,21,6,13,1575420030,0.00,122.0,27.0,0,0,0,0.0
Status,1732151606000,27,22,6,29,1575420030,0.00,192.0,27.0,0,0,0,0.0
Status,1732151606000,27,23,6,15,1575420030,0.00,64.0,24.0,0,0,0,0.0
Status,1732151606000,27,24,6,4,1575420030,0.00,313.0,22.0,0,0,0,0.0
Status,1732151606000,27,25,6,26,1575420030,0.00,168.0,4.0,0,0,0,0.0
Status,1732151606000,27,26,6,6,1575420030,0.00,328.0,3.0,0,0,0,0.0
Fix,GPS,37.4248133333,-122.1584600000,23.400000000000002,0.0,5.9,0.0,1732151607000,2.1,179.9,30491090000000,67.7,0,,,
Raw,1732151607000,18267000000,,701863.0535395257,-1416186806733999872,0.0,187.39038010172357,1226.317203558755,0.0,0,7,0.0,16431,350024918152999,316,21.695999145507812,993.5000364721577,0.14999,16,0.0,0.0,1575420030,,,,0,5.114540863849741,1,6.0,21.695999145507812,0.0,0.0,0.0,66.7128,C,30491090000000,
Raw,1732151607000,18267000000,,701863.0535395257,-1416186806733999872,0.0,187.39038010172357,1226.317203558755,0.0,0,15,0.0,16431,350024925551661,797,17.635000228881836,502.26151952638367,0.14999,16,0.0,0.0,1575420030,,,,0,0.0,1,6.0,17.635000228881836,0.0,0.0,0.0,66.7128,C,30491090000000,
Raw,1732151607000,18267000000,,701863.0535395257,-1416186806733999872,0.0,187.39038010172357,1226.317203558755,0.0,0,30,0.0,16431,350024927009282,487,23.44700050354004,857.6115848939761,0.14999,16,0.0,0.0,1575420030,,,,0,4.152908438167067,1,6.0,23.44700050354004,0.0,0.0,0.0,66.7128,C,30491090000000,
Raw,1732151607000,18267000000,,701863.0535395257,-1416186806733999872,0.0,187.39038010172357,1226.317203558755,0.0,0,13,0.0,16431,350024929741150,487,17.639999389648438,703.0246893346258,0.14999,16,0.0,0.0,1575420030,,,,0,0.0,1,6.0,17.639999389648438,0.0,0.0,0.0,66.7128,C,30491090000000,
Raw,1732151607000,18267000000,,701863.0535395257,-1416186806733999872,0.0,187.39038010172357,1226.317203558755,0.0,0,8,0.0,17,641334,797,5.0,923.3317160635718,0.14999,16,0.0,0.0,1605374980,,,,0,1.594765692100852,3,6.0,16.0,0.0,0.0,108.67631620913818,66.7128,C,30491090000000,
Raw,1732151607000,18267000000,,701863.0535395257,-1416186806733999872,0.0,187.39038010172357,1226.317203558755,0.0,0,11,0.0,17,92961,487,18.399999618530273,-105.44398642234164,0.14999,16,0.0,0.0,1602000000,,,,0,0.0,3,6.0,18.399999618530273,0.0,0.0,108.67631620913818,66.7128,C,30491090000000,
Fix,FLP,37.4248043000,-122.1584817000,3.3382284253034378,0.44108883,5.8,180.0,1732151607242,2.1,179.9,30491090000000,11.011971,0,,,
Status,1732151607000,27,0,1,17,1575420030,0.00,96.0,80.0,0,0,0,0.0
Status,1732151607000,27,1,1,22,1575420030,0.00,8.0,67.0,0,0,0,0.0
Status,1732151607000,27,2,1,19,1575420030,17.70,199.0,58.0,1,0,0,12.700001
Status,1732151607000,27,3,1,14,1575420030,0.00,50.0,54.0,0,0,0,0.0
Status,1732151607000,27,4,1,13,1575420030,28.20,237.0,49.0,1,0,0,23.2
Status,1732151607000,27,5,2,135,1575420030,0.00,197.0,45.0,0,0,0,0.0
Status,1732151607000,27,6,1,30,1575420030,28.30,130.0,39.0,1,0,0,23.3
Status,1732151607000,27,7,1,15,1575420030,22.60,277.0,30.0,1,0,0,17.6
Status,1732151607000,27,8,1,2,1575420030,0.00,49.0,18.0,0,0,0,0.0
Status,1732151607000,27,9,1,24,1575420030,0.00,313.0,14.0,0,0,0,0.0
Status,1732151607000,27,10,1,6,1575420030,0.00,163.0,10.0,0,0,0,0.0
Status,1732151607000,27,11,1,21,1575420030,0.00,35.0,6.0,0,0,0,0.0
Status,1732151607000,27,12,1,7,1575420030,34.80,130.0,6.0,1,0,0,29.8
Status,1732151607000,27,13,3,20,1602000000,0.00,117.0,51.0,0,0,0,0.0
Status,1732151607000,27,14,3,9,1602000000,0.00,78.0,34.0,0,0,0,0.0
Status,1732151607000,27,15,3,11,1602000000,21.80,308.0,26.0,0,0,0,16.8
Status,1732151607000,27,16,3,8,1602000000,0.00,249.0,25.0,0,0,0,0.0
Status,1732151607000,27,17,3,19,1602000000,0.00,35.0,25.0,0,0,0,0.0
Status,1732151607000,27,18,6,21,1575420030,0.00,338.0,68.0,0,0,0,0.0
Status,1732151607000,27,19,6,19,1575420030,0.00,245.0,47.0,0,0,0,0.0
Status,1732151607000,27,20,6,27,1575420030,0.00,63.0,35.0,0,0,0,0.0
Status,1732151607000,27,21,6,13,1575420030,0.00,122.0,27.0,0,0,0,0.0
Status,1732151607000,27,22,6,29,1575420030,0.00,192.0,27.0,0,0,0,0.0
Status,1732151607000,27,23,6,15,1575420030,0.00,64.0,24.0,0,0,0,0.0
Status,1732151607000,27,24,6,4,1575420030,0.00,313.0,22.0,0,0,0,0.0
Status,1732151607000,27,25,6,26,1575420030,0.00,168.0,4.0,0,0,0,0.0
Status,1732151607000,27,26,6,6,1575420030,0.00,328.0,3.0,0,0,0,0.0
Fix,GPS,37.4248116667,-122.1584533333,23.500000000000004,0.0,5.9,0.0,1732151608000,2.1,179.9,30492090000000,66.6,0,,,
Raw,1732151608000,19267000000,,701851.4309155836,-1416186806733999872,0.0,186.06777423689027,1226.3874107529798,0.0,0,7,0.0,16431,350025918149665,74,29.773000717163086,993.7628052742446,0.14999,16,0.0,0.0,1575420030,,,,0,16.267941408102914,1,6.0,29.773000717163086,0.0,0.0,0.0,66.7128,C,30492090000000,
Raw,1732151608000,19267000000,,701851.4309155836,-1416186806733999872,0.0,186.06777423689027,1226.3874107529798,0.0,0,15,0.0,16431,350025925549987,797,17.6299991607666,501.6995120654848,0.14999,16,0.0,0.0,1575420030,,,,0,0.0,1,6.0,17.6299991607666,0.0,0.0,0.0,66.7128,C,30492090000000,
Raw,1732151608000,19267000000,,701851.4309155836,-1416186806733999872,0.0,186.06777423689027,1226.3874107529798,0.0,0,30,0.0,16431,350025927006419,487,23.32900047302246,858.3210049095111,0.14999,16,0.0,0.0,1575420030,,,,0,4.152908438167067,1,6.0,23.32900047302246,0.0,0.0,0.0,66.7128,C,30492090000000,
Raw,1732151608000,19267000000,,701851.4309155836,-1416186806733999872,0.0,186.06777423689027,1226.3874107529798,0.0,0,13,0.0,16431,350025929738835,396,23.19099998474121,703.2043440301119,0.14999,16,0.0,0.0,1575420030,,,,0,7.431254983540574,1,6.0,23.19099998474121,0.0,0.0,0.0,66.7128,C,30492090000000,
Raw,1732151608000,19267000000,,701851.4309155836,-1416186806733999872,0.0,186.06777423689027,1226.3874107529798,0.0,0,11,0.0,17,93307,487,19.0,-104.31509177820755,0.14999,16,0.0,0.0,1602000000,,,,0,0.0,3,6.0,19.0,0.0,0.0,108.67631620913818,66.7128,C,30492090000000,
Raw,1732151608000,19267000000,,701851.4309155836,-1416186806733999872,0.0,186.06777423689027,1226.3874107529798,0.0,0,19,0.0,16431,350025930793261,797,12.699999809265137,-45.05458224790446,0.14999,16,0.0,0.0,1575420030,,,,0,0.0,1,6.0,12.699999809265137,0.0,0.0,0.0,66.7128,C,30492090000000,
Fix,FLP,37.4248057000,-122.1584699000,3.421687075266914,0.39070705,5.828,180.0,1732151608243,2.1,179.9,30492090000000,11.422425,0,,,
Status,1732151608000,27,0,1,17,1575420030,0.00,96.0,80.0,0,0,0,0.0
Status,1732151608000,27,1,1,22,1575420030,0.00,8.0,67.0,0,0,0,0.0
Status,1732151608000,27,2,1,19,1575420030,0.00,199.0,58.0,0,0,0,0.0
Status,1732151608000,27,3,1,14,1575420030,0.00,50.0,54.0,0,0,0,0.0
Status,1732151608000,27,4,1,13,1575420030,28.60,237.0,49.0,1,0,0,23.6
Status,1732151608000,27,5,2,135,1575420030,0.00,197.0,45.0,0,0,0,0.0
Status,1732151608000,27,6,1,30,1575420030,28.30,130.0,39.0,1,0,0,23.3
Status,1732151608000,27,7,1,15,1575420030,22.60,277.0,30.0,1,0,0,17.6
Status,1732151608000,27,8,1,2,1575420030,0.00,49.0,18.0,0,0,0,0.0
Status,1732151608000,27,9,1,24,1575420030,0.00,313.0,14.0,0,0,0,0.0
Status,1732151608000,27,10,1,6,1575420030,0.00,163.0,10.0,0,0,0,0.0
Status,1732151608000,27,11,1,21,1575420030,0.00,35.0,6.0,0,0,0,0.0
Status,1732151608000,27,12,1,7,1575420030,35.10,130.0,6.0,1,0,0,30.099998
Status,1732151608000,27,13,3,20,1602000000,0.00,117.0,51.0,0,0,0,0.0
Status,1732151608000,27,14,3,9,1602000000,0.00,78.0,34.0,0,0,0,0.0
Status,1732151608000,27,15,3,11,1602000000,23.00,308.0,26.0,0,0,0,18.0
Status,1732151608000,27,16,3,8,1602000000,0.00,249.0,25.0,0,0,0,0.0
Status,1732151608000,27,17,3,19,1602000000,0.00,35.0,25.0,0,0,0,0.0
Status,1732151608000,27,18,6,21,1575420030,0.00,338.0,68.0,0,0,0,0.0
Status,1732151608000,27,19,6,19,1575420030,0.00,245.0,47.0,0,0,0,0.0
Status,1732151608000,27,20,6,27,1575420030,0.00,63.0,35.0,0,0,0,0.0
Status,1732151608000,27,21,6,13,1575420030,0.00,122.0,27.0,0,0,0,0.0
Status,1732151608000,27,22,6,29,1575420030,0.00,192.0,27.0,0,0,0,0.0
Status,1732151608000,27,23,6,15,1575420030,0.00,64.0,24.0,0,0,0,0.0
Status,1732151608000,27,24,6,4,1575420030,0.00,313.0,22.0,0,0,0,0.0
Status,1732151608000,27,25,6,26,1575420030,0.00,168.0,4.0,0,0,0,0.0
Status,1732151608000,27,26,6,6,1575420030,0.00,328.0,3.0,0,0,0,0.0
Fix,GPS,37.4248150000,-122.1584483333,23.500000000000004,0.0,6.0,0.0,1732151609000,2.1,179.9,30493090000000,67.0,0,,,
Raw,1732151609000,20267000000,,701835.1696659427,-1416186806733999872,0.0,186.41812953005683,1228.9371724380135,0.0,0,7,0.0,16431,350026918146363,74,30.11400032043457,994.1526843030833,0.14999,16,0.0,0.0,1575420030,,,,0,16.67821316657619,1,6.0,30.11400032043457,0.0,0.0,0.0,66.7128,C,30493090000000,
Raw,1732151609000,20267000000,,701835.1696659427,-1416186806733999872,0.0,186.41812953005683,1228.9371724380135,0.0,0,15,0.0,16431,350026925548312,797,17.625999450683594,502.184584389139,0.14999,16,0.0,0.0,1575420030,,,,0,0.0,1,6.0,17.625999450683594,0.0,0.0,0.0,66.7128,C,30493090000000,
Raw,1732151609000,20267000000,,701835.1696659427,-1416186806733999872,0.0,186.41812953005683,1228.9371724380135,0.0,0,30,0.0,16431,350026927003524,396,23.32200050354004,859.1051300583125,0.14999,16,0.0,0.0,1575420030,,,,0,7.431254983540574,1,6.0,23.32200050354004,0.0,0.0,0.0,66.7128,C,30493090000000,
Raw,1732151609000,20267000000,,701835.1696659427,-1416186806733999872,0.0,186.41812953005683,1228.9371724380135,0.0,0,13,0.0,16431,350026929736522,396,23.639999389648438,704.1520028039745,0.14999,16,0.0,0.0,1575420030,,,,0,8.101881663674039,1,6.0,23.639999389648438,0.0,0.0,0.0,66.7128,C,30493090000000,
Raw,1732151609000,20267000000,,701835.1696659427,-1416186806733999872,0.0,186.41812953005683,1228.9371724380135,0.0,0,11,0.0,17,93650,487,19.0,-106.69176017384703,0.14999,16,0.0,0.0,1602000000,,,,0,0.9176003468815042,3,6.0,19.0,0.0,0.0,108.67631620913818,66.7128,C,30493090000000,
Fix,FLP,37.4248080000,-122.1584609000,3.421687075266914,0.3430677,5.871,180.0,1732151609242,2.1,179.9,30493090000000,12.19798,0,,,
Status,1732151609000,27,0,1,17,1575420030,0.00,96.0,80.0,0,0,0,0.0
Status,1732151609000,27,1,1,22,1575420030,0.00,8.0,67.0,0,0,0,0.0
Status,1732151609000,27,2,1,19,1575420030,0.00,199.0,58.0,0,0,0,0.0
Status,1732151609000,27,3,1,14,1575420030,0.00,50.0,54.0,0,0,0,0.0
Status,1732151609000,27,4,1,13,1575420030,29.80,237.0,49.0,1,0,0,24.8
Status,1732151609000,27,5,2,138,1575420030,0.00,156.0,43.0,0,0,0,0.0
Status,1732151609000,27,6,1,30,1575420030,28.20,130.0,39.0,1,0,0,23.2
Status,1732151609000,27,7,1,15,1575420030,22.60,277.0,30.0,1,0,0,17.6
Status,1732151609000,27,8,1,2,1575420030,0.00,49.0,18.0,0,0,0,0.0
Status,1732151609000,27,9,1,24,1575420030,0.00,313.0,14.0,0,0,0,0.0
Status,1732151609000,27,10,1,6,1575420030,0.00,163.0,10.0,0,0,0,0.0
Status,1732151609000,27,11,1,21,1575420030,0.00,35.0,6.0,0,0,0,0.0
Status,1732151609000,27,12,1,7,1575420030,35.00,130.0,6.0,1,0,0,30.0
Status,1732151609000,27,13,3,20,1602000000,0.00,117.0,51.0,0,0,0,0.0
Status,1732151609000,27,14,3,9,1602000000,0.00,78.0,34.0,0,0,0,0.0
Status,1732151609000,27,15,3,11,1602000000,23.40,308.0,26.0,0,0,0,18.4
Status,1732151609000,27,16,3,8,1602000000,0.00,249.0,25.0,0,0,0,0.0
Status,1732151609000,27,17,3,19,1602000000,0.00,35.0,25.0,0,0,0,0.0
Status,1732151609000,27,18,6,21,1575420030,0.00,338.0,68.0,0,0,0,0.0
Status,1732151609000,27,19,6,19,1575420030,0.00,245.0,47.0,0,0,0,0.0
Status,1732151609000,27,20,6,27,1575420030,0.00,63.0,35.0,0,0,0,0.0
Status,1732151609000,27,21,6,13,1575420030,0.00,122.0,27.0,0,0,0,0.0
Status,1732151609000,27,22,6,29,1575420030,0.00,192.0,27.0,0,0,0,0.0
Status,1732151609000,27,23,6,15,1575420030,0.00,64.0,24.0,0,0,0,0.0
Status,1732151609000,27,24,6,4,1575420030,0.00,313.0,22.0,0,0,0,0.0
Status,1732151609000,27,25,6,26,1575420030,0.00,168.0,4.0,0,0,0,0.0
Status,1732151609000,27,26,6,6,1575420030,0.00,328.0,3.0,0,0,0,0.0
Fix,GPS,37.4248166667,-122.1584500000,23.500000000000004,0.0,6.1,0.0,1732151610000,2.1,179.9,30494090000000,67.1,0,,,
Raw,1732151610000,21267000000,,701813.852835484,-1416186806733999872,0.0,185.0745410299932,1229.5906229119305,0.0,0,7,0.0,16431,350027918143043,74,29.990999221801758,994.5117149435584,0.14999,16,0.0,0.0,1575420030,,,,0,16.536811840402443,1,6.0,29.990999221801758,0.0,0.0,0.0,66.7128,C,30494090000000,
Raw,1732151610000,21267000000,,701813.852835484,-1416186806733999872,0.0,185.0745410299932,1229.5906229119305,0.0,0,15,0.0,16431,350027925546649,797,17.576000213623047,502.60582284891996,0.14999,16,0.0,0.0,1575420030,,,,0,0.0,1,6.0,17.576000213623047,0.0,0.0,0.0,66.7128,C,30494090000000,
Raw,1732151610000,21267000000,,701813.852835484,-1416186806733999872,0.0,185.0745410299932,1229.5906229119305,0.0,0,30,0.0,16431,350027927000651,487,23.236000061035156,859.3810001337707,0.14999,16,0.0,0.0,1575420030,,,,0,4.961481579279231,1,6.0,23.236000061035156,0.0,0.0,0.0,66.7128,C,30494090000000,
Raw,1732151610000,21267000000,,701813.852835484,-1416186806733999872,0.0,185.0745410299932,1229.5906229119305,0.0,0,13,0.0,16431,350027929734153,316,24.76300048828125,704.2823651198612,0.14999,16,0.0,0.0,1575420030,,,,0,9.716823243566136,1,6.0,24.76300048828125,0.0,0.0,0.0,66.7128,C,30494090000000,
Raw,1732151610000,21267000000,,701813.852835484,-1416186806733999872,0.0,185.0745410299932,1229.5906229119305,0.0,0,11,0.0,17,93995,487,19.0,-105.0376866906534,0.14999,16,0.0,0.0,1602000000,,,,0,1.5860754566204989,3,6.0,19.0,0.0,0.0,108.67631620913818,66.7128,C,30494090000000,
Fix,FLP,37.4248102000,-122.1584565000,3.5876246069554467,0.3027689,5.914,180.0,1732151610242,2.1,179.9,30494090000000,12.253887,0,,,
Fix,FLP,37.4248120000,-122.1584542000,3.5876246069554467,0.2757918,5.983,180.0,1732151610719,2.1,179.9,30494567000000,12.507364,0,,,
Fix,NLP,37.4257083000,-122.1580720000,5.400000095367432,,68.4,,1732151610719,,,30494567000000,31.636353,0,,,
Status,1732151610000,27,0,1,17,1575420030,0.00,96.0,80.0,0,0,0,0.0
Status,1732151610000,27,1,1,22,1575420030,0.00,8.0,67.0,0,0,0,0.0
Status,1732151610000,27,2,1,19,1575420030,0.00,199.0,58.0,0,0,0,0.0
Status,1732151610000,27,3,1,14,1575420030,0.00,50.0,54.0,0,0,0,0.0
Status,1732151610000,27,4,1,13,1575420030,29.30,237.0,49.0,1,0,0,24.3
Status,1732151610000,27,5,2,138,1575420030,0.00,156.0,43.0,0,0,0,0.0
Status,1732151610000,27,6,1,30,1575420030,28.10,130.0,39.0,1,0,0,23.1
Status,1732151610000,27,7,1,15,1575420030,22.50,277.0,30.0,1,0,0,17.5
Status,1732151610000,27,8,1,2,1575420030,0.00,49.0,18.0,0,0,0,0.0
Status,1732151610000,27,9,1,24,1575420030,0.00,313.0,14.0,0,0,0,0.0
Status,1732151610000,27,10,1,6,1575420030,0.00,163.0,10.0,0,0,0,0.0
Status,1732151610000,27,11,1,21,1575420030,0.00,35.0,6.0,0,0,0,0.0
Status,1732151610000,27,12,1,7,1575420030,34.90,130.0,6.0,1,0,0,29.900002
Status,1732151610000,27,13,3,20,1602000000,0.00,117.0,51.0,0,0,0,0.0
Status,1732151610000,27,14,3,9,1602000000,24.00,78.0,34.0,1,0,0,19.0
Status,1732151610000,27,15,3,11,1602000000,26.10,308.0,26.0,0,0,0,21.1
Status,1732151610000,27,16,3,8,1602000000,0.00,249.0,25.0,0,0,0,0.0
Status,1732151610000,27,17,3,19,1602000000,0.00,35.0,25.0,0,0,0,0.0
Status,1732151610000,27,18,6,21,1575420030,0.00,338.0,68.0,0,0,0,0.0
Status,1732151610000,27,19,6,19,1575420030,0.00,245.0,47.0,0,0,0,0.0
Status,1732151610000,27,20,6,27,1575420030,0.00,63.0,35.0,0,0,0,0.0
Status,1732151610000,27,21,6,13,1575420030,0.00,122.0,27.0,0,0,0,0.0
Status,1732151610000,27,22,6,29,1575420030,0.00,192.0,27.0,0,0,0,0.0
Status,1732151610000,27,23,6,15,1575420030,0.00,64.0,24.0,0,0,0,0.0
Status,1732151610000,27,24,6,4,1575420030,0.00,313.0,22.0,0,0,0,0.0
Status,1732151610000,27,25,6,26,1575420030,0.00,168.0,4.0,0,0,0,0.0
Status,1732151610000,27,26,6,6,1575420030,0.00,328.0,3.0,0,0,0,0.0
Fix,GPS,37.4248316667,-122.1584416667,23.500000000000004,0.0,6.1,0.0,1732151611000,2.1,179.9,30495090000000,66.1,0,,,
Fix,FLP,37.4248182000,-122.1584500000,3.7270910559400106,0.2325244,6.0,180.0,1732151611242,2.1,179.9,30495090000000,17.343412,0,,,
Raw,1732151611000,22267000000,,701793.5262734328,-1416186806733999872,0.0,171.41111722815094,1234.3259994581915,0.0,0,7,0.0,16431,350028918139720,74,29.867000579833984,995.601257720528,0.14999,16,0.0,0.0,1575420030,,,,0,16.393070433625986,1,6.0,29.867000579833984,0.0,0.0,0.0,66.7128,C,30495090000000,
Raw,1732151611000,22267000000,,701793.5262734328,-1416186806733999872,0.0,171.41111722815094,1234.3259994581915,0.0,0,15,0.0,16431,350028925544969,797,17.527999877929688,504.35419242617115,0.14999,16,0.0,0.0,1575420030,,,,0,0.0,1,6.0,17.527999877929688,0.0,0.0,0.0,66.7128,C,30495090000000,
Raw,1732151611000,22267000000,,701793.5262734328,-1416186806733999872,0.0,171.41111722815094,1234.3259994581915,0.0,0,30,0.0,16431,350028926997779,487,23.121999740600586,860.4004836190948,0.14999,16,0.0,0.0,1575420030,,,,0,3.894892745246115,1,6.0,23.121999740600586,0.0,0.0,0.0,66.7128,C,30495090000000,
Raw,1732151611000,22267000000,,701793.5262734328,-1416186806733999872,0.0,171.41111722815094,1234.3259994581915,0.0,0,13,0.0,16431,350028929731795,316,24.315000534057617,705.8710571205968,0.14999,16,0.0,0.0,1575420030,,,,0,9.067975255165141,1,6.0,24.315000534057617,0.0,0.0,0.0,66.7128,C,30495090000000,
Raw,1732151611000,22267000000,,701793.5262734328,-1416186806733999872,0.0,171.41111722815094,1234.3259994581915,0.0,0,9,0.0,17,692161,797,5.0,718.2806986924871,0.14999,16,0.0,0.0,1600875010,,,,0,2.5715567422907437,3,6.0,17.0,0.0,0.0,108.67631620913818,66.7128,C,30495090000000,
Raw,1732151611000,22267000000,,701793.5262734328,-1416186806733999872,0.0,171.41111722815094,1234.3259994581915,0.0,0,11,0.0,17,94338,396,23.0,-103.9996189740574,0.14999,16,0.0,0.0,1602000000,,,,0,5.887619234637436,3,6.0,23.0,0.0,0.0,108.67631620913818,66.7128,C,30495090000000,
Status,1732151611000,27,0,1,17,1575420030,0.00,96.0,80.0,0,0,0,0.0
Status,1732151611000,27,1,1,22,1575420030,0.00,8.0,67.0,0,0,0,0.0
Status,1732151611000,27,2,1,19,1575420030,0.00,199.0,58.0,0,0,0,0.0
Status,1732151611000,27,3,1,14,1575420030,0.00,50.0,54.0,0,0,0,0.0
Status,1732151611000,27,4,1,13,1575420030,30.30,237.0,49.0,1,0,0,25.3
Status,1732151611000,27,5,2,138,1575420030,0.00,156.0,43.0,0,0,0,0.0
Status,1732151611000,27,6,1,30,1575420030,28.10,130.0,39.0,1,0,0,23.1
Status,1732151611000,27,7,1,15,1575420030,22.50,277.0,30.0,1,0,0,17.5
Status,1732151611000,27,8,1,2,1575420030,0.00,49.0,18.0,0,0,0,0.0
Status,1732151611000,27,9,1,24,1575420030,0.00,313.0,14.0,0,0,0,0.0
Status,1732151611000,27,10,1,6,1575420030,0.00,163.0,10.0,0,0,0,0.0
Status,1732151611000,27,11,1,21,1575420030,0.00,35.0,6.0,0,0,0,0.0
Status,1732151611000,27,12,1,7,1575420030,35.70,130.0,6.0,1,0,0,30.7
Status,1732151611000,27,13,3,20,1602000000,0.00,117.0,51.0,0,0,0,0.0
Status,1732151611000,27,14,3,9,1602000000,22.20,78.0,34.0,1,0,0,17.2
Status,1732151611000,27,15,3,11,1602000000,30.00,308.0,26.0,0,0,0,25.0
Status,1732151611000,27,16,3,8,1602000000,0.00,249.0,25.0,0,0,0,0.0
Status,1732151611000,27,17,3,19,1602000000,0.00,35.0,25.0,0,0,0,0.0
Status,1732151611000,27,18,6,21,1575420030,0.00,338.0,68.0,0,0,0,0.0
Status,1732151611000,27,19,6,19,1575420030,0.00,245.0,47.0,0,0,0,0.0
Status,1732151611000,27,20,6,27,1575420030,0.00,63.0,35.0,0,0,0,0.0
Status,1732151611000,27,21,6,13,1575420030,0.00,122.0,27.0,0,0,0,0.0
Status,1732151611000,27,22,6,29,1575420030,0.00,192.0,27.0,0,0,0,0.0
Status,1732151611000,27,23,6,15,1575420030,0.00,64.0,24.0,0,0,0,0.0
Status,1732151611000,27,24,6,4,1575420030,0.00,313.0,22.0,0,0,0,0.0
Status,1732151611000,27,25,6,26,1575420030,0.00,168.0,4.0,0,0,0,0.0
Status,1732151611000,27,26,6,6,1575420030,0.00,328.0,3.0,0,0,0,0.0
Fix,GPS,37.4248866667,-122.1584133333,23.500000000000004,0.0,6.0,0.0,1732151612000,2.0,179.9,30496090000000,65.7,0,,,
Fix,FLP,37.4248454000,-122.1584355000,3.7270910559400106,0.10578813,6.014,180.0,1732151612242,2.0,179.9,30496090000000,18.503222,0,,,
Raw,1732151612000,23267000000,,701776.5874717236,-1416186806733999872,0.0,152.38065599079485,1235.4578551131594,0.0,0,7,0.0,16431,350029918136400,74,30.743999481201172,996.5765127936196,0.14999,16,0.0,0.0,1575420030,,,,0,17.44483079711745,1,6.0,30.743999481201172,0.0,0.0,0.0,66.7128,C,30496090000000,
Raw,1732151612000,23267000000,,701776.5874717236,-1416186806733999872,0.0,152.38065599079485,1235.4578551131594,0.0,0,15,0.0,16431,350029925543287,797,17.482999801635742,504.5322210770899,0.14999,16,0.0,0.0,1575420030,,,,0,0.0,1,6.0,17.482999801635742,0.0,0.0,0.0,66.7128,C,30496090000000,
Raw,1732151612000,23267000000,,701776.5874717236,-1416186806733999872,0.0,152.38065599079485,1235.4578551131594,0.0,0,30,0.0,16431,350029926994910,396,23.131999969482422,860.8391439849547,0.14999,16,0.0,0.0,1575420030,,,,0,7.603828003987698,1,6.0,23.131999969482422,0.0,0.0,0.0,66.7128,C,30496090000000,
Raw,1732151612000,23267000000,,701776.5874717236,-1416186806733999872,0.0,152.38065599079485,1235.4578551131594,0.0,0,13,0.0,16431,350029929729439,316,25.323999404907227,706.1197025641555,0.14999,16,0.0,0.0,1575420030,,,,0,10.485609818058212,1,6.0,25.323999404907227,0.0,0.0,0.0,66.7128,C,30496090000000,
Raw,1732151612000,23267000000,,701776.5874717236,-1416186806733999872,0.0,152.38065599079485,1235.4578551131594,0.0,0,9,0.0,17,689763,487,5.0,718.5920498211088,0.14999,16,0.0,0.0,1600875010,,,,0,0.0,3,6.0,18.0,0.0,0.0,108.67631620913818,66.7128,C,30496090000000,
Raw,1732151612000,23267000000,,701776.5874717236,-1416186806733999872,0.0,152.38065599079485,1235.4578551131594,0.0,0,11,0.0,17,94654,316,25.0,-101.29166986836827,0.14999,16,0.0,0.0,1602000000,,,,0,11.128500551013747,3,6.0,25.0,0.0,0.0,108.67631620913818,66.7128,C,30496090000000,
Status,1732151612000,27,0,1,17,1575420030,0.00,96.0,80.0,0,0,0,0.0
Status,1732151612000,27,1,1,22,1575420030,0.00,8.0,67.0,0,0,0,0.0
Status,1732151612000,27,2,1,19,1575420030,0.00,199.0,58.0,0,0,0,0.0
Status,1732151612000,27,3,1,14,1575420030,0.00,50.0,54.0,0,0,0,0.0
Status,1732151612000,27,4,1,13,1575420030,30.20,237.0,49.0,1,0,0,25.2
Status,1732151612000,27,5,2,138,1575420030,0.00,156.0,43.0,0,0,0,0.0
Status,1732151612000,27,6,1,30,1575420030,28.00,130.0,39.0,1,0,0,23.0
Status,1732151612000,27,7,1,15,1575420030,22.50,277.0,30.0,1,0,0,17.5
Status,1732151612000,27,8,1,2,1575420030,0.00,49.0,18.0,0,0,0,0.0
Status,1732151612000,27,9,1,24,1575420030,0.00,313.0,14.0,0,0,0,0.0
Status,1732151612000,27,10,1,6,1575420030,0.00,163.0,10.0,0,0,0,0.0
Status,1732151612000,27,11,1,21,1575420030,0.00,35.0,6.0,0,0,0,0.0
Status,1732151612000,27,12,1,7,1575420030,35.60,130.0,6.0,1,0,0,30.599998
Status,1732151612000,27,13,3,20,1602000000,0.00,117.0,51.0,0,0,0,0.0
Status,1732151612000,27,14,3,9,1602000000,22.20,78.0,34.0,1,0,0,17.2
Status,1732151612000,27,15,3,11,1602000000,29.90,308.0,26.0,0,0,0,24.9
Status,1732151612000,27,16,3,8,1602000000,0.00,249.0,25.0,0,0,0,0.0
Status,1732151612000,27,17,3,19,1602000000,0.00,35.0,25.0,0,0,0,0.0
Status,1732151612000,27,18,6,21,1575420030,0.00,338.0,68.0,0,0,0,0.0
Status,1732151612000,27,19,6,19,1575420030,0.00,245.0,47.0,0,0,0,0.0
Status,1732151612000,27,20,6,27,1575420030,0.00,63.0,35.0,0,0,0,0.0
Status,1732151612000,27,21,6,13,1575420030,0.00,122.0,27.0,0,0,0,0.0
Status,1732151612000,27,22,6,29,1575420030,0.00,192.0,27.0,0,0,0,0.0
Status,1732151612000,27,23,6,15,1575420030,0.00,64.0,24.0,0,0,0,0.0
Status,1732151612000,27,24,6,4,1575420030,0.00,313.0,22.0,0,0,0,0.0
Status,1732151612000,27,25,6,26,1575420030,0.00,168.0,4.0,0,0,0,0.0
Status,1732151612000,27,26,6,6,1575420030,0.00,328.0,3.0,0,0,0,0.0
Fix,GPS,37.4249316667,-122.1583916667,23.500000000000004,0.0,5.9,0.0,1732151613000,2.0,163.0,30497090000000,64.9,0,,,
Fix,FLP,37.4248828000,-122.1584171000,3.7270910559400106,0.044516347,6.014,,1732151613242,2.0,,30497090000000,19.068304,0,,,
Raw,1732151613000,24267000000,,701765.59028046,-1416186806733999872,0.0,151.319130604831,1236.9954297973115,0.0,0,7,0.0,16431,350030918133075,74,30.586999893188477,996.6450854159464,0.14999,16,0.0,0.0,1575420030,,,,0,17.259425899941924,1,6.0,30.586999893188477,0.0,0.0,0.0,66.7128,C,30497090000000,
Raw,1732151613000,24267000000,,701765.59028046,-1416186806733999872,0.0,151.319130604831,1236.9954297973115,0.0,0,15,0.0,16431,350030925541630,797,17.454999923706055,504.7155924458729,0.14999,16,0.0,0.0,1575420030,,,,0,0.0,1,6.0,17.454999923706055,0.0,0.0,0.0,66.7128,C,30497090000000,
Raw,1732151613000,24267000000,,701765.59028046,-1416186806733999872,0.0,151.319130604831,1236.9954297973115,0.0,0,30,0.0,16431,350030926992039,487,23.04599952697754,861.3530669850757,0.14999,16,0.0,0.0,1575420030,,,,0,4.647025894022573,1,6.0,23.04599952697754,0.0,0.0,0.0,66.7128,C,30497090000000,
Raw,1732151613000,24267000000,,701765.59028046,-1416186806733999872,0.0,151.319130604831,1236.9954297973115,0.0,0,13,0.0,16431,350030929727079,316,25.243000030517578,706.3719253057626,0.14999,16,0.0,0.0,1575420030,,,,0,10.36211167637789,1,6.0,25.243000030517578,0.0,0.0,0.0,66.7128,C,30497090000000,
Raw,1732151613000,24267000000,,701765.59028046,-1416186806733999872,0.0,151.319130604831,1236.9954297973115,0.0,0,9,0.0,17,687359,797,5.0,719.6581416885391,0.14999,16,0.0,0.0,1600875010,,,,0,0.0,3,6.0,17.0,0.0,0.0,108.67631620913818,66.7128,C,30497090000000,
Raw,1732151613000,24267000000,,701765.59028046,-1416186806733999872,0.0,151.319130604831,1236.9954297973115,0.0,0,11,0.0,17,94983,316,24.0,-103.31037600180409,0.14999,16,0.0,0.0,1602000000,,,,0,9.425973230706706,3,6.0,24.0,0.0,0.0,108.67631620913818,66.7128,C,30497090000000,
Status,1732151613000,27,0,1,17,1575420030,0.00,96.0,80.0,0,0,0,0.0
Status,1732151613000,27,1,1,22,1575420030,0.00,8.0,67.0,0,0,0,0.0
Status,1732151613000,27,2,1,19,1575420030,0.00,199.0,58.0,0,0,0,0.0
Status,1732151613000,27,3,1,14,1575420030,0.00,50.0,54.0,0,0,0,0.0
Status,1732151613000,27,4,1,13,1575420030,29.30,237.0,49.0,1,0,0,24.3
Status,1732151613000,27,5,2,138,1575420030,0.00,156.0,43.0,0,0,0,0.0
Status,1732151613000,27,6,1,30,1575420030,27.90,130.0,39.0,1,0,0,22.9
Status,1732151613000,27,7,1,15,1575420030,22.40,277.0,30.0,1,0,0,17.4
Status,1732151613000,27,8,1,2,1575420030,0.00,49.0,18.0,0,0,0,0.0
Status,1732151613000,27,9,1,24,1575420030,0.00,313.0,14.0,0,0,0,0.0
Status,1732151613000,27,10,1,6,1575420030,0.00,163.0,10.0,0,0,0,0.0
Status,1732151613000,27,11,1,21,1575420030,0.00,35.0,6.0,0,0,0,0.0
Status,1732151613000,27,12,1,7,1575420030,32.50,130.0,6.0,1,0,0,27.5
Status,1732151613000,27,13,3,20,1602000000,0.00,117.0,51.0,0,0,0,0.0
Status,1732151613000,27,14,3,9,1602000000,21.30,78.0,34.0,1,0,0,16.3
Status,1732151613000,27,15,3,11,1602000000,26.30,308.0,26.0,0,0,0,21.3
Status,1732151613000,27,16,3,8,1602000000,0.00,249.0,25.0,0,0,0,0.0
Status,1732151613000,27,17,3,19,1602000000,0.00,35.0,25.0,0,0,0,0.0
Status,1732151613000,27,18,6,21,1575420030,0.00,338.0,68.0,0,0,0,0.0
Status,1732151613000,27,19,6,19,1575420030,0.00,245.0,47.0,0,0,0,0.0
Status,1732151613000,27,20,6,27,1575420030,0.00,63.0,35.0,0,0,0,0.0
Status,1732151613000,27,21,6,13,1575420030,0.00,122.0,27.0,0,0,0,0.0
Status,1732151613000,27,22,6,29,1575420030,0.00,192.0,27.0,0,0,0,0.0
Status,1732151613000,27,23,6,15,1575420030,0.00,64.0,24.0,0,0,0,0.0
Status,1732151613000,27,24,6,4,1575420030,0.00,313.0,22.0,0,0,0,0.0
Status,1732151613000,27,25,6,26,1575420030,0.00,168.0,4.0,0,0,0,0.0
Status,1732151613000,27,26,6,6,1575420030,0.00,328.0,3.0,0,0,0,0.0
Fix,GPS,37.4249666667,-122.1583783333,23.500000000000004,0.0,5.9,0.0,1732151614000,1.9,102.7,30498090000000,65.3,0,,,
Fix,FLP,37.4249201000,-122.1584007000,5.400000095367432,0.1769048,6.014,0.00000010897313,1732151614242,1.9,102.7,30498090000000,12.798397,0,,,
Raw,1732151614000,25267000000,,701760.169863913,-1416186806733999872,0.0,151.96592765237042,1240.2522079179532,0.0,0,7,0.0,16431,350031918129746,396,27.45400047302246,997.8694505167589,0.14999,16,0.0,0.0,1575420030,,,,0,13.349580834677088,1,6.0,27.45400047302246,0.0,0.0,0.0,66.7128,C,30498090000000,
Raw,1732151614000,25267000000,,701760.169863913,-1416186806733999872,0.0,151.96592765237042,1240.2522079179532,0.0,0,15,0.0,16431,350031925539945,797,17.42799949645996,506.0927128191857,0.14999,16,0.0,0.0,1575420030,,,,0,0.0,1,6.0,17.42799949645996,0.0,0.0,0.0,66.7128,C,30498090000000,
Raw,1732151614000,25267000000,,701760.169863913,-1416186806733999872,0.0,151.96592765237042,1240.2522079179532,0.0,0,30,0.0,16431,350031926989165,487,22.93400001525879,863.0217603785258,0.14999,16,0.0,0.0,1575420030,,,,0,3.628977397207457,1,6.0,22.93400001525879,0.0,0.0,0.0,66.7128,C,30498090000000,
Raw,1732151614000,25267000000,,701760.169863913,-1416186806733999872,0.0,151.96592765237042,1240.2522079179532,0.0,0,13,0.0,16431,350031929724722,396,24.34600067138672,707.5248838208595,0.14999,16,0.0,0.0,1575420030,,,,0,9.115963717774232,1,6.0,24.34600067138672,0.0,0.0,0.0,66.7128,C,30498090000000,
Raw,1732151614000,25267000000,,701760.169863913,-1416186806733999872,0.0,151.96592765237042,1240.2522079179532,0.0,0,9,0.0,17,684939,487,5.0,718.5210471334805,0.14999,16,0.0,0.0,1600875010,,,,0,0.0,3,6.0,18.0,0.0,0.0,108.67631620913818,66.7128,C,30498090000000,
Raw,1732151614000,25267000000,,701760.169863913,-1416186806733999872,0.0,151.96592765237042,1240.2522079179532,0.0,0,11,0.0,17,95322,487,20.0,-103.6837806691928,0.14999,16,0.0,0.0,1602000000,,,,0,6.180429758295238,3,6.0,20.0,0.0,0.0,108.67631620913818,66.7128,C,30498090000000,
Status,1732151614000,27,0,1,17,1575420030,0.00,96.0,80.0,0,0,0,0.0
Status,1732151614000,27,1,1,22,1575420030,0.00,8.0,67.0,0,0,0,0.0
Status,1732151614000,27,2,1,19,1575420030,0.00,199.0,58.0,0,0,0,0.0
Status,1732151614000,27,3,1,14,1575420030,0.00,50.0,54.0,0,0,0,0.0
Status,1732151614000,27,4,1,13,1575420030,26.80,237.0,49.0,1,0,0,21.8
Status,1732151614000,27,5,2,138,1575420030,0.00,156.0,43.0,0,0,0,0.0
Status,1732151614000,27,6,1,30,1575420030,27.90,130.0,39.0,1,0,0,22.9
Status,1732151614000,27,7,1,15,1575420030,26.10,277.0,30.0,1,0,0,21.1
Status,1732151614000,27,8,1,2,1575420030,0.00,49.0,18.0,0,0,0,0.0
Status,1732151614000,27,9,1,24,1575420030,0.00,313.0,14.0,0,0,0,0.0
Status,1732151614000,27,10,1,6,1575420030,0.00,163.0,10.0,0,0,0,0.0
Status,1732151614000,27,11,1,21,1575420030,0.00,35.0,6.0,0,0,0,0.0
Status,1732151614000,27,12,1,7,1575420030,28.30,130.0,6.0,1,0,0,23.3
Status,1732151614000,27,13,3,20,1602000000,0.00,117.0,51.0,0,0,0,0.0
Status,1732151614000,27,14,3,9,1602000000,21.30,78.0,34.0,1,0,0,16.3
Status,1732151614000,27,15,3,11,1602000000,24.30,308.0,26.0,0,0,0,19.3
Status,1732151614000,27,16,3,8,1602000000,0.00,249.0,25.0,0,0,0,0.0
Status,1732151614000,27,17,3,19,1602000000,0.00,35.0,25.0,0,0,0,0.0
Status,1732151614000,27,18,6,21,1575420030,0.00,338.0,68.0,0,0,0,0.0
Status,1732151614000,27,19,6,19,1575420030,0.00,245.0,47.0,0,0,0,0.0
Status,1732151614000,27,20,6,27,1575420030,0.00,63.0,35.0,0,0,0,0.0
Status,1732151614000,27,21,6,13,1575420030,0.00,122.0,27.0,0,0,0,0.0
Status,1732151614000,27,22,6,29,1575420030,0.00,192.0,27.0,0,0,0,0.0
Status,1732151614000,27,23,6,15,1575420030,0.00,64.0,24.0,0,0,0,0.0
Status,1732151614000,27,24,6,4,1575420030,0.00,313.0,22.0,0,0,0,0.0
Status,1732151614000,27,25,6,26,1575420030,0.00,168.0,4.0,0,0,0,0.0
Status,1732151614000,27,26,6,6,1575420030,0.00,328.0,3.0,0,0,0,0.0
Fix,GPS,37.4250316667,-122.1583483333,23.500000000000004,0.0,5.9,0.0,1732151615000,1.9,58.9,30499090000000,65.6,0,,,
Fix,FLP,37.4249703000,-122.1583785000,3.447628505205728,0.3399207,6.0,0.00000000997768,1732151615242,1.9,58.9,30499090000000,11.083368,0,,,
Raw,1732151615000,26267000000,,701754.5930891964,-1416186806733999872,0.0,151.51928636721607,1239.3887956068172,0.0,0,7,0.0,16431,350032918126419,396,23.261999130249023,997.7879624547255,0.14999,16,0.0,0.0,1575420030,,,,0,7.489161128928848,1,6.0,23.261999130249023,0.0,0.0,0.0,66.7128,C,30499090000000,
Raw,1732151615000,26267000000,,701754.5930891964,-1416186806733999872,0.0,151.51928636721607,1239.3887956068172,0.0,0,15,0.0,16431,350032925538286,487,21.10099983215332,506.2831458672327,0.14999,16,0.0,0.0,1575420030,,,,0,4.152908438167067,1,6.0,21.10099983215332,0.0,0.0,0.0,66.7128,C,30499090000000,
Raw,1732151615000,26267000000,,701754.5930891964,-1416186806733999872,0.0,151.51928636721607,1239.3887956068172,0.0,0,30,0.0,16431,350032926986287,396,22.902999877929688,862.466861055307,0.14999,16,0.0,0.0,1575420030,,,,0,6.048634825731085,1,6.0,22.902999877929688,0.0,0.0,0.0,66.7128,C,30499090000000,
Raw,1732151615000,26267000000,,701754.5930891964,-1416186806733999872,0.0,151.51928636721607,1239.3887956068172,0.0,0,13,0.0,16431,350032929722359,396,21.783000946044922,708.2051279510142,0.14999,16,0.0,0.0,1575420030,,,,0,5.1900708148948675,1,6.0,21.783000946044922,0.0,0.0,0.0,66.7128,C,30499090000000,
Raw,1732151615000,26267000000,,701754.5930891964,-1416186806733999872,0.0,151.51928636721607,1239.3887956068172,0.0,0,9,0.0,17,682552,797,5.0,717.1733676594157,0.14999,16,0.0,0.0,1600875010,,,,0,0.0,3,6.0,17.0,0.0,0.0,108.67631620913818,66.7128,C,30499090000000,
Raw,1732151615000,26267000000,,701754.5930891964,-1416186806733999872,0.0,151.51928636721607,1239.3887956068172,0.0,0,11,0.0,17,95667,487,18.0,-103.31197506742976,0.14999,16,0.0,0.0,1602000000,,,,0,3.1029326800306842,3,6.0,18.0,0.0,0.0,108.67631620913818,66.7128,C,30499090000000,
Fix,FLP,37.4249928000,-122.1583680000,3.6670128679366023,0.3975362,5.971,0.000000001837241,1732151615575,1.9,58.9,30499423000000,12.886653,0,,,
Fix,NLP,37.4257081000,-122.1580880000,5.400000095367432,,25.082,,1732151615575,,,30499423000000,19.274197,0,,,
Status,1732151615000,27,0,1,17,1575420030,0.00,96.0,80.0,0,0,0,0.0
Status,1732151615000,27,1,1,22,1575420030,0.00,8.0,67.0,0,0,0,0.0
Status,1732151615000,27,2,1,19,1575420030,0.00,199.0,58.0,0,0,0,0.0
Status,1732151615000,27,3,1,14,1575420030,0.00,50.0,54.0,0,0,0,0.0
Status,1732151615000,27,4,1,13,1575420030,27.10,237.0,49.0,1,0,0,22.1
Status,1732151615000,27,5,2,138,1575420030,0.00,156.0,43.0,0,0,0,0.0
Status,1732151615000,27,6,1,30,1575420030,27.90,130.0,38.0,1,0,0,22.9
Status,1732151615000,27,7,1,15,1575420030,26.10,277.0,30.0,1,0,0,21.1
Status,1732151615000,27,8,1,2,1575420030,0.00,49.0,18.0,0,0,0,0.0
Status,1732151615000,27,9,1,24,1575420030,0.00,313.0,14.0,0,0,0,0.0
Status,1732151615000,27,10,1,6,1575420030,0.00,163.0,10.0,0,0,0,0.0
Status,1732151615000,27,11,1,21,1575420030,0.00,35.0,6.0,0,0,0,0.0
Status,1732151615000,27,12,1,7,1575420030,28.70,130.0,6.0,1,0,0,23.7
Status,1732151615000,27,13,3,20,1602000000,0.00,117.0,51.0,0,0,0,0.0
Status,1732151615000,27,14,3,9,1602000000,22.30,78.0,34.0,1,0,0,17.3
Status,1732151615000,27,15,3,11,1602000000,23.90,308.0,26.0,0,0,0,18.9
Status,1732151615000,27,16,3,8,1602000000,0.00,249.0,25.0,0,0,0,0.0
Status,1732151615000,27,17,3,19,1602000000,0.00,35.0,25.0,0,0,0,0.0
Status,1732151615000,27,18,6,21,1575420030,0.00,338.0,68.0,0,0,0,0.0
Status,1732151615000,27,19,6,19,1575420030,0.00,245.0,47.0,0,0,0,0.0
Status,1732151615000,27,20,6,27,1575420030,0.00,63.0,35.0,0,0,0,0.0
Status,1732151615000,27,21,6,13,1575420030,0.00,122.0,27.0,0,0,0,0.0
Status,1732151615000,27,22,6,29,1575420030,0.00,192.0,27.0,0,0,0,0.0
Status,1732151615000,27,23,6,15,1575420030,0.00,64.0,24.0,0,0,0,0.0
Status,1732151615000,27,24,6,4,1575420030,0.00,313.0,22.0,0,0,0,0.0
Status,1732151615000,27,25,6,26,1575420030,0.00,168.0,4.0,0,0,0,0.0
Status,1732151615000,27,26,6,6,1575420030,0.00,328.0,3.0,0,0,0,0.0
Fix,FLP,37.4250118000,-122.1583600000,3.447628505205728,0.43536025,5.957,0.0000000012976663,1732151616242,1.9,60.5,30500090000000,10.871526,0,,,
Fix,GPS,37.4250416667,-122.1583450000,23.500000000000004,0.0,6.0,0.0,1732151616000,1.9,60.5,30500090000000,65.9,0,,,
Raw,1732151616000,27267000000,,701752.0392390925,-1416186806733999872,0.0,152.14134706370166,1242.5829441995286,0.0,0,7,0.0,16431,350033918123088,316,23.740999221801758,998.5777555303047,0.14999,16,0.0,0.0,1575420030,,,,0,8.208786270257702,1,6.0,23.740999221801758,0.0,0.0,0.0,66.7128,C,30500090000000,
Raw,1732151616000,27267000000,,701752.0392390925,-1416186806733999872,0.0,152.14134706370166,1242.5829441995286,0.0,0,15,0.0,16431,350033925536548,487,21.135000228881836,507.13263800764236,0.14999,16,0.0,0.0,1575420030,,,,0,5.1900708148948675,1,6.0,21.135000228881836,0.0,0.0,0.0,66.7128,C,30500090000000,
Raw,1732151616000,27267000000,,701752.0392390925,-1416186806733999872,0.0,152.14134706370166,1242.5829441995286,0.0,0,30,0.0,16431,350033926983408,396,22.908000946044922,863.0717496343683,0.14999,16,0.0,0.0,1575420030,,,,0,7.135788072182939,1,6.0,22.908000946044922,0.0,0.0,0.0,66.7128,C,30500090000000,
Raw,1732151616000,27267000000,,701752.0392390925,-1416186806733999872,0.0,152.14134706370166,1242.5829441995286,0.0,0,13,0.0,16431,350033929719990,487,22.118999481201172,709.2945778111514,0.14999,16,0.0,0.0,1575420030,,,,0,5.7717702822452965,1,6.0,22.118999481201172,0.0,0.0,0.0,66.7128,C,30500090000000,
Raw,1732151616000,27267000000,,701752.0392390925,-1416186806733999872,0.0,152.14134706370166,1242.5829441995286,0.0,0,9,0.0,17,680159,797,5.0,717.3692765560594,0.14999,16,0.0,0.0,1600875010,,,,0,0.0,3,6.0,16.0,0.0,0.0,108.67631620913818,66.7128,C,30500090000000,
Raw,1732151616000,27267000000,,701752.0392390925,-1416186806733999872,0.0,152.14134706370166,1242.5829441995286,0.0,0,11,0.0,17,96002,487,20.0,-98.8560187949362,0.14999,16,0.0,0.0,1602000000,,,,0,2.537797488762163,3,6.0,20.0,0.0,0.0,108.67631620913818,66.7128,C,30500090000000,
Status,1732151616000,28,0,1,17,1575420030,0.00,96.0,80.0,0,0,0,0.0
Status,1732151616000,28,1,1,22,1575420030,0.00,8.0,67.0,0,0,0,0.0
Status,1732151616000,28,2,1,19,1575420030,0.00,199.0,58.0,0,0,0,0.0
Status,1732151616000,28,3,1,14,1575420030,0.00,50.0,54.0,0,0,0,0.0
Status,1732151616000,28,4,1,13,1575420030,29.30,237.0,49.0,1,0,0,24.3
Status,1732151616000,28,5,2,138,1575420030,0.00,156.0,43.0,0,0,0,0.0
Status,1732151616000,28,6,1,30,1575420030,32.30,130.0,38.0,1,0,0,27.3
Status,1732151616000,28,7,1,15,1575420030,23.00,277.0,30.0,1,0,0,18.0
Status,1732151616000,28,8,1,2,1575420030,0.00,49.0,18.0,0,0,0,0.0
Status,1732151616000,28,9,1,24,1575420030,0.00,313.0,14.0,0,0,0,0.0
Status,1732151616000,28,10,1,6,1575420030,0.00,163.0,10.0,0,0,0,0.0
Status,1732151616000,28,11,1,21,1575420030,0.00,35.0,6.0,0,0,0,0.0
Status,1732151616000,28,12,1,7,1575420030,32.10,130.0,6.0,1,0,0,27.099998
Status,1732151616000,28,13,3,20,1602000000,0.00,117.0,51.0,0,0,0,0.0
Status,1732151616000,28,14,3,9,1602000000,21.90,78.0,34.0,1,0,0,16.9
Status,1732151616000,28,15,3,11,1602000000,20.40,308.0,26.0,0,0,0,15.4
Status,1732151616000,28,16,3,8,1602000000,0.00,249.0,25.0,0,0,0,0.0
Status,1732151616000,28,17,3,19,1602000000,0.00,35.0,25.0,0,0,0,0.0
Status,1732151616000,28,18,3,17,1602000000,26.40,0.0,0.0,0,0,0,21.4
Status,1732151616000,28,19,6,21,1575420030,0.00,338.0,68.0,0,0,0,0.0
Status,1732151616000,28,20,6,19,1575420030,0.00,245.0,47.0,0,0,0,0.0
Status,1732151616000,28,21,6,27,1575420030,0.00,63.0,35.0,0,0,0,0.0
Status,1732151616000,28,22,6,13,1575420030,0.00,122.0,27.0,0,0,0,0.0
Status,1732151616000,28,23,6,29,1575420030,0.00,192.0,27.0,0,0,0,0.0
Status,1732151616000,28,24,6,15,1575420030,0.00,64.0,24.0,0,0,0,0.0
Status,1732151616000,28,25,6,4,1575420030,0.00,313.0,22.0,0,0,0,0.0
Status,1732151616000,28,26,6,26,1575420030,0.00,168.0,4.0,0,0,0,0.0
Status,1732151616000,28,27,6,6,1575420030,0.00,328.0,3.0,0,0,0,0.0
Fix,GPS,37.4250583333,-122.1583400000,23.500000000000004,0.0,6.0,0.0,1732151617000,1.9,59.5,30501090000000,66.6,0,,,
Raw,1732151617000,28267000000,,701749.9544634975,-1416186806733999872,0.0,153.4094795134828,1242.1438208659774,0.0,0,7,0.0,16431,350034918119759,487,27.13599967956543,998.317867150023,0.14999,16,0.0,0.0,1575420030,,,,0,12.927999114078908,1,6.0,27.13599967956543,0.0,0.0,0.0,66.7128,C,30501090000000,
Raw,1732151617000,28267000000,,701749.9544634975,-1416186806733999872,0.0,153.4094795134828,1242.1438208659774,0.0,0,15,0.0,16431,350034925534877,797,18.041000366210938,506.22516576380195,0.14999,16,0.0,0.0,1575420030,,,,0,0.0,1,6.0,18.041000366210938,0.0,0.0,0.0,66.7128,C,30501090000000,
Raw,1732151617000,28267000000,,701749.9544634975,-1416186806733999872,0.0,153.4094795134828,1242.1438208659774,0.0,0,30,0.0,16431,350034926980525,235,27.28700065612793,862.8221750224852,0.14999,16,0.0,0.0,1575420030,,,,0,13.14134748016661,1,6.0,27.28700065612793,0.0,0.0,0.0,66.7128,C,30501090000000,
Raw,1732151617000,28267000000,,701749.9544634975,-1416186806733999872,0.0,153.4094795134828,1242.1438208659774,0.0,0,13,0.0,16431,350034929717618,316,24.34600067138672,708.9755014086173,0.14999,16,0.0,0.0,1575420030,,,,0,9.115963717774232,1,6.0,24.34600067138672,0.0,0.0,0.0,66.7128,C,30501090000000,
Raw,1732151617000,28267000000,,701749.9544634975,-1416186806733999872,0.0,153.4094795134828,1242.1438208659774,0.0,0,9,0.0,17,677770,797,5.0,717.723604198764,0.14999,16,0.0,0.0,1600875010,,,,0,0.0,3,6.0,16.0,0.0,0.0,108.67631620913818,66.7128,C,30501090000000,
Raw,1732151617000,28267000000,,701749.9544634975,-1416186806733999872,0.0,153.4094795134828,1242.1438208659774,0.0,0,11,0.0,17,96331,797,17.0,-99.14677461327241,0.14999,16,0.0,0.0,1602000000,,,,0,0.0,3,6.0,17.0,0.0,0.0,108.67631620913818,66.7128,C,30501090000000,
Fix,FLP,37.4250330000,-122.1583521000,3.512273677076241,0.47241783,5.942,0.0000000009847506,1732151617242,1.9,59.5,30501090000000,11.334619,0,,,
Status,1732151617000,28,0,1,17,1575420030,0.00,96.0,80.0,0,0,0,0.0
Status,1732151617000,28,1,1,22,1575420030,0.00,8.0,67.0,0,0,0,0.0
Status,1732151617000,28,2,1,19,1575420030,0.00,199.0,58.0,0,0,0,0.0
Status,1732151617000,28,3,1,14,1575420030,0.00,50.0,54.0,0,0,0,0.0
Status,1732151617000,28,4,1,13,1575420030,29.30,237.0,49.0,1,0,0,24.3
Status,1732151617000,28,5,2,138,1575420030,0.00,156.0,43.0,0,0,0,0.0
Status,1732151617000,28,6,1,30,1575420030,33.00,130.0,38.0,1,0,0,28.0
Status,1732151617000,28,7,1,15,1575420030,23.10,277.0,30.0,1,0,0,18.1
Status,1732151617000,28,8,1,2,1575420030,0.00,49.0,18.0,0,0,0,0.0
Status,1732151617000,28,9,1,24,1575420030,0.00,313.0,14.0,0,0,0,0.0
Status,1732151617000,28,10,1,6,1575420030,0.00,163.0,10.0,0,0,0,0.0
Status,1732151617000,28,11,1,21,1575420030,0.00,35.0,6.0,0,0,0,0.0
Status,1732151617000,28,12,1,7,1575420030,26.60,130.0,6.0,1,0,0,21.6
Status,1732151617000,28,13,3,20,1602000000,0.00,117.0,51.0,0,0,0,0.0
Status,1732151617000,28,14,3,9,1602000000,21.90,78.0,34.0,1,0,0,16.9
Status,1732151617000,28,15,3,11,1602000000,22.90,308.0,26.0,0,0,0,17.9
Status,1732151617000,28,16,3,8,1602000000,0.00,249.0,25.0,0,0,0,0.0
Status,1732151617000,28,17,3,19,1602000000,0.00,35.0,25.0,0,0,0,0.0
Status,1732151617000,28,18,3,17,1602000000,24.70,0.0,0.0,0,0,0,19.7
Status,1732151617000,28,19,6,21,1575420030,0.00,338.0,68.0,0,0,0,0.0
Status,1732151617000,28,20,6,19,1575420030,0.00,245.0,47.0,0,0,0,0.0
Status,1732151617000,28,21,6,27,1575420030,0.00,63.0,35.0,0,0,0,0.0
Status,1732151617000,28,22,6,13,1575420030,0.00,122.0,27.0,0,0,0,0.0
Status,1732151617000,28,23,6,29,1575420030,0.00,192.0,27.0,0,0,0,0.0
Status,1732151617000,28,24,6,15,1575420030,0.00,64.0,24.0,0,0,0,0.0
Status,1732151617000,28,25,6,4,1575420030,0.00,313.0,22.0,0,0,0,0.0
Status,1732151617000,28,26,6,26,1575420030,0.00,168.0,4.0,0,0,0,0.0
Status,1732151617000,28,27,6,6,1575420030,0.00,328.0,3.0,0,0,0,0.0
Fix,GPS,37.4250716667,-122.1583400000,23.500000000000004,0.0,6.1,0.0,1732151618000,1.9,59.2,30502090000000,67.3,0,,,
Fix,FLP,37.4250514000,-122.1583472000,3.7504731256940262,0.49720716,5.957,0.00000000051723453,1732151618242,1.9,59.2,30502090000000,11.671901,0,,,
Raw,1732151618000,29267000000,,701747.1921358341,-1416186806733999872,0.0,154.22034575366004,1238.0992358450203,0.0,0,7,0.0,16431,350035918116430,396,21.606000900268555,996.9307117588087,0.14999,16,0.0,0.0,1575420030,,,,0,4.961481579279231,1,6.0,21.606000900268555,0.0,0.0,0.0,66.7128,C,30502090000000,
Raw,1732151618000,29267000000,,701747.1921358341,-1416186806733999872,0.0,154.22034575366004,1238.0992358450203,0.0,0,15,0.0,16431,350035925533179,487,18.08099937438965,505.35091128755204,0.14999,16,0.0,0.0,1575420030,,,,0,0.2632571301672666,1,6.0,18.08099937438965,0.0,0.0,0.0,66.7128,C,30502090000000,
Raw,1732151618000,29267000000,,701747.1921358341,-1416186806733999872,0.0,154.22034575366004,1238.0992358450203,0.0,0,30,0.0,16431,350035926977646,487,28.01799964904785,861.8352124285086,0.14999,16,0.0,0.0,1575420030,,,,0,14.082050675536422,1,6.0,28.01799964904785,0.0,0.0,0.0,66.7128,C,30502090000000,
Raw,1732151618000,29267000000,,701747.1921358341,-1416186806733999872,0.0,154.22034575366004,1238.0992358450203,0.0,0,13,0.0,16431,350035929715255,396,24.34600067138672,706.6403155762109,0.14999,16,0.0,0.0,1575420030,,,,0,9.115963717774232,1,6.0,24.34600067138672,0.0,0.0,0.0,66.7128,C,30502090000000,
Raw,1732151618000,29267000000,,701747.1921358341,-1416186806733999872,0.0,154.22034575366004,1238.0992358450203,0.0,0,9,0.0,17,675367,797,5.0,720.3658825800316,0.14999,16,0.0,0.0,1600875010,,,,0,0.0,3,6.0,16.0,0.0,0.0,108.67631620913818,66.7128,C,30502090000000,
Raw,1732151618000,29267000000,,701747.1921358341,-1416186806733999872,0.0,154.22034575366004,1238.0992358450203,0.0,0,11,0.0,17,96665,487,19.0,-103.87137391087862,0.14999,16,0.0,0.0,1602000000,,,,0,0.7622929462364452,3,6.0,19.0,0.0,0.0,108.67631620913818,66.7128,C,30502090000000,
Status,1732151618000,28,0,1,17,1575420030,0.00,96.0,80.0,0,0,0,0.0
Status,1732151618000,28,1,1,22,1575420030,21.00,8.0,67.0,0,0,0,16.0
Status,1732151618000,28,2,1,19,1575420030,0.00,199.0,58.0,0,0,0,0.0
Status,1732151618000,28,3,1,14,1575420030,0.00,50.0,54.0,0,0,0,0.0
Status,1732151618000,28,4,1,13,1575420030,29.80,237.0,49.0,1,0,0,24.8
Status,1732151618000,28,5,1,30,1575420030,25.40,130.0,38.0,1,0,0,20.4
Status,1732151618000,28,6,1,15,1575420030,23.10,277.0,30.0,1,0,0,18.1
Status,1732151618000,28,7,2,131,1575420030,0.00,3.0,23.0,0,0,0,0.0
Status,1732151618000,28,8,1,2,1575420030,0.00,49.0,18.0,0,0,0,0.0
Status,1732151618000,28,9,1,24,1575420030,0.00,313.0,14.0,0,0,0,0.0
Status,1732151618000,28,10,1,6,1575420030,0.00,163.0,10.0,0,0,0,0.0
Status,1732151618000,28,11,1,21,1575420030,0.00,35.0,6.0,0,0,0,0.0
Status,1732151618000,28,12,1,7,1575420030,31.20,130.0,6.0,1,0,0,26.2
Status,1732151618000,28,13,3,20,1602000000,0.00,117.0,51.0,0,0,0,0.0
Status,1732151618000,28,14,3,9,1602000000,20.90,78.0,34.0,1,0,0,15.9
Status,1732151618000,28,15,3,11,1602000000,25.50,308.0,26.0,0,0,0,20.5
Status,1732151618000,28,16,3,8,1602000000,0.00,249.0,25.0,0,0,0,0.0
Status,1732151618000,28,17,3,19,1602000000,0.00,35.0,25.0,0,0,0,0.0
Status,1732151618000,28,18,3,17,1602000000,23.00,0.0,0.0,0,0,0,18.0
Status,1732151618000,28,19,6,21,1575420030,0.00,338.0,68.0,0,0,0,0.0
Status,1732151618000,28,20,6,19,1575420030,0.00,245.0,47.0,0,0,0,0.0
Status,1732151618000,28,21,6,27,1575420030,0.00,63.0,35.0,0,0,0,0.0
Status,1732151618000,28,22,6,13,1575420030,0.00,122.0,27.0,0,0,0,0.0
Status,1732151618000,28,23,6,29,1575420030,0.00,192.0,27.0,0,0,0,0.0
Status,1732151618000,28,24,6,15,1575420030,0.00,64.0,24.0,0,0,0,0.0
Status,1732151618000,28,25,6,4,1575420030,0.00,313.0,22.0,0,0,0,0.0
Status,1732151618000,28,26,6,26,1575420030,0.00,168.0,4.0,0,0,0,0.0
Status,1732151618000,28,27,6,6,1575420030,0.00,328.0,3.0,0,0,0,0.0
Fix,GPS,37.4233466667,-122.1590550000,19.7,0.0,6.2,0.0,1732151619000,1.9,13.5,30503090000000,67.9,0,,,
Fix,FLP,37.4243396000,-122.1586324000,5.400000095367432,1.7597625,6.0,180.0,1732151619242,1.9,13.5,30503090000000,12.490706,0,,,
Raw,1732151619000,30267000000,,996746.7435421607,-1416186806733999872,0.0,156.69382816551683,1238.4443458857427,0.0,0,7,0.0,16431,350036918113113,316,26.243999481201172,995.814408934102,0.14999,16,0.0,0.0,1575420030,,,,0,11.73946105951135,1,6.0,26.243999481201172,0.0,0.0,0.0,66.7128,C,30503090000000,
Raw,1732151619000,30267000000,,996746.7435421607,-1416186806733999872,0.0,156.69382816551683,1238.4443458857427,0.0,0,15,0.0,16431,350036925531483,487,18.11199951171875,504.3242732061316,0.14999,16,0.0,0.0,1575420030,,,,0,0.0,1,6.0,18.11199951171875,0.0,0.0,0.0,66.7128,C,30503090000000,
Raw,1732151619000,30267000000,,996746.7435421607,-1416186806733999872,0.0,156.69382816551683,1238.4443458857427,0.0,0,30,0.0,16431,350036926974775,487,20.398000717163086,860.9829792415425,0.14999,16,0.0,0.0,1575420030,,,,0,2.974891836649845,1,6.0,20.398000717163086,0.0,0.0,0.0,66.7128,C,30503090000000,
Raw,1732151619000,30267000000,,996746.7435421607,-1416186806733999872,0.0,156.69382816551683,1238.4443458857427,0.0,0,13,0.0,16431,350036929712897,487,24.76300048828125,705.3770183226139,0.14999,16,0.0,0.0,1575420030,,,,0,9.716823243566136,1,6.0,24.76300048828125,0.0,0.0,0.0,66.7128,C,30503090000000,
Raw,1732151619000,30267000000,,996746.7435421607,-1416186806733999872,0.0,156.69382816551683,1238.4443458857427,0.0,0,9,0.0,17,672970,797,5.0,718.1608673697093,0.14999,16,0.0,0.0,1600875010,,,,0,0.0,3,6.0,17.0,0.0,0.0,108.67631620913818,66.7128,C,30503090000000,
Raw,1732151619000,30267000000,,996746.7435421607,-1416186806733999872,0.0,156.69382816551683,1238.4443458857427,0.0,0,11,0.0,17,97008,396,21.0,-103.87553148150536,0.14999,16,0.0,0.0,1602000000,,,,0,4.944851309096222,3,6.0,21.0,0.0,0.0,108.67631620913818,66.7128,C,30503090000000,
Raw,1732151619000,30267000000,,996746.7435421607,-1416186806733999872,0.0,156.69382816551683,1238.4443458857427,0.0,0,22,0.0,16431,350036930833030,1797,15.98900032043457,481.3734903892122,0.14999,16,0.0,0.0,1575420030,,,,0,0.0,1,6.0,15.98900032043457,0.0,0.0,0.0,66.7128,C,30503090000000,
Status,1732151619000,28,0,1,17,1575420030,0.00,96.0,80.0,0,0,0,0.0
Status,1732151619000,28,1,1,22,1575420030,21.00,8.0,67.0,1,0,0,16.0
Status,1732151619000,28,2,1,19,1575420030,19.20,199.0,58.0,1,0,0,14.200001
Status,1732151619000,28,3,1,14,1575420030,0.00,50.0,54.0,0,0,0,0.0
Status,1732151619000,28,4,1,13,1575420030,23.60,237.0,49.0,1,0,0,18.6
Status,1732151619000,28,5,1,30,1575420030,25.90,130.0,38.0,1,0,0,20.9
Status,1732151619000,28,6,1,15,1575420030,23.10,277.0,30.0,1,0,0,18.1
Status,1732151619000,28,7,2,131,1575420030,0.00,3.0,23.0,0,0,0,0.0
Status,1732151619000,28,8,1,2,1575420030,0.00,49.0,18.0,0,0,0,0.0
Status,1732151619000,28,9,1,24,1575420030,0.00,313.0,14.0,0,0,0,0.0
Status,1732151619000,28,10,1,6,1575420030,0.00,163.0,10.0,0,0,0,0.0
Status,1732151619000,28,11,1,21,1575420030,0.00,35.0,6.0,0,0,0,0.0
Status,1732151619000,28,12,1,7,1575420030,30.40,130.0,6.0,1,0,0,25.4
Status,1732151619000,28,13,3,20,1602000000,0.00,117.0,51.0,0,0,0,0.0
Status,1732151619000,28,14,3,9,1602000000,21.10,78.0,34.0,1,0,0,16.1
Status,1732151619000,28,15,3,11,1602000000,24.00,308.0,26.0,0,0,0,19.0
Status,1732151619000,28,16,3,8,1602000000,0.00,249.0,25.0,0,0,0,0.0
Status,1732151619000,28,17,3,19,1602000000,0.00,35.0,25.0,0,0,0,0.0
Status,1732151619000,28,18,3,17,1602000000,24.00,0.0,0.0,0,0,0,19.0
Status,1732151619000,28,19,6,21,1575420030,0.00,338.0,68.0,0,0,0,0.0
Status,1732151619000,28,20,6,19,1575420030,0.00,245.0,47.0,0,0,0,0.0
Status,1732151619000,28,21,6,27,1575420030,0.00,63.0,35.0,0,0,0,0.0
Status,1732151619000,28,22,6,13,1575420030,0.00,122.0,27.0,0,0,0,0.0
Status,1732151619000,28,23,6,29,1575420030,0.00,192.0,27.0,0,0,0,0.0
Status,1732151619000,28,24,6,15,1575420030,0.00,64.0,24.0,0,0,0,0.0
Status,1732151619000,28,25,6,4,1575420030,0.00,313.0,22.0,0,0,0,0.0
Status,1732151619000,28,26,6,26,1575420030,0.00,168.0,4.0,0,0,0,0.0
Status,1732151619000,28,27,6,6,1575420030,0.00,328.0,3.0,0,0,0,0.0
Fix,GPS,37.4233500000,-122.1590733333,22.8,0.0,6.4,0.0,1732151620000,1.9,14.3,30504090000000,64.9,0,,,
Fix,FLP,37.4239274000,-122.1588053000,3.6670128679366023,2.9029753,6.071,180.0,1732151620242,1.9,14.3,30504090000000,12.272603,0,,,
Raw,1732151620000,31267000000,,996698.793703476,-1416186806733999872,0.0,156.71918801513115,1235.348297462641,0.0,0,7,0.0,16431,350037918109795,316,25.378000259399414,995.3288255678693,0.14999,16,0.0,0.0,1575420030,,,,0,10.566977060746467,1,6.0,25.378000259399414,0.0,0.0,0.0,66.7128,C,30504090000000,
Raw,1732151620000,31267000000,,996698.793703476,-1416186806733999872,0.0,156.71918801513115,1235.348297462641,0.0,0,15,0.0,16431,350037925529803,797,18.141000747680664,503.5658395614945,0.14999,16,0.0,0.0,1575420030,,,,0,0.0,1,6.0,18.141000747680664,0.0,0.0,0.0,66.7128,C,30504090000000,
Raw,1732151620000,31267000000,,996698.793703476,-1416186806733999872,0.0,156.71918801513115,1235.348297462641,0.0,0,30,0.0,16431,350037926971906,487,20.908000946044922,860.2030353502,0.14999,16,0.0,0.0,1575420030,,,,0,3.8071557402838403,1,6.0,20.908000946044922,0.0,0.0,0.0,66.7128,C,30504090000000,
Raw,1732151620000,31267000000,,996698.793703476,-1416186806733999872,0.0,156.71918801513115,1235.348297462641,0.0,0,13,0.0,16431,350037929710543,797,18.562999725341797,705.3647068423181,0.14999,16,0.0,0.0,1575420030,,,,0,0.0,1,6.0,18.562999725341797,0.0,0.0,0.0,66.7128,C,30504090000000,
