# 
# Header Description:
# 
# Version: v3.1.0.3 Platform: 13 Manufacturer: samsung Model: SM-S135DL GNSS Hardware Model Name: MediaTek,MT6631,MTK_MNLD_default,MNL_VER_default
# 
# Raw,utcTimeMillis,TimeNanos,LeapSecond,TimeUncertaintyNanos,FullBiasNanos,BiasNanos,BiasUncertaintyNanos,DriftNanosPerSecond,DriftUncertaintyNanosPerSecond,HardwareClockDiscontinuityCount,Svid,TimeOffsetNanos,State,ReceivedSvTimeNanos,ReceivedSvTimeUncertaintyNanos,Cn0DbHz,PseudorangeRateMetersPerSecond,PseudorangeRateUncertaintyMetersPerSecond,AccumulatedDeltaRangeState,AccumulatedDeltaRangeMeters,AccumulatedDeltaRangeUncertaintyMeters,CarrierFrequencyHz,CarrierCycles,CarrierPhase,CarrierPhaseUncertainty,MultipathIndicator,SnrInDb,ConstellationType,AgcDb,BasebandCn0DbHz,FullInterSignalBiasNanos,FullInterSignalBiasUncertaintyNanos,SatelliteInterSignalBiasNanos,SatelliteInterSignalBiasUncertaintyNanos,CodeType,ChipsetElapsedRealtimeNanos,IsFullTracking
# 
# UncalAccel,utcTimeMillis,elapsedRealtimeNanos,UncalAccelXMps2,UncalAccelYMps2,UncalAccelZMps2,BiasXMps2,BiasYMps2,BiasZMps2
# 
# Accel,utcTimeMillis,elapsedRealtimeNanos,AccelXMps2,AccelYMps2,AccelZMps2
# 
# UncalGyro,utcTimeMillis,elapsedRealtimeNanos,UncalGyroXRadPerSec,UncalGyroYRadPerSec,UncalGyroZRadPerSec,DriftXRadPerSec,DriftYRadPerSec,DriftZRadPerSec
# 
# Gyro,utcTimeMillis,elapsedRealtimeNanos,GyroXRadPerSec,GyroYRadPerSec,GyroZRadPerSec
# 
# UncalMag,utcTimeMillis,elapsedRealtimeNanos,UncalMagXMicroT,UncalMagYMicroT,UncalMagZMicroT,BiasXMicroT,BiasYMicroT,BiasZMicroT
# 
# Mag,utcTimeMillis,elapsedRealtimeNanos,MagXMicroT,MagYMicroT,MagZMicroT
# 
# Pressure,utcTimeMillis,elapsedRealtimeNanos,PressureHpa
# 
# OrientationDeg,utcTimeMillis,elapsedRealtimeNanos,yawDeg,rollDeg,pitchDeg
# 
# Fix,Provider,LatitudeDegrees,LongitudeDegrees,AltitudeMeters,SpeedMps,AccuracyMeters,BearingDegrees,UnixTimeMillis,SpeedAccuracyMps,BearingAccuracyDegrees,elapsedRealtimeNanos,VerticalAccuracyMeters,MockLocation,NumberOfUsedSignals,VerticalSpeedAccuracyMps,SolutionType
# 
# Nav,Svid,Type,Status,MessageId,Sub-messageId,Data(Bytes)
# 
# Status,UnixTimeMillis,SignalCount,SignalIndex,ConstellationType,Svid,CarrierFrequencyHz,Cn0DbHz,AzimuthDegrees,ElevationDegrees,UsedInFix,HasAlmanacData,HasEphemerisData,BasebandCn0DbHz
# 
# Agc,utcTimeMillis,TimeNanos,LeapSecond,TimeUncertaintyNanos,FullBiasNanos,BiasNanos,BiasUncertaintyNanos,DriftNanosPerSecond,DriftUncertaintyNanosPerSecond,HardwareClockDiscontinuityCount,AgcDb,CarrierFrequencyHz,ConstellationType
# 
Fix,FLP,37.4249988000,-122.1586261000,2.1049121170226153,0.20360157,4.1,180.0,1732153302249,1.4,115.2,32186097000000,8.362702,0,,,
Status,,25,0,1,19,1575420030,0.00,205.0,72.0,0,0,0,0.0
Status,,25,1,1,17,1575420030,0.00,53.0,71.0,0,0,0,0.0
Status,,25,2,1,22,1575420030,0.00,34.0,62.0,0,0,0,0.0
Status,,25,3,1,14,1575420030,0.00,64.0,46.0,0,0,0,0.0
Status,,25,4,1,13,1575420030,29.80,224.0,40.0,1,0,0,24.8
Status,,25,5,1,30,1575420030,28.50,137.0,27.0,1,0,0,23.5
Status,,25,6,1,15,1575420030,26.10,264.0,27.0,1,0,0,21.1
Status,,25,7,1,24,1575420030,0.00,313.0,25.0,0,0,0,0.0
Status,,25,8,1,6,1575420030,26.00,157.0,21.0,1,0,0,21.0
Status,,25,9,1,2,1575420030,21.90,40.0,12.0,1,0,0,16.9
Status,,25,10,1,12,1575420030,29.90,274.0,5.0,0,0,0,24.9
Status,,25,11,3,20,1602000000,0.00,92.0,59.0,0,0,0,0.0
Status,,25,12,3,11,1602000000,0.00,320.0,35.0,0,0,0,0.0
Status,,25,13,3,9,1602000000,0.00,93.0,26.0,0,0,0,0.0
Status,,25,14,3,19,1602000000,0.00,27.0,15.0,0,0,0,0.0
Status,,25,15,3,8,1602000000,0.00,238.0,13.0,0,0,0,0.0
Status,,25,16,6,21,1575420030,0.00,5.0,67.0,0,0,0,0.0
Status,,25,17,6,19,1575420030,0.00,234.0,39.0,0,0,0,0.0
Status,,25,18,6,13,1575420030,0.00,112.0,35.0,0,0,0,0.0
Status,,25,19,6,27,1575420030,0.00,72.0,29.0,0,0,0,0.0
Status,,25,20,6,4,1575420030,0.00,304.0,26.0,0,0,0,0.0
Status,,25,21,6,15,1575420030,0.00,53.0,23.0,0,0,0,0.0
Status,,25,22,6,29,1575420030,0.00,189.0,17.0,0,0,0,0.0
Status,,25,23,6,26,1575420030,0.00,164.0,14.0,0,0,0,0.0
Status,,25,24,6,6,1575420030,0.00,323.0,9.0,0,0,0,0.0
Fix,GPS,37.4249666667,-122.1586333333,24.2,0.0,4.1,0.0,1732153303000,1.4,114.6,32187097000000,47.1,0,,,
Fix,FLP,37.4249825000,-122.1586293000,2.2876643827553353,0.21496369,4.1,180.0,1732153303249,1.4,114.6,32187097000000,9.458298,0,,,
Raw,1732153303001,80529000000,,95.3293734157359,-1416188440472000000,0.0,95.3293734157359,1212.522605061071,0.0,0,2,0.0,16431,351720917484681,797,16.85300064086914,821.455601228622,0.14999,16,0.0,0.0,1575420030,,,,0,0.0,1,6.0,16.85300064086914,0.0,0.0,0.0,66.7128,C,32187097000000,
Raw,1732153303001,80529000000,,95.3293734157359,-1416188440472000000,0.0,95.3293734157359,1212.522605061071,0.0,0,6,0.0,16431,351720922277387,487,21.049999237060547,-283.4926936395043,0.14999,16,0.0,0.0,1575420030,,,,0,4.018608574018224,1,6.0,21.049999237060547,0.0,0.0,0.0,66.7128,C,32187097000000,
Raw,1732153303001,80529000000,,95.3293734157359,-1416188440472000000,0.0,95.3293734157359,1212.522605061071,0.0,0,13,0.0,16431,351720927469539,396,24.77400016784668,859.1833660312111,0.14999,16,0.0,0.0,1575420030,,,,0,9.721783774619333,1,6.0,24.77400016784668,0.0,0.0,0.0,66.7128,C,32187097000000,
Raw,1732153303001,80529000000,,95.3293734157359,-1416188440472000000,0.0,95.3293734157359,1212.522605061071,0.0,0,12,0.0,17,469124,316,24.91200065612793,-181.0772521905183,0.14999,16,0.0,0.0,1575420030,,,,0,9.934683884925164,1,6.0,24.91200065612793,0.0,0.0,0.0,66.7128,C,32187097000000,
Raw,1732153303001,80529000000,,95.3293734157359,-1416188440472000000,0.0,95.3293734157359,1212.522605061071,0.0,0,30,0.0,16431,351720924020003,487,23.534000396728516,962.5373604044823,0.14999,16,0.0,0.0,1575420030,,,,0,7.129106618285736,1,6.0,23.534000396728516,0.0,0.0,0.0,66.7128,C,32187097000000,
Raw,1732153303001,80529000000,,95.3293734157359,-1416188440472000000,0.0,95.3293734157359,1212.522605061071,0.0,0,15,0.0,16431,351720924355888,487,21.091999053955078,681.4009447183441,0.14999,16,0.0,0.0,1575420030,,,,0,2.476443825523032,1,6.0,21.091999053955078,0.0,0.0,0.0,66.7128,C,32187097000000,
Fix,FLP,37.4249764000,-122.1586308000,2.3706247737961914,0.17419444,4.1,180.0,1732153303543,1.4,114.6,32187391000000,9.263871,0,,,
Fix,NLP,37.4257177000,-122.1580937000,5.400000095367432,,82.5,,1732153303543,,,32187391000000,15.781088,0,,,
Status,1732153303000,26,0,1,19,1575420030,0.00,205.0,72.0,0,0,0,0.0
Status,1732153303000,26,1,1,17,1575420030,0.00,53.0,71.0,0,0,0,0.0
Status,1732153303000,26,2,1,22,1575420030,0.00,34.0,62.0,0,0,0,0.0
Status,1732153303000,26,3,1,14,1575420030,0.00,64.0,46.0,0,0,0,0.0
Status,1732153303000,26,4,2,133,1575420030,0.00,191.0,45.0,0,0,0,0.0
Status,1732153303000,26,5,1,13,1575420030,29.00,224.0,40.0,1,0,0,24.0
Status,1732153303000,26,6,1,30,1575420030,28.40,137.0,27.0,1,0,0,23.4
Status,1732153303000,26,7,1,15,1575420030,26.10,264.0,27.0,1,0,0,21.1
Status,1732153303000,26,8,1,24,1575420030,0.00,313.0,25.0,0,0,0,0.0
Status,1732153303000,26,9,1,6,1575420030,32.20,157.0,21.0,1,0,0,27.2
Status,1732153303000,26,10,1,2,1575420030,21.90,40.0,12.0,1,0,0,16.9
Status,1732153303000,26,11,1,12,1575420030,29.40,274.0,5.0,0,0,0,24.4
Status,1732153303000,26,12,3,20,1602000000,0.00,92.0,59.0,0,0,0,0.0
Status,1732153303000,26,13,3,11,1602000000,0.00,320.0,35.0,0,0,0,0.0
Status,1732153303000,26,14,3,9,1602000000,0.00,93.0,26.0,0,0,0,0.0
Status,1732153303000,26,15,3,19,1602000000,0.00,27.0,15.0,0,0,0,0.0
Status,1732153303000,26,16,3,8,1602000000,0.00,238.0,13.0,0,0,0,0.0
Status,1732153303000,26,17,6,21,1575420030,0.00,5.0,67.0,0,0,0,0.0
Status,1732153303000,26,18,6,19,1575420030,0.00,234.0,39.0,0,0,0,0.0
Status,1732153303000,26,19,6,13,1575420030,0.00,112.0,35.0,0,0,0,0.0
Status,1732153303000,26,20,6,27,1575420030,0.00,72.0,29.0,0,0,0,0.0
Status,1732153303000,26,21,6,4,1575420030,0.00,304.0,26.0,0,0,0,0.0
Status,1732153303000,26,22,6,15,1575420030,0.00,53.0,23.0,0,0,0,0.0
Status,1732153303000,26,23,6,29,1575420030,0.00,189.0,17.0,0,0,0,0.0
Status,1732153303000,26,24,6,26,1575420030,0.00,164.0,14.0,0,0,0,0.0
Status,1732153303000,26,25,6,6,1575420030,0.00,323.0,9.0,0,0,0,0.0
Fix,GPS,37.4249500000,-122.1586383333,24.2,0.0,4.0,0.0,1732153304000,1.4,118.6,32188097000000,47.6,0,,,
Raw,1732153304001,81529000000,,96.14706632892774,-1416188440472000000,0.0,96.14706632892774,1212.7618828405834,0.0,0,2,0.0,16431,351721917481952,487,16.93600082397461,821.6195065210128,0.14999,16,0.0,0.0,1575420030,,,,0,0.0,1,6.0,16.93600082397461,0.0,0.0,0.0,66.7128,C,32188097000000,
Raw,1732153304001,81529000000,,96.14706632892774,-1416188440472000000,0.0,96.14706632892774,1212.7618828405834,0.0,0,6,0.0,16431,351721922278325,235,27.219999313354492,-282.8055736637504,0.14999,16,0.0,0.0,1575420030,,,,0,13.04743246942225,1,6.0,27.219999313354492,0.0,0.0,0.0,66.7128,C,32188097000000,
Raw,1732153304001,81529000000,,96.14706632892774,-1416188440472000000,0.0,96.14706632892774,1212.7618828405834,0.0,0,13,0.0,16431,351721927466686,487,24.006999969482422,859.0709366639816,0.14999,16,0.0,0.0,1575420030,,,,0,8.620249912899025,1,6.0,24.006999969482422,0.0,0.0,0.0,66.7128,C,32188097000000,
Raw,1732153304001,81529000000,,96.14706632892774,-1416188440472000000,0.0,96.14706632892774,1212.7618828405834,0.0,0,12,0.0,17,469726,396,24.400999069213867,-182.03462077336886,0.14999,16,0.0,0.0,1575420030,,,,0,9.18846705115859,1,6.0,24.400999069213867,0.0,0.0,0.0,66.7128,C,32188097000000,
Raw,1732153304001,81529000000,,96.14706632892774,-1416188440472000000,0.0,96.14706632892774,1212.7618828405834,0.0,0,30,0.0,16431,351721924016792,396,23.42300033569336,962.2151248296461,0.14999,16,0.0,0.0,1575420030,,,,0,4.5035283254993566,1,6.0,23.42300033569336,0.0,0.0,0.0,66.7128,C,32188097000000,
Raw,1732153304001,81529000000,,96.14706632892774,-1416188440472000000,0.0,96.14706632892774,1212.7618828405834,0.0,0,15,0.0,16431,351721924353626,487,21.058000564575195,681.5472887294073,0.14999,16,0.0,0.0,1575420030,,,,0,2.959117419857419,1,6.0,21.058000564575195,0.0,0.0,0.0,66.7128,C,32188097000000,
Fix,FLP,37.4249652000,-122.1586336000,2.498899532572649,0.17461105,4.085,180.0,1732153304249,1.4,118.6,32188097000000,9.583078,0,,,
Status,1732153304000,26,0,1,19,1575420030,0.00,205.0,72.0,0,0,0,0.0
Status,1732153304000,26,1,1,17,1575420030,0.00,53.0,71.0,0,0,0,0.0
Status,1732153304000,26,2,1,22,1575420030,0.00,34.0,62.0,0,0,0,0.0
Status,1732153304000,26,3,1,14,1575420030,0.00,64.0,46.0,0,0,0,0.0
Status,1732153304000,26,4,2,133,1575420030,0.00,191.0,45.0,0,0,0,0.0
Status,1732153304000,26,5,1,13,1575420030,25.30,224.0,40.0,1,0,0,20.3
Status,1732153304000,26,6,1,30,1575420030,28.40,137.0,27.0,1,0,0,23.4
Status,1732153304000,26,7,1,15,1575420030,26.00,264.0,27.0,1,0,0,21.0
Status,1732153304000,26,8,1,24,1575420030,0.00,313.0,25.0,0,0,0,0.0
Status,1732153304000,26,9,1,6,1575420030,34.20,157.0,21.0,1,0,0,29.2
Status,1732153304000,26,10,1,2,1575420030,22.00,40.0,12.0,1,0,0,17.0
Status,1732153304000,26,11,1,12,1575420030,0.00,274.0,5.0,0,0,0,0.0
Status,1732153304000,26,12,3,20,1602000000,0.00,92.0,59.0,0,0,0,0.0
Status,1732153304000,26,13,3,11,1602000000,0.00,321.0,36.0,0,0,0,0.0
Status,1732153304000,26,14,3,9,1602000000,0.00,93.0,26.0,0,0,0,0.0
Status,1732153304000,26,15,3,19,1602000000,0.00,27.0,15.0,0,0,0,0.0
Status,1732153304000,26,16,3,8,1602000000,0.00,238.0,13.0,0,0,0,0.0
Status,1732153304000,26,17,6,21,1575420030,0.00,5.0,67.0,0,0,0,0.0
Status,1732153304000,26,18,6,19,1575420030,0.00,234.0,39.0,0,0,0,0.0
Status,1732153304000,26,19,6,13,1575420030,0.00,112.0,35.0,0,0,0,0.0
Status,1732153304000,26,20,6,27,1575420030,0.00,72.0,29.0,0,0,0,0.0
Status,1732153304000,26,21,6,4,1575420030,0.00,304.0,26.0,0,0,0,0.0
Status,1732153304000,26,22,6,15,1575420030,0.00,53.0,23.0,0,0,0,0.0
Status,1732153304000,26,23,6,29,1575420030,0.00,189.0,17.0,0,0,0,0.0
Status,1732153304000,26,24,6,26,1575420030,0.00,164.0,14.0,0,0,0,0.0
Status,1732153304000,26,25,6,6,1575420030,0.00,323.0,9.0,0,0,0,0.0
Fix,GPS,37.4249350000,-122.1586350000,24.2,0.0,4.0,0.0,1732153305000,1.3,110.5,32189097000000,48.1,0,,,
Raw,1732153305001,82529000000,,97.10927093909396,-1416188440472000000,0.0,97.10927093909396,1211.8499759975127,0.0,0,2,0.0,16431,351722917479210,797,17.014999389648438,821.6314927923951,0.14999,16,0.0,0.0,1575420030,,,,0,0.0,1,6.0,17.014999389648438,0.0,0.0,0.0,66.7128,C,32189097000000,
Raw,1732153305001,82529000000,,97.10927093909396,-1416188440472000000,0.0,97.10927093909396,1211.8499759975127,0.0,0,6,0.0,16431,351722922279274,235,29.170000076293945,-283.2485546623179,0.14999,16,0.0,0.0,1575420030,,,,0,15.535177498978435,1,6.0,29.170000076293945,0.0,0.0,0.0,66.7128,C,32189097000000,
Raw,1732153305001,82529000000,,97.10927093909396,-1416188440472000000,0.0,97.10927093909396,1211.8499759975127,0.0,0,13,0.0,16431,351722927463815,487,20.266000747680664,858.310412390615,0.14999,16,0.0,0.0,1575420030,,,,0,2.6727434713950062,1,6.0,20.266000747680664,0.0,0.0,0.0,66.7128,C,32189097000000,
Raw,1732153305001,82529000000,,97.10927093909396,-1416188440472000000,0.0,97.10927093909396,1211.8499759975127,0.0,0,30,0.0,16431,351722924013579,396,23.365999221801758,961.6927463977747,0.14999,16,0.0,0.0,1575420030,,,,0,6.014797821592301,1,6.0,23.365999221801758,0.0,0.0,0.0,66.7128,C,32189097000000,
Raw,1732153305001,82529000000,,97.10927093909396,-1416188440472000000,0.0,97.10927093909396,1211.8499759975127,0.0,0,15,0.0,16431,351722924351353,797,21.035999298095703,681.9237877343776,0.14999,16,0.0,0.0,1575420030,,,,0,3.3268290319526184,1,6.0,21.035999298095703,0.0,0.0,0.0,66.7128,C,32189097000000,
Fix,FLP,37.4249507000,-122.1586342000,2.9107605340643907,0.17576516,4.071,180.0,1732153305249,1.3,110.5,32189097000000,13.045954,0,,,
Status,1732153305000,26,0,1,19,1575420030,0.00,205.0,72.0,0,0,0,0.0
Status,1732153305000,26,1,1,17,1575420030,0.00,53.0,71.0,0,0,0,0.0
Status,1732153305000,26,2,1,22,1575420030,0.00,34.0,62.0,0,0,0,0.0
Status,1732153305000,26,3,1,14,1575420030,0.00,64.0,46.0,0,0,0,0.0
Status,1732153305000,26,4,2,133,1575420030,0.00,191.0,45.0,0,0,0,0.0
Status,1732153305000,26,5,1,13,1575420030,25.30,224.0,40.0,1,0,0,20.3
Status,1732153305000,26,6,1,30,1575420030,28.20,137.0,27.0,1,0,0,23.2
Status,1732153305000,26,7,1,15,1575420030,26.00,264.0,27.0,1,0,0,21.0
Status,1732153305000,26,8,1,24,1575420030,0.00,313.0,25.0,0,0,0,0.0
Status,1732153305000,26,9,1,6,1575420030,29.00,157.0,21.0,1,0,0,24.0
Status,1732153305000,26,10,1,2,1575420030,22.10,40.0,12.0,1,0,0,17.1
Status,1732153305000,26,11,1,12,1575420030,0.00,274.0,5.0,0,0,0,0.0
Status,1732153305000,26,12,3,20,1602000000,0.00,92.0,59.0,0,0,0,0.0
Status,1732153305000,26,13,3,11,1602000000,0.00,321.0,36.0,0,0,0,0.0
Status,1732153305000,26,14,3,9,1602000000,0.00,93.0,26.0,0,0,0,0.0
Status,1732153305000,26,15,3,19,1602000000,0.00,27.0,15.0,0,0,0,0.0
Status,1732153305000,26,16,3,8,1602000000,0.00,238.0,13.0,0,0,0,0.0
Status,1732153305000,26,17,6,21,1575420030,0.00,5.0,67.0,0,0,0,0.0
Status,1732153305000,26,18,6,19,1575420030,0.00,234.0,39.0,0,0,0,0.0
Status,1732153305000,26,19,6,13,1575420030,21.70,112.0,35.0,1,0,0,16.7
Status,1732153305000,26,20,6,27,1575420030,0.00,72.0,29.0,0,0,0,0.0
Status,1732153305000,26,21,6,4,1575420030,0.00,304.0,26.0,0,0,0,0.0
Status,1732153305000,26,22,6,15,1575420030,0.00,53.0,23.0,0,0,0,0.0
Status,1732153305000,26,23,6,29,1575420030,0.00,189.0,17.0,0,0,0,0.0
Status,1732153305000,26,24,6,26,1575420030,0.00,164.0,14.0,0,0,0,0.0
Status,1732153305000,26,25,6,6,1575420030,0.00,323.0,9.0,0,0,0,0.0
Fix,GPS,37.4249250000,-122.1586316667,24.2,0.0,4.0,0.0,1732153306000,1.3,116.1,32190097000000,48.7,0,,,
Raw,1732153306001,83529000000,,98.35126734717524,-1416188440472000000,0.0,98.35126734717524,1210.3825514240368,0.0,0,2,0.0,16431,351723917476470,797,17.09000015258789,821.0880222395642,0.14999,16,0.0,0.0,1575420030,,,,0,0.0,1,6.0,17.09000015258789,0.0,0.0,0.0,66.7128,C,32190097000000,
Raw,1732153306001,83529000000,,98.35126734717524,-1416188440472000000,0.0,98.35126734717524,1210.3825514240368,0.0,0,6,0.0,16431,351723922280222,396,23.976999282836914,-283.0868793739052,0.14999,16,0.0,0.0,1575420030,,,,0,8.571176959553593,1,6.0,23.976999282836914,0.0,0.0,0.0,66.7128,C,32190097000000,
Raw,1732153306001,83529000000,,98.35126734717524,-1416188440472000000,0.0,98.35126734717524,1210.3825514240368,0.0,0,13,0.0,16431,351723927460953,487,20.266000747680664,857.6600874804999,0.14999,16,0.0,0.0,1575420030,,,,0,2.6727434713950062,1,6.0,20.266000747680664,0.0,0.0,0.0,66.7128,C,32190097000000,
Raw,1732153306001,83529000000,,98.35126734717524,-1416188440472000000,0.0,98.35126734717524,1210.3825514240368,0.0,0,30,0.0,16431,351723924010368,487,23.243000030517578,961.8272899711205,0.14999,16,0.0,0.0,1575420030,,,,0,3.765603610061402,1,6.0,23.243000030517578,0.0,0.0,0.0,66.7128,C,32190097000000,
Raw,1732153306001,83529000000,,98.35126734717524,-1416188440472000000,0.0,98.35126734717524,1210.3825514240368,0.0,0,15,0.0,16431,351723924349079,487,21.014999389648438,681.1914172612346,0.14999,16,0.0,0.0,1575420030,,,,0,3.3268290319526184,1,6.0,21.014999389648438,0.0,0.0,0.0,66.7128,C,32190097000000,
Raw,1732153306001,83529000000,,98.35126734717524,-1416188440472000000,0.0,98.35126734717524,1210.3825514240368,0.0,0,13,0.0,16431,351723915803664,797,16.700000762939453,4.011266114034087,0.14999,16,0.0,0.0,1575420030,,,,0,0.0,6,6.0,16.700000762939453,0.0,0.0,-43.37584255187974,66.7128,C,32190097000000,
Fix,FLP,37.4249378000,-122.1586331000,2.9107605340643907,0.16314818,4.057,180.0,1732153306249,1.3,116.1,32190097000000,14.479727,0,,,
Status,1732153306000,26,0,1,19,1575420030,0.00,205.0,72.0,0,0,0,0.0
Status,1732153306000,26,1,1,17,1575420030,0.00,53.0,71.0,0,0,0,0.0
Status,1732153306000,26,2,1,22,1575420030,0.00,34.0,62.0,0,0,0,0.0
Status,1732153306000,26,3,1,14,1575420030,0.00,64.0,46.0,0,0,0,0.0
Status,1732153306000,26,4,2,133,1575420030,0.00,191.0,45.0,0,0,0,0.0
Status,1732153306000,26,5,1,13,1575420030,26.30,224.0,40.0,1,0,0,21.3
Status,1732153306000,26,6,1,30,1575420030,24.80,137.0,27.0,1,0,0,19.8
Status,1732153306000,26,7,1,15,1575420030,25.90,264.0,27.0,1,0,0,20.9
Status,1732153306000,26,8,1,24,1575420030,22.90,313.0,25.0,1,0,0,17.9
Status,1732153306000,26,9,1,6,1575420030,30.10,157.0,21.0,1,0,0,25.1
Status,1732153306000,26,10,1,2,1575420030,22.10,40.0,12.0,1,0,0,17.1
Status,1732153306000,26,11,1,12,1575420030,28.10,274.0,5.0,0,0,0,23.1
Status,1732153306000,26,12,3,20,1602000000,0.00,92.0,59.0,0,0,0,0.0
Status,1732153306000,26,13,3,11,1602000000,0.00,321.0,36.0,0,0,0,0.0
Status,1732153306000,26,14,3,9,1602000000,0.00,93.0,26.0,0,0,0,0.0
Status,1732153306000,26,15,3,19,1602000000,0.00,27.0,15.0,0,0,0,0.0
Status,1732153306000,26,16,3,8,1602000000,0.00,238.0,13.0,0,0,0,0.0
Status,1732153306000,26,17,6,21,1575420030,0.00,5.0,67.0,0,0,0,0.0
Status,1732153306000,26,18,6,19,1575420030,0.00,234.0,39.0,0,0,0,0.0
Status,1732153306000,26,19,6,13,1575420030,21.70,112.0,35.0,1,0,0,16.7
Status,1732153306000,26,20,6,27,1575420030,0.00,72.0,29.0,0,0,0,0.0
Status,1732153306000,26,21,6,4,1575420030,0.00,304.0,26.0,0,0,0,0.0
Status,1732153306000,26,22,6,15,1575420030,0.00,53.0,23.0,0,0,0,0.0
Status,1732153306000,26,23,6,29,1575420030,0.00,189.0,17.0,0,0,0,0.0
Status,1732153306000,26,24,6,26,1575420030,0.00,164.0,14.0,0,0,0,0.0
Status,1732153306000,26,25,6,6,1575420030,0.00,323.0,9.0,0,0,0,0.0
Fix,GPS,37.4249233333,-122.1586300000,24.3,0.0,4.0,0.0,1732153307000,1.3,133.3,32191097000000,49.8,0,,,
Raw,1732153307001,84529000000,,101.10178671126644,-1416188440472000000,0.0,101.10178671126644,1210.9626067312734,0.0,0,2,0.0,16431,351724917473750,797,17.104000091552734,821.7882434886894,0.14999,16,0.0,0.0,1575420030,,,,0,0.0,1,6.0,17.104000091552734,0.0,0.0,0.0,66.7128,C,32191097000000,
Raw,1732153307001,84529000000,,101.10178671126644,-1416188440472000000,0.0,101.10178671126644,1210.9626067312734,0.0,0,6,0.0,16431,351724922281163,316,25.101999282836914,-282.4265659043048,0.14999,16,0.0,0.0,1575420030,,,,0,10.183461452803375,1,6.0,25.101999282836914,0.0,0.0,0.0,66.7128,C,32191097000000,
Raw,1732153307001,84529000000,,101.10178671126644,-1416188440472000000,0.0,101.10178671126644,1210.9626067312734,0.0,0,13,0.0,16431,351724927458081,487,21.2810001373291,858.171594642978,0.14999,16,0.0,0.0,1575420030,,,,0,4.42456514859951,1,6.0,21.2810001373291,0.0,0.0,0.0,66.7128,C,32191097000000,
Raw,1732153307001,84529000000,,101.10178671126644,-1416188440472000000,0.0,101.10178671126644,1210.9626067312734,0.0,0,12,0.0,17,471544,396,23.09000015258789,-181.28204088917434,0.14999,16,0.0,0.0,1575420030,,,,0,7.244535421843244,1,6.0,23.09000015258789,0.0,0.0,0.0,66.7128,C,32191097000000,
Raw,1732153307001,84529000000,,101.10178671126644,-1416188440472000000,0.0,101.10178671126644,1210.9626067312734,0.0,0,30,0.0,16431,351724924007161,487,19.833999633789062,961.9551435325319,0.14999,16,0.0,0.0,1575420030,,,,0,1.9653617360752698,1,6.0,19.833999633789062,0.0,0.0,0.0,66.7128,C,32191097000000,
Raw,1732153307001,84529000000,,101.10178671126644,-1416188440472000000,0.0,101.10178671126644,1210.9626067312734,0.0,0,24,0.0,16431,351724924324005,487,17.871000289916992,-219.3931805423328,0.14999,16,0.0,0.0,1575420030,,,,0,0.0,1,6.0,17.871000289916992,0.0,0.0,0.0,66.7128,C,32191097000000,
Raw,1732153307001,84529000000,,101.10178671126644,-1416188440472000000,0.0,101.10178671126644,1210.9626067312734,0.0,0,15,0.0,16431,351724924346787,487,20.934999465942383,681.5245241054643,0.14999,16,0.0,0.0,1575420030,,,,0,1.3095114681491191,1,6.0,20.934999465942383,0.0,0.0,0.0,66.7128,C,32191097000000,
Raw,1732153307001,84529000000,,101.10178671126644,-1416188440472000000,0.0,101.10178671126644,1210.9626067312734,0.0,0,13,0.0,16431,351724915803650,797,16.700000762939453,4.033566153815146,0.14999,16,0.0,0.0,1575420030,,,,0,0.0,6,6.0,16.700000762939453,0.0,0.0,-43.37584255187974,66.7128,C,32191097000000,
Fix,FLP,37.4249303000,-122.1586317000,2.667905898495519,0.12381878,4.042,180.0,1732153307249,1.3,133.3,32191097000000,13.945009,0,,,
Status,1732153307000,26,0,1,19,1575420030,0.00,205.0,72.0,0,0,0,0.0
Status,1732153307000,26,1,1,17,1575420030,0.00,53.0,71.0,0,0,0,0.0
Status,1732153307000,26,2,1,22,1575420030,0.00,34.0,62.0,0,0,0,0.0
Status,1732153307000,26,3,1,14,1575420030,0.00,64.0,46.0,0,0,0,0.0
Status,1732153307000,26,4,2,133,1575420030,0.00,191.0,45.0,0,0,0,0.0
Status,1732153307000,26,5,1,13,1575420030,26.30,224.0,40.0,1,0,0,21.3
Status,1732153307000,26,6,1,30,1575420030,24.80,137.0,27.0,1,0,0,19.8
Status,1732153307000,26,7,1,15,1575420030,25.90,264.0,27.0,1,0,0,20.9
Status,1732153307000,26,8,1,24,1575420030,24.10,313.0,25.0,1,0,0,19.1
Status,1732153307000,26,9,1,6,1575420030,29.10,157.0,21.0,1,0,0,24.1
Status,1732153307000,26,10,1,2,1575420030,22.10,40.0,12.0,1,0,0,17.1
Status,1732153307000,26,11,1,12,1575420030,23.40,274.0,5.0,0,0,0,18.4
Status,1732153307000,26,12,3,20,1602000000,0.00,92.0,59.0,0,0,0,0.0
Status,1732153307000,26,13,3,11,1602000000,0.00,321.0,36.0,0,0,0,0.0
Status,1732153307000,26,14,3,9,1602000000,0.00,93.0,26.0,0,0,0,0.0
Status,1732153307000,26,15,3,19,1602000000,0.00,27.0,15.0,0,0,0,0.0
Status,1732153307000,26,16,3,8,1602000000,0.00,238.0,13.0,0,0,0,0.0
Status,1732153307000,26,17,6,21,1575420030,0.00,5.0,67.0,0,0,0,0.0
Status,1732153307000,26,18,6,19,1575420030,0.00,234.0,39.0,0,0,0,0.0
Status,1732153307000,26,19,6,13,1575420030,21.70,112.0,35.0,1,0,0,16.7
Status,1732153307000,26,20,6,27,1575420030,0.00,72.0,29.0,0,0,0,0.0
Status,1732153307000,26,21,6,4,1575420030,20.90,304.0,26.0,1,0,0,15.9
Status,1732153307000,26,22,6,15,1575420030,0.00,53.0,23.0,0,0,0,0.0
Status,1732153307000,26,23,6,29,1575420030,0.00,189.0,17.0,0,0,0,0.0
Status,1732153307000,26,24,6,26,1575420030,0.00,164.0,14.0,0,0,0,0.0
Status,1732153307000,26,25,6,6,1575420030,0.00,323.0,9.0,0,0,0,0.0
Fix,GPS,37.4249166667,-122.1586316667,24.3,0.0,4.0,0.0,1732153308000,1.3,148.4,32192097000000,51.4,0,,,
Raw,1732153308001,85529000000,,105.74253739500566,-1416188440472000000,0.0,105.74253739500566,1212.9308050896666,0.0,0,2,0.0,16431,351725917471034,797,17.121999740600586,822.4072554262787,0.14999,16,0.0,0.0,1575420030,,,,0,0.0,1,6.0,17.121999740600586,0.0,0.0,0.0,66.7128,C,32192097000000,
Raw,1732153308001,85529000000,,105.74253739500566,-1416188440472000000,0.0,105.74253739500566,1212.9308050896666,0.0,0,6,0.0,16431,351725922282105,396,24.10099983215332,-282.1782921280757,0.14999,16,0.0,0.0,1575420030,,,,0,8.765826889910302,1,6.0,24.10099983215332,0.0,0.0,0.0,66.7128,C,32192097000000,
Raw,1732153308001,85529000000,,105.74253739500566,-1416188440472000000,0.0,105.74253739500566,1212.9308050896666,0.0,0,13,0.0,16431,351725927455220,487,21.326000213623047,859.3695713633829,0.14999,16,0.0,0.0,1575420030,,,,0,4.5035283254993566,1,6.0,21.326000213623047,0.0,0.0,0.0,66.7128,C,32192097000000,
Raw,1732153308001,85529000000,,105.74253739500566,-1416188440472000000,0.0,105.74253739500566,1212.9308050896666,0.0,0,12,0.0,17,472147,487,18.389999389648438,-180.31184978344967,0.14999,16,0.0,0.0,1575420030,,,,0,0.0,1,6.0,18.389999389648438,0.0,0.0,0.0,66.7128,C,32192097000000,
Raw,1732153308001,85529000000,,105.74253739500566,-1416188440472000000,0.0,105.74253739500566,1212.9308050896666,0.0,0,30,0.0,16431,351725924003950,797,19.833999633789062,963.0019445665878,0.14999,16,0.0,0.0,1575420030,,,,0,1.9653617360752698,1,6.0,19.833999633789062,0.0,0.0,0.0,66.7128,C,32192097000000,
Raw,1732153308001,85529000000,,105.74253739500566,-1416188440472000000,0.0,105.74253739500566,1212.9308050896666,0.0,0,24,0.0,16431,351725924324742,797,19.05699920654297,-219.16423346724727,0.14999,16,0.0,0.0,1575420030,,,,0,0.6000651049047407,1,6.0,19.05699920654297,0.0,0.0,0.0,66.7128,C,32192097000000,
Raw,1732153308001,85529000000,,105.74253739500566,-1416188440472000000,0.0,105.74253739500566,1212.9308050896666,0.0,0,15,0.0,16431,351725924344513,797,20.858999252319336,682.4783153902665,0.14999,16,0.0,0.0,1575420030,,,,0,1.3095114681491191,1,6.0,20.858999252319336,0.0,0.0,0.0,66.7128,C,32192097000000,
Raw,1732153308001,85529000000,,105.74253739500566,-1416188440472000000,0.0,105.74253739500566,1212.9308050896666,0.0,0,13,0.0,16431,351725915803636,797,16.700000762939453,4.899039989401263,0.14999,16,0.0,0.0,1575420030,,,,0,0.0,6,6.0,16.700000762939453,0.0,0.0,-45.62289554000441,66.7128,C,32192097000000,
Raw,1732153308001,85529000000,,105.74253739500566,-1416188440472000000,0.0,105.74253739500566,1212.9308050896666,0.0,0,4,0.0,16431,351725913072711,487,15.899999618530273,218.91995511481227,0.14999,16,0.0,0.0,1575420030,,,,0,0.0,6,6.0,15.899999618530273,0.0,0.0,-45.62289554000441,66.7128,C,32192097000000,
Fix,FLP,37.4249233000,-122.1586317000,2.565059694114697,0.101450376,4.028,180.0,1732153308250,1.3,148.4,32192097000000,10.10106,0,,,
Fix,FLP,37.4249209000,-122.1586317000,2.827289537670615,0.076846294,4.014,,1732153308451,1.3,,32192299000000,13.491958,0,,,
Fix,NLP,37.4256736000,-122.1580275000,5.400000095367432,,25.894,,1732153308451,,,32192299000000,39.796463,0,,,
Status,1732153308000,26,0,1,19,1575420030,0.00,205.0,72.0,0,0,0,0.0
Status,1732153308000,26,1,1,17,1575420030,0.00,53.0,71.0,0,0,0,0.0
Status,1732153308000,26,2,1,22,1575420030,0.00,34.0,62.0,0,0,0,0.0
Status,1732153308000,26,3,1,14,1575420030,0.00,64.0,46.0,0,0,0,0.0
Status,1732153308000,26,4,2,133,1575420030,0.00,191.0,45.0,0,0,0,0.0
Status,1732153308000,26,5,1,13,1575420030,27.70,224.0,40.0,1,0,0,22.7
Status,1732153308000,26,6,1,30,1575420030,24.80,137.0,27.0,1,0,0,19.8
Status,1732153308000,26,7,1,15,1575420030,25.80,264.0,27.0,1,0,0,20.8
Status,1732153308000,26,8,1,24,1575420030,24.10,313.0,25.0,1,0,0,19.1
Status,1732153308000,26,9,1,6,1575420030,31.90,157.0,21.0,1,0,0,26.9
Status,1732153308000,26,10,1,2,1575420030,22.10,40.0,12.0,1,0,0,17.1
Status,1732153308000,26,11,1,12,1575420030,25.30,274.0,5.0,0,0,0,20.3
Status,1732153308000,26,12,3,20,1602000000,0.00,92.0,59.0,0,0,0,0.0
Status,1732153308000,26,13,3,11,1602000000,0.00,321.0,36.0,0,0,0,0.0
Status,1732153308000,26,14,3,9,1602000000,0.00,93.0,26.0,0,0,0,0.0
Status,1732153308000,26,15,3,19,1602000000,0.00,27.0,15.0,0,0,0,0.0
Status,1732153308000,26,16,3,8,1602000000,0.00,238.0,13.0,0,0,0,0.0
Status,1732153308000,26,17,6,21,1575420030,0.00,5.0,67.0,0,0,0,0.0
Status,1732153308000,26,18,6,19,1575420030,0.00,234.0,39.0,0,0,0,0.0
Status,1732153308000,26,19,6,13,1575420030,21.70,112.0,35.0,1,0,0,16.7
Status,1732153308000,26,20,6,27,1575420030,0.00,72.0,29.0,0,0,0,0.0
Status,1732153308000,26,21,6,4,1575420030,21.50,304.0,26.0,1,0,0,16.5
Status,1732153308000,26,22,6,15,1575420030,0.00,53.0,23.0,0,0,0,0.0
Status,1732153308000,26,23,6,29,1575420030,0.00,189.0,17.0,0,0,0,0.0
Status,1732153308000,26,24,6,26,1575420030,0.00,164.0,14.0,0,0,0,0.0
Status,1732153308000,26,25,6,6,1575420030,0.00,323.0,9.0,0,0,0,0.0
Fix,FLP,37.4249189000,-122.1586362000,2.8868317708160385,0.053092718,3.985,,1732153309249,1.3,,32193097000000,12.469257,0,,,
Fix,GPS,37.4249166667,-122.1586433333,24.3,0.0,3.9,0.0,1732153309000,1.3,153.6,32193097000000,50.5,0,,,
Raw,1732153309001,86529000000,,103.52661078648238,-1416188440472000000,0.0,103.52661078648238,1212.9100778416237,0.0,0,2,0.0,16431,351726917468291,487,17.138999938964844,822.8116294809752,0.14999,16,0.0,0.0,1575420030,,,,0,0.0,1,6.0,17.138999938964844,0.0,0.0,0.0,66.7128,C,32193097000000,
Raw,1732153309001,86529000000,,103.52661078648238,-1416188440472000000,0.0,103.52661078648238,1212.9100778416237,0.0,0,6,0.0,16431,351726922283047,316,26.902999877929688,-282.195342366825,0.14999,16,0.0,0.0,1575420030,,,,0,12.625850748824067,1,6.0,26.902999877929688,0.0,0.0,0.0,66.7128,C,32193097000000,
Raw,1732153309001,86529000000,,103.52661078648238,-1416188440472000000,0.0,103.52661078648238,1212.9100778416237,0.0,0,13,0.0,16431,351726927452353,487,22.660999298095703,858.7019639224375,0.14999,16,0.0,0.0,1575420030,,,,0,6.589809249898741,1,6.0,22.660999298095703,0.0,0.0,0.0,66.7128,C,32193097000000,
Raw,1732153309001,86529000000,,103.52661078648238,-1416188440472000000,0.0,103.52661078648238,1212.9100778416237,0.0,0,12,0.0,17,472747,487,20.31800079345703,-180.11825756310034,0.14999,16,0.0,0.0,1575420030,,,,0,2.7692543491808337,1,6.0,20.31800079345703,0.0,0.0,0.0,66.7128,C,32193097000000,
Raw,1732153309001,86529000000,,103.52661078648238,-1416188440472000000,0.0,103.52661078648238,1212.9100778416237,0.0,0,30,0.0,16431,351726924000739,797,19.833999633789062,962.8728830863549,0.14999,16,0.0,0.0,1575420030,,,,0,1.9653617360752698,1,6.0,19.833999633789062,0.0,0.0,0.0,66.7128,C,32193097000000,
Raw,1732153309001,86529000000,,103.52661078648238,-1416188440472000000,0.0,103.52661078648238,1212.9100778416237,0.0,0,24,0.0,16431,351726924325484,487,19.121999740600586,-219.05189701685018,0.14999,16,0.0,0.0,1575420030,,,,0,0.7224036010983799,1,6.0,19.121999740600586,0.0,0.0,0.0,66.7128,C,32193097000000,
Raw,1732153309001,86529000000,,103.52661078648238,-1416188440472000000,0.0,103.52661078648238,1212.9100778416237,0.0,0,15,0.0,16431,351726924342249,797,20.75200080871582,682.7626408974751,0.14999,16,0.0,0.0,1575420030,,,,0,0.0,1,6.0,20.75200080871582,0.0,0.0,0.0,66.7128,C,32193097000000,
Raw,1732153309001,86529000000,,103.52661078648238,-1416188440472000000,0.0,103.52661078648238,1212.9100778416237,0.0,0,13,0.0,16431,351726915803619,1797,16.700000762939453,5.0733519670232035,0.14999,16,0.0,0.0,1575420030,,,,0,0.0,6,6.0,16.700000762939453,0.0,0.0,-47.86422777092778,66.7128,C,32193097000000,
Raw,1732153309001,86529000000,,103.52661078648238,-1416188440472000000,0.0,103.52661078648238,1212.9100778416237,0.0,0,4,0.0,16431,351726913071977,487,16.5,219.111874832178,0.14999,16,0.0,0.0,1575420030,,,,0,0.0,6,6.0,16.5,0.0,0.0,-47.86422777092778,66.7128,C,32193097000000,
Status,1732153309000,26,0,1,19,1575420030,0.00,205.0,72.0,0,0,0,0.0
Status,1732153309000,26,1,1,17,1575420030,0.00,53.0,71.0,0,0,0,0.0
Status,1732153309000,26,2,1,22,1575420030,0.00,34.0,62.0,0,0,0,0.0
Status,1732153309000,26,3,1,14,1575420030,0.00,64.0,46.0,0,0,0,0.0
Status,1732153309000,26,4,2,133,1575420030,0.00,191.0,45.0,0,0,0,0.0
Status,1732153309000,26,5,1,13,1575420030,24.80,224.0,40.0,1,0,0,19.8
Status,1732153309000,26,6,1,30,1575420030,21.00,137.0,27.0,1,0,0,16.0
Status,1732153309000,26,7,1,15,1575420030,25.70,264.0,27.0,1,0,0,20.7
Status,1732153309000,26,8,1,24,1575420030,23.00,313.0,25.0,1,0,0,18.0
Status,1732153309000,26,9,1,6,1575420030,33.20,157.0,21.0,1,0,0,28.2
Status,1732153309000,26,10,1,2,1575420030,22.20,40.0,12.0,1,0,0,17.2
Status,1732153309000,26,11,1,12,1575420030,23.40,274.0,5.0,0,0,0,18.4
Status,1732153309000,26,12,3,20,1602000000,0.00,92.0,59.0,0,0,0,0.0
Status,1732153309000,26,13,3,11,1602000000,0.00,321.0,36.0,0,0,0,0.0
Status,1732153309000,26,14,3,9,1602000000,0.00,93.0,26.0,0,0,0,0.0
Status,1732153309000,26,15,3,19,1602000000,0.00,27.0,15.0,0,0,0,0.0
Status,1732153309000,26,16,3,8,1602000000,0.00,238.0,13.0,0,0,0,0.0
Status,1732153309000,26,17,6,21,1575420030,0.00,5.0,67.0,0,0,0,0.0
Status,1732153309000,26,18,6,19,1575420030,0.00,234.0,39.0,0,0,0,0.0
Status,1732153309000,26,19,6,13,1575420030,16.30,112.0,35.0,1,0,0,11.299999
Status,1732153309000,26,20,6,27,1575420030,0.00,72.0,29.0,0,0,0,0.0
Status,1732153309000,26,21,6,4,1575420030,21.50,304.0,26.0,1,0,0,16.5
Status,1732153309000,26,22,6,15,1575420030,0.00,53.0,23.0,0,0,0,0.0
Status,1732153309000,26,23,6,29,1575420030,0.00,189.0,17.0,0,0,0,0.0
Status,1732153309000,26,24,6,26,1575420030,0.00,164.0,14.0,0,0,0,0.0
Status,1732153309000,26,25,6,6,1575420030,0.00,323.0,9.0,0,0,0,0.0
Fix,GPS,37.4249250000,-122.1586550000,24.3,0.0,3.9,0.0,1732153310000,1.3,179.9,32194097000000,50.5,0,,,
Raw,1732153310001,87529000000,,103.14957229981793,-1416188440472000000,0.0,103.14957229981793,1213.4910944215885,0.0,0,2,0.0,16431,351727917465559,797,17.233999252319336,822.6651925530796,0.14999,16,0.0,0.0,1575420030,,,,0,0.6000651049047407,1,6.0,17.233999252319336,0.0,0.0,0.0,66.7128,C,32194097000000,
Raw,1732153310001,87529000000,,103.14957229981793,-1416188440472000000,0.0,103.14957229981793,1213.4910944215885,0.0,0,6,0.0,16431,351727922283987,235,28.215999603271484,-281.8272987936051,0.14999,16,0.0,0.0,1575420030,,,,0,14.329494281645655,1,6.0,28.215999603271484,0.0,0.0,0.0,66.7128,C,32194097000000,
Raw,1732153310001,87529000000,,103.14957229981793,-1416188440472000000,0.0,103.14957229981793,1213.4910944215885,0.0,0,13,0.0,16431,351727927449487,487,19.833999633789062,859.4144501934423,0.14999,16,0.0,0.0,1575420030,,,,0,1.9653617360752698,1,6.0,19.833999633789062,0.0,0.0,0.0,66.7128,C,32194097000000,
Raw,1732153310001,87529000000,,103.14957229981793,-1416188440472000000,0.0,103.14957229981793,1213.4910944215885,0.0,0,12,0.0,17,473346,797,18.389999389648438,-180.16736410903488,0.14999,16,0.0,0.0,1575420030,,,,0,0.0,1,6.0,18.389999389648438,0.0,0.0,0.0,66.7128,C,32194097000000,
Raw,1732153310001,87529000000,,103.14957229981793,-1416188440472000000,0.0,103.14957229981793,1213.4910944215885,0.0,0,30,0.0,16431,351727923997526,487,16.045000076293945,963.3856910844868,0.14999,16,0.0,0.0,1575420030,,,,0,0.0,1,6.0,16.045000076293945,0.0,0.0,0.0,66.7128,C,32194097000000,
Raw,1732153310001,87529000000,,103.14957229981793,-1416188440472000000,0.0,103.14957229981793,1213.4910944215885,0.0,0,24,0.0,16431,351727924326188,797,18.020000457763672,-218.52143482055826,0.14999,16,0.0,0.0,1575420030,,,,0,0.0,1,6.0,18.020000457763672,0.0,0.0,0.0,66.7128,C,32194097000000,
Raw,1732153310001,87529000000,,103.14957229981793,-1416188440472000000,0.0,103.14957229981793,1213.4910944215885,0.0,0,15,0.0,16431,351727924339971,797,20.650999069213867,682.7125587248,0.14999,16,0.0,0.0,1575420030,,,,0,0.0,1,6.0,20.650999069213867,0.0,0.0,0.0,66.7128,C,32194097000000,
Raw,1732153310001,87529000000,,103.14957229981793,-1416188440472000000,0.0,103.14957229981793,1213.4910944215885,0.0,0,13,0.0,16431,351727915803618,1797,11.300000190734863,5.533057995426479,0.14999,16,0.0,0.0,1575420030,,,,0,0.0,6,6.0,11.300000190734863,0.0,0.0,-47.86422777092778,66.7128,C,32194097000000,
Raw,1732153310001,87529000000,,103.14957229981793,-1416188440472000000,0.0,103.14957229981793,1213.4910944215885,0.0,0,4,0.0,16431,351727913071241,797,16.5,219.19731185958918,0.14999,16,0.0,0.0,1575420030,,,,0,0.0,6,6.0,16.5,0.0,0.0,-47.86422777092778,66.7128,C,32194097000000,
Fix,FLP,37.4249216000,-122.1586443000,2.8868317708160385,0.010855733,3.971,,1732153310249,1.3,,32194097000000,13.21923,0,,,
Status,1732153310000,26,0,1,19,1575420030,0.00,205.0,72.0,0,0,0,0.0
Status,1732153310000,26,1,1,17,1575420030,0.00,53.0,71.0,0,0,0,0.0
Status,1732153310000,26,2,1,22,1575420030,0.00,34.0,62.0,0,0,0,0.0
Status,1732153310000,26,3,1,14,1575420030,0.00,64.0,46.0,0,0,0,0.0
Status,1732153310000,26,4,2,133,1575420030,0.00,191.0,45.0,0,0,0,0.0
Status,1732153310000,26,5,1,13,1575420030,25.30,224.0,40.0,1,0,0,20.3
Status,1732153310000,26,6,1,30,1575420030,26.10,137.0,27.0,1,0,0,21.1
Status,1732153310000,26,7,1,15,1575420030,18.10,264.0,27.0,1,0,0,13.1
Status,1732153310000,26,8,1,24,1575420030,23.10,313.0,25.0,1,0,0,18.1
Status,1732153310000,26,9,1,6,1575420030,31.90,157.0,21.0,1,0,0,26.9
Status,1732153310000,26,10,1,2,1575420030,22.30,40.0,12.0,1,0,0,17.3
Status,1732153310000,26,11,1,12,1575420030,0.00,274.0,5.0,0,0,0,0.0
Status,1732153310000,26,12,3,20,1602000000,0.00,92.0,59.0,0,0,0,0.0
Status,1732153310000,26,13,3,11,1602000000,0.00,321.0,36.0,0,0,0,0.0
Status,1732153310000,26,14,3,9,1602000000,0.00,93.0,26.0,0,0,0,0.0
Status,1732153310000,26,15,3,19,1602000000,0.00,27.0,15.0,0,0,0,0.0
Status,1732153310000,26,16,3,8,1602000000,0.00,238.0,13.0,0,0,0,0.0
Status,1732153310000,26,17,6,21,1575420030,0.00,5.0,67.0,0,0,0,0.0
Status,1732153310000,26,18,6,19,1575420030,0.00,234.0,39.0,0,0,0,0.0
Status,1732153310000,26,19,6,13,1575420030,16.30,112.0,35.0,1,0,0,11.299999
Status,1732153310000,26,20,6,27,1575420030,0.00,72.0,29.0,0,0,0,0.0
Status,1732153310000,26,21,6,4,1575420030,22.10,304.0,26.0,1,0,0,17.1
Status,1732153310000,26,22,6,15,1575420030,0.00,53.0,23.0,0,0,0,0.0
Status,1732153310000,26,23,6,29,1575420030,0.00,189.0,17.0,0,0,0,0.0
Status,1732153310000,26,24,6,26,1575420030,0.00,164.0,14.0,0,0,0,0.0
Status,1732153310000,26,25,6,6,1575420030,0.00,323.0,9.0,0,0,0,0.0
Fix,GPS,37.4249366667,-122.1586800000,24.3,0.0,3.9,0.0,1732153311000,1.3,166.8,32195097000000,50.5,0,,,
Fix,FLP,37.4249288000,-122.1586601000,2.786533877253005,0.038066592,3.957,,1732153311250,1.3,,32195097000000,12.397965,0,,,
Raw,1732153311001,88529000000,,102.6067786295102,-1416188440472000000,0.0,102.6067786295102,1215.4478090285318,0.0,0,2,0.0,16431,351728917462814,487,17.325000762939453,823.634222198399,0.14999,16,0.0,0.0,1575420030,,,,0,0.6000651049047407,1,6.0,17.325000762939453,0.0,0.0,0.0,66.7128,C,32195097000000,
Raw,1732153311001,88529000000,,102.6067786295102,-1416188440472000000,0.0,102.6067786295102,1215.4478090285318,0.0,0,6,0.0,16431,351728922284924,316,26.902999877929688,-281.17102720621506,0.14999,16,0.0,0.0,1575420030,,,,0,12.625850748824067,1,6.0,26.902999877929688,0.0,0.0,0.0,66.7128,C,32195097000000,
Raw,1732153311001,88529000000,,102.6067786295102,-1416188440472000000,0.0,102.6067786295102,1215.4478090285318,0.0,0,13,0.0,16431,351728927446623,797,20.266000747680664,859.7190315701185,0.14999,16,0.0,0.0,1575420030,,,,0,2.6727434713950062,1,6.0,20.266000747680664,0.0,0.0,0.0,66.7128,C,32195097000000,
Raw,1732153311001,88529000000,,102.6067786295102,-1416188440472000000,0.0,102.6067786295102,1215.4478090285318,0.0,0,30,0.0,16431,351728923994311,487,21.143999099731445,964.0148309568099,0.14999,16,0.0,0.0,1575420030,,,,0,4.183274920571898,1,6.0,21.143999099731445,0.0,0.0,0.0,66.7128,C,32195097000000,
Raw,1732153311001,88529000000,,102.6067786295102,-1416188440472000000,0.0,102.6067786295102,1215.4478090285318,0.0,0,24,0.0,16431,351728924326937,487,18.115999221801758,-217.4274320356325,0.14999,16,0.0,0.0,1575420030,,,,0,2.1734169440706137,1,6.0,18.115999221801758,0.0,0.0,0.0,66.7128,C,32195097000000,
Raw,1732153311001,88529000000,,102.6067786295102,-1416188440472000000,0.0,102.6067786295102,1215.4478090285318,0.0,0,15,0.0,16431,351728924337693,797,13.100000381469727,683.0070121667425,0.14999,16,0.0,0.0,1575420030,,,,0,0.0,1,6.0,13.100000381469727,0.0,0.0,0.0,66.7128,C,32195097000000,
Raw,1732153311001,88529000000,,102.6067786295102,-1416188440472000000,0.0,102.6067786295102,1215.4478090285318,0.0,0,13,0.0,16431,351728915803600,1797,11.300000190734863,5.732527205426426,0.14999,16,0.0,0.0,1575420030,,,,0,0.0,6,6.0,11.300000190734863,0.0,0.0,-47.86422777092778,66.7128,C,32195097000000,
Raw,1732153311001,88529000000,,102.6067786295102,-1416188440472000000,0.0,102.6067786295102,1215.4478090285318,0.0,0,4,0.0,16431,351728913070506,487,17.100000381469727,219.8366958126867,0.14999,16,0.0,0.0,1575420030,,,,0,0.0,6,6.0,17.100000381469727,0.0,0.0,-47.86422777092778,66.7128,C,32195097000000,
Status,1732153311000,26,0,1,19,1575420030,0.00,205.0,72.0,0,0,0,0.0
Status,1732153311000,26,1,1,17,1575420030,0.00,53.0,71.0,0,0,0,0.0
Status,1732153311000,26,2,1,22,1575420030,0.00,34.0,62.0,0,0,0,0.0
Status,1732153311000,26,3,1,14,1575420030,0.00,64.0,46.0,0,0,0,0.0
Status,1732153311000,26,4,2,133,1575420030,0.00,191.0,45.0,0,0,0,0.0
Status,1732153311000,26,5,1,13,1575420030,25.30,224.0,40.0,1,0,0,20.3
Status,1732153311000,26,6,1,30,1575420030,28.20,137.0,27.0,1,0,0,23.2
Status,1732153311000,26,7,1,15,1575420030,0.00,264.0,27.0,0,0,0,0.0
Status,1732153311000,26,8,1,24,1575420030,23.20,313.0,25.0,1,0,0,18.2
Status,1732153311000,26,9,1,6,1575420030,31.70,157.0,21.0,1,0,0,26.7
Status,1732153311000,26,10,1,2,1575420030,26.00,40.0,12.0,1,0,0,21.0
Status,1732153311000,26,11,1,12,1575420030,0.00,274.0,5.0,0,0,0,0.0
Status,1732153311000,26,12,3,20,1602000000,0.00,92.0,59.0,0,0,0,0.0
Status,1732153311000,26,13,3,11,1602000000,0.00,321.0,36.0,0,0,0,0.0
Status,1732153311000,26,14,3,9,1602000000,0.00,93.0,26.0,0,0,0,0.0
Status,1732153311000,26,15,3,19,1602000000,0.00,27.0,15.0,0,0,0,0.0
Status,1732153311000,26,16,3,8,1602000000,0.00,238.0,13.0,0,0,0,0.0
Status,1732153311000,26,17,6,21,1575420030,0.00,5.0,67.0,0,0,0,0.0
Status,1732153311000,26,18,6,19,1575420030,0.00,234.0,39.0,0,0,0,0.0
Status,1732153311000,26,19,6,13,1575420030,16.30,112.0,35.0,1,0,0,11.299999
Status,1732153311000,26,20,6,27,1575420030,0.00,72.0,29.0,0,0,0,0.0
Status,1732153311000,26,21,6,4,1575420030,22.10,304.0,26.0,1,0,0,17.1
Status,1732153311000,26,22,6,15,1575420030,0.00,53.0,23.0,0,0,0,0.0
Status,1732153311000,26,23,6,29,1575420030,0.00,189.0,17.0,0,0,0,0.0
Status,1732153311000,26,24,6,26,1575420030,0.00,164.0,14.0,0,0,0,0.0
Status,1732153311000,26,25,6,6,1575420030,0.00,323.0,9.0,0,0,0,0.0
Fix,GPS,37.4249466667,-122.1587016667,24.400000000000002,0.0,3.9,0.0,1732153312000,1.3,144.5,32196097000000,50.6,0,,,
Fix,FLP,37.4249375000,-122.1586787000,2.755450810366417,0.07136827,3.942,,1732153312249,1.3,,32196097000000,9.906932,0,,,
Raw,1732153312001,89529000000,,102.57243531084032,-1416188440472000000,0.0,102.57243531084032,1216.924990173925,0.0,0,2,0.0,16431,351729917460062,487,20.957000732421875,823.8331571366125,0.14999,16,0.0,0.0,1575420030,,,,0,3.8507600729122293,1,6.0,20.957000732421875,0.0,0.0,0.0,66.7128,C,32196097000000,
Raw,1732153312001,89529000000,,102.57243531084032,-1416188440472000000,0.0,102.57243531084032,1216.924990173925,0.0,0,6,0.0,16431,351729922285863,316,26.707000732421875,-280.9443565935238,0.14999,16,0.0,0.0,1575420030,,,,0,12.375429378465759,1,6.0,26.707000732421875,0.0,0.0,0.0,66.7128,C,32196097000000,
Raw,1732153312001,89529000000,,102.57243531084032,-1416188440472000000,0.0,102.57243531084032,1216.924990173925,0.0,0,13,0.0,16431,351729927443755,797,20.266000747680664,859.8535751434644,0.14999,16,0.0,0.0,1575420030,,,,0,2.6727434713950062,1,6.0,20.266000747680664,0.0,0.0,0.0,66.7128,C,32196097000000,
Raw,1732153312001,89529000000,,102.57243531084032,-1416188440472000000,0.0,102.57243531084032,1216.924990173925,0.0,0,30,0.0,16431,351729923991095,396,23.160999298095703,964.4209704313224,0.14999,16,0.0,0.0,1575420030,,,,0,7.358450361340873,1,6.0,23.160999298095703,0.0,0.0,0.0,66.7128,C,32196097000000,
Raw,1732153312001,89529000000,,102.57243531084032,-1416188440472000000,0.0,102.57243531084032,1216.924990173925,0.0,0,24,0.0,16431,351729924327667,487,18.201000213623047,-217.06333742779051,0.14999,16,0.0,0.0,1575420030,,,,0,1.9653617360752698,1,6.0,18.201000213623047,0.0,0.0,0.0,66.7128,C,32196097000000,
Raw,1732153312001,89529000000,,102.57243531084032,-1416188440472000000,0.0,102.57243531084032,1216.924990173925,0.0,0,13,0.0,16431,351729915803580,1797,11.300000190734863,6.473980298938512,0.14999,16,0.0,0.0,1575420030,,,,0,0.0,6,6.0,11.300000190734863,0.0,0.0,-47.86422777092778,66.7128,C,32196097000000,
Raw,1732153312001,89529000000,,102.57243531084032,-1416188440472000000,0.0,102.57243531084032,1216.924990173925,0.0,0,4,0.0,16431,351729913069770,487,17.065000534057617,219.73704250991509,0.14999,16,0.0,0.0,1575420030,,,,0,0.0,6,6.0,17.065000534057617,0.0,0.0,-47.86422777092778,66.7128,C,32196097000000,
Status,1732153312000,25,0,1,19,1575420030,0.00,205.0,72.0,0,0,0,0.0
Status,1732153312000,25,1,1,17,1575420030,0.00,53.0,71.0,0,0,0,0.0
Status,1732153312000,25,2,1,22,1575420030,0.00,34.0,62.0,0,0,0,0.0
Status,1732153312000,25,3,1,14,1575420030,0.00,64.0,46.0,0,0,0,0.0
Status,1732153312000,25,4,1,13,1575420030,21.90,224.0,40.0,1,0,0,16.9
Status,1732153312000,25,5,1,30,1575420030,29.00,137.0,27.0,1,0,0,24.0
Status,1732153312000,25,6,1,15,1575420030,0.00,264.0,27.0,0,0,0,0.0
Status,1732153312000,25,7,1,24,1575420030,23.30,313.0,25.0,1,0,0,18.3
Status,1732153312000,25,8,1,6,1575420030,28.50,157.0,21.0,1,0,0,23.5
Status,1732153312000,25,9,1,2,1575420030,26.00,40.0,12.0,1,0,0,21.0
Status,1732153312000,25,10,1,12,1575420030,0.00,274.0,5.0,0,0,0,0.0
Status,1732153312000,25,11,3,20,1602000000,0.00,92.0,59.0,0,0,0,0.0
Status,1732153312000,25,12,3,11,1602000000,0.00,321.0,36.0,0,0,0,0.0
Status,1732153312000,25,13,3,9,1602000000,0.00,93.0,26.0,0,0,0,0.0
Status,1732153312000,25,14,3,19,1602000000,0.00,27.0,14.0,0,0,0,0.0
Status,1732153312000,25,15,3,8,1602000000,0.00,238.0,13.0,0,0,0,0.0
Status,1732153312000,25,16,6,21,1575420030,0.00,5.0,67.0,0,0,0,0.0
Status,1732153312000,25,17,6,19,1575420030,0.00,234.0,39.0,0,0,0,0.0
Status,1732153312000,25,18,6,13,1575420030,16.30,112.0,35.0,1,0,0,11.299999
Status,1732153312000,25,19,6,27,1575420030,0.00,72.0,29.0,0,0,0,0.0
Status,1732153312000,25,20,6,4,1575420030,22.00,304.0,26.0,1,0,0,17.0
Status,1732153312000,25,21,6,15,1575420030,0.00,53.0,23.0,0,0,0,0.0
Status,1732153312000,25,22,6,29,1575420030,0.00,189.0,17.0,0,0,0,0.0
Status,1732153312000,25,23,6,26,1575420030,0.00,164.0,14.0,0,0,0,0.0
Status,1732153312000,25,24,6,6,1575420030,0.00,323.0,9.0,0,0,0,0.0
Fix,GPS,37.4249566667,-122.1587133333,24.400000000000002,0.0,3.8,0.0,1732153313000,1.3,143.0,32197097000000,50.4,0,,,
Fix,FLP,37.4249471000,-122.1586942000,2.832330039529396,0.09166002,3.914,,1732153313249,1.3,,32197097000000,10.133287,0,,,
Raw,1732153313001,90529000000,,102.45231640448844,-1416188440472000000,0.0,102.45231640448844,1217.1347207831711,0.0,0,2,0.0,16431,351730917457327,487,21.000999450683594,824.039804171917,0.14999,16,0.0,0.0,1575420030,,,,0,5.327808323763388,1,6.0,21.000999450683594,0.0,0.0,0.0,66.7128,C,32197097000000,
Raw,1732153313001,90529000000,,102.45231640448844,-1416188440472000000,0.0,102.45231640448844,1217.1347207831711,0.0,0,6,0.0,16431,351730922286801,396,23.52899932861328,-281.52415762783136,0.14999,16,0.0,0.0,1575420030,,,,0,7.906637905002864,1,6.0,23.52899932861328,0.0,0.0,0.0,66.7128,C,32197097000000,
Raw,1732153313001,90529000000,,102.45231640448844,-1416188440472000000,0.0,102.45231640448844,1217.1347207831711,0.0,0,13,0.0,16431,351730927440868,487,16.85300064086914,859.9671195126829,0.14999,16,0.0,0.0,1575420030,,,,0,0.0,1,6.0,16.85300064086914,0.0,0.0,0.0,66.7128,C,32197097000000,
Raw,1732153313001,90529000000,,102.45231640448844,-1416188440472000000,0.0,102.45231640448844,1217.1347207831711,0.0,0,30,0.0,16431,351730923987880,396,24.038000106811523,964.4557213266479,0.14999,16,0.0,0.0,1575420030,,,,0,8.669047174041006,1,6.0,24.038000106811523,0.0,0.0,0.0,66.7128,C,32197097000000,
Raw,1732153313001,90529000000,,102.45231640448844,-1416188440472000000,0.0,102.45231640448844,1217.1347207831711,0.0,0,24,0.0,16431,351730924328394,487,18.30900001525879,-217.26120382243118,0.14999,16,0.0,0.0,1575420030,,,,0,2.8647046464057326,1,6.0,18.30900001525879,0.0,0.0,0.0,66.7128,C,32197097000000,
Raw,1732153313001,90529000000,,102.45231640448844,-1416188440472000000,0.0,102.45231640448844,1217.1347207831711,0.0,0,13,0.0,16431,351730915803558,1797,11.300000190734863,6.576653398763802,0.14999,16,0.0,0.0,1575420030,,,,0,0.0,6,6.0,11.300000190734863,0.0,0.0,-47.86422777092778,66.7128,C,32197097000000,
Raw,1732153313001,90529000000,,102.45231640448844,-1416188440472000000,0.0,102.45231640448844,1217.1347207831711,0.0,0,4,0.0,16431,351730913069035,487,16.986000061035156,220.4826304024699,0.14999,16,0.0,0.0,1575420030,,,,0,0.0,6,6.0,16.986000061035156,0.0,0.0,-47.86422777092778,66.7128,C,32197097000000,
Fix,FLP,37.4249509000,-122.1587012000,2.832330039529396,0.07650918,3.866,,1732153313618,1.3,,32197465000000,10.41313,0,,,
Fix,NLP,37.4257147000,-122.1580919000,5.400000095367432,,60.0,,1732153313617,,,32197465000000,10.783336,0,,,
Status,1732153313000,25,0,1,19,1575420030,0.00,205.0,72.0,0,0,0,0.0
Status,1732153313000,25,1,1,17,1575420030,0.00,53.0,71.0,0,0,0,0.0
Status,1732153313000,25,2,1,22,1575420030,0.00,34.0,62.0,0,0,0,0.0
Status,1732153313000,25,3,1,14,1575420030,0.00,64.0,46.0,0,0,0,0.0
Status,1732153313000,25,4,1,13,1575420030,21.90,224.0,40.0,1,0,0,16.9
Status,1732153313000,25,5,1,30,1575420030,27.60,137.0,27.0,1,0,0,22.6
Status,1732153313000,25,6,1,15,1575420030,0.00,264.0,27.0,0,0,0,0.0
Status,1732153313000,25,7,1,24,1575420030,23.40,313.0,25.0,1,0,0,18.4
Status,1732153313000,25,8,1,6,1575420030,29.40,157.0,21.0,1,0,0,24.4
Status,1732153313000,25,9,1,2,1575420030,26.00,40.0,12.0,1,0,0,21.0
Status,1732153313000,25,10,1,12,1575420030,30.00,274.0,5.0,0,0,0,25.0
Status,1732153313000,25,11,3,20,1602000000,0.00,90.0,59.0,0,0,0,0.0
Status,1732153313000,25,12,3,11,1602000000,0.00,321.0,36.0,0,0,0,0.0
Status,1732153313000,25,13,3,9,1602000000,0.00,93.0,26.0,0,0,0,0.0
Status,1732153313000,25,14,3,19,1602000000,0.00,27.0,14.0,0,0,0,0.0
Status,1732153313000,25,15,3,8,1602000000,0.00,238.0,13.0,0,0,0,0.0
Status,1732153313000,25,16,6,21,1575420030,0.00,5.0,67.0,0,0,0,0.0
Status,1732153313000,25,17,6,19,1575420030,0.00,234.0,39.0,0,0,0,0.0
Status,1732153313000,25,18,6,13,1575420030,16.20,112.0,35.0,1,0,0,11.200001
Status,1732153313000,25,19,6,27,1575420030,0.00,72.0,29.0,0,0,0,0.0
Status,1732153313000,25,20,6,4,1575420030,21.90,304.0,26.0,1,0,0,16.9
Status,1732153313000,25,21,6,15,1575420030,0.00,53.0,23.0,0,0,0,0.0
Status,1732153313000,25,22,6,29,1575420030,0.00,189.0,17.0,0,0,0,0.0
Status,1732153313000,25,23,6,26,1575420030,0.00,164.0,14.0,0,0,0,0.0
Status,1732153313000,25,24,6,6,1575420030,0.00,323.0,9.0,0,0,0,0.0
Fix,GPS,37.4249600000,-122.1587183333,24.400000000000002,0.0,3.8,0.0,1732153314000,1.3,151.0,32198097000000,50.1,0,,,
Fix,FLP,37.4249547000,-122.1587076000,2.9005534057007485,0.065685585,3.857,,1732153314250,1.3,,32198097000000,10.828189,0,,,
Raw,1732153314001,91529000000,,102.42677205019804,-1416188440472000000,0.0,102.42677205019804,1216.6916172848337,0.0,0,2,0.0,16431,351731917454578,487,21.042999267578125,823.8545280080693,0.14999,16,0.0,0.0,1575420030,,,,0,5.327808323763388,1,6.0,21.042999267578125,0.0,0.0,0.0,66.7128,C,32198097000000,
Raw,1732153314001,91529000000,,102.42677205019804,-1416188440472000000,0.0,102.42677205019804,1216.6916172848337,0.0,0,6,0.0,16431,351731922287741,316,24.371999740600586,-281.53330993582483,0.14999,16,0.0,0.0,1575420030,,,,0,9.142509855913001,1,6.0,24.371999740600586,0.0,0.0,0.0,66.7128,C,32198097000000,
Raw,1732153314001,91529000000,,102.42677205019804,-1416188440472000000,0.0,102.42677205019804,1216.6916172848337,0.0,0,13,0.0,16431,351731927438007,797,16.93600082397461,860.1268435476147,0.14999,16,0.0,0.0,1575420030,,,,0,0.0,1,6.0,16.93600082397461,0.0,0.0,0.0,66.7128,C,32198097000000,
Raw,1732153314001,91529000000,,102.42677205019804,-1416188440472000000,0.0,102.42677205019804,1216.6916172848337,0.0,0,12,0.0,17,475768,316,24.965999603271484,-180.158118884209,0.14999,16,0.0,0.0,1575420030,,,,0,9.976644786038996,1,6.0,24.965999603271484,0.0,0.0,0.0,66.7128,C,32198097000000,
Raw,1732153314001,91529000000,,102.42677205019804,-1416188440472000000,0.0,102.42677205019804,1216.6916172848337,0.0,0,30,0.0,16431,351731923984665,797,22.62299919128418,964.0497676858002,0.14999,16,0.0,0.0,1575420030,,,,0,6.527766917269094,1,6.0,22.62299919128418,0.0,0.0,0.0,66.7128,C,32198097000000,
Raw,1732153314001,91529000000,,102.42677205019804,-1416188440472000000,0.0,102.42677205019804,1216.6916172848337,0.0,0,24,0.0,16431,351731924329109,797,18.4060001373291,-216.83383285171044,0.14999,16,0.0,0.0,1575420030,,,,0,2.6727434713950062,1,6.0,18.4060001373291,0.0,0.0,0.0,66.7128,C,32198097000000,
Raw,1732153314001,91529000000,,102.42677205019804,-1416188440472000000,0.0,102.42677205019804,1216.6916172848337,0.0,0,13,0.0,16431,351731915803508,1837,11.25,6.348821325667322,0.14999,16,0.0,0.0,1575420030,,,,0,0.0,6,6.0,11.25,0.0,0.0,-47.86422777092778,66.7128,C,32198097000000,
Raw,1732153314001,91529000000,,102.42677205019804,-1416188440472000000,0.0,102.42677205019804,1216.6916172848337,0.0,0,4,0.0,16431,351731913068298,487,16.900999069213867,220.5032347100593,0.14999,16,0.0,0.0,1575420030,,,,0,0.0,6,6.0,16.900999069213867,0.0,0.0,-47.86422777092778,66.7128,C,32198097000000,
Status,1732153314000,26,0,1,19,1575420030,0.00,205.0,72.0,0,0,0,0.0
Status,1732153314000,26,1,1,17,1575420030,0.00,53.0,71.0,0,0,0,0.0
Status,1732153314000,26,2,1,22,1575420030,0.00,34.0,62.0,0,0,0,0.0
Status,1732153314000,26,3,1,14,1575420030,0.00,64.0,46.0,0,0,0,0.0
Status,1732153314000,26,4,2,135,1575420030,0.00,197.0,45.0,0,0,0,0.0
Status,1732153314000,26,5,1,13,1575420030,22.00,224.0,40.0,1,0,0,17.0
Status,1732153314000,26,6,1,30,1575420030,27.70,137.0,27.0,1,0,0,22.7
Status,1732153314000,26,7,1,15,1575420030,0.00,264.0,27.0,0,0,0,0.0
Status,1732153314000,26,8,1,24,1575420030,0.00,313.0,25.0,0,0,0,0.0
Status,1732153314000,26,9,1,6,1575420030,35.50,157.0,21.0,1,0,0,30.5
Status,1732153314000,26,10,1,2,1575420030,26.00,40.0,12.0,1,0,0,21.0
Status,1732153314000,26,11,1,12,1575420030,26.30,274.0,5.0,0,0,0,21.3
Status,1732153314000,26,12,3,20,1602000000,0.00,90.0,59.0,0,0,0,0.0
Status,1732153314000,26,13,3,11,1602000000,0.00,321.0,36.0,0,0,0,0.0
Status,1732153314000,26,14,3,9,1602000000,0.00,93.0,26.0,0,0,0,0.0
Status,1732153314000,26,15,3,19,1602000000,0.00,27.0,14.0,0,0,0,0.0
Status,1732153314000,26,16,3,8,1602000000,0.00,238.0,13.0,0,0,0,0.0
Status,1732153314000,26,17,6,21,1575420030,0.00,5.0,67.0,0,0,0,0.0
Status,1732153314000,26,18,6,19,1575420030,0.00,234.0,39.0,0,0,0,0.0
Status,1732153314000,26,19,6,13,1575420030,16.20,112.0,35.0,1,0,0,11.200001
Status,1732153314000,26,20,6,27,1575420030,0.00,72.0,29.0,0,0,0,0.0
Status,1732153314000,26,21,6,4,1575420030,21.80,304.0,26.0,1,0,0,16.8
Status,1732153314000,26,22,6,15,1575420030,0.00,53.0,23.0,0,0,0,0.0
Status,1732153314000,26,23,6,29,1575420030,0.00,189.0,17.0,0,0,0,0.0
Status,1732153314000,26,24,6,26,1575420030,0.00,164.0,14.0,0,0,0,0.0
Status,1732153314000,26,25,6,6,1575420030,0.00,323.0,9.0,0,0,0,0.0
Fix,GPS,37.4249600000,-122.1587183333,24.400000000000002,0.0,3.8,0.0,1732153315000,1.3,176.4,32199097000000,50.2,0,,,
Raw,1732153315001,92529000000,,102.29119928666775,-1416188440472000000,0.0,102.29119928666775,1212.4640385451096,0.0,0,2,0.0,16431,351732917451813,797,21.009000778198242,822.7097926326417,0.14999,16,0.0,0.0,1575420030,,,,0,2.8647046464057326,1,6.0,21.009000778198242,0.0,0.0,0.0,66.7128,C,32199097000000,
Raw,1732153315001,92529000000,,102.29119928666775,-1416188440472000000,0.0,102.29119928666775,1212.4640385451096,0.0,0,6,0.0,16431,351732922288680,74,30.503000259399414,-282.48700830379477,0.14999,16,0.0,0.0,1575420030,,,,0,17.161007100342996,1,6.0,30.503000259399414,0.0,0.0,0.0,66.7128,C,32199097000000,
Raw,1732153315001,92529000000,,102.29119928666775,-1416188440472000000,0.0,102.29119928666775,1212.4640385451096,0.0,0,13,0.0,16431,351732927435138,797,17.014999389648438,859.4844165682554,0.14999,16,0.0,0.0,1575420030,,,,0,0.0,1,6.0,17.014999389648438,0.0,0.0,0.0,66.7128,C,32199097000000,
Raw,1732153315001,92529000000,,102.29119928666775,-1416188440472000000,0.0,102.29119928666775,1212.4640385451096,0.0,0,12,0.0,17,476360,487,21.326000213623047,-181.64367320095715,0.14999,16,0.0,0.0,1575420030,,,,0,4.5035283254993566,1,6.0,21.326000213623047,0.0,0.0,0.0,66.7128,C,32199097000000,
Raw,1732153315001,92529000000,,102.29119928666775,-1416188440472000000,0.0,102.29119928666775,1212.4640385451096,0.0,0,30,0.0,16431,351732923981454,396,22.69499969482422,962.5329003965262,0.14999,16,0.0,0.0,1575420030,,,,0,8.717571823363528,1,6.0,22.69499969482422,0.0,0.0,0.0,66.7128,C,32199097000000,
Raw,1732153315001,92529000000,,102.29119928666775,-1416188440472000000,0.0,102.29119928666775,1212.4640385451096,0.0,0,13,0.0,16431,351732915803488,1797,11.20199966430664,4.982014720753285,0.14999,16,0.0,0.0,1575420030,,,,0,0.0,6,6.0,11.20199966430664,0.0,0.0,-47.86422777092778,66.7128,C,32199097000000,
Raw,1732153315001,92529000000,,102.29119928666775,-1416188440472000000,0.0,102.29119928666775,1212.4640385451096,0.0,0,4,0.0,16431,351732913067565,487,16.81999969482422,218.99442795599774,0.14999,16,0.0,0.0,1575420030,,,,0,0.0,6,6.0,16.81999969482422,0.0,0.0,-47.86422777092778,66.7128,C,32199097000000,
Fix,FLP,37.4249573000,-122.1587122000,2.9005534057007485,0.0482145,3.842,,1732153315250,1.3,,32199097000000,10.825461,0,,,
Status,1732153315000,26,0,1,19,1575420030,0.00,205.0,72.0,0,0,0,0.0
Status,1732153315000,26,1,1,17,1575420030,0.00,53.0,71.0,0,0,0,0.0
Status,1732153315000,26,2,1,22,1575420030,0.00,34.0,62.0,0,0,0,0.0
Status,1732153315000,26,3,1,14,1575420030,0.00,64.0,46.0,0,0,0,0.0
Status,1732153315000,26,4,2,135,1575420030,0.00,197.0,45.0,0,0,0,0.0
Status,1732153315000,26,5,1,13,1575420030,22.00,224.0,40.0,1,0,0,17.0
Status,1732153315000,26,6,1,30,1575420030,27.70,137.0,27.0,1,0,0,22.7
Status,1732153315000,26,7,1,15,1575420030,0.00,264.0,27.0,0,0,0,0.0
Status,1732153315000,26,8,1,24,1575420030,0.00,313.0,25.0,0,0,0,0.0
Status,1732153315000,26,9,1,6,1575420030,32.10,157.0,21.0,1,0,0,27.099998
Status,1732153315000,26,10,1,2,1575420030,26.00,40.0,12.0,1,0,0,21.0
Status,1732153315000,26,11,1,12,1575420030,0.00,274.0,5.0,0,0,0,0.0
Status,1732153315000,26,12,3,20,1602000000,0.00,90.0,59.0,0,0,0,0.0
Status,1732153315000,26,13,3,11,1602000000,0.00,321.0,36.0,0,0,0,0.0
Status,1732153315000,26,14,3,9,1602000000,0.00,93.0,26.0,0,0,0,0.0
Status,1732153315000,26,15,3,19,1602000000,0.00,27.0,14.0,0,0,0,0.0
Status,1732153315000,26,16,3,8,1602000000,0.00,238.0,13.0,0,0,0,0.0
Status,1732153315000,26,17,6,21,1575420030,0.00,5.0,67.0,0,0,0,0.0
Status,1732153315000,26,18,6,19,1575420030,0.00,234.0,39.0,0,0,0,0.0
Status,1732153315000,26,19,6,13,1575420030,16.20,112.0,35.0,1,0,0,11.200001
Status,1732153315000,26,20,6,27,1575420030,0.00,72.0,29.0,0,0,0,0.0
Status,1732153315000,26,21,6,4,1575420030,21.90,304.0,26.0,1,0,0,16.9
Status,1732153315000,26,22,6,15,1575420030,0.00,53.0,23.0,0,0,0,0.0
Status,1732153315000,26,23,6,29,1575420030,0.00,189.0,17.0,0,0,0,0.0
Status,1732153315000,26,24,6,26,1575420030,0.00,164.0,14.0,0,0,0,0.0
Status,1732153315000,26,25,6,6,1575420030,0.00,323.0,9.0,0,0,0,0.0
Fix,GPS,37.4249600000,-122.1587183333,24.400000000000002,0.0,3.8,0.0,1732153316000,1.3,179.9,32200097000000,50.3,0,,,
Fix,FLP,37.4249588000,-122.1587149000,2.9840260505721483,0.031801615,3.828,,1732153316249,1.3,,32200097000000,10.903463,0,,,
Raw,1732153316001,93529000000,,102.60134528491145,-1416188440472000000,0.0,102.60134528491145,1208.0822434712384,0.0,0,2,0.0,16431,351733917449070,797,20.976999282836914,821.2636350528401,0.14999,16,0.0,0.0,1575420030,,,,0,2.8647046464057326,1,6.0,20.976999282836914,0.0,0.0,0.0,66.7128,C,32200097000000,
