# 
# Header Description:
# 
# Version: v3.1.0.3 Platform: 13 Manufacturer: samsung Model: SM-S135DL GNSS Hardware Model Name: MediaTek,MT6631,MTK_MNLD_default,MNL_VER_default
# 
# Raw,utcTimeMillis,TimeNanos,LeapSecond,TimeUncertaintyNanos,FullBiasNanos,BiasNanos,BiasUncertaintyNanos,DriftNanosPerSecond,DriftUncertaintyNanosPerSecond,HardwareClockDiscontinuityCount,Svid,TimeOffsetNanos,State,ReceivedSvTimeNanos,ReceivedSvTimeUncertaintyNanos,Cn0DbHz,PseudorangeRateMetersPerSecond,PseudorangeRateUncertaintyMetersPerSecond,AccumulatedDeltaRangeState,AccumulatedDeltaRangeMeters,AccumulatedDeltaRangeUncertaintyMeters,CarrierFrequencyHz,CarrierCycles,CarrierPhase,CarrierPhaseUncertainty,MultipathIndicator,SnrInDb,ConstellationType,AgcDb,BasebandCn0DbHz,FullInterSignalBiasNanos,FullInterSignalBiasUncertaintyNanos,SatelliteInterSignalBiasNanos,SatelliteInterSignalBiasUncertaintyNanos,CodeType,ChipsetElapsedRealtimeNanos,IsFullTracking
# 
# UncalAccel,utcTimeMillis,elapsedRealtimeNanos,UncalAccelXMps2,UncalAccelYMps2,UncalAccelZMps2,BiasXMps2,BiasYMps2,BiasZMps2
# 
# Accel,utcTimeMillis,elapsedRealtimeNanos,AccelXMps2,AccelYMps2,AccelZMps2
# 
# UncalGyro,utcTimeMillis,elapsedRealtimeNanos,UncalGyroXRadPerSec,UncalGyroYRadPerSec,UncalGyroZRadPerSec,DriftXRadPerSec,DriftYRadPerSec,DriftZRadPerSec
# 
# Gyro,utcTimeMillis,elapsedRealtimeNanos,GyroXRadPerSec,GyroYRadPerSec,GyroZRadPerSec
# 
# UncalMag,utcTimeMillis,elapsedRealtimeNanos,UncalMagXMicroT,UncalMagYMicroT,UncalMagZMicroT,BiasXMicroT,BiasYMicroT,BiasZMicroT
# 
# Mag,utcTimeMillis,elapsedRealtimeNanos,MagXMicroT,MagYMicroT,MagZMicroT
# 
# Pressure,utcTimeMillis,elapsedRealtimeNanos,PressureHpa
# 
# OrientationDeg,utcTimeMillis,elapsedRealtimeNanos,yawDeg,rollDeg,pitchDeg
# 
# Fix,Provider,LatitudeDegrees,LongitudeDegrees,AltitudeMeters,SpeedMps,AccuracyMeters,BearingDegrees,UnixTimeMillis,SpeedAccuracyMps,BearingAccuracyDegrees,elapsedRealtimeNanos,VerticalAccuracyMeters,MockLocation,NumberOfUsedSignals,VerticalSpeedAccuracyMps,SolutionType
# 
# Nav,Svid,Type,Status,MessageId,Sub-messageId,Data(Bytes)
# 
# Status,UnixTimeMillis,SignalCount,SignalIndex,ConstellationType,Svid,CarrierFrequencyHz,Cn0DbHz,AzimuthDegrees,ElevationDegrees,UsedInFix,HasAlmanacData,HasEphemerisData,BasebandCn0DbHz
# 
# Agc,utcTimeMillis,TimeNanos,LeapSecond,TimeUncertaintyNanos,FullBiasNanos,BiasNanos,BiasUncertaintyNanos,DriftNanosPerSecond,DriftUncertaintyNanosPerSecond,HardwareClockDiscontinuityCount,AgcDb,CarrierFrequencyHz,ConstellationType
# 
Status,,28,0,1,17,1575420030,0.00,68.0,77.0,0,0,0,0.0
Status,,28,1,1,22,1575420030,0.00,21.0,65.0,0,0,0,0.0
Status,,28,2,1,19,1575420030,0.00,201.0,65.0,0,0,0,0.0
Status,,28,3,1,14,1575420030,0.00,57.0,50.0,0,0,0,0.0
Status,,28,4,1,13,1575420030,0.00,230.0,45.0,0,0,0,0.0
Status,,28,5,2,133,1575420030,0.00,191.0,45.0,0,0,0,0.0
Status,,28,6,1,30,1575420030,0.00,133.0,33.0,0,0,0,0.0
Status,,28,7,1,15,1575420030,24.50,271.0,29.0,1,0,0,19.5
Status,,28,8,1,24,1575420030,19.40,313.0,20.0,1,0,0,14.4
Status,,28,9,1,2,1575420030,0.00,45.0,15.0,0,0,0,0.0
Status,,28,10,1,6,1575420030,30.30,160.0,15.0,1,0,0,25.3
Status,,28,11,1,21,1575420030,0.00,32.0,3.0,0,0,0,0.0
Status,,28,12,1,7,1575420030,30.50,133.0,1.0,0,0,0,25.5
Status,,28,13,1,12,1575420030,0.00,269.0,1.0,0,0,0,0.0
Status,,28,14,3,20,1602000000,0.00,107.0,56.0,0,0,0,0.0
Status,,28,15,3,9,1602000000,0.00,85.0,31.0,0,0,0,0.0
Status,,28,16,3,11,1602000000,0.00,314.0,31.0,0,0,0,0.0
Status,,28,17,3,19,1602000000,0.00,30.0,20.0,0,0,0,0.0
Status,,28,18,3,8,1602000000,0.00,243.0,19.0,0,0,0,0.0
Status,,28,19,6,21,1575420030,0.00,351.0,68.0,0,0,0,0.0
Status,,28,20,6,19,1575420030,0.00,239.0,44.0,0,0,0,0.0
Status,,28,21,6,27,1575420030,0.00,67.0,32.0,0,0,0,0.0
Status,,28,22,6,13,1575420030,0.00,118.0,31.0,0,0,0,0.0
Status,,28,23,6,4,1575420030,0.00,309.0,24.0,0,0,0,0.0
Status,,28,24,6,15,1575420030,0.00,59.0,24.0,0,0,0,0.0
Status,,28,25,6,29,1575420030,0.00,191.0,22.0,0,0,0,0.0
Status,,28,26,6,26,1575420030,0.00,166.0,9.0,0,0,0,0.0
Status,,28,27,6,6,1575420030,27.00,326.0,6.0,1,0,0,22.0
Fix,GPS,37.4257650000,-122.1581616667,22.8,0.0,8.6,0.0,1732152396764,17.3,179.9,31280839000000,100.1,0,,,
Raw,1732152396765,15514000000,,33353073.878863223,-1416187599251000320,0.0,179.53604149033833,1086.923475186554,0.0,0,24,0.0,16431,350814686490181,1797,14.399999618530273,-300.72997397243546,0.14999,16,0.0,0.0,1575420030,,,,0,0.0,1,6.0,14.399999618530273,0.0,0.0,0.0,66.7128,C,31280839000000,
Raw,1732152396765,15514000000,,33353073.878863223,-1416187599251000320,0.0,179.53604149033833,1086.923475186554,0.0,0,15,0.0,16431,350814689180588,797,19.530000686645508,552.1569293681775,0.14999,16,0.0,0.0,1575420030,,,,0,0.0,1,6.0,19.530000686645508,0.0,0.0,0.0,66.7128,C,31280839000000,
Raw,1732152396765,15514000000,,33353073.878863223,-1416187599251000320,0.0,179.53604149033833,1086.923475186554,0.0,0,6,0.0,16431,350814684299863,316,25.259000778198242,-332.3292697174438,0.14999,16,0.0,0.0,1575420030,,,,0,10.382472340010718,1,6.0,25.259000778198242,0.0,0.0,0.0,66.7128,C,31280839000000,
Raw,1732152396765,15514000000,,33353073.878863223,-1416187599251000320,0.0,179.53604149033833,1086.923475186554,0.0,0,6,0.0,16431,350814670851682,396,22.0,743.3972853136646,0.14999,16,0.0,0.0,1575420030,,,,0,7.166789495776765,6,6.0,22.0,0.0,0.0,-38.3793287609861,66.7128,C,31280839000000,
Raw,1732152396765,15514000000,,33353073.878863223,-1416187599251000320,0.0,179.53604149033833,1086.923475186554,0.0,0,7,0.0,16431,350814680573647,487,25.509000778198242,977.425981964306,0.14999,16,0.0,0.0,1575420030,,,,0,10.726134776865496,1,6.0,25.509000778198242,0.0,0.0,0.0,66.7128,C,31280839000000,
Fix,FLP,37.4257540000,-122.1581548000,5.400000095367432,0.33587912,5.985,0.0,1732152396991,17.3,179.9,31280839000000,13.909171,0,,,
Fix,FLP,37.4257582000,-122.1581563000,5.400000095367432,0.3904229,6.4,0.0,1732152397470,17.3,179.9,31281318000000,14.387928,0,,,
Fix,NLP,37.4256512000,-122.1581140000,-0.4000000059604645,,25.479,,1732152397470,,,31281318000000,18.230324,0,,,
Status,1732152396764,29,0,1,17,1575420030,0.00,68.0,77.0,0,0,0,0.0
Status,1732152396764,29,1,1,22,1575420030,0.00,21.0,65.0,0,0,0,0.0
Status,1732152396764,29,2,1,19,1575420030,0.00,201.0,65.0,0,0,0,0.0
Status,1732152396764,29,3,1,14,1575420030,0.00,57.0,50.0,0,0,0,0.0
Status,1732152396764,29,4,1,13,1575420030,0.00,230.0,45.0,0,0,0,0.0
Status,1732152396764,29,5,2,133,1575420030,0.00,191.0,45.0,0,0,0,0.0
Status,1732152396764,29,6,1,30,1575420030,0.00,133.0,33.0,0,0,0,0.0
Status,1732152396764,29,7,1,15,1575420030,24.40,271.0,29.0,1,0,0,19.4
Status,1732152396764,29,8,1,24,1575420030,19.00,313.0,20.0,1,0,0,14.0
Status,1732152396764,29,9,1,2,1575420030,0.00,45.0,15.0,0,0,0,0.0
Status,1732152396764,29,10,1,6,1575420030,28.40,160.0,15.0,1,0,0,23.4
Status,1732152396764,29,11,1,21,1575420030,0.00,32.0,3.0,0,0,0,0.0
Status,1732152396764,29,12,1,7,1575420030,23.70,133.0,1.0,1,0,0,18.7
Status,1732152396764,29,13,1,12,1575420030,0.00,269.0,1.0,0,0,0,0.0
Status,1732152396764,29,14,3,20,1602000000,0.00,107.0,56.0,0,0,0,0.0
Status,1732152396764,29,15,3,9,1602000000,0.00,85.0,31.0,0,0,0,0.0
Status,1732152396764,29,16,3,11,1602000000,0.00,314.0,31.0,0,0,0,0.0
Status,1732152396764,29,17,3,19,1602000000,0.00,30.0,20.0,0,0,0,0.0
Status,1732152396764,29,18,3,8,1602000000,0.00,243.0,19.0,0,0,0,0.0
Status,1732152396764,29,19,3,17,1602000000,31.00,0.0,0.0,0,0,0,26.0
Status,1732152396764,29,20,6,21,1575420030,0.00,351.0,68.0,0,0,0,0.0
Status,1732152396764,29,21,6,19,1575420030,0.00,239.0,44.0,0,0,0,0.0
Status,1732152396764,29,22,6,27,1575420030,0.00,67.0,32.0,0,0,0,0.0
Status,1732152396764,29,23,6,13,1575420030,0.00,118.0,31.0,0,0,0,0.0
Status,1732152396764,29,24,6,4,1575420030,0.00,309.0,24.0,0,0,0,0.0
Status,1732152396764,29,25,6,15,1575420030,0.00,59.0,24.0,0,0,0,0.0
Status,1732152396764,29,26,6,29,1575420030,0.00,191.0,22.0,0,0,0,0.0
Status,1732152396764,29,27,6,26,1575420030,0.00,166.0,9.0,0,0,0,0.0
Status,1732152396764,29,28,6,6,1575420030,0.00,326.0,6.0,0,0,0,0.0
Fix,GPS,37.4257950000,-122.1581200000,22.8,0.0,9.2,0.0,1732152397765,9.5,179.9,31281839000000,100.1,0,,,
Fix,FLP,37.4257694000,-122.1581490000,5.400000095367432,0.5974529,6.9,0.0000000008117793,1732152397991,9.5,179.9,31281839000000,14.054599,0,,,
Raw,1732152397765,16514000000,,33353073.878863223,-1416187599251000320,0.0,181.59731500693357,1090.48093613874,0.0,0,24,0.0,16431,350815686491184,797,14.0,-300.71668686539925,0.14999,16,0.0,0.0,1575420030,,,,0,0.0,1,6.0,14.0,0.0,0.0,0.0,66.7128,C,31281839000000,
Raw,1732152397765,16514000000,,33353073.878863223,-1416187599251000320,0.0,181.59731500693357,1090.48093613874,0.0,0,15,0.0,16431,350815689178746,797,19.41200065612793,551.995718663927,0.14999,16,0.0,0.0,1575420030,,,,0,0.0,1,6.0,19.41200065612793,0.0,0.0,0.0,66.7128,C,31281839000000,
Raw,1732152397765,16514000000,,33353073.878863223,-1416187599251000320,0.0,181.59731500693357,1090.48093613874,0.0,0,6,0.0,16431,350815684300967,487,23.3799991607666,-331.9834797255888,0.14999,16,0.0,0.0,1575420030,,,,0,7.66012716712666,1,6.0,23.3799991607666,0.0,0.0,0.0,66.7128,C,31281839000000,
Raw,1732152397765,16514000000,,33353073.878863223,-1416187599251000320,0.0,181.59731500693357,1090.48093613874,0.0,0,7,0.0,16431,350815680570387,797,18.67300033569336,978.0117296758884,0.14999,16,0.0,0.0,1575420030,,,,0,0.0,1,6.0,18.67300033569336,0.0,0.0,0.0,66.7128,C,31281839000000,
Status,1732152397765,29,0,1,17,1575420030,0.00,68.0,77.0,0,0,0,0.0
Status,1732152397765,29,1,1,22,1575420030,0.00,21.0,65.0,0,0,0,0.0
Status,1732152397765,29,2,1,19,1575420030,0.00,201.0,65.0,0,0,0,0.0
Status,1732152397765,29,3,1,14,1575420030,0.00,57.0,50.0,0,0,0,0.0
Status,1732152397765,29,4,1,13,1575420030,25.60,230.0,45.0,1,0,0,20.6
Status,1732152397765,29,5,2,133,1575420030,0.00,191.0,45.0,0,0,0,0.0
Status,1732152397765,29,6,1,30,1575420030,23.70,133.0,33.0,1,0,0,18.7
Status,1732152397765,29,7,1,15,1575420030,24.30,271.0,29.0,1,0,0,19.3
Status,1732152397765,29,8,1,24,1575420030,19.00,313.0,20.0,1,0,0,14.0
Status,1732152397765,29,9,1,2,1575420030,0.00,45.0,15.0,0,0,0,0.0
Status,1732152397765,29,10,1,6,1575420030,26.20,160.0,15.0,1,0,0,21.2
Status,1732152397765,29,11,1,21,1575420030,0.00,32.0,3.0,0,0,0,0.0
Status,1732152397765,29,12,1,7,1575420030,23.70,133.0,1.0,0,0,0,18.7
Status,1732152397765,29,13,1,12,1575420030,0.00,269.0,1.0,0,0,0,0.0
Status,1732152397765,29,14,3,20,1602000000,0.00,107.0,56.0,0,0,0,0.0
Status,1732152397765,29,15,3,9,1602000000,0.00,85.0,31.0,0,0,0,0.0
Status,1732152397765,29,16,3,11,1602000000,0.00,314.0,31.0,0,0,0,0.0
Status,1732152397765,29,17,3,19,1602000000,0.00,30.0,20.0,0,0,0,0.0
Status,1732152397765,29,18,3,8,1602000000,0.00,243.0,19.0,0,0,0,0.0
Status,1732152397765,29,19,3,17,1602000000,24.50,0.0,0.0,0,0,0,19.5
Status,1732152397765,29,20,6,21,1575420030,0.00,351.0,68.0,0,0,0,0.0
Status,1732152397765,29,21,6,19,1575420030,0.00,239.0,44.0,0,0,0,0.0
Status,1732152397765,29,22,6,27,1575420030,0.00,67.0,32.0,0,0,0,0.0
Status,1732152397765,29,23,6,13,1575420030,0.00,118.0,31.0,0,0,0,0.0
Status,1732152397765,29,24,6,4,1575420030,0.00,309.0,24.0,0,0,0,0.0
Status,1732152397765,29,25,6,15,1575420030,0.00,59.0,24.0,0,0,0,0.0
Status,1732152397765,29,26,6,29,1575420030,0.00,191.0,22.0,0,0,0,0.0
Status,1732152397765,29,27,6,26,1575420030,0.00,166.0,9.0,0,0,0,0.0
Status,1732152397765,29,28,6,6,1575420030,0.00,326.0,6.0,0,0,0,0.0
Fix,GPS,37.4257966667,-122.1581116667,22.900000000000002,0.0,8.5,0.0,1732152398762,7.8,179.9,31282839000000,100.1,0,,,
Raw,1732152398766,17514000000,,33353073.878863223,-1416187599252000256,0.0,177.9812014984046,1086.48202048748,0.0,0,24,0.0,16431,350816687492188,1797,14.0,-301.6811171275138,0.14999,16,0.0,0.0,1575420030,,,,0,0.0,1,6.0,14.0,0.0,0.0,0.0,66.7128,C,31282839000000,
Raw,1732152398766,17514000000,,33353073.878863223,-1416187599252000256,0.0,177.9812014984046,1086.48202048748,0.0,0,15,0.0,16431,350816690176907,797,19.299999237060547,551.0042960619941,0.14999,16,0.0,0.0,1575420030,,,,0,0.0,1,6.0,19.299999237060547,0.0,0.0,0.0,66.7128,C,31282839000000,
Raw,1732152398766,17514000000,,33353073.878863223,-1416187599252000256,0.0,177.9812014984046,1086.48202048748,0.0,0,6,0.0,16431,350816685302079,396,21.231000900268555,-333.0953225423394,0.14999,16,0.0,0.0,1575420030,,,,0,4.322834654780653,1,6.0,21.231000900268555,0.0,0.0,0.0,66.7128,C,31282839000000,
Raw,1732152398766,17514000000,,33353073.878863223,-1416187599252000256,0.0,177.9812014984046,1086.48202048748,0.0,0,30,0.0,16431,350816690743234,797,18.73900032043457,869.8043174779347,0.14999,16,0.0,0.0,1575420030,,,,0,0.0,1,6.0,18.73900032043457,0.0,0.0,0.0,66.7128,C,31282839000000,
Raw,1732152398766,17514000000,,33353073.878863223,-1416187599252000256,0.0,177.9812014984046,1086.48202048748,0.0,0,13,0.0,16431,350816693846718,487,20.631000518798828,741.9464818922419,0.14999,16,0.0,0.0,1575420030,,,,0,3.329078970998501,1,6.0,20.631000518798828,0.0,0.0,0.0,66.7128,C,31282839000000,
Raw,1732152398766,17514000000,,33353073.878863223,-1416187599252000256,0.0,177.9812014984046,1086.48202048748,0.0,0,7,0.0,16431,350816681567127,797,18.67300033569336,976.6230876153555,0.14999,16,0.0,0.0,1575420030,,,,0,0.0,1,6.0,18.67300033569336,0.0,0.0,0.0,66.7128,C,31282839000000,
Fix,FLP,37.4257831000,-122.1581391000,5.400000095367432,0.7720248,7.328,0.0000000006955491,1732152398991,7.8,179.9,31282839000000,17.97518,0,,,
Status,1732152398762,29,0,1,17,1575420030,0.00,68.0,77.0,0,0,0,0.0
Status,1732152398762,29,1,1,22,1575420030,0.00,22.0,65.0,0,0,0,0.0
Status,1732152398762,29,2,1,19,1575420030,0.00,201.0,65.0,0,0,0,0.0
Status,1732152398762,29,3,1,14,1575420030,0.00,57.0,50.0,0,0,0,0.0
Status,1732152398762,29,4,1,13,1575420030,25.20,230.0,45.0,1,0,0,20.2
Status,1732152398762,29,5,2,133,1575420030,0.00,191.0,45.0,0,0,0,0.0
Status,1732152398762,29,6,1,30,1575420030,21.10,133.0,33.0,1,0,0,16.1
Status,1732152398762,29,7,1,15,1575420030,24.20,271.0,29.0,1,0,0,19.2
Status,1732152398762,29,8,1,24,1575420030,19.00,313.0,20.0,1,0,0,14.0
Status,1732152398762,29,9,1,2,1575420030,0.00,45.0,15.0,0,0,0,0.0
Status,1732152398762,29,10,1,6,1575420030,28.50,160.0,15.0,1,0,0,23.5
Status,1732152398762,29,11,1,21,1575420030,0.00,32.0,3.0,0,0,0,0.0
Status,1732152398762,29,12,1,7,1575420030,25.50,133.0,1.0,0,0,0,20.5
Status,1732152398762,29,13,1,12,1575420030,0.00,269.0,1.0,0,0,0,0.0
Status,1732152398762,29,14,3,20,1602000000,0.00,107.0,56.0,0,0,0,0.0
Status,1732152398762,29,15,3,9,1602000000,0.00,85.0,31.0,0,0,0,0.0
Status,1732152398762,29,16,3,11,1602000000,0.00,314.0,31.0,0,0,0,0.0
Status,1732152398762,29,17,3,19,1602000000,0.00,30.0,20.0,0,0,0,0.0
Status,1732152398762,29,18,3,8,1602000000,0.00,243.0,19.0,0,0,0,0.0
Status,1732152398762,29,19,3,17,1602000000,34.40,0.0,0.0,0,0,0,29.400002
Status,1732152398762,29,20,6,21,1575420030,0.00,351.0,68.0,0,0,0,0.0
Status,1732152398762,29,21,6,19,1575420030,0.00,239.0,44.0,0,0,0,0.0
Status,1732152398762,29,22,6,27,1575420030,0.00,67.0,32.0,0,0,0,0.0
Status,1732152398762,29,23,6,13,1575420030,0.00,118.0,31.0,0,0,0,0.0
Status,1732152398762,29,24,6,4,1575420030,0.00,309.0,24.0,0,0,0,0.0
Status,1732152398762,29,25,6,15,1575420030,0.00,59.0,24.0,0,0,0,0.0
Status,1732152398762,29,26,6,29,1575420030,0.00,191.0,22.0,0,0,0,0.0
Status,1732152398762,29,27,6,26,1575420030,0.00,166.0,9.0,0,0,0,0.0
Status,1732152398762,29,28,6,6,1575420030,0.00,326.0,6.0,0,0,0,0.0
Fix,GPS,37.4258133333,-122.1580800000,22.8,0.0,7.9,0.0,1732152399764,6.7,179.9,31283839000000,100.1,0,,,
Raw,1732152399763,18514000000,,33353073.878863223,-1416187599249999872,0.0,180.19436689901704,1083.9279799630108,0.0,0,24,0.0,16431,350817685493196,1837,14.0,-302.7417627696004,0.14999,16,0.0,0.0,1575420030,,,,0,0.0,1,6.0,14.0,0.0,0.0,0.0,66.7128,C,31283839000000,
Raw,1732152399763,18514000000,,33353073.878863223,-1416187599249999872,0.0,180.19436689901704,1083.9279799630108,0.0,0,15,0.0,16431,350817688175042,797,19.197999954223633,549.9956838460633,0.14999,16,0.0,0.0,1575420030,,,,0,0.0,1,6.0,19.197999954223633,0.0,0.0,0.0,66.7128,C,31283839000000,
Raw,1732152399763,18514000000,,33353073.878863223,-1416187599249999872,0.0,180.19436689901704,1083.9279799630108,0.0,0,6,0.0,16431,350817683303189,396,23.47599983215332,-333.8751270584333,0.14999,16,0.0,0.0,1575420030,,,,0,7.818536839848606,1,6.0,23.47599983215332,0.0,0.0,0.0,66.7128,C,31283839000000,
Raw,1732152399763,18514000000,,33353073.878863223,-1416187599249999872,0.0,180.19436689901704,1083.9279799630108,0.0,0,30,0.0,16431,350817688740329,797,16.138999938964844,869.5694237255742,0.14999,16,0.0,0.0,1575420030,,,,0,0.0,1,6.0,16.138999938964844,0.0,0.0,0.0,66.7128,C,31283839000000,
Raw,1732152399763,18514000000,,33353073.878863223,-1416187599249999872,0.0,180.19436689901704,1083.9279799630108,0.0,0,13,0.0,16431,350817691844190,487,20.235000610351562,741.6007848172193,0.14999,16,0.0,0.0,1575420030,,,,0,2.597202925469375,1,6.0,20.235000610351562,0.0,0.0,0.0,66.7128,C,31283839000000,
Raw,1732152399763,18514000000,,33353073.878863223,-1416187599249999872,0.0,180.19436689901704,1083.9279799630108,0.0,0,7,0.0,16431,350817679563874,487,20.482999801635742,976.0257252997204,0.14999,16,0.0,0.0,1575420030,,,,0,3.061799739838872,1,6.0,20.482999801635742,0.0,0.0,0.0,66.7128,C,31283839000000,
Fix,FLP,37.4258005000,-122.1581207000,5.400000095367432,0.9744439,7.671,0.0000000009463804,1732152399991,6.7,179.9,31283839000000,21.498756,0,,,
Status,1732152399764,29,0,1,17,1575420030,0.00,68.0,77.0,0,0,0,0.0
Status,1732152399764,29,1,1,22,1575420030,0.00,22.0,65.0,0,0,0,0.0
Status,1732152399764,29,2,1,19,1575420030,0.00,201.0,65.0,0,0,0,0.0
Status,1732152399764,29,3,1,14,1575420030,0.00,57.0,50.0,0,0,0,0.0
Status,1732152399764,29,4,1,13,1575420030,25.40,230.0,45.0,1,0,0,20.4
Status,1732152399764,29,5,2,133,1575420030,0.00,191.0,45.0,0,0,0,0.0
Status,1732152399764,29,6,1,30,1575420030,21.10,133.0,33.0,1,0,0,16.1
Status,1732152399764,29,7,1,15,1575420030,24.10,271.0,29.0,1,0,0,19.1
Status,1732152399764,29,8,1,24,1575420030,18.20,313.0,20.0,1,0,0,13.200001
Status,1732152399764,29,9,1,2,1575420030,0.00,45.0,15.0,0,0,0,0.0
Status,1732152399764,29,10,1,6,1575420030,28.40,160.0,15.0,1,0,0,23.4
Status,1732152399764,29,11,1,21,1575420030,0.00,32.0,3.0,0,0,0,0.0
Status,1732152399764,29,12,1,7,1575420030,25.60,133.0,1.0,0,0,0,20.6
Status,1732152399764,29,13,1,12,1575420030,0.00,269.0,1.0,0,0,0,0.0
Status,1732152399764,29,14,3,20,1602000000,0.00,107.0,56.0,0,0,0,0.0
Status,1732152399764,29,15,3,9,1602000000,0.00,85.0,31.0,0,0,0,0.0
Status,1732152399764,29,16,3,11,1602000000,0.00,314.0,31.0,0,0,0,0.0
Status,1732152399764,29,17,3,19,1602000000,0.00,30.0,20.0,0,0,0,0.0
Status,1732152399764,29,18,3,8,1602000000,0.00,243.0,19.0,0,0,0,0.0
Status,1732152399764,29,19,3,17,1602000000,33.60,0.0,0.0,0,0,0,28.599998
Status,1732152399764,29,20,6,21,1575420030,0.00,351.0,68.0,0,0,0,0.0
Status,1732152399764,29,21,6,19,1575420030,0.00,239.0,44.0,0,0,0,0.0
Status,1732152399764,29,22,6,27,1575420030,0.00,67.0,32.0,0,0,0,0.0
Status,1732152399764,29,23,6,13,1575420030,0.00,118.0,31.0,0,0,0,0.0
Status,1732152399764,29,24,6,4,1575420030,0.00,309.0,24.0,0,0,0,0.0
Status,1732152399764,29,25,6,15,1575420030,0.00,59.0,24.0,0,0,0,0.0
Status,1732152399764,29,26,6,29,1575420030,0.00,191.0,22.0,0,0,0,0.0
Status,1732152399764,29,27,6,26,1575420030,0.00,166.0,9.0,0,0,0,0.0
Status,1732152399764,29,28,6,6,1575420030,0.00,326.0,6.0,0,0,0,0.0
Fix,GPS,37.4258200000,-122.1580650000,22.8,0.0,7.5,0.0,1732152400762,6.0,179.9,31284839000000,100.1,0,,,
Raw,1732152400765,19514000000,,33353073.878863223,-1416187599251000320,0.0,179.69550442830462,1082.4304776561976,0.0,0,24,0.0,16431,350818686494198,1797,13.199999809265137,-302.5015262993757,0.14999,16,0.0,0.0,1575420030,,,,0,0.0,1,6.0,13.199999809265137,0.0,0.0,0.0,66.7128,C,31284839000000,
Raw,1732152400765,19514000000,,33353073.878863223,-1416187599251000320,0.0,179.69550442830462,1082.4304776561976,0.0,0,15,0.0,16431,350818689173208,797,19.10099983215332,549.9359383228166,0.14999,16,0.0,0.0,1575420030,,,,0,0.0,1,6.0,19.10099983215332,0.0,0.0,0.0,66.7128,C,31284839000000,
Raw,1732152400765,19514000000,,33353073.878863223,-1416187599251000320,0.0,179.69550442830462,1082.4304776561976,0.0,0,6,0.0,16431,350818684304303,396,23.409000396728516,-333.721489076025,0.14999,16,0.0,0.0,1575420030,,,,0,5.7618009921627875,1,6.0,23.409000396728516,0.0,0.0,0.0,66.7128,C,31284839000000,
Raw,1732152400765,19514000000,,33353073.878863223,-1416187599251000320,0.0,179.69550442830462,1082.4304776561976,0.0,0,30,0.0,16431,350818689737429,1797,16.138999938964844,869.5022448557337,0.14999,16,0.0,0.0,1575420030,,,,0,0.0,1,6.0,16.138999938964844,0.0,0.0,0.0,66.7128,C,31284839000000,
Raw,1732152400765,19514000000,,33353073.878863223,-1416187599251000320,0.0,179.69550442830462,1082.4304776561976,0.0,0,13,0.0,16431,350818692841729,487,20.434999465942383,741.4705618765811,0.14999,16,0.0,0.0,1575420030,,,,0,2.9708471848244584,1,6.0,20.434999465942383,0.0,0.0,0.0,66.7128,C,31284839000000,
Raw,1732152400765,19514000000,,33353073.878863223,-1416187599251000320,0.0,179.69550442830462,1082.4304776561976,0.0,0,7,0.0,16431,350818680560651,396,20.586000442504883,975.4997231113847,0.14999,16,0.0,0.0,1575420030,,,,0,6.400757332155102,1,6.0,20.586000442504883,0.0,0.0,0.0,66.7128,C,31284839000000,
Fix,FLP,37.4258139000,-122.1581019000,5.400000095367432,1.0213773,7.971,0.0000000009091806,1732152400991,6.0,179.9,31284839000000,17.081451,0,,,
Status,1732152400762,29,0,1,17,1575420030,0.00,68.0,77.0,0,0,0,0.0
Status,1732152400762,29,1,1,22,1575420030,0.00,22.0,65.0,0,0,0,0.0
Status,1732152400762,29,2,1,19,1575420030,0.00,201.0,65.0,0,0,0,0.0
Status,1732152400762,29,3,1,14,1575420030,0.00,57.0,50.0,0,0,0,0.0
Status,1732152400762,29,4,1,13,1575420030,26.20,230.0,45.0,1,0,0,21.2
Status,1732152400762,29,5,2,133,1575420030,0.00,191.0,45.0,0,0,0,0.0
Status,1732152400762,29,6,1,30,1575420030,19.00,133.0,33.0,1,0,0,14.0
Status,1732152400762,29,7,1,15,1575420030,24.00,271.0,29.0,1,0,0,19.0
Status,1732152400762,29,8,1,24,1575420030,18.20,313.0,20.0,1,0,0,13.200001
Status,1732152400762,29,9,1,2,1575420030,0.00,45.0,15.0,0,0,0,0.0
Status,1732152400762,29,10,1,6,1575420030,28.40,160.0,15.0,1,0,0,23.4
Status,1732152400762,29,11,1,21,1575420030,0.00,32.0,3.0,0,0,0,0.0
Status,1732152400762,29,12,1,7,1575420030,28.70,133.0,1.0,0,0,0,23.7
Status,1732152400762,29,13,1,12,1575420030,0.00,269.0,1.0,0,0,0,0.0
Status,1732152400762,29,14,3,20,1602000000,0.00,107.0,56.0,0,0,0,0.0
Status,1732152400762,29,15,3,9,1602000000,0.00,85.0,31.0,0,0,0,0.0
Status,1732152400762,29,16,3,11,1602000000,0.00,314.0,31.0,0,0,0,0.0
Status,1732152400762,29,17,3,19,1602000000,0.00,30.0,20.0,0,0,0,0.0
Status,1732152400762,29,18,3,8,1602000000,0.00,243.0,19.0,0,0,0,0.0
Status,1732152400762,29,19,3,17,1602000000,33.00,0.0,0.0,0,0,0,28.0
Status,1732152400762,29,20,6,21,1575420030,0.00,351.0,68.0,0,0,0,0.0
Status,1732152400762,29,21,6,19,1575420030,0.00,239.0,44.0,0,0,0,0.0
Status,1732152400762,29,22,6,27,1575420030,0.00,67.0,32.0,0,0,0,0.0
Status,1732152400762,29,23,6,13,1575420030,0.00,118.0,31.0,0,0,0,0.0
Status,1732152400762,29,24,6,4,1575420030,0.00,309.0,24.0,0,0,0,0.0
Status,1732152400762,29,25,6,15,1575420030,0.00,59.0,24.0,0,0,0,0.0
Status,1732152400762,29,26,6,29,1575420030,0.00,191.0,22.0,0,0,0,0.0
Status,1732152400762,29,27,6,26,1575420030,0.00,166.0,9.0,0,0,0,0.0
Status,1732152400762,29,28,6,6,1575420030,0.00,326.0,6.0,0,0,0,0.0
Fix,GPS,37.4258250000,-122.1580550000,22.900000000000002,0.0,7.5,0.0,1732152401762,5.7,179.9,31285839000000,100.1,0,,,
Raw,1732152401763,20514000000,,33353073.878863223,-1416187599249999872,0.0,182.1505363725544,1082.731281121667,0.0,0,24,0.0,16431,350819685495207,1797,13.199999809265137,-302.38984026680555,0.14999,16,0.0,0.0,1575420030,,,,0,0.0,1,6.0,13.199999809265137,0.0,0.0,0.0,66.7128,C,31285839000000,
Raw,1732152401763,20514000000,,33353073.878863223,-1416187599249999872,0.0,182.1505363725544,1082.731281121667,0.0,0,15,0.0,16431,350819688171373,487,19.009000778198242,550.3994539413491,0.14999,16,0.0,0.0,1575420030,,,,0,0.0,1,6.0,19.009000778198242,0.0,0.0,0.0,66.7128,C,31285839000000,
Raw,1732152401763,20514000000,,33353073.878863223,-1416187599249999872,0.0,182.1505363725544,1082.731281121667,0.0,0,6,0.0,16431,350819683305416,396,23.382999420166016,-333.50211243467885,0.14999,16,0.0,0.0,1575420030,,,,0,6.938200260161128,1,6.0,23.382999420166016,0.0,0.0,0.0,66.7128,C,31285839000000,
Raw,1732152401763,20514000000,,33353073.878863223,-1416187599249999872,0.0,182.1505363725544,1082.731281121667,0.0,0,30,0.0,16431,350819688734513,797,14.0,869.597856276295,0.14999,16,0.0,0.0,1575420030,,,,0,0.0,1,6.0,14.0,0.0,0.0,0.0,66.7128,C,31285839000000,
Raw,1732152401763,20514000000,,33353073.878863223,-1416187599249999872,0.0,182.1505363725544,1082.731281121667,0.0,0,13,0.0,16431,350819691839272,487,21.231000900268555,742.3430973914312,0.14999,16,0.0,0.0,1575420030,,,,0,4.322834654780653,1,6.0,21.231000900268555,0.0,0.0,0.0,66.7128,C,31285839000000,
Raw,1732152401763,20514000000,,33353073.878863223,-1416187599249999872,0.0,182.1505363725544,1082.731281121667,0.0,0,7,0.0,16431,350819679557349,396,23.66900062561035,975.9538076714265,0.14999,16,0.0,0.0,1575420030,,,,0,8.07629728689058,1,6.0,23.66900062561035,0.0,0.0,0.0,66.7128,C,31285839000000,
Fix,FLP,37.4258233000,-122.1580863000,5.400000095367432,0.9562164,8.257,0.0000000008232802,1732152401991,5.7,179.9,31285839000000,17.19362,0,,,
Fix,FLP,37.4258267000,-122.1580768000,5.400000095367432,0.83980495,8.016,0.0000000006512758,1732152402649,5.7,179.9,31286496000000,23.366108,0,,,
Fix,NLP,37.4256145000,-122.1580505000,5.400000095367432,,98.4,,1732152402648,,,31286496000000,63.645252,0,,,
Status,1732152401762,29,0,1,17,1575420030,0.00,68.0,77.0,0,0,0,0.0
Status,1732152401762,29,1,1,22,1575420030,0.00,22.0,65.0,0,0,0,0.0
Status,1732152401762,29,2,1,19,1575420030,0.00,201.0,65.0,0,0,0,0.0
Status,1732152401762,29,3,1,14,1575420030,0.00,57.0,50.0,0,0,0,0.0
Status,1732152401762,29,4,1,13,1575420030,26.20,230.0,45.0,1,0,0,21.2
Status,1732152401762,29,5,2,135,1575420030,0.00,197.0,45.0,0,0,0,0.0
Status,1732152401762,29,6,1,30,1575420030,19.00,133.0,33.0,1,0,0,14.0
Status,1732152401762,29,7,1,15,1575420030,23.90,271.0,29.0,1,0,0,18.9
Status,1732152401762,29,8,1,24,1575420030,16.70,313.0,20.0,1,0,0,11.700001
Status,1732152401762,29,9,1,2,1575420030,0.00,45.0,15.0,0,0,0,0.0
Status,1732152401762,29,10,1,6,1575420030,28.40,160.0,15.0,1,0,0,23.4
Status,1732152401762,29,11,1,21,1575420030,0.00,32.0,3.0,0,0,0,0.0
Status,1732152401762,29,12,1,7,1575420030,28.70,133.0,1.0,0,0,0,23.7
Status,1732152401762,29,13,1,12,1575420030,0.00,269.0,1.0,0,0,0,0.0
Status,1732152401762,29,14,3,20,1602000000,0.00,107.0,56.0,0,0,0,0.0
Status,1732152401762,29,15,3,9,1602000000,0.00,85.0,31.0,0,0,0,0.0
Status,1732152401762,29,16,3,11,1602000000,0.00,314.0,31.0,0,0,0,0.0
Status,1732152401762,29,17,3,19,1602000000,0.00,30.0,20.0,0,0,0,0.0
Status,1732152401762,29,18,3,8,1602000000,0.00,243.0,19.0,0,0,0,0.0
Status,1732152401762,29,19,3,17,1602000000,33.00,0.0,0.0,0,0,0,28.0
Status,1732152401762,29,20,6,21,1575420030,0.00,351.0,68.0,0,0,0,0.0
Status,1732152401762,29,21,6,19,1575420030,0.00,239.0,44.0,0,0,0,0.0
Status,1732152401762,29,22,6,27,1575420030,0.00,67.0,32.0,0,0,0,0.0
Status,1732152401762,29,23,6,13,1575420030,0.00,118.0,31.0,0,0,0,0.0
Status,1732152401762,29,24,6,4,1575420030,0.00,309.0,24.0,0,0,0,0.0
Status,1732152401762,29,25,6,15,1575420030,0.00,59.0,24.0,0,0,0,0.0
Status,1732152401762,29,26,6,29,1575420030,0.00,191.0,22.0,0,0,0,0.0
Status,1732152401762,29,27,6,26,1575420030,0.00,166.0,9.0,0,0,0,0.0
Status,1732152401762,29,28,6,6,1575420030,0.00,326.0,6.0,0,0,0,0.0
Fix,GPS,37.4258300000,-122.1580566667,22.900000000000002,0.0,7.6,0.0,1732152402762,5.5,179.9,31286839000000,100.1,0,,,
Raw,1732152402763,21514000000,,33353073.878863223,-1416187599249999872,0.0,181.84813957070563,1082.8740881933907,0.0,0,24,0.0,16431,350820685496216,1797,11.699999809265137,-302.3262851534296,0.14999,16,0.0,0.0,1575420030,,,,0,0.0,1,6.0,11.699999809265137,0.0,0.0,0.0,66.7128,C,31286839000000,
Raw,1732152402763,21514000000,,33353073.878863223,-1416187599249999872,0.0,181.84813957070563,1082.8740881933907,0.0,0,15,0.0,16431,350820688169517,797,18.867000579833984,550.7820854572591,0.14999,16,0.0,0.0,1575420030,,,,0,0.19335689379260934,1,6.0,18.867000579833984,0.0,0.0,0.0,66.7128,C,31286839000000,
Raw,1732152402763,21514000000,,33353073.878863223,-1416187599249999872,0.0,181.84813957070563,1082.8740881933907,0.0,0,6,0.0,16431,350820683306533,396,23.37700080871582,-333.25778762382765,0.14999,16,0.0,0.0,1575420030,,,,0,7.498774732165998,1,6.0,23.37700080871582,0.0,0.0,0.0,66.7128,C,31286839000000,
Raw,1732152402763,21514000000,,33353073.878863223,-1416187599249999872,0.0,181.84813957070563,1082.8740881933907,0.0,0,30,0.0,16431,350820688731613,797,14.0,869.6950472830075,0.14999,16,0.0,0.0,1575420030,,,,0,0.0,1,6.0,14.0,0.0,0.0,0.0,66.7128,C,31286839000000,
Raw,1732152402763,21514000000,,33353073.878863223,-1416187599249999872,0.0,181.84813957070563,1082.8740881933907,0.0,0,13,0.0,16431,350820691836790,487,21.165000915527344,741.9986082352301,0.14999,16,0.0,0.0,1575420030,,,,0,2.106344103918858,1,6.0,21.165000915527344,0.0,0.0,0.0,66.7128,C,31286839000000,
Raw,1732152402763,21514000000,,33353073.878863223,-1416187599249999872,0.0,181.84813957070563,1082.8740881933907,0.0,0,7,0.0,16431,350820679554100,396,23.709999084472656,976.0032394262745,0.14999,16,0.0,0.0,1575420030,,,,0,9.305699602279361,1,6.0,23.709999084472656,0.0,0.0,0.0,66.7128,C,31286839000000,
Fix,FLP,37.4258291000,-122.1580715000,5.400000095367432,0.77822775,7.957,0.0000000004669054,1732152402991,5.5,179.9,31286839000000,19.502754,0,,,
Status,1732152402762,29,0,1,17,1575420030,0.00,68.0,77.0,0,0,0,0.0
Status,1732152402762,29,1,1,22,1575420030,0.00,22.0,65.0,0,0,0,0.0
Status,1732152402762,29,2,1,19,1575420030,0.00,201.0,65.0,0,0,0,0.0
Status,1732152402762,29,3,1,14,1575420030,0.00,57.0,50.0,0,0,0,0.0
Status,1732152402762,29,4,1,13,1575420030,26.10,230.0,45.0,1,0,0,21.1
Status,1732152402762,29,5,2,135,1575420030,0.00,197.0,45.0,0,0,0,0.0
Status,1732152402762,29,6,1,30,1575420030,19.00,133.0,33.0,1,0,0,14.0
Status,1732152402762,29,7,1,15,1575420030,23.30,271.0,29.0,1,0,0,18.3
Status,1732152402762,29,8,1,24,1575420030,16.70,313.0,20.0,1,0,0,11.700001
Status,1732152402762,29,9,1,2,1575420030,0.00,45.0,15.0,0,0,0,0.0
Status,1732152402762,29,10,1,6,1575420030,28.40,160.0,15.0,1,0,0,23.4
Status,1732152402762,29,11,1,21,1575420030,0.00,32.0,3.0,0,0,0,0.0
Status,1732152402762,29,12,1,7,1575420030,28.70,133.0,1.0,0,0,0,23.7
Status,1732152402762,29,13,1,12,1575420030,0.00,269.0,1.0,0,0,0,0.0
Status,1732152402762,29,14,3,20,1602000000,0.00,107.0,56.0,0,0,0,0.0
Status,1732152402762,29,15,3,9,1602000000,0.00,85.0,31.0,0,0,0,0.0
Status,1732152402762,29,16,3,11,1602000000,0.00,314.0,31.0,0,0,0,0.0
Status,1732152402762,29,17,3,19,1602000000,0.00,30.0,20.0,0,0,0,0.0
Status,1732152402762,29,18,3,8,1602000000,28.10,243.0,19.0,1,0,0,23.1
Status,1732152402762,29,19,3,17,1602000000,32.90,0.0,0.0,0,0,0,27.900002
Status,1732152402762,29,20,6,21,1575420030,0.00,351.0,68.0,0,0,0,0.0
Status,1732152402762,29,21,6,19,1575420030,0.00,239.0,44.0,0,0,0,0.0
Status,1732152402762,29,22,6,27,1575420030,0.00,67.0,32.0,0,0,0,0.0
Status,1732152402762,29,23,6,13,1575420030,0.00,118.0,31.0,0,0,0,0.0
Status,1732152402762,29,24,6,4,1575420030,0.00,309.0,24.0,0,0,0,0.0
Status,1732152402762,29,25,6,15,1575420030,0.00,59.0,24.0,0,0,0,0.0
Status,1732152402762,29,26,6,29,1575420030,0.00,191.0,22.0,0,0,0,0.0
Status,1732152402762,29,27,6,26,1575420030,0.00,166.0,9.0,0,0,0,0.0
Status,1732152402762,29,28,6,6,1575420030,0.00,326.0,6.0,0,0,0,0.0
Fix,GPS,37.4258266667,-122.1579483333,22.900000000000002,0.0,7.4,0.0,1732152403747,5.2,179.9,31287839000000,66.8,0,,,
Raw,1732152403749,22514000000,,999626.965265417,-1416187599235000320,0.0,169.95733490086195,1082.1642383256378,0.0,0,24,0.0,16431,350821670497226,1797,11.699999809265137,-302.82747854750886,0.14999,16,0.0,0.0,1575420030,,,,0,0.0,1,6.0,11.699999809265137,0.0,0.0,0.0,66.7128,C,31287839000000,
Raw,1732152403749,22514000000,,999626.965265417,-1416187599235000320,0.0,169.95733490086195,1082.1642383256378,0.0,0,15,0.0,16431,350821673167656,797,18.263999938964844,550.8839687640088,0.14999,16,0.0,0.0,1575420030,,,,0,0.0,1,6.0,18.263999938964844,0.0,0.0,0.0,66.7128,C,31287839000000,
Raw,1732152403749,22514000000,,999626.965265417,-1416187599235000320,0.0,169.95733490086195,1082.1642383256378,0.0,0,6,0.0,16431,350821668307645,316,23.420000076293945,-333.7383070226932,0.14999,16,0.0,0.0,1575420030,,,,0,8.945611162512385,1,6.0,23.420000076293945,0.0,0.0,0.0,66.7128,C,31287839000000,
Raw,1732152403749,22514000000,,999626.965265417,-1416187599235000320,0.0,169.95733490086195,1082.1642383256378,0.0,0,8,0.0,17,173971,396,5.0,943.4879181367512,0.14999,16,0.0,0.0,1605374980,,,,0,8.59869196274883,3,6.0,22.0,0.0,0.0,85.14287691462849,66.7128,C,31287839000000,
Raw,1732152403749,22514000000,,999626.965265417,-1416187599235000320,0.0,169.95733490086195,1082.1642383256378,0.0,0,30,0.0,16431,350821673728712,797,14.0,869.7486602953144,0.14999,16,0.0,0.0,1575420030,,,,0,0.0,1,6.0,14.0,0.0,0.0,0.0,66.7128,C,31287839000000,
Raw,1732152403749,22514000000,,999626.965265417,-1416187599235000320,0.0,169.95733490086195,1082.1642383256378,0.0,0,13,0.0,16431,350821676834324,487,21.08300018310547,741.9455991823339,0.14999,16,0.0,0.0,1575420030,,,,0,1.368916904856332,1,6.0,21.08300018310547,0.0,0.0,0.0,66.7128,C,31287839000000,
Raw,1732152403749,22514000000,,999626.965265417,-1416187599235000320,0.0,169.95733490086195,1082.1642383256378,0.0,0,7,0.0,16431,350821664550840,396,23.69300079345703,975.8723196093932,0.14999,16,0.0,0.0,1575420030,,,,0,7.66012716712666,1,6.0,23.69300079345703,0.0,0.0,0.0,66.7128,C,31287839000000,
Fix,FLP,37.4258315000,-122.1580338000,5.400000095367432,0.6114462,7.7,0.0000000036120416,1732152403991,5.2,179.9,31287839000000,20.235233,0,,,
Status,1732152403747,29,0,1,17,1575420030,0.00,68.0,77.0,0,0,0,0.0
Status,1732152403747,29,1,1,22,1575420030,0.00,22.0,65.0,0,0,0,0.0
Status,1732152403747,29,2,1,19,1575420030,0.00,201.0,65.0,0,0,0,0.0
Status,1732152403747,29,3,1,14,1575420030,0.00,57.0,50.0,0,0,0,0.0
Status,1732152403747,29,4,1,13,1575420030,26.00,230.0,45.0,1,0,0,21.0
Status,1732152403747,29,5,2,135,1575420030,0.00,197.0,45.0,0,0,0,0.0
Status,1732152403747,29,6,1,30,1575420030,21.00,133.0,33.0,1,0,0,16.0
Status,1732152403747,29,7,1,15,1575420030,23.10,271.0,29.0,1,0,0,18.1
Status,1732152403747,29,8,1,24,1575420030,16.70,313.0,20.0,1,0,0,11.700001
Status,1732152403747,29,9,1,2,1575420030,0.00,45.0,15.0,0,0,0,0.0
Status,1732152403747,29,10,1,6,1575420030,28.50,160.0,15.0,1,0,0,23.5
Status,1732152403747,29,11,1,21,1575420030,0.00,32.0,3.0,0,0,0,0.0
Status,1732152403747,29,12,1,7,1575420030,28.60,133.0,1.0,0,0,0,23.6
Status,1732152403747,29,13,1,12,1575420030,0.00,269.0,1.0,0,0,0,0.0
Status,1732152403747,29,14,3,20,1602000000,0.00,107.0,56.0,0,0,0,0.0
Status,1732152403747,29,15,3,9,1602000000,0.00,85.0,31.0,0,0,0,0.0
Status,1732152403747,29,16,3,11,1602000000,0.00,314.0,31.0,0,0,0,0.0
Status,1732152403747,29,17,3,19,1602000000,0.00,30.0,20.0,0,0,0,0.0
Status,1732152403747,29,18,3,8,1602000000,27.70,243.0,19.0,1,0,0,22.7
Status,1732152403747,29,19,3,17,1602000000,33.10,0.0,0.0,0,0,0,28.099998
Status,1732152403747,29,20,6,21,1575420030,0.00,351.0,68.0,0,0,0,0.0
Status,1732152403747,29,21,6,19,1575420030,0.00,239.0,44.0,0,0,0,0.0
Status,1732152403747,29,22,6,27,1575420030,0.00,67.0,32.0,0,0,0,0.0
Status,1732152403747,29,23,6,13,1575420030,0.00,118.0,31.0,0,0,0,0.0
Status,1732152403747,29,24,6,4,1575420030,0.00,309.0,24.0,0,0,0,0.0
Status,1732152403747,29,25,6,15,1575420030,0.00,59.0,24.0,0,0,0,0.0
Status,1732152403747,29,26,6,29,1575420030,0.00,191.0,22.0,0,0,0,0.0
Status,1732152403747,29,27,6,26,1575420030,0.00,166.0,9.0,0,0,0,0.0
Status,1732152403747,29,28,6,6,1575420030,0.00,326.0,6.0,0,0,0,0.0
Fix,GPS,37.4257966667,-122.1579816667,22.900000000000002,0.0,7.2,0.0,1732152405000,4.5,179.9,31289091000000,66.7,0,,,
Raw,1732152405000,23766000000,,706931.3514885021,-1416187599234999808,0.0,169.3654820734102,1080.3914758833284,0.0,0,24,0.0,16431,350822922498491,797,11.699999809265137,-303.0208384757771,0.14999,16,0.0,0.0,1575420030,,,,0,0.0,1,6.0,11.699999809265137,0.0,0.0,0.0,66.7128,C,31289091000000,
Raw,1732152405000,23766000000,,706931.3514885021,-1416187599234999808,0.0,169.3654820734102,1080.3914758833284,0.0,0,15,0.0,16431,350822925165353,487,18.118999481201172,550.0976600696455,0.14999,16,0.0,0.0,1575420030,,,,0,0.0,1,6.0,18.118999481201172,0.0,0.0,0.0,66.7128,C,31289091000000,
Raw,1732152405000,23766000000,,706931.3514885021,-1416187599234999808,0.0,169.3654820734102,1080.3914758833284,0.0,0,6,0.0,16431,350822920309041,396,23.45199966430664,-334.2579444080081,0.14999,16,0.0,0.0,1575420030,,,,0,8.665396873656093,1,6.0,23.45199966430664,0.0,0.0,0.0,66.7128,C,31289091000000,
Raw,1732152405000,23766000000,,706931.3514885021,-1416187599234999808,0.0,169.3654820734102,1080.3914758833284,0.0,0,8,0.0,17,170032,396,5.0,941.2378844688461,0.14999,16,0.0,0.0,1605374980,,,,0,8.039151586779237,3,6.0,23.0,0.0,0.0,78.51086419785,66.7128,C,31289091000000,
Raw,1732152405000,23766000000,,706931.3514885021,-1416187599234999808,0.0,169.3654820734102,1080.3914758833284,0.0,0,30,0.0,16431,350822925725104,797,16.0310001373291,868.894382938035,0.14999,16,0.0,0.0,1575420030,,,,0,0.0,1,6.0,16.0310001373291,0.0,0.0,0.0,66.7128,C,31289091000000,
Raw,1732152405000,23766000000,,706931.3514885021,-1416187599234999808,0.0,169.3654820734102,1080.3914758833284,0.0,0,13,0.0,16431,350822928831233,487,20.97800064086914,741.1475829670854,0.14999,16,0.0,0.0,1575420030,,,,0,0.4415420534290089,1,6.0,20.97800064086914,0.0,0.0,0.0,66.7128,C,31289091000000,
Raw,1732152405000,23766000000,,706931.3514885021,-1416187599234999808,0.0,169.3654820734102,1080.3914758833284,0.0,0,7,0.0,16431,350822916546764,396,23.6299991607666,975.8804033738138,0.14999,16,0.0,0.0,1575420030,,,,0,6.213956807072233,1,6.0,23.6299991607666,0.0,0.0,0.0,66.7128,C,31289091000000,
Fix,FLP,37.4258165000,-122.1580155000,5.400000095367432,0.080533005,7.45,,1732152405243,4.5,,31289091000000,13.508243,0,,,
Status,1732152405000,29,0,1,17,1575420030,0.00,68.0,77.0,0,0,0,0.0
Status,1732152405000,29,1,1,22,1575420030,0.00,22.0,65.0,0,0,0,0.0
Status,1732152405000,29,2,1,19,1575420030,0.00,201.0,65.0,0,0,0,0.0
Status,1732152405000,29,3,1,14,1575420030,0.00,57.0,50.0,0,0,0,0.0
Status,1732152405000,29,4,1,13,1575420030,25.90,230.0,45.0,1,0,0,20.9
Status,1732152405000,29,5,2,135,1575420030,0.00,197.0,45.0,0,0,0,0.0
Status,1732152405000,29,6,1,30,1575420030,21.00,133.0,33.0,1,0,0,16.0
Status,1732152405000,29,7,1,15,1575420030,23.30,271.0,29.0,1,0,0,18.3
Status,1732152405000,29,8,1,24,1575420030,18.60,313.0,20.0,1,0,0,13.6
Status,1732152405000,29,9,1,2,1575420030,0.00,45.0,15.0,0,0,0,0.0
Status,1732152405000,29,10,1,6,1575420030,28.50,160.0,15.0,1,0,0,23.5
Status,1732152405000,29,11,1,21,1575420030,0.00,32.0,3.0,0,0,0,0.0
Status,1732152405000,29,12,1,7,1575420030,28.60,133.0,1.0,0,0,0,23.6
Status,1732152405000,29,13,1,12,1575420030,0.00,269.0,1.0,0,0,0,0.0
Status,1732152405000,29,14,3,20,1602000000,0.00,107.0,56.0,0,0,0,0.0
Status,1732152405000,29,15,3,9,1602000000,0.00,85.0,31.0,0,0,0,0.0
Status,1732152405000,29,16,3,11,1602000000,0.00,314.0,31.0,0,0,0,0.0
Status,1732152405000,29,17,3,19,1602000000,0.00,30.0,20.0,0,0,0,0.0
Status,1732152405000,29,18,3,8,1602000000,28.20,243.0,19.0,1,0,0,23.2
Status,1732152405000,29,19,3,17,1602000000,33.80,0.0,0.0,0,0,0,28.8
Status,1732152405000,29,20,6,21,1575420030,0.00,351.0,68.0,0,0,0,0.0
Status,1732152405000,29,21,6,19,1575420030,0.00,239.0,44.0,0,0,0,0.0
Status,1732152405000,29,22,6,27,1575420030,0.00,67.0,32.0,0,0,0,0.0
Status,1732152405000,29,23,6,13,1575420030,0.00,118.0,31.0,0,0,0,0.0
Status,1732152405000,29,24,6,4,1575420030,0.00,309.0,24.0,0,0,0,0.0
Status,1732152405000,29,25,6,15,1575420030,0.00,59.0,24.0,0,0,0,0.0
Status,1732152405000,29,26,6,29,1575420030,0.00,191.0,22.0,0,0,0,0.0
Status,1732152405000,29,27,6,26,1575420030,0.00,166.0,9.0,0,0,0,0.0
Status,1732152405000,29,28,6,6,1575420030,0.00,326.0,6.0,0,0,0,0.0
Fix,GPS,37.4257816667,-122.1579966667,22.900000000000002,0.0,7.1,0.0,1732152406000,4.1,179.9,31290091000000,67.1,0,,,
Fix,FLP,37.4257997000,-122.1580089000,5.400000095367432,0.2929533,7.383,180.0,1732152406243,4.1,179.9,31290091000000,16.801807,0,,,
Raw,1732152406000,24766000000,,706891.7928715872,-1416187599234999808,0.0,170.47926681831336,1082.9711185952037,0.0,0,24,0.0,16431,350823922499508,797,13.600000381469727,-303.0504324869032,0.14999,16,0.0,0.0,1575420030,,,,0,0.0,1,6.0,13.600000381469727,0.0,0.0,0.0,66.7128,C,31290091000000,
Raw,1732152406000,24766000000,,706891.7928715872,-1416187599234999808,0.0,170.47926681831336,1082.9711185952037,0.0,0,15,0.0,16431,350823925163505,797,18.333999633789062,550.6680765038784,0.14999,16,0.0,0.0,1575420030,,,,0,0.0,1,6.0,18.333999633789062,0.0,0.0,0.0,66.7128,C,31290091000000,
Raw,1732152406000,24766000000,,706891.7928715872,-1416187599234999808,0.0,170.47926681831336,1082.9711185952037,0.0,0,6,0.0,16431,350823920310153,396,23.506999969482422,-333.26247992386493,0.14999,16,0.0,0.0,1575420030,,,,0,9.393436607241636,1,6.0,23.506999969482422,0.0,0.0,0.0,66.7128,C,31290091000000,
Raw,1732152406000,24766000000,,706891.7928715872,-1416187599234999808,0.0,170.47926681831336,1082.9711185952037,0.0,0,8,0.0,17,166886,396,5.0,942.6399154980935,0.14999,16,0.0,0.0,1605374980,,,,0,8.75346263210993,3,6.0,22.0,0.0,0.0,75.27695283692745,66.7128,C,31290091000000,
Raw,1732152406000,24766000000,,706891.7928715872,-1416187599234999808,0.0,170.47926681831336,1082.9711185952037,0.0,0,30,0.0,16431,350823925722203,797,16.0310001373291,869.77458409156,0.14999,16,0.0,0.0,1575420030,,,,0,0.0,1,6.0,16.0310001373291,0.0,0.0,0.0,66.7128,C,31290091000000,
Raw,1732152406000,24766000000,,706891.7928715872,-1416187599234999808,0.0,170.47926681831336,1082.9711185952037,0.0,0,13,0.0,16431,350823928828773,487,20.902000427246094,742.3696716055036,0.14999,16,0.0,0.0,1575420030,,,,0,1.2582671328571116,1,6.0,20.902000427246094,0.0,0.0,0.0,66.7128,C,31290091000000,
Raw,1732152406000,24766000000,,706891.7928715872,-1416187599234999808,0.0,170.47926681831336,1082.9711185952037,0.0,0,7,0.0,16431,350823916543503,396,23.641000747680664,976.0433794978803,0.14999,16,0.0,0.0,1575420030,,,,0,8.375840406283636,1,6.0,23.641000747680664,0.0,0.0,0.0,66.7128,C,31290091000000,
Status,1732152406000,29,0,1,17,1575420030,0.00,68.0,77.0,0,0,0,0.0
Status,1732152406000,29,1,1,22,1575420030,0.00,22.0,65.0,0,0,0,0.0
Status,1732152406000,29,2,1,19,1575420030,0.00,201.0,65.0,0,0,0,0.0
Status,1732152406000,29,3,1,14,1575420030,0.00,57.0,50.0,0,0,0,0.0
Status,1732152406000,29,4,1,13,1575420030,25.80,230.0,45.0,1,0,0,20.8
Status,1732152406000,29,5,2,135,1575420030,0.00,197.0,45.0,0,0,0,0.0
Status,1732152406000,29,6,1,30,1575420030,23.60,133.0,33.0,1,0,0,18.6
Status,1732152406000,29,7,1,15,1575420030,23.30,271.0,29.0,1,0,0,18.3
Status,1732152406000,29,8,1,24,1575420030,18.60,313.0,20.0,1,0,0,13.6
Status,1732152406000,29,9,1,2,1575420030,0.00,45.0,15.0,0,0,0,0.0
Status,1732152406000,29,10,1,6,1575420030,29.10,160.0,15.0,1,0,0,24.1
Status,1732152406000,29,11,1,21,1575420030,0.00,32.0,3.0,0,0,0,0.0
Status,1732152406000,29,12,1,7,1575420030,28.70,133.0,1.0,0,0,0,23.7
Status,1732152406000,29,13,1,12,1575420030,0.00,269.0,1.0,0,0,0,0.0
Status,1732152406000,29,14,3,20,1602000000,0.00,107.0,56.0,0,0,0,0.0
Status,1732152406000,29,15,3,9,1602000000,25.50,85.0,31.0,1,0,0,20.5
Status,1732152406000,29,16,3,11,1602000000,0.00,314.0,31.0,0,0,0,0.0
Status,1732152406000,29,17,3,19,1602000000,0.00,30.0,20.0,0,0,0,0.0
Status,1732152406000,29,18,3,8,1602000000,28.20,243.0,19.0,1,0,0,23.2
Status,1732152406000,29,19,3,17,1602000000,31.10,0.0,0.0,0,0,0,26.1
Status,1732152406000,29,20,6,21,1575420030,0.00,351.0,68.0,0,0,0,0.0
Status,1732152406000,29,21,6,19,1575420030,0.00,239.0,44.0,0,0,0,0.0
Status,1732152406000,29,22,6,27,1575420030,0.00,67.0,32.0,0,0,0,0.0
Status,1732152406000,29,23,6,13,1575420030,0.00,118.0,31.0,0,0,0,0.0
Status,1732152406000,29,24,6,4,1575420030,0.00,309.0,24.0,0,0,0,0.0
Status,1732152406000,29,25,6,15,1575420030,0.00,59.0,24.0,0,0,0,0.0
Status,1732152406000,29,26,6,29,1575420030,0.00,191.0,22.0,0,0,0,0.0
Status,1732152406000,29,27,6,26,1575420030,0.00,166.0,9.0,0,0,0,0.0
Status,1732152406000,29,28,6,6,1575420030,0.00,326.0,6.0,0,0,0,0.0
Fix,GPS,37.4257583333,-122.1580266667,22.900000000000002,0.0,6.8,0.0,1732152407000,3.2,179.9,31291091000000,67.3,0,,,
Raw,1732152407000,25766000000,,706827.5296638716,-1416187599234999808,0.0,165.44015145224807,1083.7304775598009,0.0,0,24,0.0,16431,350824922500519,1797,13.600000381469727,-302.99091925573754,0.14999,16,0.0,0.0,1575420030,,,,0,0.0,1,6.0,13.600000381469727,0.0,0.0,0.0,66.7128,C,31291091000000,
Raw,1732152407000,25766000000,,706827.5296638716,-1416187599234999808,0.0,165.44015145224807,1083.7304775598009,0.0,0,15,0.0,16431,350824925161668,797,18.333999633789062,550.7951402722143,0.14999,16,0.0,0.0,1575420030,,,,0,0.0,1,6.0,18.333999633789062,0.0,0.0,0.0,66.7128,C,31291091000000,
Raw,1732152407000,25766000000,,706827.5296638716,-1416187599234999808,0.0,165.44015145224807,1083.7304775598009,0.0,0,6,0.0,16431,350824920311259,316,24.06599998474121,-333.35688342560474,0.14999,16,0.0,0.0,1575420030,,,,0,8.665396873656093,1,6.0,24.06599998474121,0.0,0.0,0.0,66.7128,C,31291091000000,
Raw,1732152407000,25766000000,,706827.5296638716,-1416187599234999808,0.0,165.44015145224807,1083.7304775598009,0.0,0,8,0.0,17,163744,396,5.0,942.426820641476,0.14999,16,0.0,0.0,1605374980,,,,0,8.75346263210993,3,6.0,21.0,0.0,0.0,72.77524421888623,66.7128,C,31291091000000,
Raw,1732152407000,25766000000,,706827.5296638716,-1416187599234999808,0.0,165.44015145224807,1083.7304775598009,0.0,0,9,0.0,17,811796,487,5.0,712.9999823844018,0.14999,16,0.0,0.0,1600875010,,,,0,5.0,3,6.0,20.0,0.0,0.0,72.77524421888623,66.7128,C,31291091000000,
Raw,1732152407000,25766000000,,706827.5296638716,-1416187599234999808,0.0,165.44015145224807,1083.7304775598009,0.0,0,30,0.0,16431,350824925719298,487,18.604999542236328,870.1391897419802,0.14999,16,0.0,0.0,1575420030,,,,0,0.0,1,6.0,18.604999542236328,0.0,0.0,0.0,66.7128,C,31291091000000,
Raw,1732152407000,25766000000,,706827.5296638716,-1416187599234999808,0.0,165.44015145224807,1083.7304775598009,0.0,0,13,0.0,16431,350824928826305,487,20.847000122070312,742.7795742117293,0.14999,16,0.0,0.0,1575420030,,,,0,1.9019608002851363,1,6.0,20.847000122070312,0.0,0.0,0.0,66.7128,C,31291091000000,
Raw,1732152407000,25766000000,,706827.5296638716,-1416187599234999808,0.0,165.44015145224807,1083.7304775598009,0.0,0,7,0.0,16431,350824916540250,396,23.68400001525879,976.3514917141887,0.14999,16,0.0,0.0,1575420030,,,,0,9.305699602279361,1,6.0,23.68400001525879,0.0,0.0,0.0,66.7128,C,31291091000000,
Fix,FLP,37.4257783000,-122.1580154000,5.400000095367432,0.5937626,7.266,180.0,1732152407243,3.2,179.9,31291091000000,15.855994,0,,,
Fix,FLP,37.4257707000,-122.1580188000,5.400000095367432,0.6077546,7.2,180.0,1732152407510,3.2,179.9,31291358000000,15.46117,0,,,
Fix,NLP,37.4256033000,-122.1579440000,8.800000190734863,,46.199,,1732152407511,,,31291358000000,29.676666,0,,,
Status,1732152407000,29,0,1,17,1575420030,0.00,68.0,77.0,0,0,0,0.0
Status,1732152407000,29,1,1,22,1575420030,0.00,22.0,65.0,0,0,0,0.0
Status,1732152407000,29,2,1,19,1575420030,0.00,201.0,65.0,0,0,0,0.0
Status,1732152407000,29,3,1,14,1575420030,0.00,57.0,50.0,0,0,0,0.0
Status,1732152407000,29,4,1,13,1575420030,25.80,230.0,45.0,1,0,0,20.8
Status,1732152407000,29,5,2,135,1575420030,0.00,197.0,45.0,0,0,0,0.0
Status,1732152407000,29,6,1,30,1575420030,23.60,134.0,33.0,1,0,0,18.6
Status,1732152407000,29,7,1,15,1575420030,23.30,271.0,29.0,1,0,0,18.3
Status,1732152407000,29,8,1,24,1575420030,0.00,313.0,20.0,0,0,0,0.0
Status,1732152407000,29,9,1,2,1575420030,0.00,45.0,15.0,0,0,0,0.0
Status,1732152407000,29,10,1,6,1575420030,29.50,160.0,15.0,1,0,0,24.5
Status,1732152407000,29,11,1,21,1575420030,0.00,32.0,3.0,0,0,0,0.0
Status,1732152407000,29,12,1,7,1575420030,28.70,133.0,1.0,0,0,0,23.7
Status,1732152407000,29,13,1,12,1575420030,0.00,269.0,1.0,0,0,0,0.0
Status,1732152407000,29,14,3,20,1602000000,0.00,107.0,56.0,0,0,0,0.0
Status,1732152407000,29,15,3,9,1602000000,26.90,85.0,31.0,1,0,0,21.9
Status,1732152407000,29,16,3,11,1602000000,0.00,314.0,31.0,0,0,0,0.0
Status,1732152407000,29,17,3,19,1602000000,0.00,30.0,20.0,0,0,0,0.0
Status,1732152407000,29,18,3,8,1602000000,28.20,243.0,19.0,1,0,0,23.2
Status,1732152407000,29,19,3,17,1602000000,30.70,0.0,0.0,0,0,0,25.7
Status,1732152407000,29,20,6,21,1575420030,0.00,351.0,68.0,0,0,0,0.0
Status,1732152407000,29,21,6,19,1575420030,0.00,239.0,44.0,0,0,0,0.0
Status,1732152407000,29,22,6,27,1575420030,0.00,67.0,32.0,0,0,0,0.0
Status,1732152407000,29,23,6,13,1575420030,0.00,118.0,31.0,0,0,0,0.0
Status,1732152407000,29,24,6,4,1575420030,0.00,309.0,24.0,0,0,0,0.0
Status,1732152407000,29,25,6,15,1575420030,0.00,59.0,24.0,0,0,0,0.0
Status,1732152407000,29,26,6,29,1575420030,0.00,191.0,22.0,0,0,0,0.0
Status,1732152407000,29,27,6,26,1575420030,0.00,166.0,9.0,0,0,0,0.0
Status,1732152407000,29,28,6,6,1575420030,0.00,326.0,6.0,0,0,0,0.0
Fix,GPS,37.4257450000,-122.1580416667,22.900000000000002,0.0,6.3,0.0,1732152408000,2.6,179.9,31292091000000,67.1,0,,,
Raw,1732152408000,26766000000,,706765.1948735815,-1416187599234999808,0.0,159.17357101189958,1084.616794095221,0.0,0,15,0.0,16431,350825925159831,797,18.333999633789062,550.8570228826067,0.14999,16,0.0,0.0,1575420030,,,,0,0.0,1,6.0,18.333999633789062,0.0,0.0,0.0,66.7128,C,31292091000000,
Raw,1732152408000,26766000000,,706765.1948735815,-1416187599234999808,0.0,159.17357101189958,1084.616794095221,0.0,0,6,0.0,16431,350825920312373,316,24.474000930786133,-333.4058970547068,0.14999,16,0.0,0.0,1575420030,,,,0,9.261496506177025,1,6.0,24.474000930786133,0.0,0.0,0.0,66.7128,C,31292091000000,
Raw,1732152408000,26766000000,,706765.1948735815,-1416187599234999808,0.0,159.17357101189958,1084.616794095221,0.0,0,8,0.0,17,160601,487,5.0,943.5150906944201,0.14999,16,0.0,0.0,1605374980,,,,0,8.039151586779237,3,6.0,20.0,0.0,0.0,70.48852806911762,66.7128,C,31292091000000,
Raw,1732152408000,26766000000,,706765.1948735815,-1416187599234999808,0.0,159.17357101189958,1084.616794095221,0.0,0,9,0.0,17,809398,396,5.0,713.2367646891202,0.14999,16,0.0,0.0,1600875010,,,,0,7.064389738301273,3,6.0,22.0,0.0,0.0,70.48852806911762,66.7128,C,31292091000000,
Raw,1732152408000,26766000000,,706765.1948735815,-1416187599234999808,0.0,159.17357101189958,1084.616794095221,0.0,0,30,0.0,16431,350825925716394,487,18.604999542236328,870.6677936016238,0.14999,16,0.0,0.0,1575420030,,,,0,0.0,1,6.0,18.604999542236328,0.0,0.0,0.0,66.7128,C,31292091000000,
Raw,1732152408000,26766000000,,706765.1948735815,-1416187599234999808,0.0,159.17357101189958,1084.616794095221,0.0,0,13,0.0,16431,350825928823815,487,20.81800079345703,742.8907027433049,0.14999,16,0.0,0.0,1575420030,,,,0,2.6921316259586097,1,6.0,20.81800079345703,0.0,0.0,0.0,66.7128,C,31292091000000,
Raw,1732152408000,26766000000,,706765.1948735815,-1416187599234999808,0.0,159.17357101189958,1084.616794095221,0.0,0,7,0.0,16431,350825916536992,487,23.670000076293945,976.7490828401185,0.14999,16,0.0,0.0,1575420030,,,,0,7.7132520400014615,1,6.0,23.670000076293945,0.0,0.0,0.0,66.7128,C,31292091000000,
Fix,FLP,37.4257585000,-122.1580265000,5.400000095367432,0.608333,6.933,180.0,1732152408243,2.6,179.9,31292091000000,16.362986,0,,,
Status,1732152408000,29,0,1,17,1575420030,0.00,68.0,77.0,0,0,0,0.0
Status,1732152408000,29,1,1,22,1575420030,0.00,22.0,65.0,0,0,0,0.0
Status,1732152408000,29,2,1,19,1575420030,0.00,201.0,65.0,0,0,0,0.0
Status,1732152408000,29,3,1,14,1575420030,0.00,57.0,50.0,0,0,0,0.0
Status,1732152408000,29,4,1,13,1575420030,0.00,230.0,45.0,0,0,0,0.0
Status,1732152408000,29,5,2,135,1575420030,0.00,197.0,45.0,0,0,0,0.0
Status,1732152408000,29,6,1,30,1575420030,0.00,134.0,33.0,0,0,0,0.0
Status,1732152408000,29,7,1,15,1575420030,23.40,271.0,29.0,1,0,0,18.4
Status,1732152408000,29,8,1,24,1575420030,0.00,313.0,20.0,0,0,0,0.0
Status,1732152408000,29,9,1,2,1575420030,0.00,45.0,15.0,0,0,0,0.0
Status,1732152408000,29,10,1,6,1575420030,29.20,160.0,15.0,1,0,0,24.2
Status,1732152408000,29,11,1,21,1575420030,0.00,32.0,3.0,0,0,0,0.0
Status,1732152408000,29,12,1,7,1575420030,28.70,133.0,1.0,0,0,0,23.7
Status,1732152408000,29,13,1,12,1575420030,0.00,269.0,1.0,0,0,0,0.0
Status,1732152408000,29,14,3,20,1602000000,0.00,107.0,56.0,0,0,0,0.0
Status,1732152408000,29,15,3,9,1602000000,25.90,85.0,31.0,1,0,0,20.9
Status,1732152408000,29,16,3,11,1602000000,0.00,314.0,31.0,0,0,0,0.0
Status,1732152408000,29,17,3,19,1602000000,0.00,30.0,20.0,0,0,0,0.0
Status,1732152408000,29,18,3,8,1602000000,25.60,243.0,19.0,1,0,0,20.6
Status,1732152408000,29,19,3,17,1602000000,36.60,0.0,0.0,0,0,0,31.599998
Status,1732152408000,29,20,6,21,1575420030,0.00,351.0,68.0,0,0,0,0.0
Status,1732152408000,29,21,6,19,1575420030,0.00,239.0,44.0,0,0,0,0.0
Status,1732152408000,29,22,6,27,1575420030,0.00,67.0,32.0,0,0,0,0.0
Status,1732152408000,29,23,6,13,1575420030,0.00,118.0,31.0,0,0,0,0.0
Status,1732152408000,29,24,6,4,1575420030,0.00,309.0,24.0,0,0,0,0.0
Status,1732152408000,29,25,6,15,1575420030,0.00,59.0,24.0,0,0,0,0.0
Status,1732152408000,29,26,6,29,1575420030,0.00,191.0,22.0,0,0,0,0.0
Status,1732152408000,29,27,6,26,1575420030,0.00,166.0,9.0,0,0,0,0.0
Status,1732152408000,29,28,6,6,1575420030,0.00,326.0,6.0,0,0,0,0.0
Fix,GPS,37.4257450000,-122.1580333333,22.900000000000002,0.0,6.1,0.0,1732152409000,2.3,179.9,31293091000000,67.1,0,,,
Raw,1732152409000,27766000000,,706756.1782191332,-1416187599234999808,0.0,157.30729985121985,1082.8429044170848,0.0,0,15,0.0,16431,350826925158013,487,18.38800048828125,550.6003401330435,0.14999,16,0.0,0.0,1575420030,,,,0,1.1461895824971413,1,6.0,18.38800048828125,0.0,0.0,0.0,66.7128,C,31293091000000,
Raw,1732152409000,27766000000,,706756.1782191332,-1416187599234999808,0.0,157.30729985121985,1082.8429044170848,0.0,0,6,0.0,16431,350826920313486,487,24.215999603271484,-334.3226609817894,0.14999,16,0.0,0.0,1575420030,,,,0,8.8995320643211,1,6.0,24.215999603271484,0.0,0.0,0.0,66.7128,C,31293091000000,
Raw,1732152409000,27766000000,,706756.1782191332,-1416187599234999808,0.0,157.30729985121985,1082.8429044170848,0.0,0,8,0.0,17,157458,487,5.0,942.9554089529059,0.14999,16,0.0,0.0,1605374980,,,,0,5.176668252556739,3,6.0,20.0,0.0,0.0,70.48852806911762,66.7128,C,31293091000000,
Raw,1732152409000,27766000000,,706756.1782191332,-1416187599234999808,0.0,157.30729985121985,1082.8429044170848,0.0,0,9,0.0,17,807017,487,5.0,712.8737045845115,0.14999,16,0.0,0.0,1600875010,,,,0,5.613376395329039,3,6.0,19.0,0.0,0.0,70.48852806911762,66.7128,C,31293091000000,
Raw,1732152409000,27766000000,,706756.1782191332,-1416187599234999808,0.0,157.30729985121985,1082.8429044170848,0.0,0,7,0.0,16431,350826916533731,396,23.660999298095703,975.8911817263746,0.14999,16,0.0,0.0,1575420030,,,,0,7.870704501999169,1,6.0,23.660999298095703,0.0,0.0,0.0,66.7128,C,31293091000000,
Fix,FLP,37.4257504000,-122.1580291000,5.400000095367432,0.48417413,6.716,180.0,1732152409243,2.3,179.9,31293091000000,15.146303,0,,,
Status,1732152409000,29,0,1,17,1575420030,0.00,68.0,77.0,0,0,0,0.0
Status,1732152409000,29,1,1,22,1575420030,0.00,22.0,65.0,0,0,0,0.0
Status,1732152409000,29,2,1,19,1575420030,0.00,201.0,65.0,0,0,0,0.0
Status,1732152409000,29,3,1,14,1575420030,0.00,57.0,50.0,0,0,0,0.0
Status,1732152409000,29,4,1,13,1575420030,26.00,230.0,45.0,1,0,0,21.0
Status,1732152409000,29,5,2,135,1575420030,0.00,197.0,45.0,0,0,0,0.0
Status,1732152409000,29,6,1,30,1575420030,26.60,134.0,33.0,1,0,0,21.6
Status,1732152409000,29,7,1,15,1575420030,23.40,271.0,29.0,1,0,0,18.4
Status,1732152409000,29,8,1,24,1575420030,0.00,313.0,20.0,0,0,0,0.0
Status,1732152409000,29,9,1,2,1575420030,0.00,45.0,15.0,0,0,0,0.0
Status,1732152409000,29,10,1,6,1575420030,30.90,160.0,15.0,1,0,0,25.9
Status,1732152409000,29,11,1,21,1575420030,0.00,32.0,3.0,0,0,0,0.0
Status,1732152409000,29,12,1,7,1575420030,25.40,133.0,1.0,0,0,0,20.4
Status,1732152409000,29,13,1,12,1575420030,0.00,269.0,1.0,0,0,0,0.0
Status,1732152409000,29,14,3,20,1602000000,0.00,107.0,56.0,0,0,0,0.0
Status,1732152409000,29,15,3,9,1602000000,23.40,85.0,31.0,1,0,0,18.4
Status,1732152409000,29,16,3,11,1602000000,0.00,314.0,31.0,0,0,0,0.0
Status,1732152409000,29,17,3,19,1602000000,0.00,30.0,20.0,0,0,0,0.0
Status,1732152409000,29,18,3,8,1602000000,25.50,243.0,19.0,1,0,0,20.5
Status,1732152409000,29,19,3,17,1602000000,34.10,0.0,0.0,0,0,0,29.099998
Status,1732152409000,29,20,6,21,1575420030,0.00,351.0,68.0,0,0,0,0.0
Status,1732152409000,29,21,6,19,1575420030,0.00,239.0,44.0,0,0,0,0.0
Status,1732152409000,29,22,6,27,1575420030,0.00,67.0,32.0,0,0,0,0.0
Status,1732152409000,29,23,6,13,1575420030,0.00,118.0,31.0,0,0,0,0.0
Status,1732152409000,29,24,6,4,1575420030,0.00,309.0,24.0,0,0,0,0.0
Status,1732152409000,29,25,6,15,1575420030,0.00,59.0,24.0,0,0,0,0.0
Status,1732152409000,29,26,6,29,1575420030,0.00,191.0,22.0,0,0,0,0.0
Status,1732152409000,29,27,6,26,1575420030,0.00,166.0,9.0,0,0,0,0.0
Status,1732152409000,29,28,6,6,1575420030,0.00,326.0,6.0,0,0,0,0.0
Fix,GPS,37.4257416667,-122.1580383333,22.900000000000002,0.0,6.1,0.0,1732152410000,2.3,179.9,31294091000000,67.1,0,,,
Raw,1732152410000,28766000000,,706730.8481956541,-1416187599234999808,0.0,157.70758592706915,1079.5766942398739,0.0,0,15,0.0,16431,350827925156178,487,18.43899917602539,549.3889833887699,0.14999,16,0.0,0.0,1575420030,,,,0,1.1461895824971413,1,6.0,18.43899917602539,0.0,0.0,0.0,66.7128,C,31294091000000,
Raw,1732152410000,28766000000,,706730.8481956541,-1416187599234999808,0.0,157.70758592706915,1079.5766942398739,0.0,0,6,0.0,16431,350827920314603,316,25.899999618530273,-335.3507392741124,0.14999,16,0.0,0.0,1575420030,,,,0,11.270314144240817,1,6.0,25.899999618530273,0.0,0.0,0.0,66.7128,C,31294091000000,
Raw,1732152410000,28766000000,,706730.8481956541,-1416187599234999808,0.0,157.70758592706915,1079.5766942398739,0.0,0,8,0.0,17,154322,487,5.0,941.9064388071943,0.14999,16,0.0,0.0,1605374980,,,,0,2.7745117539796524,3,6.0,20.0,0.0,0.0,67.51388531477895,66.7128,C,31294091000000,
Raw,1732152410000,28766000000,,706730.8481956541,-1416187599234999808,0.0,157.70758592706915,1079.5766942398739,0.0,0,9,0.0,17,804644,487,5.0,715.564171525187,0.14999,16,0.0,0.0,1600875010,,,,0,1.5309767422105436,3,6.0,19.0,0.0,0.0,67.51388531477895,66.7128,C,31294091000000,
Raw,1732152410000,28766000000,,706730.8481956541,-1416187599234999808,0.0,157.70758592706915,1079.5766942398739,0.0,0,30,0.0,16431,350827925710563,396,21.614999771118164,869.0502973828376,0.14999,16,0.0,0.0,1575420030,,,,0,4.9273143068981184,1,6.0,21.614999771118164,0.0,0.0,0.0,66.7128,C,31294091000000,
Raw,1732152410000,28766000000,,706730.8481956541,-1416187599234999808,0.0,157.70758592706915,1079.5766942398739,0.0,0,13,0.0,16431,350827928818848,487,21.048999786376953,741.0567567633939,0.14999,16,0.0,0.0,1575420030,,,,0,4.004050632751697,1,6.0,21.048999786376953,0.0,0.0,0.0,66.7128,C,31294091000000,
Raw,1732152410000,28766000000,,706730.8481956541,-1416187599234999808,0.0,157.70758592706915,1079.5766942398739,0.0,0,7,0.0,16431,350827916530480,487,20.434999465942383,974.353222316141,0.14999,16,0.0,0.0,1575420030,,,,0,2.9708471848244584,1,6.0,20.434999465942383,0.0,0.0,0.0,66.7128,C,31294091000000,
Fix,FLP,37.4257448000,-122.1580326000,5.400000095367432,0.37238753,6.628,180.0,1732152410244,2.3,179.9,31294091000000,15.328018,0,,,
Status,1732152410000,29,0,1,17,1575420030,0.00,68.0,77.0,0,0,0,0.0
Status,1732152410000,29,1,1,22,1575420030,0.00,22.0,65.0,0,0,0,0.0
Status,1732152410000,29,2,1,19,1575420030,0.00,201.0,65.0,0,0,0,0.0
Status,1732152410000,29,3,1,14,1575420030,0.00,57.0,50.0,0,0,0,0.0
Status,1732152410000,29,4,1,13,1575420030,29.90,230.0,45.0,1,0,0,24.9
Status,1732152410000,29,5,2,135,1575420030,0.00,197.0,45.0,0,0,0,0.0
