# 
# Header Description:
# 
# Version: v3.1.0.3 Platform: 13 Manufacturer: samsung Model: SM-S135DL GNSS Hardware Model Name: MediaTek,MT6631,MTK_MNLD_default,MNL_VER_default
# 
# Raw,utcTimeMillis,TimeNanos,LeapSecond,TimeUncertaintyNanos,FullBiasNanos,BiasNanos,BiasUncertaintyNanos,DriftNanosPerSecond,DriftUncertaintyNanosPerSecond,HardwareClockDiscontinuityCount,Svid,TimeOffsetNanos,State,ReceivedSvTimeNanos,ReceivedSvTimeUncertaintyNanos,Cn0DbHz,PseudorangeRateMetersPerSecond,PseudorangeRateUncertaintyMetersPerSecond,AccumulatedDeltaRangeState,AccumulatedDeltaRangeMeters,AccumulatedDeltaRangeUncertaintyMeters,CarrierFrequencyHz,CarrierCycles,CarrierPhase,CarrierPhaseUncertainty,MultipathIndicator,SnrInDb,ConstellationType,AgcDb,BasebandCn0DbHz,FullInterSignalBiasNanos,FullInterSignalBiasUncertaintyNanos,SatelliteInterSignalBiasNanos,SatelliteInterSignalBiasUncertaintyNanos,CodeType,ChipsetElapsedRealtimeNanos,IsFullTracking
# 
# UncalAccel,utcTimeMillis,elapsedRealtimeNanos,UncalAccelXMps2,UncalAccelYMps2,UncalAccelZMps2,BiasXMps2,BiasYMps2,BiasZMps2
# 
# Accel,utcTimeMillis,elapsedRealtimeNanos,AccelXMps2,AccelYMps2,AccelZMps2
# 
# UncalGyro,utcTimeMillis,elapsedRealtimeNanos,UncalGyroXRadPerSec,UncalGyroYRadPerSec,UncalGyroZRadPerSec,DriftXRadPerSec,DriftYRadPerSec,DriftZRadPerSec
# 
# Gyro,utcTimeMillis,elapsedRealtimeNanos,GyroXRadPerSec,GyroYRadPerSec,GyroZRadPerSec
# 
# UncalMag,utcTimeMillis,elapsedRealtimeNanos,UncalMagXMicroT,UncalMagYMicroT,UncalMagZMicroT,BiasXMicroT,BiasYMicroT,BiasZMicroT
# 
# Mag,utcTimeMillis,elapsedRealtimeNanos,MagXMicroT,MagYMicroT,MagZMicroT
# 
# Pressure,utcTimeMillis,elapsedRealtimeNanos,PressureHpa
# 
# OrientationDeg,utcTimeMillis,elapsedRealtimeNanos,yawDeg,rollDeg,pitchDeg
# 
# Fix,Provider,LatitudeDegrees,LongitudeDegrees,AltitudeMeters,SpeedMps,AccuracyMeters,BearingDegrees,UnixTimeMillis,SpeedAccuracyMps,BearingAccuracyDegrees,elapsedRealtimeNanos,VerticalAccuracyMeters,MockLocation,NumberOfUsedSignals,VerticalSpeedAccuracyMps,SolutionType
# 
# Nav,Svid,Type,Status,MessageId,Sub-messageId,Data(Bytes)
# 
# Status,UnixTimeMillis,SignalCount,SignalIndex,ConstellationType,Svid,CarrierFrequencyHz,Cn0DbHz,AzimuthDegrees,ElevationDegrees,UsedInFix,HasAlmanacData,HasEphemerisData,BasebandCn0DbHz
# 
# Agc,utcTimeMillis,TimeNanos,LeapSecond,TimeUncertaintyNanos,FullBiasNanos,BiasNanos,BiasUncertaintyNanos,DriftNanosPerSecond,DriftUncertaintyNanosPerSecond,HardwareClockDiscontinuityCount,AgcDb,CarrierFrequencyHz,ConstellationType
# 
Raw,1732151865000,17330000000,,705858.3174897615,-1416187065670000128,0.0,143.43483861362031,1170.627437316054,0.0,0,30,0.0,16431,350282926271325,487,20.62299919128418,859.0989975473727,0.14999,16,0.0,0.0,1575420030,,,,0,3.894892745246115,1,6.0,20.62299919128418,0.0,0.0,0.0,66.7128,C,30749090000000,
Raw,1732151865000,17330000000,,705858.3174897615,-1416187065670000128,0.0,143.43483861362031,1170.627437316054,0.0,0,24,0.0,16431,350282920949926,797,13.300000190734863,-295.0272033825919,0.14999,16,0.0,0.0,1575420030,,,,0,0.0,1,6.0,13.300000190734863,0.0,0.0,0.0,66.7128,C,30749090000000,
Raw,1732151865000,17330000000,,705858.3174897615,-1416187065670000128,0.0,143.43483861362031,1170.627437316054,0.0,0,15,0.0,16431,350282925115089,797,19.39299964904785,515.2200261847405,0.14999,16,0.0,0.0,1575420030,,,,0,0.0,1,6.0,19.39299964904785,0.0,0.0,0.0,66.7128,C,30749090000000,
Raw,1732151865000,17330000000,,705858.3174897615,-1416187065670000128,0.0,143.43483861362031,1170.627437316054,0.0,0,13,0.0,16431,350282929132249,797,19.670000076293945,713.1156431692195,0.14999,16,0.0,0.0,1575420030,,,,0,1.7244651804578108,1,6.0,19.670000076293945,0.0,0.0,0.0,66.7128,C,30749090000000,
Raw,1732151865000,17330000000,,705858.3174897615,-1416187065670000128,0.0,143.43483861362031,1170.627437316054,0.0,0,6,0.0,16431,350282918719568,797,13.699999809265137,-308.94089507823736,0.14999,16,0.0,0.0,1575420030,,,,0,0.0,1,6.0,13.699999809265137,0.0,0.0,0.0,66.7128,C,30749090000000,
Raw,1732151865000,17330000000,,705858.3174897615,-1416187065670000128,0.0,143.43483861362031,1170.627437316054,0.0,0,8,0.0,17,845145,797,5.0,927.1034129609308,0.14999,16,0.0,0.0,1605374980,,,,0,1.9696873784147026,3,6.0,16.0,0.0,0.0,62.87088320699416,66.7128,C,30749090000000,
Raw,1732151865000,17330000000,,705858.3174897615,-1416187065670000128,0.0,143.43483861362031,1170.627437316054,0.0,0,7,0.0,16431,350282917302451,487,21.243999481201172,984.9362636952368,0.14999,16,0.0,0.0,1575420030,,,,0,4.320756939273061,1,6.0,21.243999481201172,0.0,0.0,0.0,66.7128,C,30749090000000,
Fix,FLP,37.4256444000,-122.1580724000,5.400000095367432,0.11380439,6.085,180.0,1732151865242,2.0,179.9,30749090000000,15.412047,0,,,
Status,,26,0,1,17,1575420030,0.00,85.0,79.0,0,0,0,0.0
Status,,26,1,1,22,1575420030,0.00,12.0,66.0,0,0,0,0.0
Status,,26,2,1,19,1575420030,0.00,200.0,60.0,0,0,0,0.0
Status,,26,3,1,14,1575420030,0.00,52.0,53.0,0,0,0,0.0
Status,,26,4,1,13,1575420030,27.60,235.0,48.0,1,0,0,22.6
Status,,26,5,1,30,1575420030,25.60,131.0,37.0,1,0,0,20.6
Status,,26,6,1,15,1575420030,24.40,275.0,30.0,1,0,0,19.4
Status,,26,7,1,2,1575420030,0.00,48.0,17.0,0,0,0,0.0
Status,,26,8,1,24,1575420030,18.20,313.0,16.0,1,0,0,13.200001
Status,,26,9,1,6,1575420030,18.70,162.0,12.0,1,0,0,13.700001
Status,,26,10,1,21,1575420030,0.00,34.0,5.0,0,0,0,0.0
Status,,26,11,1,7,1575420030,27.20,131.0,4.0,0,0,0,22.2
Status,,26,12,3,20,1602000000,0.00,114.0,53.0,0,0,0,0.0
Status,,26,13,3,9,1602000000,0.00,80.0,33.0,0,0,0,0.0
Status,,26,14,3,11,1602000000,0.00,310.0,28.0,0,0,0,0.0
Status,,26,15,3,8,1602000000,24.50,247.0,23.0,1,0,0,19.5
Status,,26,16,3,19,1602000000,0.00,33.0,23.0,0,0,0,0.0
Status,,26,17,6,21,1575420030,0.00,343.0,68.0,0,0,0,0.0
Status,,26,18,6,19,1575420030,0.00,243.0,46.0,0,0,0,0.0
Status,,26,19,6,27,1575420030,0.00,64.0,34.0,0,0,0,0.0
Status,,26,20,6,13,1575420030,0.00,120.0,28.0,0,0,0,0.0
Status,,26,21,6,29,1575420030,0.00,191.0,25.0,0,0,0,0.0
Status,,26,22,6,15,1575420030,0.00,62.0,24.0,0,0,0,0.0
Status,,26,23,6,4,1575420030,0.00,311.0,23.0,0,0,0,0.0
Status,,26,24,6,26,1575420030,0.00,167.0,6.0,0,0,0,0.0
Status,,26,25,6,6,1575420030,0.00,327.0,4.0,0,0,0,0.0
Fix,GPS,37.4256233333,-122.1581100000,23.400000000000002,0.0,6.0,0.0,1732151866000,2.0,179.9,30750090000000,67.0,0,,,
Raw,1732151866000,18330000000,,705847.5287760574,-1416187065670000128,0.0,139.49827229390854,1169.3068228496827,0.0,0,30,0.0,16431,350283926268435,487,20.618999481201172,859.2484078139058,0.14999,16,0.0,0.0,1575420030,,,,0,3.1668530116605713,1,6.0,20.618999481201172,0.0,0.0,0.0,66.7128,C,30750090000000,
Raw,1732151866000,18330000000,,705847.5287760574,-1416187065670000128,0.0,139.49827229390854,1169.3068228496827,0.0,0,24,0.0,16431,350283920950910,797,13.199999809265137,-295.6278642457779,0.14999,16,0.0,0.0,1575420030,,,,0,0.0,1,6.0,13.199999809265137,0.0,0.0,0.0,66.7128,C,30750090000000,
Raw,1732151866000,18330000000,,705847.5287760574,-1416187065670000128,0.0,139.49827229390854,1169.3068228496827,0.0,0,15,0.0,16431,350283925113392,487,19.354999542236328,514.3962255484952,0.14999,16,0.0,0.0,1575420030,,,,0,0.0,1,6.0,19.354999542236328,0.0,0.0,0.0,66.7128,C,30750090000000,
Raw,1732151866000,18330000000,,705847.5287760574,-1416187065670000128,0.0,139.49827229390854,1169.3068228496827,0.0,0,13,0.0,16431,350283929129939,396,22.63599967956543,711.9920463731677,0.14999,16,0.0,0.0,1575420030,,,,0,6.577217034540096,1,6.0,22.63599967956543,0.0,0.0,0.0,66.7128,C,30750090000000,
Raw,1732151866000,18330000000,,705847.5287760574,-1416187065670000128,0.0,139.49827229390854,1169.3068228496827,0.0,0,6,0.0,16431,350283918720598,797,13.699999809265137,-309.802280573197,0.14999,16,0.0,0.0,1575420030,,,,0,0.0,1,6.0,13.699999809265137,0.0,0.0,0.0,66.7128,C,30750090000000,
Raw,1732151866000,18330000000,,705847.5287760574,-1416187065670000128,0.0,139.49827229390854,1169.3068228496827,0.0,0,8,0.0,17,842059,396,5.0,927.0202539924946,0.14999,16,0.0,0.0,1605374980,,,,0,3.3686502906402596,3,6.0,21.0,0.0,0.0,60.93332265055215,66.7128,C,30750090000000,
Raw,1732151866000,18330000000,,705847.5287760574,-1416187065670000128,0.0,139.49827229390854,1169.3068228496827,0.0,0,7,0.0,16431,350283917299171,396,22.20199966430664,984.529845470227,0.14999,16,0.0,0.0,1575420030,,,,0,5.911305646672745,1,6.0,22.20199966430664,0.0,0.0,0.0,66.7128,C,30750090000000,
Fix,FLP,37.4256348000,-122.1580879000,5.400000095367432,0.13455266,6.071,180.0,1732151866242,2.0,179.9,30750090000000,15.91449,0,,,
Status,1732151866000,27,0,1,17,1575420030,0.00,85.0,79.0,0,0,0,0.0
Status,1732151866000,27,1,1,22,1575420030,0.00,13.0,66.0,0,0,0,0.0
Status,1732151866000,27,2,1,19,1575420030,0.00,200.0,60.0,0,0,0,0.0
Status,1732151866000,27,3,1,14,1575420030,0.00,52.0,53.0,0,0,0,0.0
Status,1732151866000,27,4,1,13,1575420030,30.00,235.0,48.0,1,0,0,25.0
Status,1732151866000,27,5,2,133,1575420030,0.00,191.0,45.0,0,0,0,0.0
Status,1732151866000,27,6,1,30,1575420030,33.70,131.0,37.0,1,0,0,28.7
Status,1732151866000,27,7,1,15,1575420030,24.30,275.0,30.0,1,0,0,19.3
Status,1732151866000,27,8,1,2,1575420030,0.00,48.0,17.0,0,0,0,0.0
Status,1732151866000,27,9,1,24,1575420030,18.20,313.0,16.0,1,0,0,13.200001
Status,1732151866000,27,10,1,6,1575420030,19.80,162.0,12.0,1,0,0,14.799999
Status,1732151866000,27,11,1,21,1575420030,0.00,34.0,5.0,0,0,0,0.0
Status,1732151866000,27,12,1,7,1575420030,31.20,131.0,4.0,0,0,0,26.2
Status,1732151866000,27,13,3,20,1602000000,0.00,114.0,53.0,0,0,0,0.0
Status,1732151866000,27,14,3,9,1602000000,0.00,80.0,33.0,0,0,0,0.0
Status,1732151866000,27,15,3,11,1602000000,0.00,310.0,28.0,0,0,0,0.0
Status,1732151866000,27,16,3,8,1602000000,28.30,247.0,23.0,1,0,0,23.3
Status,1732151866000,27,17,3,19,1602000000,0.00,33.0,23.0,0,0,0,0.0
Status,1732151866000,27,18,6,21,1575420030,0.00,343.0,68.0,0,0,0,0.0
Status,1732151866000,27,19,6,19,1575420030,0.00,243.0,46.0,0,0,0,0.0
Status,1732151866000,27,20,6,27,1575420030,0.00,64.0,34.0,0,0,0,0.0
Status,1732151866000,27,21,6,13,1575420030,0.00,120.0,28.0,0,0,0,0.0
Status,1732151866000,27,22,6,29,1575420030,0.00,191.0,25.0,0,0,0,0.0
Status,1732151866000,27,23,6,15,1575420030,0.00,62.0,24.0,0,0,0,0.0
Status,1732151866000,27,24,6,4,1575420030,0.00,311.0,23.0,0,0,0,0.0
Status,1732151866000,27,25,6,26,1575420030,0.00,167.0,6.0,0,0,0,0.0
Status,1732151866000,27,26,6,6,1575420030,0.00,327.0,4.0,0,0,0,0.0
Fix,GPS,37.4256133333,-122.1581533333,23.400000000000002,0.0,5.9,0.0,1732151867000,2.0,179.9,30751090000000,66.7,0,,,
Fix,FLP,37.4256247000,-122.1581158000,5.400000095367432,0.15549995,6.042,180.0,1732151867243,2.0,179.9,30751090000000,14.6079235,0,,,
Raw,1732151867000,19330000000,,705830.5899743482,-1416187065670000128,0.0,137.43367769314403,1167.9080260338278,0.0,0,30,0.0,16431,350284926265576,235,28.676000595092773,858.364025402922,0.14999,16,0.0,0.0,1575420030,,,,0,14.906219492989969,1,6.0,28.676000595092773,0.0,0.0,0.0,66.7128,C,30751090000000,
Raw,1732151867000,19330000000,,705830.5899743482,-1416187065670000128,0.0,137.43367769314403,1167.9080260338278,0.0,0,24,0.0,16431,350284920951896,1797,13.199999809265137,-295.3607283525673,0.14999,16,0.0,0.0,1575420030,,,,0,0.0,1,6.0,13.199999809265137,0.0,0.0,0.0,66.7128,C,30751090000000,
Raw,1732151867000,19330000000,,705830.5899743482,-1416187065670000128,0.0,137.43367769314403,1167.9080260338278,0.0,0,15,0.0,16431,350284925111677,487,19.319000244140625,513.7472479324501,0.14999,16,0.0,0.0,1575420030,,,,0,0.0,1,6.0,19.319000244140625,0.0,0.0,0.0,66.7128,C,30751090000000,
Raw,1732151867000,19330000000,,705830.5899743482,-1416187065670000128,0.0,137.43367769314403,1167.9080260338278,0.0,0,13,0.0,16431,350284929127582,316,25.01799964904785,712.162688135909,0.14999,16,0.0,0.0,1575420030,,,,0,10.066931681345352,1,6.0,25.01799964904785,0.0,0.0,0.0,66.7128,C,30751090000000,
Raw,1732151867000,19330000000,,705830.5899743482,-1416187065670000128,0.0,137.43367769314403,1167.9080260338278,0.0,0,6,0.0,16431,350284918721630,797,14.800000190734863,-308.8923460332974,0.14999,16,0.0,0.0,1575420030,,,,0,0.0,1,6.0,14.800000190734863,0.0,0.0,0.0,66.7128,C,30751090000000,
Raw,1732151867000,19330000000,,705830.5899743482,-1416187065670000128,0.0,137.43367769314403,1167.9080260338278,0.0,0,8,0.0,17,838966,396,5.0,927.8054314894282,0.14999,16,0.0,0.0,1605374980,,,,0,8.909652531109018,3,6.0,22.0,0.0,0.0,56.29509462667334,66.7128,C,30751090000000,
Raw,1732151867000,19330000000,,705830.5899743482,-1416187065670000128,0.0,137.43367769314403,1167.9080260338278,0.0,0,7,0.0,16431,350284917295889,316,26.219999313354492,984.3966027325351,0.14999,16,0.0,0.0,1575420030,,,,0,11.704008399524387,1,6.0,26.219999313354492,0.0,0.0,0.0,66.7128,C,30751090000000,
Status,1732151867000,28,0,1,17,1575420030,0.00,85.0,79.0,0,0,0,0.0
Status,1732151867000,28,1,1,22,1575420030,0.00,13.0,66.0,0,0,0,0.0
Status,1732151867000,28,2,1,19,1575420030,0.00,200.0,60.0,0,0,0,0.0
Status,1732151867000,28,3,1,14,1575420030,0.00,52.0,53.0,0,0,0,0.0
Status,1732151867000,28,4,1,13,1575420030,30.00,235.0,48.0,1,0,0,25.0
Status,1732151867000,28,5,2,133,1575420030,0.00,191.0,45.0,0,0,0,0.0
Status,1732151867000,28,6,1,30,1575420030,31.30,131.0,37.0,1,0,0,26.3
Status,1732151867000,28,7,1,15,1575420030,24.40,275.0,30.0,1,0,0,19.4
Status,1732151867000,28,8,1,2,1575420030,0.00,48.0,17.0,0,0,0,0.0
Status,1732151867000,28,9,1,24,1575420030,18.20,313.0,16.0,1,0,0,13.200001
Status,1732151867000,28,10,1,6,1575420030,0.00,162.0,12.0,0,0,0,0.0
Status,1732151867000,28,11,1,21,1575420030,0.00,34.0,5.0,0,0,0,0.0
Status,1732151867000,28,12,1,7,1575420030,29.90,131.0,4.0,0,0,0,24.9
Status,1732151867000,28,13,3,20,1602000000,0.00,114.0,53.0,0,0,0,0.0
Status,1732151867000,28,14,3,9,1602000000,0.00,80.0,33.0,0,0,0,0.0
Status,1732151867000,28,15,3,11,1602000000,0.00,310.0,28.0,0,0,0,0.0
Status,1732151867000,28,16,3,8,1602000000,22.60,247.0,23.0,1,0,0,17.6
Status,1732151867000,28,17,3,19,1602000000,0.00,33.0,23.0,0,0,0,0.0
Status,1732151867000,28,18,3,17,1602000000,28.60,0.0,0.0,0,0,0,23.6
Status,1732151867000,28,19,6,21,1575420030,0.00,343.0,68.0,0,0,0,0.0
Status,1732151867000,28,20,6,19,1575420030,0.00,243.0,46.0,0,0,0,0.0
Status,1732151867000,28,21,6,27,1575420030,0.00,64.0,34.0,0,0,0,0.0
Status,1732151867000,28,22,6,13,1575420030,0.00,120.0,28.0,0,0,0,0.0
Status,1732151867000,28,23,6,29,1575420030,0.00,191.0,25.0,0,0,0,0.0
Status,1732151867000,28,24,6,15,1575420030,0.00,62.0,24.0,0,0,0,0.0
Status,1732151867000,28,25,6,4,1575420030,0.00,311.0,23.0,0,0,0,0.0
Status,1732151867000,28,26,6,26,1575420030,0.00,167.0,6.0,0,0,0,0.0
Status,1732151867000,28,27,6,6,1575420030,0.00,327.0,4.0,0,0,0,0.0
Fix,GPS,37.4256116667,-122.1581533333,23.400000000000002,0.0,6.0,0.0,1732151868000,2.0,179.9,30752090000000,67.1,0,,,
Raw,1732151868000,20330000000,,705829.7560641102,-1416187065670000128,0.0,138.81848072050363,1163.68246651223,0.0,0,30,0.0,16431,350285926262749,396,26.268999099731445,857.1438415595685,0.14999,16,0.0,0.0,1575420030,,,,0,11.774769602596582,1,6.0,26.268999099731445,0.0,0.0,0.0,66.7128,C,30752090000000,
Raw,1732151868000,20330000000,,705829.7560641102,-1416187065670000128,0.0,138.81848072050363,1163.68246651223,0.0,0,24,0.0,16431,350285920952882,1797,13.199999809265137,-296.1025763426172,0.14999,16,0.0,0.0,1575420030,,,,0,0.0,1,6.0,13.199999809265137,0.0,0.0,0.0,66.7128,C,30752090000000,
Raw,1732151868000,20330000000,,705829.7560641102,-1416187065670000128,0.0,138.81848072050363,1163.68246651223,0.0,0,15,0.0,16431,350285925109970,797,19.35300064086914,512.6411195008935,0.14999,16,0.0,0.0,1575420030,,,,0,2.2675101013301076,1,6.0,19.35300064086914,0.0,0.0,0.0,66.7128,C,30752090000000,
Raw,1732151868000,20330000000,,705829.7560641102,-1416187065670000128,0.0,138.81848072050363,1163.68246651223,0.0,0,13,0.0,16431,350285929125208,396,25.01799964904785,711.2497337989556,0.14999,16,0.0,0.0,1575420030,,,,0,10.066931681345352,1,6.0,25.01799964904785,0.0,0.0,0.0,66.7128,C,30752090000000,
Raw,1732151868000,20330000000,,705829.7560641102,-1416187065670000128,0.0,138.81848072050363,1163.68246651223,0.0,0,8,0.0,17,835862,797,5.0,930.395851592829,0.14999,16,0.0,0.0,1605374980,,,,0,0.09450473183273722,3,6.0,16.0,0.0,0.0,56.29509462667334,66.7128,C,30752090000000,
Raw,1732151868000,20330000000,,705829.7560641102,-1416187065670000128,0.0,138.81848072050363,1163.68246651223,0.0,0,7,0.0,16431,350285917292610,487,24.934999465942383,982.7523464660118,0.14999,16,0.0,0.0,1575420030,,,,0,9.937289130786946,1,6.0,24.934999465942383,0.0,0.0,0.0,66.7128,C,30752090000000,
Fix,FLP,37.4256184000,-122.1581314000,5.400000095367432,0.1642123,6.028,180.0,1732151868242,2.0,179.9,30752090000000,16.037554,0,,,
Fix,NLP,37.4256996000,-122.1580742000,5.400000095367432,,23.953,,1732151868343,,,30752191000000,28.065104,0,,,
Status,1732151868000,28,0,1,17,1575420030,0.00,85.0,79.0,0,0,0,0.0
Status,1732151868000,28,1,1,22,1575420030,0.00,13.0,66.0,0,0,0,0.0
Status,1732151868000,28,2,1,19,1575420030,0.00,200.0,60.0,0,0,0,0.0
Status,1732151868000,28,3,1,14,1575420030,0.00,52.0,53.0,0,0,0,0.0
Status,1732151868000,28,4,1,13,1575420030,26.40,235.0,48.0,1,0,0,21.4
Status,1732151868000,28,5,2,133,1575420030,0.00,191.0,45.0,0,0,0,0.0
Status,1732151868000,28,6,1,30,1575420030,26.40,131.0,37.0,1,0,0,21.4
Status,1732151868000,28,7,1,15,1575420030,24.40,275.0,30.0,1,0,0,19.4
Status,1732151868000,28,8,1,2,1575420030,0.00,48.0,17.0,0,0,0,0.0
Status,1732151868000,28,9,1,24,1575420030,17.10,313.0,16.0,1,0,0,12.1
Status,1732151868000,28,10,1,6,1575420030,0.00,162.0,12.0,0,0,0,0.0
Status,1732151868000,28,11,1,21,1575420030,0.00,34.0,5.0,0,0,0,0.0
Status,1732151868000,28,12,1,7,1575420030,28.50,131.0,4.0,0,0,0,23.5
Status,1732151868000,28,13,3,20,1602000000,0.00,114.0,53.0,0,0,0,0.0
Status,1732151868000,28,14,3,9,1602000000,0.00,80.0,33.0,0,0,0,0.0
Status,1732151868000,28,15,3,11,1602000000,0.00,310.0,28.0,0,0,0,0.0
Status,1732151868000,28,16,3,8,1602000000,22.60,247.0,23.0,1,0,0,17.6
Status,1732151868000,28,17,3,19,1602000000,0.00,33.0,23.0,0,0,0,0.0
Status,1732151868000,28,18,3,17,1602000000,27.10,0.0,0.0,0,0,0,22.1
Status,1732151868000,28,19,6,21,1575420030,0.00,343.0,68.0,0,0,0,0.0
Status,1732151868000,28,20,6,19,1575420030,0.00,243.0,46.0,0,0,0,0.0
Status,1732151868000,28,21,6,27,1575420030,0.00,64.0,34.0,0,0,0,0.0
Status,1732151868000,28,22,6,13,1575420030,0.00,120.0,28.0,0,0,0,0.0
Status,1732151868000,28,23,6,29,1575420030,0.00,191.0,25.0,0,0,0,0.0
Status,1732151868000,28,24,6,15,1575420030,0.00,62.0,24.0,0,0,0,0.0
Status,1732151868000,28,25,6,4,1575420030,0.00,311.0,23.0,0,0,0,0.0
Status,1732151868000,28,26,6,26,1575420030,0.00,167.0,6.0,0,0,0,0.0
Status,1732151868000,28,27,6,6,1575420030,0.00,327.0,4.0,0,0,0,0.0
Fix,GPS,37.4256100000,-122.1581533333,23.400000000000002,0.0,6.0,0.0,1732151869000,2.1,179.9,30753090000000,67.4,0,,,
Raw,1732151869000,21330000000,,705828.7136763127,-1416187065670000128,0.0,140.02136213725802,1161.3124961354044,0.0,0,30,0.0,16431,350286926259893,487,21.427000045776367,856.6471081734454,0.14999,16,0.0,0.0,1575420030,,,,0,4.647025894022573,1,6.0,21.427000045776367,0.0,0.0,0.0,66.7128,C,30753090000000,
Raw,1732151869000,21330000000,,705828.7136763127,-1416187065670000128,0.0,140.02136213725802,1161.3124961354044,0.0,0,24,0.0,16431,350286920953870,1797,12.100000381469727,-296.6560354549334,0.14999,16,0.0,0.0,1575420030,,,,0,0.0,1,6.0,12.100000381469727,0.0,0.0,0.0,66.7128,C,30753090000000,
Raw,1732151869000,21330000000,,705828.7136763127,-1416187065670000128,0.0,140.02136213725802,1161.3124961354044,0.0,0,15,0.0,16431,350286925108261,797,19.38599967956543,512.0133733810567,0.14999,16,0.0,0.0,1575420030,,,,0,2.2675101013301076,1,6.0,19.38599967956543,0.0,0.0,0.0,66.7128,C,30753090000000,
Raw,1732151869000,21330000000,,705828.7136763127,-1416187065670000128,0.0,140.02136213725802,1161.3124961354044,0.0,0,13,0.0,16431,350286929122837,797,21.381999969482422,711.5121309337128,0.14999,16,0.0,0.0,1575420030,,,,0,4.566600415364088,1,6.0,21.381999969482422,0.0,0.0,0.0,66.7128,C,30753090000000,
Raw,1732151869000,21330000000,,705828.7136763127,-1416187065670000128,0.0,140.02136213725802,1161.3124961354044,0.0,0,8,0.0,17,832769,487,5.0,926.9969111241617,0.14999,16,0.0,0.0,1605374980,,,,0,0.09450473183273722,3,6.0,19.0,0.0,0.0,56.29509462667334,66.7128,C,30753090000000,
Raw,1732151869000,21330000000,,705828.7136763127,-1416187065670000128,0.0,140.02136213725802,1161.3124961354044,0.0,0,7,0.0,16431,350286917289331,487,23.4689998626709,982.7946236247634,0.14999,16,0.0,0.0,1575420030,,,,0,7.8287179679809515,1,6.0,23.4689998626709,0.0,0.0,0.0,66.7128,C,30753090000000,
Fix,FLP,37.4256131000,-122.1581437000,5.400000095367432,0.16396739,6.0,180.0,1732151869243,2.1,179.9,30753090000000,18.380787,0,,,
Status,1732151869000,28,0,1,17,1575420030,0.00,85.0,79.0,0,0,0,0.0
Status,1732151869000,28,1,1,22,1575420030,0.00,13.0,66.0,0,0,0,0.0
Status,1732151869000,28,2,1,19,1575420030,0.00,200.0,60.0,0,0,0,0.0
Status,1732151869000,28,3,1,14,1575420030,0.00,52.0,53.0,0,0,0,0.0
Status,1732151869000,28,4,1,13,1575420030,26.40,235.0,48.0,1,0,0,21.4
Status,1732151869000,28,5,2,133,1575420030,0.00,191.0,45.0,0,0,0,0.0
Status,1732151869000,28,6,1,30,1575420030,25.80,131.0,37.0,1,0,0,20.8
Status,1732151869000,28,7,1,15,1575420030,24.30,275.0,30.0,1,0,0,19.3
Status,1732151869000,28,8,1,2,1575420030,0.00,48.0,17.0,0,0,0,0.0
Status,1732151869000,28,9,1,24,1575420030,17.10,313.0,16.0,1,0,0,12.1
Status,1732151869000,28,10,1,6,1575420030,0.00,162.0,12.0,0,0,0,0.0
Status,1732151869000,28,11,1,21,1575420030,0.00,34.0,5.0,0,0,0,0.0
Status,1732151869000,28,12,1,7,1575420030,29.60,131.0,4.0,0,0,0,24.6
Status,1732151869000,28,13,3,20,1602000000,0.00,114.0,53.0,0,0,0,0.0
Status,1732151869000,28,14,3,9,1602000000,0.00,80.0,33.0,0,0,0,0.0
Status,1732151869000,28,15,3,11,1602000000,0.00,310.0,28.0,0,0,0,0.0
Status,1732151869000,28,16,3,8,1602000000,23.60,247.0,23.0,1,0,0,18.6
Status,1732151869000,28,17,3,19,1602000000,0.00,33.0,23.0,0,0,0,0.0
Status,1732151869000,28,18,3,17,1602000000,25.00,0.0,0.0,0,0,0,20.0
Status,1732151869000,28,19,6,21,1575420030,0.00,343.0,68.0,0,0,0,0.0
Status,1732151869000,28,20,6,19,1575420030,0.00,243.0,46.0,0,0,0,0.0
Status,1732151869000,28,21,6,27,1575420030,0.00,64.0,34.0,0,0,0,0.0
Status,1732151869000,28,22,6,13,1575420030,0.00,120.0,28.0,0,0,0,0.0
Status,1732151869000,28,23,6,29,1575420030,0.00,191.0,25.0,0,0,0,0.0
Status,1732151869000,28,24,6,15,1575420030,0.00,62.0,24.0,0,0,0,0.0
Status,1732151869000,28,25,6,4,1575420030,0.00,311.0,23.0,0,0,0,0.0
Status,1732151869000,28,26,6,26,1575420030,0.00,167.0,6.0,0,0,0,0.0
Status,1732151869000,28,27,6,6,1575420030,0.00,327.0,4.0,0,0,0,0.0
Fix,GPS,37.4256050000,-122.1581550000,23.400000000000002,0.0,6.1,0.0,1732151870000,2.1,179.9,30754090000000,67.8,0,,,
Raw,1732151870000,22330000000,,705827.6712885152,-1416187065670000128,0.0,141.04171116930718,1157.4182796848424,0.0,0,30,0.0,16431,350287926257036,487,20.809999465942383,856.4686149383645,0.14999,16,0.0,0.0,1575420030,,,,0,3.628977397207457,1,6.0,20.809999465942383,0.0,0.0,0.0,66.7128,C,30754090000000,
Raw,1732151870000,22330000000,,705827.6712885152,-1416187065670000128,0.0,141.04171116930718,1157.4182796848424,0.0,0,24,0.0,16431,350287920954862,1797,12.100000381469727,-298.1355966359904,0.14999,16,0.0,0.0,1575420030,,,,0,0.0,1,6.0,12.100000381469727,0.0,0.0,0.0,66.7128,C,30754090000000,
Raw,1732151870000,22330000000,,705827.6712885152,-1416187065670000128,0.0,141.04171116930718,1157.4182796848424,0.0,0,15,0.0,16431,350287925106521,487,19.31800079345703,511.34539427278156,0.14999,16,0.0,0.0,1575420030,,,,0,0.0,1,6.0,19.31800079345703,0.0,0.0,0.0,66.7128,C,30754090000000,
Raw,1732151870000,22330000000,,705827.6712885152,-1416187065670000128,0.0,141.04171116930718,1157.4182796848424,0.0,0,13,0.0,16431,350287929120465,797,21.381999969482422,710.9811112364263,0.14999,16,0.0,0.0,1575420030,,,,0,4.566600415364088,1,6.0,21.381999969482422,0.0,0.0,0.0,66.7128,C,30754090000000,
Raw,1732151870000,22330000000,,705827.6712885152,-1416187065670000128,0.0,141.04171116930718,1157.4182796848424,0.0,0,8,0.0,17,829684,797,5.0,924.4756989780449,0.14999,16,0.0,0.0,1605374980,,,,0,1.9696873784147026,3,6.0,17.0,0.0,0.0,56.29509462667334,66.7128,C,30754090000000,
Raw,1732151870000,22330000000,,705827.6712885152,-1416187065670000128,0.0,141.04171116930718,1157.4182796848424,0.0,0,7,0.0,16431,350287917286052,396,24.645999908447266,982.6869330159874,0.14999,16,0.0,0.0,1575420030,,,,0,9.536330730564368,1,6.0,24.645999908447266,0.0,0.0,0.0,66.7128,C,30754090000000,
Fix,FLP,37.4256090000,-122.1581482000,5.400000095367432,0.16619876,6.0,180.0,1732151870242,2.1,179.9,30754090000000,19.14915,0,,,
Status,1732151870000,28,0,1,17,1575420030,0.00,85.0,79.0,0,0,0,0.0
Status,1732151870000,28,1,1,22,1575420030,0.00,13.0,66.0,0,0,0,0.0
Status,1732151870000,28,2,1,19,1575420030,0.00,200.0,60.0,0,0,0,0.0
Status,1732151870000,28,3,1,14,1575420030,0.00,52.0,53.0,0,0,0,0.0
Status,1732151870000,28,4,1,13,1575420030,24.00,235.0,48.0,1,0,0,19.0
Status,1732151870000,28,5,2,133,1575420030,0.00,191.0,45.0,0,0,0,0.0
Status,1732151870000,28,6,1,30,1575420030,25.60,131.0,37.0,1,0,0,20.6
Status,1732151870000,28,7,1,15,1575420030,24.40,275.0,30.0,1,0,0,19.4
Status,1732151870000,28,8,1,2,1575420030,0.00,48.0,17.0,0,0,0,0.0
Status,1732151870000,28,9,1,24,1575420030,0.00,313.0,16.0,0,0,0,0.0
Status,1732151870000,28,10,1,6,1575420030,0.00,162.0,12.0,0,0,0,0.0
Status,1732151870000,28,11,1,21,1575420030,0.00,34.0,5.0,0,0,0,0.0
Status,1732151870000,28,12,1,7,1575420030,29.60,131.0,4.0,1,0,0,24.6
Status,1732151870000,28,13,3,20,1602000000,0.00,114.0,53.0,0,0,0,0.0
Status,1732151870000,28,14,3,9,1602000000,0.00,80.0,33.0,0,0,0,0.0
Status,1732151870000,28,15,3,11,1602000000,0.00,310.0,28.0,0,0,0,0.0
Status,1732151870000,28,16,3,8,1602000000,0.00,247.0,23.0,0,0,0,0.0
Status,1732151870000,28,17,3,19,1602000000,0.00,33.0,23.0,0,0,0,0.0
Status,1732151870000,28,18,3,17,1602000000,22.50,0.0,0.0,0,0,0,17.5
Status,1732151870000,28,19,6,21,1575420030,0.00,343.0,68.0,0,0,0,0.0
Status,1732151870000,28,20,6,19,1575420030,0.00,243.0,46.0,0,0,0,0.0
Status,1732151870000,28,21,6,27,1575420030,0.00,64.0,34.0,0,0,0,0.0
Status,1732151870000,28,22,6,13,1575420030,0.00,120.0,28.0,0,0,0,0.0
Status,1732151870000,28,23,6,29,1575420030,0.00,191.0,25.0,0,0,0,0.0
Status,1732151870000,28,24,6,15,1575420030,0.00,62.0,24.0,0,0,0,0.0
Status,1732151870000,28,25,6,4,1575420030,0.00,311.0,23.0,0,0,0,0.0
Status,1732151870000,28,26,6,26,1575420030,0.00,167.0,6.0,0,0,0,0.0
Status,1732151870000,28,27,6,6,1575420030,0.00,327.0,4.0,0,0,0,0.0
Fix,GPS,37.4256116667,-122.1581550000,23.400000000000002,0.0,6.1,0.0,1732151871000,2.1,179.9,30755090000000,47.0,0,,,
Raw,1732151871000,23330000000,,705822.6678270872,-1416187065670000128,0.0,130.29075093930405,1157.2797121107608,0.0,0,30,0.0,16431,350288926254179,487,20.55299949645996,855.904702682401,0.14999,16,0.0,0.0,1575420030,,,,0,3.1668530116605713,1,6.0,20.55299949645996,0.0,0.0,0.0,66.7128,C,30755090000000,
Raw,1732151871000,23330000000,,705822.6678270872,-1416187065670000128,0.0,130.29075093930405,1157.2797121107608,0.0,0,15,0.0,16431,350288925104887,487,19.36400032043457,511.21210507667354,0.14999,16,0.0,0.0,1575420030,,,,0,2.6787532796278897,1,6.0,19.36400032043457,0.0,0.0,0.0,66.7128,C,30755090000000,
Raw,1732151871000,23330000000,,705822.6678270872,-1416187065670000128,0.0,130.29075093930405,1157.2797121107608,0.0,0,13,0.0,16431,350288929118079,487,19.04199981689453,711.2082928916958,0.14999,16,0.0,0.0,1575420030,,,,0,0.5245065869521053,1,6.0,19.04199981689453,0.0,0.0,0.0,66.7128,C,30755090000000,
Raw,1732151871000,23330000000,,705822.6678270872,-1416187065670000128,0.0,130.29075093930405,1157.2797121107608,0.0,0,7,0.0,16431,350288917282774,487,24.645999908447266,982.8657050015655,0.14999,16,0.0,0.0,1575420030,,,,0,9.536330730564368,1,6.0,24.645999908447266,0.0,0.0,0.0,66.7128,C,30755090000000,
Fix,FLP,37.4256093000,-122.1581510000,5.400000095367432,0.15546666,6.014,180.0,1732151871243,2.1,179.9,30755090000000,15.648552,0,,,
Status,1732151871000,28,0,1,17,1575420030,0.00,85.0,79.0,0,0,0,0.0
Status,1732151871000,28,1,1,22,1575420030,0.00,13.0,66.0,0,0,0,0.0
Status,1732151871000,28,2,1,19,1575420030,0.00,200.0,60.0,0,0,0,0.0
Status,1732151871000,28,3,1,14,1575420030,0.00,52.0,53.0,0,0,0,0.0
Status,1732151871000,28,4,1,13,1575420030,24.00,235.0,48.0,1,0,0,19.0
Status,1732151871000,28,5,2,133,1575420030,0.00,191.0,45.0,0,0,0,0.0
Status,1732151871000,28,6,1,30,1575420030,26.10,131.0,37.0,1,0,0,21.1
Status,1732151871000,28,7,1,15,1575420030,24.40,275.0,30.0,1,0,0,19.4
Status,1732151871000,28,8,1,2,1575420030,0.00,48.0,17.0,0,0,0,0.0
Status,1732151871000,28,9,1,24,1575420030,0.00,313.0,16.0,0,0,0,0.0
Status,1732151871000,28,10,1,6,1575420030,0.00,162.0,12.0,0,0,0,0.0
Status,1732151871000,28,11,1,21,1575420030,0.00,34.0,5.0,0,0,0,0.0
Status,1732151871000,28,12,1,7,1575420030,30.70,131.0,4.0,1,0,0,25.7
Status,1732151871000,28,13,3,20,1602000000,0.00,114.0,53.0,0,0,0,0.0
Status,1732151871000,28,14,3,9,1602000000,0.00,80.0,33.0,0,0,0,0.0
Status,1732151871000,28,15,3,11,1602000000,0.00,310.0,28.0,0,0,0,0.0
Status,1732151871000,28,16,3,8,1602000000,0.00,247.0,23.0,0,0,0,0.0
Status,1732151871000,28,17,3,19,1602000000,0.00,33.0,23.0,0,0,0,0.0
Status,1732151871000,28,18,3,17,1602000000,25.00,0.0,0.0,0,0,0,20.0
Status,1732151871000,28,19,6,21,1575420030,0.00,343.0,68.0,0,0,0,0.0
Status,1732151871000,28,20,6,19,1575420030,0.00,243.0,46.0,0,0,0,0.0
Status,1732151871000,28,21,6,27,1575420030,0.00,64.0,34.0,0,0,0,0.0
Status,1732151871000,28,22,6,13,1575420030,0.00,120.0,28.0,0,0,0,0.0
Status,1732151871000,28,23,6,29,1575420030,0.00,191.0,25.0,0,0,0,0.0
Status,1732151871000,28,24,6,15,1575420030,0.00,62.0,24.0,0,0,0,0.0
Status,1732151871000,28,25,6,4,1575420030,0.00,311.0,23.0,0,0,0,0.0
Status,1732151871000,28,26,6,26,1575420030,0.00,167.0,6.0,0,0,0,0.0
Status,1732151871000,28,27,6,6,1575420030,0.00,327.0,4.0,0,0,0,0.0
Fix,GPS,37.4256116667,-122.1581516667,23.400000000000002,0.0,6.2,0.0,1732151872000,2.1,179.9,30756090000000,46.5,0,,,
Raw,1732151872000,24330000000,,705817.6643656592,-1416187065670000128,0.0,128.22988460544218,1156.8477448960293,0.0,0,30,0.0,16431,350289926251323,487,21.052000045776367,856.3022938083308,0.14999,16,0.0,0.0,1575420030,,,,0,4.06775197531624,1,6.0,21.052000045776367,0.0,0.0,0.0,66.7128,C,30756090000000,
Raw,1732151872000,24330000000,,705817.6643656592,-1416187065670000128,0.0,128.22988460544218,1156.8477448960293,0.0,0,15,0.0,16431,350289925103164,396,19.378999710083008,512.6855337467907,0.14999,16,0.0,0.0,1575420030,,,,0,1.7244651804578108,1,6.0,19.378999710083008,0.0,0.0,0.0,66.7128,C,30756090000000,
Raw,1732151872000,24330000000,,705817.6643656592,-1416187065670000128,0.0,128.22988460544218,1156.8477448960293,0.0,0,13,0.0,16431,350289929115707,797,19.04199981689453,711.1823690954503,0.14999,16,0.0,0.0,1575420030,,,,0,0.5245065869521053,1,6.0,19.04199981689453,0.0,0.0,0.0,66.7128,C,30756090000000,
Raw,1732151872000,24330000000,,705817.6643656592,-1416187065670000128,0.0,128.22988460544218,1156.8477448960293,0.0,0,7,0.0,16431,350289917279500,396,25.719999313354492,981.8976045245703,0.14999,16,0.0,0.0,1575420030,,,,0,11.03979525730862,1,6.0,25.719999313354492,0.0,0.0,0.0,66.7128,C,30756090000000,
Fix,FLP,37.4256096000,-122.1581513000,5.400000095367432,0.145618,6.042,180.0,1732151872242,2.1,179.9,30756090000000,14.572747,0,,,
Status,1732151872000,28,0,1,17,1575420030,0.00,85.0,79.0,0,0,0,0.0
Status,1732151872000,28,1,1,22,1575420030,0.00,13.0,66.0,0,0,0,0.0
Status,1732151872000,28,2,1,19,1575420030,0.00,200.0,60.0,0,0,0,0.0
Status,1732151872000,28,3,1,14,1575420030,0.00,52.0,53.0,0,0,0,0.0
Status,1732151872000,28,4,1,13,1575420030,24.00,235.0,48.0,1,0,0,19.0
Status,1732151872000,28,5,2,133,1575420030,0.00,191.0,45.0,0,0,0,0.0
Status,1732151872000,28,6,1,30,1575420030,27.90,131.0,37.0,1,0,0,22.9
Status,1732151872000,28,7,1,15,1575420030,24.50,275.0,30.0,1,0,0,19.5
Status,1732151872000,28,8,1,2,1575420030,0.00,48.0,17.0,0,0,0,0.0
Status,1732151872000,28,9,1,24,1575420030,0.00,313.0,16.0,0,0,0,0.0
Status,1732151872000,28,10,1,6,1575420030,0.00,162.0,12.0,0,0,0,0.0
Status,1732151872000,28,11,1,21,1575420030,0.00,34.0,5.0,0,0,0,0.0
Status,1732151872000,28,12,1,7,1575420030,25.90,131.0,4.0,1,0,0,20.9
Status,1732151872000,28,13,3,20,1602000000,0.00,114.0,53.0,0,0,0,0.0
Status,1732151872000,28,14,3,9,1602000000,0.00,80.0,33.0,0,0,0,0.0
Status,1732151872000,28,15,3,11,1602000000,0.00,310.0,28.0,0,0,0,0.0
Status,1732151872000,28,16,3,8,1602000000,0.00,247.0,23.0,0,0,0,0.0
Status,1732151872000,28,17,3,19,1602000000,0.00,33.0,23.0,0,0,0,0.0
Status,1732151872000,28,18,3,17,1602000000,24.00,0.0,0.0,0,0,0,19.0
Status,1732151872000,28,19,6,21,1575420030,0.00,343.0,68.0,0,0,0,0.0
Status,1732151872000,28,20,6,19,1575420030,0.00,243.0,46.0,0,0,0,0.0
Status,1732151872000,28,21,6,27,1575420030,0.00,64.0,34.0,0,0,0,0.0
Status,1732151872000,28,22,6,13,1575420030,0.00,120.0,28.0,0,0,0,0.0
Status,1732151872000,28,23,6,29,1575420030,0.00,191.0,25.0,0,0,0,0.0
Status,1732151872000,28,24,6,15,1575420030,0.00,62.0,24.0,0,0,0,0.0
Status,1732151872000,28,25,6,4,1575420030,0.00,311.0,23.0,0,0,0,0.0
Status,1732151872000,28,26,6,26,1575420030,0.00,167.0,6.0,0,0,0,0.0
Status,1732151872000,28,27,6,6,1575420030,0.00,327.0,4.0,0,0,0,0.0
Fix,GPS,37.4256050000,-122.1581466667,23.400000000000002,0.0,6.2,0.0,1732151873000,2.1,179.9,30757090000000,46.7,0,,,
Raw,1732151873000,25330000000,,705814.3287247072,-1416187065670000128,0.0,128.37458716932287,1158.127603337479,0.0,0,30,0.0,16431,350290926248467,487,22.86400032043457,857.0306688576795,0.14999,16,0.0,0.0,1575420030,,,,0,6.891957615153579,1,6.0,22.86400032043457,0.0,0.0,0.0,66.7128,C,30757090000000,
Raw,1732151873000,25330000000,,705814.3287247072,-1416187065670000128,0.0,128.37458716932287,1158.127603337479,0.0,0,15,0.0,16431,350290925101423,487,19.46500015258789,513.8613962610794,0.14999,16,0.0,0.0,1575420030,,,,0,4.152908438167067,1,6.0,19.46500015258789,0.0,0.0,0.0,66.7128,C,30757090000000,
Raw,1732151873000,25330000000,,705814.3287247072,-1416187065670000128,0.0,128.37458716932287,1158.127603337479,0.0,0,13,0.0,16431,350290929113335,797,19.04199981689453,711.5008879969898,0.14999,16,0.0,0.0,1575420030,,,,0,0.5245065869521053,1,6.0,19.04199981689453,0.0,0.0,0.0,66.7128,C,30757090000000,
Raw,1732151873000,25330000000,,705814.3287247072,-1416187065670000128,0.0,128.37458716932287,1158.127603337479,0.0,0,7,0.0,16431,350290917276224,797,20.908000946044922,982.1773771069902,0.14999,16,0.0,0.0,1575420030,,,,0,3.8071557402838403,1,6.0,20.908000946044922,0.0,0.0,0.0,66.7128,C,30757090000000,
Fix,FLP,37.4256069000,-122.1581494000,5.400000095367432,0.14461686,6.085,180.0,1732151873242,2.1,179.9,30757090000000,14.459508,0,,,
Fix,FLP,37.4256058000,-122.1581484000,5.400000095367432,0.14107461,6.133,180.0,1732151873776,2.1,179.9,30757624000000,13.896352,0,,,
Fix,NLP,37.4257173000,-122.1580940000,5.400000095367432,,36.9,,1732151873777,,,30757624000000,7.782063,0,,,
Status,1732151873000,28,0,1,17,1575420030,0.00,85.0,79.0,0,0,0,0.0
Status,1732151873000,28,1,1,22,1575420030,0.00,13.0,66.0,0,0,0,0.0
Status,1732151873000,28,2,1,19,1575420030,0.00,200.0,60.0,0,0,0,0.0
Status,1732151873000,28,3,1,14,1575420030,0.00,52.0,53.0,0,0,0,0.0
Status,1732151873000,28,4,1,13,1575420030,21.00,235.0,48.0,1,0,0,16.0
Status,1732151873000,28,5,2,133,1575420030,0.00,191.0,45.0,0,0,0,0.0
Status,1732151873000,28,6,1,30,1575420030,24.00,131.0,37.0,1,0,0,19.0
Status,1732151873000,28,7,1,15,1575420030,24.50,275.0,30.0,1,0,0,19.5
Status,1732151873000,28,8,1,2,1575420030,0.00,48.0,17.0,0,0,0,0.0
Status,1732151873000,28,9,1,24,1575420030,0.00,313.0,16.0,0,0,0,0.0
Status,1732151873000,28,10,1,6,1575420030,0.00,162.0,12.0,0,0,0,0.0
Status,1732151873000,28,11,1,21,1575420030,0.00,34.0,5.0,0,0,0,0.0
Status,1732151873000,28,12,1,7,1575420030,25.90,131.0,4.0,1,0,0,20.9
Status,1732151873000,28,13,3,20,1602000000,0.00,114.0,53.0,0,0,0,0.0
Status,1732151873000,28,14,3,9,1602000000,0.00,80.0,33.0,0,0,0,0.0
Status,1732151873000,28,15,3,11,1602000000,0.00,310.0,28.0,0,0,0,0.0
Status,1732151873000,28,16,3,8,1602000000,0.00,247.0,23.0,0,0,0,0.0
Status,1732151873000,28,17,3,19,1602000000,0.00,33.0,23.0,0,0,0,0.0
Status,1732151873000,28,18,3,17,1602000000,24.30,0.0,0.0,0,0,0,19.3
Status,1732151873000,28,19,6,21,1575420030,0.00,343.0,68.0,0,0,0,0.0
Status,1732151873000,28,20,6,19,1575420030,0.00,243.0,46.0,0,0,0,0.0
Status,1732151873000,28,21,6,27,1575420030,0.00,64.0,34.0,0,0,0,0.0
Status,1732151873000,28,22,6,13,1575420030,0.00,120.0,28.0,0,0,0,0.0
Status,1732151873000,28,23,6,29,1575420030,0.00,191.0,25.0,0,0,0,0.0
Status,1732151873000,28,24,6,15,1575420030,0.00,62.0,24.0,0,0,0,0.0
Status,1732151873000,28,25,6,4,1575420030,0.00,311.0,23.0,0,0,0,0.0
Status,1732151873000,28,26,6,26,1575420030,0.00,167.0,6.0,0,0,0,0.0
Status,1732151873000,28,27,6,6,1575420030,0.00,327.0,4.0,0,0,0,0.0
Fix,GPS,37.4256033333,-122.1581450000,23.400000000000002,0.0,6.3,0.0,1732151874000,2.1,179.9,30758090000000,55.9,0,,,
Raw,1732151874000,26330000000,,705810.8888449755,-1416187065670000128,0.0,177.19332835820384,1159.7045687443258,0.0,0,30,0.0,16431,350291926245607,487,19.04199981689453,857.4690504730422,0.14999,16,0.0,0.0,1575420030,,,,0,0.5245065869521053,1,6.0,19.04199981689453,0.0,0.0,0.0,66.7128,C,30758090000000,
Raw,1732151874000,26330000000,,705810.8888449755,-1416187065670000128,0.0,177.19332835820384,1159.7045687443258,0.0,0,15,0.0,16431,350291925099709,797,19.54599952697754,513.7668998425072,0.14999,16,0.0,0.0,1575420030,,,,0,4.152908438167067,1,6.0,19.54599952697754,0.0,0.0,0.0,66.7128,C,30758090000000,
Raw,1732151874000,26330000000,,705810.8888449755,-1416187065670000128,0.0,177.19332835820384,1159.7045687443258,0.0,0,13,0.0,16431,350291929110956,797,15.98900032043457,711.4336162103169,0.14999,16,0.0,0.0,1575420030,,,,0,0.0,1,6.0,15.98900032043457,0.0,0.0,0.0,66.7128,C,30758090000000,
Raw,1732151874000,26330000000,,705810.8888449755,-1416187065670000128,0.0,177.19332835820384,1159.7045687443258,0.0,0,7,0.0,16431,350291917272947,487,20.865999221801758,983.4746819212533,0.14999,16,0.0,0.0,1575420030,,,,0,2.3721606400036475,1,6.0,20.865999221801758,0.0,0.0,0.0,66.7128,C,30758090000000,
Fix,FLP,37.4256046000,-122.1581473000,5.400000095367432,0.13824955,6.157,180.0,1732151874243,2.1,179.9,30758090000000,14.524097,0,,,
Status,1732151874000,28,0,1,17,1575420030,0.00,85.0,79.0,0,0,0,0.0
Status,1732151874000,28,1,1,22,1575420030,0.00,13.0,66.0,0,0,0,0.0
Status,1732151874000,28,2,1,19,1575420030,0.00,200.0,60.0,0,0,0,0.0
Status,1732151874000,28,3,1,14,1575420030,0.00,52.0,53.0,0,0,0,0.0
Status,1732151874000,28,4,1,13,1575420030,21.00,235.0,48.0,1,0,0,16.0
Status,1732151874000,28,5,2,133,1575420030,0.00,191.0,45.0,0,0,0,0.0
Status,1732151874000,28,6,1,30,1575420030,24.00,131.0,37.0,1,0,0,19.0
Status,1732151874000,28,7,1,15,1575420030,24.50,275.0,30.0,1,0,0,19.5
Status,1732151874000,28,8,1,2,1575420030,0.00,48.0,17.0,0,0,0,0.0
Status,1732151874000,28,9,1,24,1575420030,0.00,313.0,16.0,0,0,0,0.0
Status,1732151874000,28,10,1,6,1575420030,0.00,162.0,12.0,0,0,0,0.0
Status,1732151874000,28,11,1,21,1575420030,0.00,34.0,5.0,0,0,0,0.0
Status,1732151874000,28,12,1,7,1575420030,25.80,131.0,4.0,1,0,0,20.8
Status,1732151874000,28,13,3,20,1602000000,0.00,114.0,53.0,0,0,0,0.0
Status,1732151874000,28,14,3,9,1602000000,0.00,80.0,33.0,0,0,0,0.0
Status,1732151874000,28,15,3,11,1602000000,0.00,310.0,28.0,0,0,0,0.0
Status,1732151874000,28,16,3,8,1602000000,0.00,247.0,23.0,0,0,0,0.0
Status,1732151874000,28,17,3,19,1602000000,0.00,33.0,23.0,0,0,0,0.0
Status,1732151874000,28,18,3,17,1602000000,27.10,0.0,0.0,0,0,0,22.1
Status,1732151874000,28,19,6,21,1575420030,0.00,343.0,68.0,0,0,0,0.0
Status,1732151874000,28,20,6,19,1575420030,0.00,243.0,46.0,0,0,0,0.0
Status,1732151874000,28,21,6,27,1575420030,0.00,64.0,34.0,0,0,0,0.0
Status,1732151874000,28,22,6,13,1575420030,0.00,120.0,28.0,0,0,0,0.0
Status,1732151874000,28,23,6,29,1575420030,0.00,191.0,25.0,0,0,0,0.0
Status,1732151874000,28,24,6,15,1575420030,0.00,62.0,24.0,0,0,0,0.0
Status,1732151874000,28,25,6,4,1575420030,0.00,311.0,23.0,0,0,0,0.0
Status,1732151874000,28,26,6,26,1575420030,0.00,167.0,6.0,0,0,0,0.0
Status,1732151874000,28,27,6,6,1575420030,0.00,327.0,4.0,0,0,0,0.0
Fix,GPS,37.4255983333,-122.1581450000,23.400000000000002,0.0,6.3,0.0,1732151875000,2.1,179.9,30759090000000,55.9,0,,,
Raw,1732151875000,27330000000,,705808.4913530413,-1416187065670000128,0.0,177.65512447571678,1163.6020505620309,0.0,0,30,0.0,16431,350292926242747,797,19.04199981689453,858.2712944041658,0.14999,16,0.0,0.0,1575420030,,,,0,0.5245065869521053,1,6.0,19.04199981689453,0.0,0.0,0.0,66.7128,C,30759090000000,
Raw,1732151875000,27330000000,,705808.4913530413,-1416187065670000128,0.0,177.65512447571678,1163.6020505620309,0.0,0,15,0.0,16431,350292925097990,797,19.53700065612793,514.5934415253089,0.14999,16,0.0,0.0,1575420030,,,,0,1.1451912617514792,1,6.0,19.53700065612793,0.0,0.0,0.0,66.7128,C,30759090000000,
Raw,1732151875000,27330000000,,705808.4913530413,-1416187065670000128,0.0,177.65512447571678,1163.6020505620309,0.0,0,13,0.0,16431,350292929108583,797,15.98900032043457,712.0896090472098,0.14999,16,0.0,0.0,1575420030,,,,0,0.0,1,6.0,15.98900032043457,0.0,0.0,0.0,66.7128,C,30759090000000,
Raw,1732151875000,27330000000,,705808.4913530413,-1416187065670000128,0.0,177.65512447571678,1163.6020505620309,0.0,0,7,0.0,16431,350292917269665,797,20.815000534057617,984.3290521953651,0.14999,16,0.0,0.0,1575420030,,,,0,1.9457737034610112,1,6.0,20.815000534057617,0.0,0.0,0.0,66.7128,C,30759090000000,
Fix,FLP,37.4256015000,-122.1581465000,5.400000095367432,0.13929129,6.2,180.0,1732151875243,2.1,179.9,30759090000000,12.118961,0,,,
Status,1732151875000,27,0,1,17,1575420030,0.00,85.0,79.0,0,0,0,0.0
Status,1732151875000,27,1,1,22,1575420030,0.00,13.0,66.0,0,0,0,0.0
Status,1732151875000,27,2,1,19,1575420030,0.00,200.0,60.0,0,0,0,0.0
Status,1732151875000,27,3,1,14,1575420030,0.00,52.0,53.0,0,0,0,0.0
Status,1732151875000,27,4,1,13,1575420030,21.00,235.0,48.0,1,0,0,16.0
Status,1732151875000,27,5,1,30,1575420030,24.00,131.0,37.0,1,0,0,19.0
Status,1732151875000,27,6,1,15,1575420030,27.80,275.0,30.0,1,0,0,22.8
Status,1732151875000,27,7,1,2,1575420030,0.00,48.0,17.0,0,0,0,0.0
Status,1732151875000,27,8,1,24,1575420030,0.00,313.0,16.0,0,0,0,0.0
Status,1732151875000,27,9,1,6,1575420030,0.00,162.0,12.0,0,0,0,0.0
Status,1732151875000,27,10,1,21,1575420030,0.00,34.0,5.0,0,0,0,0.0
Status,1732151875000,27,11,1,7,1575420030,0.00,131.0,4.0,0,0,0,0.0
Status,1732151875000,27,12,3,20,1602000000,0.00,114.0,53.0,0,0,0,0.0
Status,1732151875000,27,13,3,9,1602000000,0.00,80.0,33.0,0,0,0,0.0
Status,1732151875000,27,14,3,11,1602000000,0.00,310.0,28.0,0,0,0,0.0
Status,1732151875000,27,15,3,8,1602000000,0.00,247.0,23.0,0,0,0,0.0
Status,1732151875000,27,16,3,19,1602000000,0.00,33.0,23.0,0,0,0,0.0
Status,1732151875000,27,17,3,17,1602000000,29.30,0.0,0.0,0,0,0,24.3
Status,1732151875000,27,18,6,21,1575420030,0.00,343.0,68.0,0,0,0,0.0
Status,1732151875000,27,19,6,19,1575420030,0.00,243.0,46.0,0,0,0,0.0
Status,1732151875000,27,20,6,27,1575420030,0.00,64.0,34.0,0,0,0,0.0
Status,1732151875000,27,21,6,13,1575420030,0.00,120.0,28.0,0,0,0,0.0
Status,1732151875000,27,22,6,29,1575420030,0.00,191.0,25.0,0,0,0,0.0
Status,1732151875000,27,23,6,15,1575420030,0.00,62.0,24.0,0,0,0,0.0
Status,1732151875000,27,24,6,4,1575420030,0.00,311.0,23.0,0,0,0,0.0
Status,1732151875000,27,25,6,26,1575420030,0.00,167.0,6.0,0,0,0,0.0
Status,1732151875000,27,26,6,6,1575420030,0.00,327.0,4.0,0,0,0,0.0
Fix,GPS,37.4255933333,-122.1581483333,23.400000000000002,0.0,40.2,0.0,1732151876000,2.1,179.9,30760090000000,54.5,0,,,
Fix,FLP,37.4256023000,-122.1581456000,5.400000095367432,0.12487401,10.67,180.0,1732151876242,1.5,45.0,30760090000000,13.353183,0,,,
Status,1732151876000,27,0,1,17,1575420030,0.00,85.0,79.0,0,0,0,0.0
Status,1732151876000,27,1,1,22,1575420030,0.00,13.0,66.0,0,0,0,0.0
Status,1732151876000,27,2,1,19,1575420030,0.00,200.0,60.0,0,0,0,0.0
Status,1732151876000,27,3,1,14,1575420030,0.00,52.0,53.0,0,0,0,0.0
Status,1732151876000,27,4,1,13,1575420030,28.50,235.0,48.0,1,0,0,23.5
Status,1732151876000,27,5,1,30,1575420030,24.00,131.0,37.0,1,0,0,19.0
Status,1732151876000,27,6,1,15,1575420030,27.90,275.0,30.0,1,0,0,22.9
Status,1732151876000,27,7,1,2,1575420030,0.00,48.0,17.0,0,0,0,0.0
Status,1732151876000,27,8,1,24,1575420030,0.00,313.0,16.0,0,0,0,0.0
Status,1732151876000,27,9,1,6,1575420030,0.00,162.0,12.0,0,0,0,0.0
Status,1732151876000,27,10,1,21,1575420030,0.00,34.0,5.0,0,0,0,0.0
Status,1732151876000,27,11,1,7,1575420030,0.00,131.0,4.0,0,0,0,0.0
Status,1732151876000,27,12,3,20,1602000000,0.00,114.0,53.0,0,0,0,0.0
Status,1732151876000,27,13,3,9,1602000000,0.00,80.0,33.0,0,0,0,0.0
Status,1732151876000,27,14,3,11,1602000000,0.00,310.0,28.0,0,0,0,0.0
Status,1732151876000,27,15,3,8,1602000000,0.00,247.0,23.0,0,0,0,0.0
Status,1732151876000,27,16,3,19,1602000000,0.00,33.0,23.0,0,0,0,0.0
Status,1732151876000,27,17,3,17,1602000000,23.90,0.0,0.0,0,0,0,18.9
Status,1732151876000,27,18,6,21,1575420030,0.00,343.0,68.0,0,0,0,0.0
Status,1732151876000,27,19,6,19,1575420030,0.00,243.0,46.0,0,0,0,0.0
Status,1732151876000,27,20,6,27,1575420030,0.00,64.0,34.0,0,0,0,0.0
Status,1732151876000,27,21,6,13,1575420030,0.00,120.0,28.0,0,0,0,0.0
Status,1732151876000,27,22,6,29,1575420030,0.00,191.0,25.0,0,0,0,0.0
Status,1732151876000,27,23,6,15,1575420030,0.00,62.0,24.0,0,0,0,0.0
Status,1732151876000,27,24,6,4,1575420030,0.00,311.0,23.0,0,0,0,0.0
Status,1732151876000,27,25,6,26,1575420030,0.00,167.0,6.0,0,0,0,0.0
Status,1732151876000,27,26,6,6,1575420030,0.00,327.0,4.0,0,0,0,0.0
Fix,GPS,37.4255766667,-122.1581583333,23.400000000000002,0.0,40.5,0.0,1732151877000,2.1,179.9,30761090000000,53.6,0,,,
Fix,FLP,37.4256040000,-122.1581446000,5.400000095367432,0.109743744,15.146,180.0,1732151877242,1.5,45.0,30761090000000,10.173689,0,,,
Status,1732151877000,27,0,1,17,1575420030,0.00,85.0,79.0,0,0,0,0.0
Status,1732151877000,27,1,1,22,1575420030,22.60,13.0,66.0,1,0,0,17.6
Status,1732151877000,27,2,1,19,1575420030,0.00,200.0,60.0,0,0,0,0.0
Status,1732151877000,27,3,1,14,1575420030,0.00,52.0,53.0,0,0,0,0.0
Status,1732151877000,27,4,1,13,1575420030,28.40,235.0,48.0,1,0,0,23.4
Status,1732151877000,27,5,1,30,1575420030,18.70,131.0,37.0,1,0,0,13.700001
Status,1732151877000,27,6,1,15,1575420030,24.20,275.0,30.0,1,0,0,19.2
Status,1732151877000,27,7,1,2,1575420030,0.00,48.0,17.0,0,0,0,0.0
Status,1732151877000,27,8,1,24,1575420030,0.00,313.0,16.0,0,0,0,0.0
Status,1732151877000,27,9,1,6,1575420030,0.00,162.0,12.0,0,0,0,0.0
Status,1732151877000,27,10,1,21,1575420030,0.00,34.0,5.0,0,0,0,0.0
Status,1732151877000,27,11,1,7,1575420030,0.00,131.0,4.0,0,0,0,0.0
Status,1732151877000,27,12,3,20,1602000000,0.00,114.0,53.0,0,0,0,0.0
Status,1732151877000,27,13,3,9,1602000000,0.00,80.0,33.0,0,0,0,0.0
Status,1732151877000,27,14,3,11,1602000000,0.00,310.0,28.0,0,0,0,0.0
Status,1732151877000,27,15,3,8,1602000000,0.00,247.0,23.0,0,0,0,0.0
Status,1732151877000,27,16,3,19,1602000000,0.00,33.0,23.0,0,0,0,0.0
Status,1732151877000,27,17,3,17,1602000000,24.90,0.0,0.0,0,0,0,19.9
Status,1732151877000,27,18,6,21,1575420030,0.00,343.0,68.0,0,0,0,0.0
Status,1732151877000,27,19,6,19,1575420030,0.00,243.0,46.0,0,0,0,0.0
Status,1732151877000,27,20,6,27,1575420030,0.00,64.0,34.0,0,0,0,0.0
Status,1732151877000,27,21,6,13,1575420030,0.00,120.0,28.0,0,0,0,0.0
Status,1732151877000,27,22,6,29,1575420030,0.00,191.0,25.0,0,0,0,0.0
Status,1732151877000,27,23,6,15,1575420030,0.00,62.0,24.0,0,0,0,0.0
Status,1732151877000,27,24,6,4,1575420030,0.00,311.0,23.0,0,0,0,0.0
Status,1732151877000,27,25,6,26,1575420030,0.00,167.0,6.0,0,0,0,0.0
Status,1732151877000,27,26,6,6,1575420030,0.00,327.0,4.0,0,0,0,0.0
Fix,GPS,37.4255416667,-122.1581783333,23.400000000000002,0.0,6.2,0.0,1732151878000,2.1,164.8,30762090000000,53.1,0,,,
Raw,1732151878000,30330000000,,705805.5205478185,-1416187065670000128,0.0,155.12775247503345,1169.1828440370944,0.0,0,30,0.0,16431,350295926234148,1797,13.699999809265137,859.9292094450551,0.14999,16,0.0,0.0,1575420030,,,,0,0.0,1,6.0,13.699999809265137,0.0,0.0,0.0,66.7128,C,30762090000000,
Raw,1732151878000,30330000000,,705805.5205478185,-1416187065670000128,0.0,155.12775247503345,1169.1828440370944,0.0,0,15,0.0,16431,350295925092858,487,19.174999237060547,516.5062274375292,0.14999,16,0.0,0.0,1575420030,,,,0,0.7781272221338824,1,6.0,19.174999237060547,0.0,0.0,0.0,66.7128,C,30762090000000,
Raw,1732151878000,30330000000,,705805.5205478185,-1416187065670000128,0.0,155.12775247503345,1169.1828440370944,0.0,0,22,0.0,16431,350295930432132,797,17.55299949645996,470.3723232642215,0.14999,16,0.0,0.0,1575420030,,,,0,0.0,1,6.0,17.55299949645996,0.0,0.0,0.0,66.7128,C,30762090000000,
Raw,1732151878000,30330000000,,705805.5205478185,-1416187065670000128,0.0,155.12775247503345,1169.1828440370944,0.0,0,13,0.0,16431,350295929101466,487,23.398000717163086,714.4431924124357,0.14999,16,0.0,0.0,1575420030,,,,0,4.647025894022573,1,6.0,23.398000717163086,0.0,0.0,0.0,66.7128,C,30762090000000,
Fix,FLP,37.4255681000,-122.1581630000,5.400000095367432,0.19805199,15.146,180.0,1732151878242,2.1,164.8,30762090000000,10.205346,0,,,
Fix,FLP,37.4255578000,-122.1581687000,5.400000095367432,0.2176189,15.146,180.0,1732151878412,2.1,164.8,30762260000000,11.343418,0,,,
Fix,NLP,37.4257160000,-122.1580971000,5.400000095367432,,18.487,,1732151878412,,,30762260000000,9.990408,0,,,
Status,1732151878000,27,0,1,17,1575420030,0.00,85.0,79.0,0,0,0,0.0
Status,1732151878000,27,1,1,22,1575420030,22.60,13.0,66.0,1,0,0,17.6
Status,1732151878000,27,2,1,19,1575420030,0.00,200.0,60.0,0,0,0,0.0
Status,1732151878000,27,3,1,14,1575420030,0.00,52.0,53.0,0,0,0,0.0
Status,1732151878000,27,4,1,13,1575420030,28.30,235.0,48.0,1,0,0,23.3
Status,1732151878000,27,5,1,30,1575420030,18.70,131.0,37.0,1,0,0,13.700001
Status,1732151878000,27,6,1,15,1575420030,29.10,275.0,30.0,1,0,0,24.1
Status,1732151878000,27,7,1,2,1575420030,0.00,48.0,17.0,0,0,0,0.0
Status,1732151878000,27,8,1,24,1575420030,0.00,313.0,16.0,0,0,0,0.0
Status,1732151878000,27,9,1,6,1575420030,0.00,162.0,12.0,0,0,0,0.0
Status,1732151878000,27,10,1,21,1575420030,0.00,34.0,5.0,0,0,0,0.0
Status,1732151878000,27,11,1,7,1575420030,0.00,131.0,4.0,0,0,0,0.0
Status,1732151878000,27,12,3,20,1602000000,0.00,114.0,53.0,0,0,0,0.0
Status,1732151878000,27,13,3,9,1602000000,0.00,80.0,33.0,0,0,0,0.0
Status,1732151878000,27,14,3,11,1602000000,0.00,310.0,28.0,0,0,0,0.0
Status,1732151878000,27,15,3,8,1602000000,0.00,247.0,23.0,0,0,0,0.0
Status,1732151878000,27,16,3,19,1602000000,0.00,33.0,23.0,0,0,0,0.0
Status,1732151878000,27,17,3,17,1602000000,26.80,0.0,0.0,0,0,0,21.8
Status,1732151878000,27,18,6,21,1575420030,0.00,343.0,68.0,0,0,0,0.0
Status,1732151878000,27,19,6,19,1575420030,0.00,243.0,46.0,0,0,0,0.0
Status,1732151878000,27,20,6,27,1575420030,0.00,64.0,34.0,0,0,0,0.0
Status,1732151878000,27,21,6,13,1575420030,0.00,120.0,28.0,0,0,0,0.0
Status,1732151878000,27,22,6,29,1575420030,0.00,191.0,25.0,0,0,0,0.0
Status,1732151878000,27,23,6,15,1575420030,0.00,62.0,24.0,0,0,0,0.0
Status,1732151878000,27,24,6,4,1575420030,0.00,311.0,23.0,0,0,0,0.0
Status,1732151878000,27,25,6,26,1575420030,0.00,167.0,6.0,0,0,0,0.0
Status,1732151878000,27,26,6,6,1575420030,0.00,327.0,4.0,0,0,0,0.0
Fix,GPS,37.4255250000,-122.1581900000,23.400000000000002,0.0,6.1,0.0,1732151879000,2.1,159.6,30763090000000,53.2,0,,,
Raw,1732151879000,31330000000,,705804.5302794109,-1416187065670000128,0.0,155.25733837993678,1172.0833424825742,0.0,0,30,0.0,16431,350296926231278,797,13.699999809265137,861.1138061415913,0.14999,16,0.0,0.0,1575420030,,,,0,0.0,1,6.0,13.699999809265137,0.0,0.0,0.0,66.7128,C,30763090000000,
Raw,1732151879000,31330000000,,705804.5302794109,-1416187065670000128,0.0,155.25733837993678,1172.0833424825742,0.0,0,15,0.0,16431,350296925091147,396,24.062999725341797,516.9202183843813,0.14999,16,0.0,0.0,1575420030,,,,0,8.724420712869456,1,6.0,24.062999725341797,0.0,0.0,0.0,66.7128,C,30763090000000,
Raw,1732151879000,31330000000,,705804.5302794109,-1416187065670000128,0.0,155.25733837993678,1172.0833424825742,0.0,0,22,0.0,16431,350296930430561,1797,17.55299949645996,471.4414707964747,0.14999,16,0.0,0.0,1575420030,,,,0,0.0,1,6.0,17.55299949645996,0.0,0.0,0.0,66.7128,C,30763090000000,
Raw,1732151879000,31330000000,,705804.5302794109,-1416187065670000128,0.0,155.25733837993678,1172.0833424825742,0.0,0,13,0.0,16431,350296929099063,396,23.336000442504883,715.6132940831143,0.14999,16,0.0,0.0,1575420030,,,,0,5.841818158966709,1,6.0,23.336000442504883,0.0,0.0,0.0,66.7128,C,30763090000000,
Fix,FLP,37.4255439000,-122.1581769000,5.400000095367432,0.24357224,15.132,180.0,1732151879243,2.1,159.6,30763090000000,11.806626,0,,,
Status,1732151879000,27,0,1,17,1575420030,0.00,85.0,79.0,0,0,0,0.0
Status,1732151879000,27,1,1,22,1575420030,17.40,13.0,66.0,1,0,0,12.4
Status,1732151879000,27,2,1,19,1575420030,0.00,200.0,60.0,0,0,0,0.0
Status,1732151879000,27,3,1,14,1575420030,0.00,52.0,53.0,0,0,0,0.0
Status,1732151879000,27,4,1,13,1575420030,28.20,235.0,48.0,1,0,0,23.2
Status,1732151879000,27,5,1,30,1575420030,18.70,131.0,37.0,1,0,0,13.700001
Status,1732151879000,27,6,1,15,1575420030,28.90,275.0,30.0,1,0,0,23.9
Status,1732151879000,27,7,1,2,1575420030,0.00,48.0,17.0,0,0,0,0.0
Status,1732151879000,27,8,1,24,1575420030,0.00,313.0,16.0,0,0,0,0.0
Status,1732151879000,27,9,1,6,1575420030,0.00,162.0,12.0,0,0,0,0.0
Status,1732151879000,27,10,1,21,1575420030,0.00,34.0,5.0,0,0,0,0.0
Status,1732151879000,27,11,1,7,1575420030,24.80,131.0,4.0,0,0,0,19.8
Status,1732151879000,27,12,3,20,1602000000,0.00,114.0,53.0,0,0,0,0.0
Status,1732151879000,27,13,3,9,1602000000,0.00,80.0,33.0,0,0,0,0.0
Status,1732151879000,27,14,3,11,1602000000,0.00,310.0,28.0,0,0,0,0.0
Status,1732151879000,27,15,3,8,1602000000,0.00,247.0,23.0,0,0,0,0.0
Status,1732151879000,27,16,3,19,1602000000,0.00,33.0,23.0,0,0,0,0.0
Status,1732151879000,27,17,3,17,1602000000,30.70,0.0,0.0,0,0,0,25.7
Status,1732151879000,27,18,6,21,1575420030,0.00,343.0,68.0,0,0,0,0.0
Status,1732151879000,27,19,6,19,1575420030,0.00,243.0,46.0,0,0,0,0.0
Status,1732151879000,27,20,6,27,1575420030,0.00,64.0,34.0,0,0,0,0.0
Status,1732151879000,27,21,6,13,1575420030,0.00,120.0,28.0,0,0,0,0.0
Status,1732151879000,27,22,6,29,1575420030,0.00,191.0,25.0,0,0,0,0.0
Status,1732151879000,27,23,6,15,1575420030,0.00,62.0,24.0,0,0,0,0.0
Status,1732151879000,27,24,6,4,1575420030,0.00,311.0,23.0,0,0,0,0.0
Status,1732151879000,27,25,6,26,1575420030,0.00,167.0,6.0,0,0,0,0.0
Status,1732151879000,27,26,6,6,1575420030,0.00,327.0,4.0,0,0,0,0.0
Fix,GPS,37.4254966667,-122.1582066667,23.400000000000002,0.0,6.0,0.0,1732151880000,2.0,141.9,30764090000000,53.4,0,,,
Raw,1732151880000,32330000000,,705803.6963691729,-1416187065670000128,0.0,154.413872072167,1172.6472187920638,0.0,0,30,0.0,16431,350297926228406,797,13.699999809265137,860.8642315297084,0.14999,16,0.0,0.0,1575420030,,,,0,0.0,1,6.0,13.699999809265137,0.0,0.0,0.0,66.7128,C,30764090000000,
Raw,1732151880000,32330000000,,705803.6963691729,-1416187065670000128,0.0,154.413872072167,1172.6472187920638,0.0,0,15,0.0,16431,350297925089421,396,23.871999740600586,517.2794348585212,0.14999,16,0.0,0.0,1575420030,,,,0,8.418727357788885,1,6.0,23.871999740600586,0.0,0.0,0.0,66.7128,C,30764090000000,
Raw,1732151880000,32330000000,,705803.6963691729,-1416187065670000128,0.0,154.413872072167,1172.6472187920638,0.0,0,22,0.0,16431,350297930428989,1797,12.399999618530273,471.4834227463128,0.14999,16,0.0,0.0,1575420030,,,,0,0.0,1,6.0,12.399999618530273,0.0,0.0,0.0,66.7128,C,30764090000000,
Raw,1732151880000,32330000000,,705803.6963691729,-1416187065670000128,0.0,154.413872072167,1172.6472187920638,0.0,0,13,0.0,16431,350297929096671,487,23.231000900268555,715.1235294594228,0.14999,16,0.0,0.0,1575420030,,,,0,4.320756939273061,1,6.0,23.231000900268555,0.0,0.0,0.0,66.7128,C,30764090000000,
Raw,1732151880000,32330000000,,705803.6963691729,-1416187065670000128,0.0,154.413872072167,1172.6472187920638,0.0,0,7,0.0,16431,350297917253288,396,19.84600067138672,986.2696202404792,0.14999,16,0.0,0.0,1575420030,,,,0,1.9457737034610112,1,6.0,19.84600067138672,0.0,0.0,0.0,66.7128,C,30764090000000,
Fix,FLP,37.4255226000,-122.1581892000,5.400000095367432,0.28655177,15.089,180.0,1732151880242,2.0,141.9,30764090000000,10.689013,0,,,
Status,1732151880000,27,0,1,17,1575420030,0.00,85.0,79.0,0,0,0,0.0
Status,1732151880000,27,1,1,22,1575420030,17.40,13.0,66.0,1,0,0,12.4
Status,1732151880000,27,2,1,19,1575420030,0.00,200.0,60.0,0,0,0,0.0
Status,1732151880000,27,3,1,14,1575420030,0.00,52.0,53.0,0,0,0,0.0
Status,1732151880000,27,4,1,13,1575420030,25.60,235.0,48.0,1,0,0,20.6
Status,1732151880000,27,5,1,30,1575420030,19.90,131.0,37.0,1,0,0,14.9
Status,1732151880000,27,6,1,15,1575420030,26.20,275.0,30.0,1,0,0,21.2
Status,1732151880000,27,7,1,2,1575420030,0.00,48.0,17.0,0,0,0,0.0
Status,1732151880000,27,8,1,24,1575420030,0.00,313.0,16.0,0,0,0,0.0
Status,1732151880000,27,9,1,6,1575420030,0.00,162.0,12.0,0,0,0,0.0
Status,1732151880000,27,10,1,21,1575420030,0.00,34.0,5.0,0,0,0,0.0
Status,1732151880000,27,11,1,7,1575420030,0.00,131.0,4.0,0,0,0,0.0
Status,1732151880000,27,12,3,20,1602000000,0.00,114.0,53.0,0,0,0,0.0
Status,1732151880000,27,13,3,9,1602000000,0.00,80.0,33.0,0,0,0,0.0
Status,1732151880000,27,14,3,11,1602000000,0.00,310.0,28.0,0,0,0,0.0
Status,1732151880000,27,15,3,8,1602000000,0.00,247.0,23.0,0,0,0,0.0
Status,1732151880000,27,16,3,19,1602000000,0.00,33.0,23.0,0,0,0,0.0
Status,1732151880000,27,17,3,17,1602000000,28.40,0.0,0.0,0,0,0,23.4
Status,1732151880000,27,18,6,21,1575420030,0.00,343.0,68.0,0,0,0,0.0
Status,1732151880000,27,19,6,19,1575420030,0.00,243.0,46.0,0,0,0,0.0
Status,1732151880000,27,20,6,27,1575420030,0.00,64.0,34.0,0,0,0,0.0
Status,1732151880000,27,21,6,13,1575420030,0.00,120.0,28.0,0,0,0,0.0
Status,1732151880000,27,22,6,29,1575420030,0.00,191.0,25.0,0,0,0,0.0
Status,1732151880000,27,23,6,15,1575420030,0.00,62.0,24.0,0,0,0,0.0
Status,1732151880000,27,24,6,4,1575420030,0.00,311.0,23.0,0,0,0,0.0
Status,1732151880000,27,25,6,26,1575420030,0.00,167.0,6.0,0,0,0,0.0
Status,1732151880000,27,26,6,6,1575420030,0.00,327.0,4.0,0,0,0,0.0
Fix,GPS,37.4254766667,-122.1582216667,23.400000000000002,0.0,5.9,0.0,1732151881000,2.0,141.8,30765090000000,44.0,0,,,
Fix,FLP,37.4255011000,-122.1582030000,7.2260895417744795,0.32821292,15.032,180.0,1732151881243,2.0,141.8,30765090000000,11.621964,0,,,
Raw,1732151881000,33330000000,,705802.810339545,-1416187065670000128,0.0,121.2818965852156,1175.8302257416112,0.0,0,30,0.0,16431,350298926225524,797,14.899999618530273,861.5575769332344,0.14999,16,0.0,0.0,1575420030,,,,0,0.0,1,6.0,14.899999618530273,0.0,0.0,0.0,66.7128,C,30765090000000,
Raw,1732151881000,33330000000,,705802.810339545,-1416187065670000128,0.0,121.2818965852156,1175.8302257416112,0.0,0,15,0.0,16431,350298925087697,396,21.243999481201172,518.2530638870454,0.14999,16,0.0,0.0,1575420030,,,,0,4.320756939273061,1,6.0,21.243999481201172,0.0,0.0,0.0,66.7128,C,30765090000000,
Raw,1732151881000,33330000000,,705802.810339545,-1416187065670000128,0.0,121.2818965852156,1175.8302257416112,0.0,0,22,0.0,16431,350298930427416,1797,12.399999618530273,472.4104075249616,0.14999,16,0.0,0.0,1575420030,,,,0,0.0,1,6.0,12.399999618530273,0.0,0.0,0.0,66.7128,C,30765090000000,
Raw,1732151881000,33330000000,,705802.810339545,-1416187065670000128,0.0,121.2818965852156,1175.8302257416112,0.0,0,13,0.0,16431,350298929094300,487,20.606000900268555,716.9250010064026,0.14999,16,0.0,0.0,1575420030,,,,0,3.261265785112258,1,6.0,20.606000900268555,0.0,0.0,0.0,66.7128,C,30765090000000,
Status,1732151881000,27,0,1,17,1575420030,0.00,85.0,79.0,0,0,0,0.0
Status,1732151881000,27,1,1,22,1575420030,17.40,13.0,66.0,1,0,0,12.4
Status,1732151881000,27,2,1,19,1575420030,19.60,200.0,60.0,1,0,0,14.6
Status,1732151881000,27,3,1,14,1575420030,0.00,52.0,53.0,0,0,0,0.0
Status,1732151881000,27,4,1,13,1575420030,29.20,235.0,48.0,1,0,0,24.2
Status,1732151881000,27,5,1,30,1575420030,19.90,131.0,37.0,1,0,0,14.9
Status,1732151881000,27,6,1,15,1575420030,28.50,275.0,30.0,1,0,0,23.5
