# 
# Header Description:
# 
# Version: v3.1.0.3 Platform: 13 Manufacturer: samsung Model: SM-S135DL GNSS Hardware Model Name: MediaTek,MT6631,MTK_MNLD_default,MNL_VER_default
# 
# Raw,utcTimeMillis,TimeNanos,LeapSecond,TimeUncertaintyNanos,FullBiasNanos,BiasNanos,BiasUncertaintyNanos,DriftNanosPerSecond,DriftUncertaintyNanosPerSecond,HardwareClockDiscontinuityCount,Svid,TimeOffsetNanos,State,ReceivedSvTimeNanos,ReceivedSvTimeUncertaintyNanos,Cn0DbHz,PseudorangeRateMetersPerSecond,PseudorangeRateUncertaintyMetersPerSecond,AccumulatedDeltaRangeState,AccumulatedDeltaRangeMeters,AccumulatedDeltaRangeUncertaintyMeters,CarrierFrequencyHz,CarrierCycles,CarrierPhase,CarrierPhaseUncertainty,MultipathIndicator,SnrInDb,ConstellationType,AgcDb,BasebandCn0DbHz,FullInterSignalBiasNanos,FullInterSignalBiasUncertaintyNanos,SatelliteInterSignalBiasNanos,SatelliteInterSignalBiasUncertaintyNanos,CodeType,ChipsetElapsedRealtimeNanos,IsFullTracking
# 
# UncalAccel,utcTimeMillis,elapsedRealtimeNanos,UncalAccelXMps2,UncalAccelYMps2,UncalAccelZMps2,BiasXMps2,BiasYMps2,BiasZMps2
# 
# Accel,utcTimeMillis,elapsedRealtimeNanos,AccelXMps2,AccelYMps2,AccelZMps2
# 
# UncalGyro,utcTimeMillis,elapsedRealtimeNanos,UncalGyroXRadPerSec,UncalGyroYRadPerSec,UncalGyroZRadPerSec,DriftXRadPerSec,DriftYRadPerSec,DriftZRadPerSec
# 
# Gyro,utcTimeMillis,elapsedRealtimeNanos,GyroXRadPerSec,GyroYRadPerSec,GyroZRadPerSec
# 
# UncalMag,utcTimeMillis,elapsedRealtimeNanos,UncalMagXMicroT,UncalMagYMicroT,UncalMagZMicroT,BiasXMicroT,BiasYMicroT,BiasZMicroT
# 
# Mag,utcTimeMillis,elapsedRealtimeNanos,MagXMicroT,MagYMicroT,MagZMicroT
# 
# Pressure,utcTimeMillis,elapsedRealtimeNanos,PressureHpa
# 
# OrientationDeg,utcTimeMillis,elapsedRealtimeNanos,yawDeg,rollDeg,pitchDeg
# 
# Fix,Provider,LatitudeDegrees,LongitudeDegrees,AltitudeMeters,SpeedMps,AccuracyMeters,BearingDegrees,UnixTimeMillis,SpeedAccuracyMps,BearingAccuracyDegrees,elapsedRealtimeNanos,VerticalAccuracyMeters,MockLocation,NumberOfUsedSignals,VerticalSpeedAccuracyMps,SolutionType
# 
# Nav,Svid,Type,Status,MessageId,Sub-messageId,Data(Bytes)
# 
# Status,UnixTimeMillis,SignalCount,SignalIndex,ConstellationType,Svid,CarrierFrequencyHz,Cn0DbHz,AzimuthDegrees,ElevationDegrees,UsedInFix,HasAlmanacData,HasEphemerisData,BasebandCn0DbHz
# 
# Agc,utcTimeMillis,TimeNanos,LeapSecond,TimeUncertaintyNanos,FullBiasNanos,BiasNanos,BiasUncertaintyNanos,DriftNanosPerSecond,DriftUncertaintyNanosPerSecond,HardwareClockDiscontinuityCount,AgcDb,CarrierFrequencyHz,ConstellationType
# 
Fix,FLP,37.4256044000,-122.1581355000,3.3237424576553023,0.013862935,5.185,,1732152640243,1.7,,31524091000000,17.18274,0,,,
Status,,27,0,1,17,1575420030,0.00,62.0,75.0,0,0,0,0.0
Status,,27,1,1,19,1575420030,0.00,202.0,67.0,0,0,0,0.0
Status,,27,2,1,22,1575420030,0.00,25.0,64.0,0,0,0,0.0
Status,,27,3,1,14,1575420030,0.00,59.0,49.0,0,0,0,0.0
Status,,27,4,2,135,1575420030,0.00,197.0,45.0,0,0,0,0.0
Status,,27,5,1,13,1575420030,25.70,228.0,43.0,1,0,0,20.7
Status,,27,6,1,30,1575420030,0.00,135.0,31.0,0,0,0,0.0
Status,,27,7,1,15,1575420030,25.30,269.0,29.0,1,0,0,20.3
Status,,27,8,1,24,1575420030,21.10,313.0,21.0,1,0,0,16.1
Status,,27,9,1,6,1575420030,28.00,159.0,17.0,1,0,0,23.0
Status,,27,10,1,2,1575420030,0.00,43.0,15.0,0,0,0,0.0
Status,,27,11,1,12,1575420030,0.00,270.0,2.0,0,0,0,0.0
Status,,27,12,1,21,1575420030,0.00,31.0,1.0,0,0,0,0.0
Status,,27,13,3,20,1602000000,0.00,103.0,57.0,0,0,0,0.0
Status,,27,14,3,11,1602000000,0.00,316.0,32.0,0,0,0,0.0
Status,,27,15,3,9,1602000000,0.00,87.0,30.0,0,0,0,0.0
Status,,27,16,3,19,1602000000,0.00,29.0,19.0,0,0,0,0.0
Status,,27,17,3,8,1602000000,23.50,242.0,18.0,1,0,0,18.5
Status,,27,18,6,21,1575420030,0.00,355.0,68.0,0,0,0,0.0
Status,,27,19,6,19,1575420030,0.00,238.0,43.0,0,0,0,0.0
Status,,27,20,6,13,1575420030,0.00,116.0,32.0,0,0,0,0.0
Status,,27,21,6,27,1575420030,0.00,68.0,31.0,0,0,0,0.0
Status,,27,22,6,4,1575420030,21.00,307.0,25.0,1,0,0,16.0
Status,,27,23,6,15,1575420030,0.00,57.0,23.0,0,0,0,0.0
Status,,27,24,6,29,1575420030,0.00,190.0,20.0,0,0,0,0.0
Status,,27,25,6,26,1575420030,0.00,166.0,10.0,0,0,0,0.0
Status,,27,26,6,6,1575420030,0.00,325.0,7.0,0,0,0,0.0
Fix,GPS,37.4256050000,-122.1581333333,22.099999999999998,0.0,5.2,0.0,1732152641000,1.7,179.9,31525091000000,89.5,0,,,
Fix,FLP,37.4256046000,-122.1581345000,3.248418351848377,0.012380621,5.185,,1732152641243,1.7,,31525091000000,15.909916,0,,,
Raw,1732152641001,18153000000,,703476.3050143176,-1416187840848000000,0.0,154.8702348450812,1098.365414348234,0.0,0,6,0.0,16431,351058920574401,396,22.97800064086914,-328.36738889984156,0.14999,16,0.0,0.0,1575420030,,,,0,7.102795686730332,1,6.0,22.97800064086914,0.0,0.0,0.0,66.7128,C,31525091000000,
Raw,1732152641001,18153000000,,703476.3050143176,-1416187840848000000,0.0,154.8702348450812,1098.365414348234,0.0,0,13,0.0,16431,351058928241210,487,20.665000915527344,768.0365063509236,0.14999,16,0.0,0.0,1575420030,,,,0,3.3861106246026926,1,6.0,20.665000915527344,0.0,0.0,0.0,66.7128,C,31525091000000,
Raw,1732152641001,18153000000,,703476.3050143176,-1416187840848000000,0.0,154.8702348450812,1098.365414348234,0.0,0,24,0.0,16431,351058922734480,797,16.1299991607666,-286.4156713538065,0.14999,16,0.0,0.0,1575420030,,,,0,0.0,1,6.0,16.1299991607666,0.0,0.0,0.0,66.7128,C,31525091000000,
Raw,1732152641001,18153000000,,703476.3050143176,-1416187840848000000,0.0,154.8702348450812,1098.365414348234,0.0,0,15,0.0,16431,351058924724663,487,20.32900047302246,580.7505049596127,0.14999,16,0.0,0.0,1575420030,,,,0,0.0,1,6.0,20.32900047302246,0.0,0.0,0.0,66.7128,C,31525091000000,
Raw,1732152641001,18153000000,,703476.3050143176,-1416187840848000000,0.0,154.8702348450812,1098.365414348234,0.0,0,4,0.0,16431,351058912430260,797,16.000999450683594,126.57925351316254,0.14999,16,0.0,0.0,1575420030,,,,0,0.0,6,6.0,16.000999450683594,0.0,0.0,11.093445588426674,66.7128,C,31525091000000,
Raw,1732152641001,18153000000,,703476.3050143176,-1416187840848000000,0.0,154.8702348450812,1098.365414348234,0.0,0,8,0.0,17,425843,487,5.0,959.6945251246125,0.14999,16,0.0,0.0,1605374980,,,,0,1.7993703599641093,3,6.0,19.0,0.0,0.0,59.87266699870272,66.7128,C,31525091000000,
Status,1732152641000,27,0,1,17,1575420030,0.00,62.0,75.0,0,0,0,0.0
Status,1732152641000,27,1,1,19,1575420030,0.00,202.0,67.0,0,0,0,0.0
Status,1732152641000,27,2,1,22,1575420030,0.00,25.0,64.0,0,0,0,0.0
Status,1732152641000,27,3,1,14,1575420030,0.00,59.0,49.0,0,0,0,0.0
Status,1732152641000,27,4,2,135,1575420030,0.00,197.0,45.0,0,0,0,0.0
Status,1732152641000,27,5,1,13,1575420030,26.90,228.0,43.0,1,0,0,21.9
Status,1732152641000,27,6,1,30,1575420030,0.00,135.0,31.0,0,0,0,0.0
Status,1732152641000,27,7,1,15,1575420030,25.20,269.0,29.0,1,0,0,20.2
Status,1732152641000,27,8,1,24,1575420030,21.10,313.0,21.0,1,0,0,16.1
Status,1732152641000,27,9,1,6,1575420030,30.70,159.0,17.0,1,0,0,25.7
Status,1732152641000,27,10,1,2,1575420030,0.00,43.0,15.0,0,0,0,0.0
Status,1732152641000,27,11,1,12,1575420030,0.00,270.0,2.0,0,0,0,0.0
Status,1732152641000,27,12,1,21,1575420030,0.00,31.0,1.0,0,0,0,0.0
Status,1732152641000,27,13,3,20,1602000000,0.00,103.0,57.0,0,0,0,0.0
Status,1732152641000,27,14,3,11,1602000000,0.00,316.0,32.0,0,0,0,0.0
Status,1732152641000,27,15,3,9,1602000000,0.00,87.0,30.0,0,0,0,0.0
Status,1732152641000,27,16,3,19,1602000000,0.00,29.0,19.0,0,0,0,0.0
Status,1732152641000,27,17,3,8,1602000000,26.80,242.0,18.0,1,0,0,21.8
Status,1732152641000,27,18,6,21,1575420030,0.00,355.0,68.0,0,0,0,0.0
Status,1732152641000,27,19,6,19,1575420030,0.00,238.0,43.0,0,0,0,0.0
Status,1732152641000,27,20,6,13,1575420030,0.00,116.0,32.0,0,0,0,0.0
Status,1732152641000,27,21,6,27,1575420030,0.00,68.0,31.0,0,0,0,0.0
Status,1732152641000,27,22,6,4,1575420030,20.90,307.0,25.0,1,0,0,15.9
Status,1732152641000,27,23,6,15,1575420030,0.00,57.0,23.0,0,0,0,0.0
Status,1732152641000,27,24,6,29,1575420030,0.00,190.0,20.0,0,0,0,0.0
Status,1732152641000,27,25,6,26,1575420030,0.00,166.0,10.0,0,0,0,0.0
Status,1732152641000,27,26,6,6,1575420030,0.00,325.0,7.0,0,0,0,0.0
Fix,GPS,37.4256066667,-122.1581316667,22.099999999999998,0.0,5.3,0.0,1732152642000,1.7,179.9,31526091000000,88.8,0,,,
Raw,1732152642001,19153000000,,703463.3794056287,-1416187840848000000,0.0,153.5960073787595,1098.081877613843,0.0,0,6,0.0,16431,351059920575498,487,25.709999084472656,-328.8020073834911,0.14999,16,0.0,0.0,1575420030,,,,0,11.039461787441105,1,6.0,25.709999084472656,0.0,0.0,0.0,66.7128,C,31526091000000,
Raw,1732152642001,19153000000,,703463.3794056287,-1416187840848000000,0.0,153.5960073787595,1098.081877613843,0.0,0,13,0.0,16431,351059928238646,487,21.937000274658203,768.4394401947176,0.14999,16,0.0,0.0,1575420030,,,,0,5.477568751614386,1,6.0,21.937000274658203,0.0,0.0,0.0,66.7128,C,31526091000000,
Raw,1732152642001,19153000000,,703463.3794056287,-1416187840848000000,0.0,153.5960073787595,1098.081877613843,0.0,0,24,0.0,16431,351059922735435,797,16.1299991607666,-286.5496574261577,0.14999,16,0.0,0.0,1575420030,,,,0,0.0,1,6.0,16.1299991607666,0.0,0.0,0.0,66.7128,C,31526091000000,
Raw,1732152642001,19153000000,,703463.3794056287,-1416187840848000000,0.0,153.5960073787595,1098.081877613843,0.0,0,15,0.0,16431,351059924722723,797,20.23900032043457,581.2426854209472,0.14999,16,0.0,0.0,1575420030,,,,0,0.0,1,6.0,20.23900032043457,0.0,0.0,0.0,66.7128,C,31526091000000,
Raw,1732152642001,19153000000,,703463.3794056287,-1416187840848000000,0.0,153.5960073787595,1098.081877613843,0.0,0,4,0.0,16431,351059912429848,797,15.880000114440918,126.6231102580653,0.14999,16,0.0,0.0,1575420030,,,,0,0.0,6,6.0,15.880000114440918,0.0,0.0,11.335559917012459,66.7128,C,31526091000000,
Raw,1732152642001,19153000000,,703463.3794056287,-1416187840848000000,0.0,153.5960073787595,1098.081877613843,0.0,0,8,0.0,17,422633,487,5.0,959.5160798381767,0.14999,16,0.0,0.0,1605374980,,,,0,6.866514381694948,3,6.0,20.0,0.0,0.0,58.929706400209305,66.7128,C,31526091000000,
Fix,FLP,37.4256055000,-122.1581333000,2.063214129556064,0.009168271,5.2,,1732152642243,1.7,,31526091000000,9.331711,0,,,
Status,1732152642000,27,0,1,17,1575420030,0.00,62.0,75.0,0,0,0,0.0
Status,1732152642000,27,1,1,19,1575420030,0.00,202.0,67.0,0,0,0,0.0
Status,1732152642000,27,2,1,22,1575420030,0.00,25.0,64.0,0,0,0,0.0
Status,1732152642000,27,3,1,14,1575420030,0.00,59.0,49.0,0,0,0,0.0
Status,1732152642000,27,4,2,135,1575420030,0.00,197.0,45.0,0,0,0,0.0
Status,1732152642000,27,5,1,13,1575420030,26.90,228.0,43.0,1,0,0,21.9
Status,1732152642000,27,6,1,30,1575420030,0.00,135.0,31.0,0,0,0,0.0
Status,1732152642000,27,7,1,15,1575420030,25.20,269.0,29.0,1,0,0,20.2
Status,1732152642000,27,8,1,24,1575420030,21.10,313.0,21.0,1,0,0,16.1
Status,1732152642000,27,9,1,6,1575420030,30.50,159.0,17.0,1,0,0,25.5
Status,1732152642000,27,10,1,2,1575420030,0.00,43.0,15.0,0,0,0,0.0
Status,1732152642000,27,11,1,12,1575420030,0.00,270.0,2.0,0,0,0,0.0
Status,1732152642000,27,12,1,21,1575420030,0.00,31.0,1.0,0,0,0,0.0
Status,1732152642000,27,13,3,20,1602000000,0.00,103.0,57.0,0,0,0,0.0
Status,1732152642000,27,14,3,11,1602000000,0.00,316.0,32.0,0,0,0,0.0
Status,1732152642000,27,15,3,9,1602000000,0.00,87.0,30.0,0,0,0,0.0
Status,1732152642000,27,16,3,19,1602000000,0.00,29.0,19.0,0,0,0,0.0
Status,1732152642000,27,17,3,8,1602000000,24.20,242.0,18.0,1,0,0,19.2
Status,1732152642000,27,18,6,21,1575420030,0.00,355.0,68.0,0,0,0,0.0
Status,1732152642000,27,19,6,19,1575420030,0.00,238.0,43.0,0,0,0,0.0
Status,1732152642000,27,20,6,13,1575420030,0.00,116.0,32.0,0,0,0,0.0
Status,1732152642000,27,21,6,27,1575420030,0.00,68.0,31.0,0,0,0,0.0
Status,1732152642000,27,22,6,4,1575420030,20.80,307.0,25.0,1,0,0,15.799999
Status,1732152642000,27,23,6,15,1575420030,0.00,57.0,23.0,0,0,0,0.0
Status,1732152642000,27,24,6,29,1575420030,0.00,190.0,20.0,0,0,0,0.0
Status,1732152642000,27,25,6,26,1575420030,0.00,166.0,10.0,0,0,0,0.0
Status,1732152642000,27,26,6,6,1575420030,0.00,325.0,7.0,0,0,0,0.0
Fix,GPS,37.4256100000,-122.1581316667,22.099999999999998,0.0,5.3,0.0,1732152643000,1.7,179.9,31527091000000,89.2,0,,,
Raw,1732152643001,20153000000,,703448.2647825651,-1416187840848000000,0.0,152.36090762822514,1096.83690204676,0.0,0,6,0.0,16431,351060920576600,316,25.47599983215332,-328.9403140885499,0.14999,16,0.0,0.0,1575420030,,,,0,10.693517804109533,1,6.0,25.47599983215332,0.0,0.0,0.0,66.7128,C,31527091000000,
Raw,1732152643001,20153000000,,703448.2647825651,-1416187840848000000,0.0,152.36090762822514,1096.83690204676,0.0,0,13,0.0,16431,351060928236084,487,21.937000274658203,767.4591676126752,0.14999,16,0.0,0.0,1575420030,,,,0,5.477568751614386,1,6.0,21.937000274658203,0.0,0.0,0.0,66.7128,C,31527091000000,
Raw,1732152643001,20153000000,,703448.2647825651,-1416187840848000000,0.0,152.36090762822514,1096.83690204676,0.0,0,24,0.0,16431,351060922736391,487,16.1299991607666,-287.132060131773,0.14999,16,0.0,0.0,1575420030,,,,0,0.0,1,6.0,16.1299991607666,0.0,0.0,0.0,66.7128,C,31527091000000,
Raw,1732152643001,20153000000,,703448.2647825651,-1416187840848000000,0.0,152.36090762822514,1096.83690204676,0.0,0,15,0.0,16431,351060924720786,797,20.15399932861328,580.6685523134173,0.14999,16,0.0,0.0,1575420030,,,,0,0.0,1,6.0,20.15399932861328,0.0,0.0,0.0,66.7128,C,31527091000000,
Raw,1732152643001,20153000000,,703448.2647825651,-1416187840848000000,0.0,152.36090762822514,1096.83690204676,0.0,0,4,0.0,16431,351060912429426,797,15.765999794006348,126.00814020268639,0.14999,16,0.0,0.0,1575420030,,,,0,0.0,6,6.0,15.765999794006348,0.0,0.0,11.581387886104464,66.7128,C,31527091000000,
Raw,1732152643001,20153000000,,703448.2647825651,-1416187840848000000,0.0,152.36090762822514,1096.83690204676,0.0,0,8,0.0,17,419438,487,5.0,959.0681885520382,0.14999,16,0.0,0.0,1605374980,,,,0,2.9268996913834924,3,6.0,20.0,0.0,0.0,58.20328547679562,66.7128,C,31527091000000,
Fix,FLP,37.4256076000,-122.1581326000,1.922654845088033,0.0031841467,5.214,,1732152643244,1.7,,31527091000000,11.567983,0,,,
Status,1732152643000,27,0,1,17,1575420030,0.00,62.0,75.0,0,0,0,0.0
Status,1732152643000,27,1,1,19,1575420030,0.00,202.0,67.0,0,0,0,0.0
Status,1732152643000,27,2,1,22,1575420030,0.00,25.0,64.0,0,0,0,0.0
Status,1732152643000,27,3,1,14,1575420030,0.00,59.0,49.0,0,0,0,0.0
Status,1732152643000,27,4,2,135,1575420030,0.00,197.0,45.0,0,0,0,0.0
Status,1732152643000,27,5,1,13,1575420030,28.10,228.0,43.0,1,0,0,23.1
Status,1732152643000,27,6,1,30,1575420030,26.10,135.0,31.0,1,0,0,21.1
Status,1732152643000,27,7,1,15,1575420030,25.10,269.0,29.0,1,0,0,20.1
Status,1732152643000,27,8,1,24,1575420030,23.90,313.0,21.0,1,0,0,18.9
Status,1732152643000,27,9,1,6,1575420030,35.90,159.0,17.0,1,0,0,30.900002
Status,1732152643000,27,10,1,2,1575420030,0.00,43.0,15.0,0,0,0,0.0
Status,1732152643000,27,11,1,12,1575420030,0.00,270.0,2.0,0,0,0,0.0
Status,1732152643000,27,12,1,21,1575420030,0.00,31.0,1.0,0,0,0,0.0
Status,1732152643000,27,13,3,20,1602000000,0.00,103.0,57.0,0,0,0,0.0
Status,1732152643000,27,14,3,11,1602000000,0.00,316.0,32.0,0,0,0,0.0
Status,1732152643000,27,15,3,9,1602000000,0.00,87.0,30.0,0,0,0,0.0
Status,1732152643000,27,16,3,19,1602000000,0.00,29.0,19.0,0,0,0,0.0
Status,1732152643000,27,17,3,8,1602000000,0.00,242.0,18.0,0,0,0,0.0
Status,1732152643000,27,18,6,21,1575420030,0.00,355.0,68.0,0,0,0,0.0
Status,1732152643000,27,19,6,19,1575420030,0.00,238.0,43.0,0,0,0,0.0
Status,1732152643000,27,20,6,13,1575420030,0.00,116.0,32.0,0,0,0,0.0
Status,1732152643000,27,21,6,27,1575420030,0.00,68.0,31.0,0,0,0,0.0
Status,1732152643000,27,22,6,4,1575420030,20.70,307.0,25.0,1,0,0,15.700001
Status,1732152643000,27,23,6,15,1575420030,0.00,57.0,23.0,0,0,0,0.0
Status,1732152643000,27,24,6,29,1575420030,0.00,190.0,20.0,0,0,0,0.0
Status,1732152643000,27,25,6,26,1575420030,0.00,166.0,10.0,0,0,0,0.0
Status,1732152643000,27,26,6,6,1575420030,0.00,325.0,7.0,0,0,0,0.0
Fix,GPS,37.4256066667,-122.1581316667,22.099999999999998,0.0,5.3,0.0,1732152644000,1.7,179.9,31528091000000,86.2,0,,,
Fix,FLP,37.4256072000,-122.1581322000,2.387024064572402,0.0040786443,5.242,,1732152644243,1.7,,31528091000000,16.355198,0,,,
Raw,1732152644001,21153000000,,981429.6887682211,-1416187840848000000,0.0,148.58564929324035,1090.6661932030374,0.0,0,6,0.0,16431,351061920577705,74,30.920000076293945,-329.7602122178335,0.14999,16,0.0,0.0,1575420030,,,,0,17.651786333040878,1,6.0,30.920000076293945,0.0,0.0,0.0,66.7128,C,31528091000000,
Raw,1732152644001,21153000000,,981429.6887682211,-1416187840848000000,0.0,148.58564929324035,1090.6661932030374,0.0,0,13,0.0,16431,351061928233528,487,23.121999740600586,765.3501413503816,0.14999,16,0.0,0.0,1575420030,,,,0,7.278867046136735,1,6.0,23.121999740600586,0.0,0.0,0.0,66.7128,C,31528091000000,
Raw,1732152644001,21153000000,,981429.6887682211,-1416187840848000000,0.0,148.58564929324035,1090.6661932030374,0.0,0,24,0.0,16431,351061922737329,797,18.888999938964844,-288.71815046120076,0.14999,16,0.0,0.0,1575420030,,,,0,0.242476098989858,1,6.0,18.888999938964844,0.0,0.0,0.0,66.7128,C,31528091000000,
Raw,1732152644001,21153000000,,981429.6887682211,-1416187840848000000,0.0,148.58564929324035,1090.6661932030374,0.0,0,15,0.0,16431,351061924718844,487,20.083999633789062,578.1887878897636,0.14999,16,0.0,0.0,1575420030,,,,0,0.11086919276342844,1,6.0,20.083999633789062,0.0,0.0,0.0,66.7128,C,31528091000000,
Raw,1732152644001,21153000000,,981429.6887682211,-1416187840848000000,0.0,148.58564929324035,1090.6661932030374,0.0,0,4,0.0,16431,351061912429008,797,15.656999588012695,124.12729445161085,0.14999,16,0.0,0.0,1575420030,,,,0,0.0,6,6.0,15.656999588012695,0.0,0.0,9.679732830457253,66.7128,C,31528091000000,
Raw,1732152644001,21153000000,,981429.6887682211,-1416187840848000000,0.0,148.58564929324035,1090.6661932030374,0.0,0,30,0.0,16431,351061925028877,487,21.051000595092773,886.8826171105934,0.14999,16,0.0,0.0,1575420030,,,,0,4.000520500763228,1,6.0,21.051000595092773,0.0,0.0,0.0,66.7128,C,31528091000000,
Fix,FLP,37.4256070000,-122.1581320000,2.387024064572402,0.004346901,5.266,,1732152644756,1.7,,31528604000000,16.175074,0,,,
Fix,NLP,37.4256848000,-122.1581027000,5.400000095367432,,77.6,,1732152644756,,,31528604000000,27.650826,0,,,
Status,1732152644000,27,0,1,17,1575420030,0.00,62.0,75.0,0,0,0,0.0
Status,1732152644000,27,1,1,19,1575420030,0.00,202.0,67.0,0,0,0,0.0
Status,1732152644000,27,2,1,22,1575420030,0.00,25.0,64.0,0,0,0,0.0
Status,1732152644000,27,3,1,14,1575420030,0.00,59.0,49.0,0,0,0,0.0
Status,1732152644000,27,4,2,135,1575420030,0.00,197.0,45.0,0,0,0,0.0
Status,1732152644000,27,5,1,13,1575420030,25.30,228.0,43.0,1,0,0,20.3
Status,1732152644000,27,6,1,30,1575420030,24.80,135.0,31.0,1,0,0,19.8
Status,1732152644000,27,7,1,15,1575420030,25.00,269.0,29.0,1,0,0,20.0
Status,1732152644000,27,8,1,24,1575420030,23.90,313.0,21.0,1,0,0,18.9
Status,1732152644000,27,9,1,6,1575420030,32.00,159.0,17.0,1,0,0,27.0
Status,1732152644000,27,10,1,2,1575420030,0.00,43.0,15.0,0,0,0,0.0
Status,1732152644000,27,11,1,12,1575420030,0.00,270.0,2.0,0,0,0,0.0
Status,1732152644000,27,12,1,21,1575420030,0.00,31.0,1.0,0,0,0,0.0
Status,1732152644000,27,13,3,20,1602000000,0.00,103.0,57.0,0,0,0,0.0
Status,1732152644000,27,14,3,11,1602000000,0.00,316.0,32.0,0,0,0,0.0
Status,1732152644000,27,15,3,9,1602000000,0.00,87.0,30.0,0,0,0,0.0
Status,1732152644000,27,16,3,19,1602000000,0.00,29.0,19.0,0,0,0,0.0
Status,1732152644000,27,17,3,8,1602000000,0.00,242.0,18.0,0,0,0,0.0
Status,1732152644000,27,18,6,21,1575420030,0.00,355.0,68.0,0,0,0,0.0
Status,1732152644000,27,19,6,19,1575420030,0.00,238.0,43.0,0,0,0,0.0
Status,1732152644000,27,20,6,13,1575420030,0.00,116.0,32.0,0,0,0,0.0
Status,1732152644000,27,21,6,27,1575420030,0.00,68.0,31.0,0,0,0,0.0
Status,1732152644000,27,22,6,4,1575420030,20.60,307.0,25.0,1,0,0,15.6
Status,1732152644000,27,23,6,15,1575420030,0.00,57.0,23.0,0,0,0,0.0
Status,1732152644000,27,24,6,29,1575420030,0.00,190.0,20.0,0,0,0,0.0
Status,1732152644000,27,25,6,26,1575420030,0.00,166.0,10.0,0,0,0,0.0
Status,1732152644000,27,26,6,6,1575420030,0.00,325.0,7.0,0,0,0,0.0
Fix,GPS,37.4256050000,-122.1581350000,22.099999999999998,0.0,5.3,0.0,1732152645000,1.7,179.9,31529091000000,83.5,0,,,
Fix,FLP,37.4256062000,-122.1581331000,2.387024064572402,0.006024273,5.271,,1732152645243,1.7,,31529091000000,16.384272,0,,,
Raw,1732152645001,22153000000,,700380.7780914889,-1416187840848000000,0.0,144.78366959137642,1087.1699770879197,0.0,0,6,0.0,16431,351062920578803,235,26.9950008392334,-330.64092441393666,0.14999,16,0.0,0.0,1575420030,,,,0,12.74470050477137,1,6.0,26.9950008392334,0.0,0.0,0.0,66.7128,C,31529091000000,
Raw,1732152645001,22153000000,,700380.7780914889,-1416187840848000000,0.0,144.78366959137642,1087.1699770879197,0.0,0,13,0.0,16431,351062928230973,487,20.253000259399414,765.1578499656862,0.14999,16,0.0,0.0,1575420030,,,,0,2.724908606884275,1,6.0,20.253000259399414,0.0,0.0,0.0,66.7128,C,31529091000000,
Raw,1732152645001,22153000000,,700380.7780914889,-1416187840848000000,0.0,144.78366959137642,1087.1699770879197,0.0,0,24,0.0,16431,351062922738294,797,18.888999938964844,-290.1592440736355,0.14999,16,0.0,0.0,1575420030,,,,0,0.242476098989858,1,6.0,18.888999938964844,0.0,0.0,0.0,66.7128,C,31529091000000,
Raw,1732152645001,22153000000,,700380.7780914889,-1416187840848000000,0.0,144.78366959137642,1087.1699770879197,0.0,0,15,0.0,16431,351062924716916,797,20.017000198364258,577.3456140939586,0.14999,16,0.0,0.0,1575420030,,,,0,0.11086919276342844,1,6.0,20.017000198364258,0.0,0.0,0.0,66.7128,C,31529091000000,
Raw,1732152645001,22153000000,,700380.7780914889,-1416187840848000000,0.0,144.78366959137642,1087.1699770879197,0.0,0,4,0.0,16431,351062912428594,797,15.553999900817871,123.35610797172403,0.14999,16,0.0,0.0,1575420030,,,,0,0.0,6,6.0,15.553999900817871,0.0,0.0,7.4030484338945515,66.7128,C,31529091000000,
Raw,1732152645001,22153000000,,700380.7780914889,-1416187840848000000,0.0,144.78366959137642,1087.1699770879197,0.0,0,30,0.0,16431,351062925025892,487,19.812000274658203,885.7072191804667,0.14999,16,0.0,0.0,1575420030,,,,0,1.9019608002851363,1,6.0,19.812000274658203,0.0,0.0,0.0,66.7128,C,31529091000000,
Status,1732152645000,27,0,1,17,1575420030,0.00,62.0,75.0,0,0,0,0.0
Status,1732152645000,27,1,1,19,1575420030,0.00,202.0,67.0,0,0,0,0.0
Status,1732152645000,27,2,1,22,1575420030,0.00,25.0,64.0,0,0,0,0.0
Status,1732152645000,27,3,1,14,1575420030,0.00,59.0,49.0,0,0,0,0.0
Status,1732152645000,27,4,2,135,1575420030,0.00,197.0,45.0,0,0,0,0.0
Status,1732152645000,27,5,1,13,1575420030,25.30,228.0,43.0,1,0,0,20.3
Status,1732152645000,27,6,1,30,1575420030,24.10,135.0,31.0,1,0,0,19.1
Status,1732152645000,27,7,1,15,1575420030,24.90,269.0,29.0,1,0,0,19.9
Status,1732152645000,27,8,1,24,1575420030,19.20,313.0,21.0,1,0,0,14.200001
Status,1732152645000,27,9,1,6,1575420030,29.00,159.0,17.0,1,0,0,24.0
Status,1732152645000,27,10,1,2,1575420030,0.00,43.0,15.0,0,0,0,0.0
Status,1732152645000,27,11,1,12,1575420030,0.00,270.0,2.0,0,0,0,0.0
Status,1732152645000,27,12,1,21,1575420030,0.00,31.0,1.0,0,0,0,0.0
Status,1732152645000,27,13,3,20,1602000000,0.00,103.0,57.0,0,0,0,0.0
Status,1732152645000,27,14,3,11,1602000000,0.00,316.0,32.0,0,0,0,0.0
Status,1732152645000,27,15,3,9,1602000000,0.00,87.0,30.0,0,0,0,0.0
Status,1732152645000,27,16,3,19,1602000000,0.00,29.0,19.0,0,0,0,0.0
Status,1732152645000,27,17,3,8,1602000000,0.00,242.0,18.0,0,0,0,0.0
Status,1732152645000,27,18,6,21,1575420030,0.00,355.0,68.0,0,0,0,0.0
Status,1732152645000,27,19,6,19,1575420030,0.00,238.0,43.0,0,0,0,0.0
Status,1732152645000,27,20,6,13,1575420030,0.00,116.0,32.0,0,0,0,0.0
Status,1732152645000,27,21,6,27,1575420030,0.00,68.0,31.0,0,0,0,0.0
Status,1732152645000,27,22,6,4,1575420030,20.50,307.0,25.0,1,0,0,15.5
Status,1732152645000,27,23,6,15,1575420030,0.00,57.0,23.0,0,0,0,0.0
Status,1732152645000,27,24,6,29,1575420030,0.00,190.0,20.0,0,0,0,0.0
Status,1732152645000,27,25,6,26,1575420030,0.00,166.0,10.0,0,0,0,0.0
Status,1732152645000,27,26,6,6,1575420030,0.00,325.0,7.0,0,0,0,0.0
Fix,GPS,37.4256033333,-122.1581333333,22.099999999999998,0.0,5.2,0.0,1732152646000,1.7,179.9,31530091000000,83.3,0,,,
Raw,1732152646001,23153000000,,700313.0750040417,-1416187840848000000,0.0,143.614800657321,1084.7949262750224,0.0,0,6,0.0,16431,351063920579909,487,23.98699951171875,-331.9221546161909,0.14999,16,0.0,0.0,1575420030,,,,0,8.572032775465617,1,6.0,23.98699951171875,0.0,0.0,0.0,66.7128,C,31530091000000,
Raw,1732152646001,23153000000,,700313.0750040417,-1416187840848000000,0.0,143.614800657321,1084.7949262750224,0.0,0,13,0.0,16431,351063928228420,396,20.304000854492188,765.1561774627027,0.14999,16,0.0,0.0,1575420030,,,,0,4.414212477960249,1,6.0,20.304000854492188,0.0,0.0,0.0,66.7128,C,31530091000000,
Raw,1732152646001,23153000000,,700313.0750040417,-1416187840848000000,0.0,143.614800657321,1084.7949262750224,0.0,0,24,0.0,16431,351063922739263,797,14.199999809265137,-290.8880372487302,0.14999,16,0.0,0.0,1575420030,,,,0,0.0,1,6.0,14.199999809265137,0.0,0.0,0.0,66.7128,C,31530091000000,
Raw,1732152646001,23153000000,,700313.0750040417,-1416187840848000000,0.0,143.614800657321,1084.7949262750224,0.0,0,15,0.0,16431,351063924714989,797,19.929000854492188,576.8464184117763,0.14999,16,0.0,0.0,1575420030,,,,0,0.0,1,6.0,19.929000854492188,0.0,0.0,0.0,66.7128,C,31530091000000,
Raw,1732152646001,23153000000,,700313.0750040417,-1416187840848000000,0.0,143.614800657321,1084.7949262750224,0.0,0,4,0.0,16431,351063912428181,797,15.491000175476074,122.99963254414057,0.14999,16,0.0,0.0,1575420030,,,,0,0.0,6,6.0,15.491000175476074,0.0,0.0,4.130420265434251,66.7128,C,31530091000000,
Raw,1732152646001,23153000000,,700313.0750040417,-1416187840848000000,0.0,143.614800657321,1084.7949262750224,0.0,0,30,0.0,16431,351063925022929,487,19.08300018310547,885.245422523334,0.14999,16,0.0,0.0,1575420030,,,,0,0.6257392847300434,1,6.0,19.08300018310547,0.0,0.0,0.0,66.7128,C,31530091000000,
Fix,FLP,37.4256049000,-122.1581332000,2.387024064572402,0.009047023,5.271,,1732152646243,1.7,,31530091000000,16.424885,0,,,
Status,1732152646000,27,0,1,17,1575420030,0.00,62.0,75.0,0,0,0,0.0
Status,1732152646000,27,1,1,19,1575420030,0.00,202.0,67.0,0,0,0,0.0
Status,1732152646000,27,2,1,22,1575420030,0.00,25.0,64.0,0,0,0,0.0
Status,1732152646000,27,3,1,14,1575420030,0.00,59.0,49.0,0,0,0,0.0
Status,1732152646000,27,4,2,135,1575420030,0.00,197.0,45.0,0,0,0,0.0
Status,1732152646000,27,5,1,13,1575420030,25.40,228.0,43.0,1,0,0,20.4
Status,1732152646000,27,6,1,30,1575420030,25.20,135.0,31.0,1,0,0,20.2
Status,1732152646000,27,7,1,15,1575420030,24.90,269.0,29.0,1,0,0,19.9
Status,1732152646000,27,8,1,24,1575420030,19.20,313.0,21.0,1,0,0,14.200001
Status,1732152646000,27,9,1,6,1575420030,25.70,159.0,17.0,1,0,0,20.7
Status,1732152646000,27,10,1,2,1575420030,0.00,43.0,15.0,0,0,0,0.0
Status,1732152646000,27,11,1,12,1575420030,0.00,270.0,2.0,0,0,0,0.0
Status,1732152646000,27,12,1,21,1575420030,0.00,31.0,1.0,0,0,0,0.0
Status,1732152646000,27,13,3,20,1602000000,0.00,103.0,57.0,0,0,0,0.0
Status,1732152646000,27,14,3,11,1602000000,0.00,316.0,32.0,0,0,0,0.0
Status,1732152646000,27,15,3,9,1602000000,0.00,87.0,30.0,0,0,0,0.0
Status,1732152646000,27,16,3,19,1602000000,0.00,29.0,19.0,0,0,0,0.0
Status,1732152646000,27,17,3,8,1602000000,21.60,242.0,18.0,1,0,0,16.6
Status,1732152646000,27,18,6,21,1575420030,0.00,355.0,68.0,0,0,0,0.0
Status,1732152646000,27,19,6,19,1575420030,0.00,238.0,43.0,0,0,0,0.0
Status,1732152646000,27,20,6,13,1575420030,0.00,116.0,32.0,0,0,0,0.0
Status,1732152646000,27,21,6,27,1575420030,0.00,68.0,31.0,0,0,0,0.0
Status,1732152646000,27,22,6,4,1575420030,20.40,307.0,25.0,1,0,0,15.4
Status,1732152646000,27,23,6,15,1575420030,0.00,57.0,23.0,0,0,0,0.0
Status,1732152646000,27,24,6,29,1575420030,0.00,190.0,20.0,0,0,0,0.0
Status,1732152646000,27,25,6,26,1575420030,0.00,166.0,10.0,0,0,0,0.0
Status,1732152646000,27,26,6,6,1575420030,0.00,325.0,7.0,0,0,0,0.0
Fix,GPS,37.4256016667,-122.1581350000,22.099999999999998,0.0,5.2,0.0,1732152647000,1.6,179.9,31531091000000,99.7,0,,,
Fix,FLP,37.4256033000,-122.1581340000,2.553450369167857,0.012264376,5.271,,1732152647243,1.6,,31531091000000,17.446663,0,,,
Raw,1732152647001,24153000000,,700252.6165117869,-1416187840848000000,0.0,158.61542528009676,1081.0157692725406,0.0,0,6,0.0,16431,351064920581020,487,20.665000915527344,-332.5404232191207,0.14999,16,0.0,0.0,1575420030,,,,0,3.3861106246026926,1,6.0,20.665000915527344,0.0,0.0,0.0,66.7128,C,31531091000000,
Raw,1732152647001,24153000000,,700252.6165117869,-1416187840848000000,0.0,158.61542528009676,1081.0157692725406,0.0,0,13,0.0,16431,351064928225868,487,20.35300064086914,764.7158910522753,0.14999,16,0.0,0.0,1575420030,,,,0,4.414212477960249,1,6.0,20.35300064086914,0.0,0.0,0.0,66.7128,C,31531091000000,
Raw,1732152647001,24153000000,,700252.6165117869,-1416187840848000000,0.0,158.61542528009676,1081.0157692725406,0.0,0,24,0.0,16431,351064922740236,797,14.199999809265137,-292.0366751311195,0.14999,16,0.0,0.0,1575420030,,,,0,0.0,1,6.0,14.199999809265137,0.0,0.0,0.0,66.7128,C,31531091000000,
Raw,1732152647001,24153000000,,700252.6165117869,-1416187840848000000,0.0,158.61542528009676,1081.0157692725406,0.0,0,15,0.0,16431,351064924713038,487,19.910999298095703,575.9162744608252,0.14999,16,0.0,0.0,1575420030,,,,0,1.5720772430539718,1,6.0,19.910999298095703,0.0,0.0,0.0,66.7128,C,31531091000000,
Raw,1732152647001,24153000000,,700252.6165117869,-1416187840848000000,0.0,158.61542528009676,1081.0157692725406,0.0,0,4,0.0,16431,351064912427772,797,15.430999755859375,122.08024371654211,0.14999,16,0.0,0.0,1575420030,,,,0,0.0,6,6.0,15.430999755859375,0.0,0.0,0.36395712405950803,66.7128,C,31531091000000,
Raw,1732152647001,24153000000,,700252.6165117869,-1416187840848000000,0.0,158.61542528009676,1081.0157692725406,0.0,0,8,0.0,17,406652,487,5.0,953.1172160564083,0.14999,16,0.0,0.0,1605374980,,,,0,0.0,3,6.0,18.0,0.0,0.0,58.14225839063333,66.7128,C,31531091000000,
Raw,1732152647001,24153000000,,700252.6165117869,-1416187840848000000,0.0,158.61542528009676,1081.0157692725406,0.0,0,30,0.0,16431,351064925019944,487,20.198999404907227,884.2772291295064,0.14999,16,0.0,0.0,1575420030,,,,0,2.626204253374032,1,6.0,20.198999404907227,0.0,0.0,0.0,66.7128,C,31531091000000,
Status,1732152647000,26,0,1,17,1575420030,0.00,62.0,75.0,0,0,0,0.0
Status,1732152647000,26,1,1,19,1575420030,0.00,202.0,67.0,0,0,0,0.0
Status,1732152647000,26,2,1,22,1575420030,0.00,25.0,64.0,0,0,0,0.0
Status,1732152647000,26,3,1,14,1575420030,0.00,59.0,49.0,0,0,0,0.0
Status,1732152647000,26,4,1,13,1575420030,25.40,228.0,43.0,1,0,0,20.4
Status,1732152647000,26,5,1,30,1575420030,29.40,135.0,31.0,1,0,0,24.4
Status,1732152647000,26,6,1,15,1575420030,25.00,269.0,29.0,1,0,0,20.0
Status,1732152647000,26,7,1,24,1575420030,19.20,313.0,21.0,1,0,0,14.200001
Status,1732152647000,26,8,1,6,1575420030,25.70,159.0,17.0,1,0,0,20.7
Status,1732152647000,26,9,1,2,1575420030,0.00,43.0,15.0,0,0,0,0.0
Status,1732152647000,26,10,1,12,1575420030,0.00,270.0,2.0,0,0,0,0.0
Status,1732152647000,26,11,1,21,1575420030,0.00,31.0,1.0,0,0,0,0.0
Status,1732152647000,26,12,3,20,1602000000,0.00,103.0,57.0,0,0,0,0.0
Status,1732152647000,26,13,3,11,1602000000,0.00,316.0,32.0,0,0,0,0.0
Status,1732152647000,26,14,3,9,1602000000,0.00,87.0,30.0,0,0,0,0.0
Status,1732152647000,26,15,3,19,1602000000,0.00,29.0,19.0,0,0,0,0.0
Status,1732152647000,26,16,3,8,1602000000,21.40,242.0,18.0,1,0,0,16.4
Status,1732152647000,26,17,6,21,1575420030,0.00,355.0,68.0,0,0,0,0.0
Status,1732152647000,26,18,6,19,1575420030,0.00,238.0,43.0,0,0,0,0.0
Status,1732152647000,26,19,6,13,1575420030,0.00,116.0,32.0,0,0,0,0.0
Status,1732152647000,26,20,6,27,1575420030,0.00,68.0,31.0,0,0,0,0.0
Status,1732152647000,26,21,6,4,1575420030,20.40,307.0,25.0,1,0,0,15.4
Status,1732152647000,26,22,6,15,1575420030,0.00,57.0,23.0,0,0,0,0.0
Status,1732152647000,26,23,6,29,1575420030,0.00,190.0,20.0,0,0,0,0.0
Status,1732152647000,26,24,6,26,1575420030,0.00,166.0,10.0,0,0,0,0.0
Status,1732152647000,26,25,6,6,1575420030,0.00,325.0,7.0,0,0,0,0.0
Fix,GPS,37.4256000000,-122.1581416667,22.099999999999998,0.0,5.1,0.0,1732152648000,1.6,179.9,31532091000000,100.0,0,,,
Raw,1732152648001,25153000000,,700186.893961155,-1416187840848000000,0.0,159.7628662228072,1081.0924073975757,0.0,0,6,0.0,16431,351065920582129,797,20.665000915527344,-332.48908666920806,0.14999,16,0.0,0.0,1575420030,,,,0,3.3861106246026926,1,6.0,20.665000915527344,0.0,0.0,0.0,66.7128,C,31532091000000,
Raw,1732152648001,25153000000,,700186.893961155,-1416187840848000000,0.0,159.7628662228072,1081.0924073975757,0.0,0,13,0.0,16431,351065928223318,487,20.39900016784668,764.8519212949398,0.14999,16,0.0,0.0,1575420030,,,,0,4.414212477960249,1,6.0,20.39900016784668,0.0,0.0,0.0,66.7128,C,31532091000000,
Raw,1732152648001,25153000000,,700186.893961155,-1416187840848000000,0.0,159.7628662228072,1081.0924073975757,0.0,0,24,0.0,16431,351065922741209,797,14.199999809265137,-291.6663086370891,0.14999,16,0.0,0.0,1575420030,,,,0,0.0,1,6.0,14.199999809265137,0.0,0.0,0.0,66.7128,C,31532091000000,
Raw,1732152648001,25153000000,,700186.893961155,-1416187840848000000,0.0,159.7628662228072,1081.0924073975757,0.0,0,15,0.0,16431,351065924711143,487,19.976999282836914,576.6741970628839,0.14999,16,0.0,0.0,1575420030,,,,0,4.3330353484228965,1,6.0,19.976999282836914,0.0,0.0,0.0,66.7128,C,31532091000000,
Raw,1732152648001,25153000000,,700186.893961155,-1416187840848000000,0.0,159.7628662228072,1081.0924073975757,0.0,0,4,0.0,16431,351065912427365,797,15.37399959564209,122.22289428351658,0.14999,16,0.0,0.0,1575420030,,,,0,0.0,6,6.0,15.37399959564209,0.0,0.0,-2.571543607322982,66.7128,C,31532091000000,
Raw,1732152648001,25153000000,,700186.893961155,-1416187840848000000,0.0,159.7628662228072,1081.0924073975757,0.0,0,8,0.0,17,403465,797,5.0,953.6323092720834,0.14999,16,0.0,0.0,1605374980,,,,0,0.0,3,6.0,16.0,0.0,0.0,58.06394052455207,66.7128,C,31532091000000,
Raw,1732152648001,25153000000,,700186.893961155,-1416187840848000000,0.0,159.7628662228072,1081.0924073975757,0.0,0,30,0.0,16431,351065925016999,487,24.417999267578125,885.077707640814,0.14999,16,0.0,0.0,1575420030,,,,0,9.199619915821895,1,6.0,24.417999267578125,0.0,0.0,0.0,66.7128,C,31532091000000,
Fix,FLP,37.4256017000,-122.1581376000,2.256500889752469,0.015594476,5.242,,1732152648243,1.6,,31532091000000,13.089622,0,,,
Status,1732152648000,26,0,1,17,1575420030,0.00,62.0,75.0,0,0,0,0.0
Status,1732152648000,26,1,1,19,1575420030,0.00,202.0,67.0,0,0,0,0.0
Status,1732152648000,26,2,1,22,1575420030,0.00,25.0,64.0,0,0,0,0.0
Status,1732152648000,26,3,1,14,1575420030,0.00,59.0,49.0,0,0,0,0.0
Status,1732152648000,26,4,1,13,1575420030,25.40,228.0,43.0,1,0,0,20.4
Status,1732152648000,26,5,1,30,1575420030,29.40,135.0,31.0,1,0,0,24.4
Status,1732152648000,26,6,1,15,1575420030,24.90,269.0,29.0,1,0,0,19.9
Status,1732152648000,26,7,1,24,1575420030,19.30,313.0,21.0,1,0,0,14.299999
Status,1732152648000,26,8,1,6,1575420030,25.70,159.0,17.0,1,0,0,20.7
Status,1732152648000,26,9,1,2,1575420030,0.00,43.0,15.0,0,0,0,0.0
Status,1732152648000,26,10,1,12,1575420030,0.00,270.0,2.0,0,0,0,0.0
Status,1732152648000,26,11,1,21,1575420030,0.00,31.0,1.0,0,0,0,0.0
Status,1732152648000,26,12,3,20,1602000000,0.00,103.0,57.0,0,0,0,0.0
Status,1732152648000,26,13,3,11,1602000000,0.00,316.0,32.0,0,0,0,0.0
Status,1732152648000,26,14,3,9,1602000000,0.00,87.0,30.0,0,0,0,0.0
Status,1732152648000,26,15,3,19,1602000000,0.00,29.0,19.0,0,0,0,0.0
Status,1732152648000,26,16,3,8,1602000000,0.00,242.0,18.0,0,0,0,0.0
Status,1732152648000,26,17,6,21,1575420030,0.00,355.0,68.0,0,0,0,0.0
Status,1732152648000,26,18,6,19,1575420030,0.00,238.0,43.0,0,0,0,0.0
Status,1732152648000,26,19,6,13,1575420030,0.00,116.0,32.0,0,0,0,0.0
Status,1732152648000,26,20,6,27,1575420030,0.00,68.0,31.0,0,0,0,0.0
Status,1732152648000,26,21,6,4,1575420030,20.30,307.0,25.0,1,0,0,15.299999
Status,1732152648000,26,22,6,15,1575420030,0.00,57.0,23.0,0,0,0,0.0
Status,1732152648000,26,23,6,29,1575420030,0.00,190.0,20.0,0,0,0,0.0
Status,1732152648000,26,24,6,26,1575420030,0.00,166.0,10.0,0,0,0,0.0
Status,1732152648000,26,25,6,6,1575420030,0.00,325.0,7.0,0,0,0,0.0
Fix,GPS,37.4255983333,-122.1581433333,22.099999999999998,0.0,5.1,0.0,1732152649000,1.6,179.9,31533091000000,100.0,0,,,
Raw,1732152649001,26153000000,,700148.4819708173,-1416187840848000000,0.0,161.62355134536315,1082.14995152066,0.0,0,6,0.0,16431,351066920583238,797,20.665000915527344,-332.1885007163259,0.14999,16,0.0,0.0,1575420030,,,,0,3.3861106246026926,1,6.0,20.665000915527344,0.0,0.0,0.0,66.7128,C,31533091000000,
Raw,1732152649001,26153000000,,700148.4819708173,-1416187840848000000,0.0,161.62355134536315,1082.14995152066,0.0,0,13,0.0,16431,351066928220767,797,20.44300079345703,764.8198649877545,0.14999,16,0.0,0.0,1575420030,,,,0,4.414212477960249,1,6.0,20.44300079345703,0.0,0.0,0.0,66.7128,C,31533091000000,
Raw,1732152649001,26153000000,,700148.4819708173,-1416187840848000000,0.0,161.62355134536315,1082.14995152066,0.0,0,24,0.0,16431,351066922742189,797,14.28499984741211,-291.2327586970124,0.14999,16,0.0,0.0,1575420030,,,,0,0.0,1,6.0,14.28499984741211,0.0,0.0,0.0,66.7128,C,31533091000000,
Raw,1732152649001,26153000000,,700148.4819708173,-1416187840848000000,0.0,161.62355134536315,1082.14995152066,0.0,0,15,0.0,16431,351066924709226,797,19.882999420166016,577.2981800510076,0.14999,16,0.0,0.0,1575420030,,,,0,0.0,1,6.0,19.882999420166016,0.0,0.0,0.0,66.7128,C,31533091000000,
Raw,1732152649001,26153000000,,700148.4819708173,-1416187840848000000,0.0,161.62355134536315,1082.14995152066,0.0,0,4,0.0,16431,351066912426956,487,15.319999694824219,123.35315786229465,0.14999,16,0.0,0.0,1575420030,,,,0,0.0,6,6.0,15.319999694824219,0.0,0.0,-5.1038937147100425,66.7128,C,31533091000000,
Raw,1732152649001,26153000000,,700148.4819708173,-1416187840848000000,0.0,161.62355134536315,1082.14995152066,0.0,0,30,0.0,16431,351066925014046,487,24.417999267578125,885.9608821329763,0.14999,16,0.0,0.0,1575420030,,,,0,9.199619915821895,1,6.0,24.417999267578125,0.0,0.0,0.0,66.7128,C,31533091000000,
Fix,FLP,37.4256000000,-122.1581403000,2.7381032902354026,0.01874023,5.214,,1732152649243,1.6,,31533091000000,13.140919,0,,,
Fix,FLP,37.4255993000,-122.1581415000,2.9885271656714036,0.019393422,5.185,,1732152649619,1.6,,31533467000000,13.086005,0,,,
Fix,NLP,37.4256848000,-122.1581027000,5.400000095367432,,77.6,,1732152649619,,,31533467000000,27.650826,0,,,
Status,1732152649000,26,0,1,17,1575420030,0.00,62.0,75.0,0,0,0,0.0
Status,1732152649000,26,1,1,19,1575420030,0.00,202.0,67.0,0,0,0,0.0
Status,1732152649000,26,2,1,22,1575420030,0.00,25.0,64.0,0,0,0,0.0
Status,1732152649000,26,3,1,14,1575420030,0.00,59.0,49.0,0,0,0,0.0
Status,1732152649000,26,4,1,13,1575420030,25.50,228.0,43.0,1,0,0,20.5
Status,1732152649000,26,5,1,30,1575420030,29.40,135.0,31.0,1,0,0,24.4
Status,1732152649000,26,6,1,15,1575420030,29.50,269.0,29.0,1,0,0,24.5
Status,1732152649000,26,7,1,24,1575420030,19.40,313.0,21.0,1,0,0,14.4
Status,1732152649000,26,8,1,6,1575420030,25.60,159.0,17.0,1,0,0,20.6
Status,1732152649000,26,9,1,2,1575420030,0.00,43.0,15.0,0,0,0,0.0
Status,1732152649000,26,10,1,12,1575420030,0.00,270.0,2.0,0,0,0,0.0
Status,1732152649000,26,11,1,21,1575420030,0.00,31.0,1.0,0,0,0,0.0
Status,1732152649000,26,12,3,20,1602000000,0.00,103.0,57.0,0,0,0,0.0
Status,1732152649000,26,13,3,11,1602000000,0.00,316.0,32.0,0,0,0,0.0
Status,1732152649000,26,14,3,9,1602000000,0.00,87.0,30.0,0,0,0,0.0
Status,1732152649000,26,15,3,19,1602000000,0.00,29.0,19.0,0,0,0,0.0
Status,1732152649000,26,16,3,8,1602000000,0.00,242.0,18.0,0,0,0,0.0
Status,1732152649000,26,17,6,21,1575420030,0.00,355.0,68.0,0,0,0,0.0
Status,1732152649000,26,18,6,19,1575420030,0.00,238.0,43.0,0,0,0,0.0
Status,1732152649000,26,19,6,13,1575420030,0.00,116.0,32.0,0,0,0,0.0
Status,1732152649000,26,20,6,27,1575420030,0.00,68.0,31.0,0,0,0,0.0
Status,1732152649000,26,21,6,4,1575420030,25.40,307.0,25.0,1,0,0,20.4
Status,1732152649000,26,22,6,15,1575420030,0.00,57.0,23.0,0,0,0,0.0
Status,1732152649000,26,23,6,29,1575420030,0.00,190.0,20.0,0,0,0,0.0
Status,1732152649000,26,24,6,26,1575420030,0.00,166.0,10.0,0,0,0,0.0
Status,1732152649000,26,25,6,6,1575420030,0.00,325.0,7.0,0,0,0,0.0
Fix,GPS,37.4255966667,-122.1581516667,22.099999999999998,0.0,5.1,0.0,1732152650000,1.6,179.9,31534091000000,99.9,0,,,
Fix,FLP,37.4255982000,-122.1581455000,5.400000095367432,0.02090534,5.157,,1732152650243,1.6,,31534091000000,15.694073,0,,,
Raw,1732152650001,27153000000,,700109.8093835303,-1416187840848000000,0.0,157.8802186815687,1086.9935340361503,0.0,0,6,0.0,16431,351067920584319,487,20.63800048828125,-330.2249822136037,0.14999,16,0.0,0.0,1575420030,,,,0,2.5263653422240506,1,6.0,20.63800048828125,0.0,0.0,0.0,66.7128,C,31534091000000,
Raw,1732152650001,27153000000,,700109.8093835303,-1416187840848000000,0.0,157.8802186815687,1086.9935340361503,0.0,0,13,0.0,16431,351067928218213,797,20.485000610351562,766.1941513976784,0.14999,16,0.0,0.0,1575420030,,,,0,4.414212477960249,1,6.0,20.485000610351562,0.0,0.0,0.0,66.7128,C,31534091000000,
Raw,1732152650001,27153000000,,700109.8093835303,-1416187840848000000,0.0,157.8802186815687,1086.9935340361503,0.0,0,24,0.0,16431,351067922743158,797,14.366000175476074,-289.65772547064273,0.14999,16,0.0,0.0,1575420030,,,,0,0.0,1,6.0,14.366000175476074,0.0,0.0,0.0,66.7128,C,31534091000000,
Raw,1732152650001,27153000000,,700109.8093835303,-1416187840848000000,0.0,157.8802186815687,1086.9935340361503,0.0,0,15,0.0,16431,351067924707269,316,24.5049991607666,578.9048979172329,0.14999,16,0.0,0.0,1575420030,,,,0,9.33822747900959,1,6.0,24.5049991607666,0.0,0.0,0.0,66.7128,C,31534091000000,
Raw,1732152650001,27153000000,,700109.8093835303,-1416187840848000000,0.0,157.8802186815687,1086.9935340361503,0.0,0,4,0.0,16431,351067912426521,396,20.399999618530273,125.17548923815302,0.14999,16,0.0,0.0,1575420030,,,,0,4.809093641875393,6,6.0,20.399999618530273,0.0,0.0,-4.8816687818102364,66.7128,C,31534091000000,
Raw,1732152650001,27153000000,,700109.8093835303,-1416187840848000000,0.0,157.8802186815687,1086.9935340361503,0.0,0,30,0.0,16431,351067925011088,797,24.417999267578125,887.3256445675771,0.14999,16,0.0,0.0,1575420030,,,,0,9.199619915821895,1,6.0,24.417999267578125,0.0,0.0,0.0,66.7128,C,31534091000000,
Status,1732152650000,26,0,1,17,1575420030,0.00,62.0,75.0,0,0,0,0.0
Status,1732152650000,26,1,1,19,1575420030,0.00,202.0,67.0,0,0,0,0.0
Status,1732152650000,26,2,1,22,1575420030,0.00,25.0,64.0,0,0,0,0.0
Status,1732152650000,26,3,1,14,1575420030,0.00,59.0,49.0,0,0,0,0.0
Status,1732152650000,26,4,1,13,1575420030,25.50,228.0,43.0,1,0,0,20.5
Status,1732152650000,26,5,1,30,1575420030,22.10,135.0,31.0,1,0,0,17.1
Status,1732152650000,26,6,1,15,1575420030,31.00,269.0,29.0,1,0,0,26.0
Status,1732152650000,26,7,1,24,1575420030,19.50,313.0,21.0,1,0,0,14.5
Status,1732152650000,26,8,1,6,1575420030,25.60,159.0,17.0,1,0,0,20.6
Status,1732152650000,26,9,1,2,1575420030,0.00,43.0,15.0,0,0,0,0.0
Status,1732152650000,26,10,1,12,1575420030,0.00,270.0,2.0,0,0,0,0.0
Status,1732152650000,26,11,1,21,1575420030,0.00,31.0,1.0,0,0,0,0.0
Status,1732152650000,26,12,3,20,1602000000,0.00,103.0,57.0,0,0,0,0.0
Status,1732152650000,26,13,3,11,1602000000,0.00,316.0,32.0,0,0,0,0.0
Status,1732152650000,26,14,3,9,1602000000,0.00,87.0,30.0,0,0,0,0.0
Status,1732152650000,26,15,3,19,1602000000,0.00,29.0,19.0,0,0,0,0.0
Status,1732152650000,26,16,3,8,1602000000,26.40,242.0,18.0,1,0,0,21.4
Status,1732152650000,26,17,6,21,1575420030,0.00,355.0,68.0,0,0,0,0.0
Status,1732152650000,26,18,6,19,1575420030,0.00,238.0,43.0,0,0,0,0.0
Status,1732152650000,26,19,6,13,1575420030,0.00,116.0,32.0,0,0,0,0.0
Status,1732152650000,26,20,6,27,1575420030,0.00,68.0,31.0,0,0,0,0.0
Status,1732152650000,26,21,6,4,1575420030,25.40,307.0,25.0,1,0,0,20.4
Status,1732152650000,26,22,6,15,1575420030,0.00,57.0,23.0,0,0,0,0.0
Status,1732152650000,26,23,6,29,1575420030,0.00,190.0,20.0,0,0,0,0.0
Status,1732152650000,26,24,6,26,1575420030,0.00,166.0,10.0,0,0,0,0.0
Status,1732152650000,26,25,6,6,1575420030,0.00,325.0,7.0,0,0,0,0.0
Fix,GPS,37.4255983333,-122.1581616667,22.099999999999998,0.0,5.1,0.0,1732152651000,1.6,179.9,31535091000000,95.1,0,,,
Fix,FLP,37.4255981000,-122.1581528000,5.400000095367432,0.019544536,5.128,,1732152651243,1.6,,31535091000000,15.968025,0,,,
Raw,1732152651001,28153000000,,700044.191071678,-1416187840848000000,0.0,152.4814337173104,1090.9131545183907,0.0,0,6,0.0,16431,351068920585420,396,20.613000869750977,-329.5742856361589,0.14999,16,0.0,0.0,1575420030,,,,0,2.5263653422240506,1,6.0,20.613000869750977,0.0,0.0,0.0,66.7128,C,31535091000000,
Raw,1732152651001,28153000000,,700044.191071678,-1416187840848000000,0.0,152.4814337173104,1090.9131545183907,0.0,0,13,0.0,16431,351068928215666,487,20.45400047302246,767.1358634942661,0.14999,16,0.0,0.0,1575420030,,,,0,2.009195367727299,1,6.0,20.45400047302246,0.0,0.0,0.0,66.7128,C,31535091000000,
Raw,1732152651001,28153000000,,700044.191071678,-1416187840848000000,0.0,152.4814337173104,1090.9131545183907,0.0,0,24,0.0,16431,351068922744142,797,14.479999542236328,-288.8434952681368,0.14999,16,0.0,0.0,1575420030,,,,0,0.0,1,6.0,14.479999542236328,0.0,0.0,0.0,66.7128,C,31535091000000,
Raw,1732152651001,28153000000,,700044.191071678,-1416187840848000000,0.0,152.4814337173104,1090.9131545183907,0.0,0,15,0.0,16431,351068924705329,487,26.006000518798828,579.865704422883,0.14999,16,0.0,0.0,1575420030,,,,0,11.444385894678387,1,6.0,26.006000518798828,0.0,0.0,0.0,66.7128,C,31535091000000,
Raw,1732152651001,28153000000,,700044.191071678,-1416187840848000000,0.0,152.4814337173104,1090.9131545183907,0.0,0,4,0.0,16431,351068912426103,396,20.399999618530273,126.17613383570371,0.14999,16,0.0,0.0,1575420030,,,,0,4.809093641875393,6,6.0,20.399999618530273,0.0,0.0,-3.8074254208779217,66.7128,C,31535091000000,
Raw,1732152651001,28153000000,,700044.191071678,-1416187840848000000,0.0,152.4814337173104,1090.9131545183907,0.0,0,8,0.0,17,393884,487,5.0,960.2517449229821,0.14999,16,0.0,0.0,1605374980,,,,0,6.338935792612265,3,6.0,20.0,0.0,0.0,57.929595586600016,66.7128,C,31535091000000,
Raw,1732152651001,28153000000,,700044.191071678,-1416187840848000000,0.0,152.4814337173104,1090.9131545183907,0.0,0,30,0.0,16431,351068925008119,797,17.118000030517578,888.5055954224923,0.14999,16,0.0,0.0,1575420030,,,,0,0.0,1,6.0,17.118000030517578,0.0,0.0,0.0,66.7128,C,31535091000000,
Status,1732152651000,26,0,1,17,1575420030,0.00,62.0,75.0,0,0,0,0.0
Status,1732152651000,26,1,1,19,1575420030,0.00,202.0,67.0,0,0,0,0.0
Status,1732152651000,26,2,1,22,1575420030,0.00,25.0,64.0,0,0,0,0.0
Status,1732152651000,26,3,1,14,1575420030,0.00,59.0,49.0,0,0,0,0.0
Status,1732152651000,26,4,1,13,1575420030,25.50,228.0,43.0,1,0,0,20.5
Status,1732152651000,26,5,1,30,1575420030,22.10,135.0,31.0,1,0,0,17.1
Status,1732152651000,26,6,1,15,1575420030,25.00,269.0,29.0,1,0,0,20.0
Status,1732152651000,26,7,1,24,1575420030,19.60,313.0,21.0,1,0,0,14.6
Status,1732152651000,26,8,1,6,1575420030,30.50,159.0,17.0,1,0,0,25.5
Status,1732152651000,26,9,1,2,1575420030,0.00,43.0,15.0,0,0,0,0.0
Status,1732152651000,26,10,1,12,1575420030,0.00,270.0,2.0,0,0,0,0.0
Status,1732152651000,26,11,1,21,1575420030,0.00,31.0,1.0,0,0,0,0.0
Status,1732152651000,26,12,3,20,1602000000,0.00,103.0,57.0,0,0,0,0.0
Status,1732152651000,26,13,3,11,1602000000,0.00,316.0,32.0,0,0,0,0.0
Status,1732152651000,26,14,3,9,1602000000,0.00,87.0,30.0,0,0,0,0.0
Status,1732152651000,26,15,3,19,1602000000,0.00,29.0,19.0,0,0,0,0.0
Status,1732152651000,26,16,3,8,1602000000,23.30,242.0,18.0,1,0,0,18.3
Status,1732152651000,26,17,6,21,1575420030,0.00,355.0,68.0,0,0,0,0.0
Status,1732152651000,26,18,6,19,1575420030,0.00,238.0,43.0,0,0,0,0.0
Status,1732152651000,26,19,6,13,1575420030,0.00,116.0,32.0,0,0,0,0.0
Status,1732152651000,26,20,6,27,1575420030,0.00,68.0,31.0,0,0,0,0.0
Status,1732152651000,26,21,6,4,1575420030,25.40,307.0,25.0,1,0,0,20.4
Status,1732152651000,26,22,6,15,1575420030,0.00,57.0,23.0,0,0,0,0.0
Status,1732152651000,26,23,6,29,1575420030,0.00,190.0,20.0,0,0,0,0.0
Status,1732152651000,26,24,6,26,1575420030,0.00,166.0,10.0,0,0,0,0.0
Status,1732152651000,26,25,6,6,1575420030,0.00,325.0,7.0,0,0,0,0.0
Fix,FLP,37.4256006000,-122.1581570000,5.400000095367432,0.012225708,5.1,,1732152652243,1.6,,31536091000000,15.082424,0,,,
Fix,GPS,37.4256033333,-122.1581616667,22.099999999999998,0.0,5.0,0.0,1732152652000,1.6,179.9,31536091000000,95.1,0,,,
Raw,1732152652001,29153000000,,699996.2412329933,-1416187840848000000,0.0,152.30572164338952,1093.0215278178828,0.0,0,6,0.0,16431,351069920586523,396,25.451000213623047,-329.20141038765314,0.14999,16,0.0,0.0,1575420030,,,,0,10.654215069004913,1,6.0,25.451000213623047,0.0,0.0,0.0,66.7128,C,31536091000000,
Raw,1732152652001,29153000000,,699996.2412329933,-1416187840848000000,0.0,152.30572164338952,1093.0215278178828,0.0,0,13,0.0,16431,351069928213036,487,20.461000442504883,767.9905589772914,0.14999,16,0.0,0.0,1575420030,,,,0,3.2946793631130253,1,6.0,20.461000442504883,0.0,0.0,0.0,66.7128,C,31536091000000,
Raw,1732152652001,29153000000,,699996.2412329933,-1416187840848000000,0.0,152.30572164338952,1093.0215278178828,0.0,0,24,0.0,16431,351069922745104,797,14.588000297546387,-287.6017547196615,0.14999,16,0.0,0.0,1575420030,,,,0,0.0,1,6.0,14.588000297546387,0.0,0.0,0.0,66.7128,C,31536091000000,
Raw,1732152652001,29153000000,,699996.2412329933,-1416187840848000000,0.0,152.30572164338952,1093.0215278178828,0.0,0,15,0.0,16431,351069924703395,396,19.976999282836914,580.4322648085706,0.14999,16,0.0,0.0,1575420030,,,,0,2.2197727025998084,1,6.0,19.976999282836914,0.0,0.0,0.0,66.7128,C,31536091000000,
Raw,1732152652001,29153000000,,699996.2412329933,-1416187840848000000,0.0,152.30572164338952,1093.0215278178828,0.0,0,4,0.0,16431,351069912425678,487,20.440000534057617,126.22916611780803,0.14999,16,0.0,0.0,1575420030,,,,0,6.031438561273179,6,6.0,20.440000534057617,0.0,0.0,-3.479046541234157,66.7128,C,31536091000000,
Raw,1732152652001,29153000000,,699996.2412329933,-1416187840848000000,0.0,152.30572164338952,1093.0215278178828,0.0,0,8,0.0,17,390684,487,5.0,958.0678189876604,0.14999,16,0.0,0.0,1605374980,,,,0,1.4781748188863748,3,6.0,18.0,0.0,0.0,57.82112928815705,66.7128,C,31536091000000,
Raw,1732152652001,29153000000,,699996.2412329933,-1416187840848000000,0.0,152.30572164338952,1093.0215278178828,0.0,0,30,0.0,16431,351069925005155,797,17.118000030517578,889.0158017493164,0.14999,16,0.0,0.0,1575420030,,,,0,0.0,1,6.0,17.118000030517578,0.0,0.0,0.0,66.7128,C,31536091000000,
Status,1732152652000,26,0,1,17,1575420030,0.00,62.0,75.0,0,0,0,0.0
Status,1732152652000,26,1,1,19,1575420030,0.00,202.0,67.0,0,0,0,0.0
Status,1732152652000,26,2,1,22,1575420030,0.00,25.0,64.0,0,0,0,0.0
Status,1732152652000,26,3,1,14,1575420030,0.00,59.0,49.0,0,0,0,0.0
Status,1732152652000,26,4,1,13,1575420030,25.50,228.0,43.0,1,0,0,20.5
Status,1732152652000,26,5,1,30,1575420030,22.10,135.0,31.0,1,0,0,17.1
Status,1732152652000,26,6,1,15,1575420030,28.80,269.0,29.0,1,0,0,23.8
Status,1732152652000,26,7,1,24,1575420030,19.70,313.0,21.0,1,0,0,14.700001
Status,1732152652000,26,8,1,6,1575420030,28.20,159.0,17.0,1,0,0,23.2
Status,1732152652000,26,9,1,2,1575420030,0.00,43.0,15.0,0,0,0,0.0
Status,1732152652000,26,10,1,12,1575420030,0.00,270.0,2.0,0,0,0,0.0
Status,1732152652000,26,11,1,21,1575420030,0.00,31.0,1.0,0,0,0,0.0
Status,1732152652000,26,12,3,20,1602000000,0.00,103.0,57.0,0,0,0,0.0
Status,1732152652000,26,13,3,11,1602000000,0.00,316.0,32.0,0,0,0,0.0
Status,1732152652000,26,14,3,9,1602000000,0.00,87.0,30.0,0,0,0,0.0
Status,1732152652000,26,15,3,19,1602000000,0.00,29.0,19.0,0,0,0,0.0
Status,1732152652000,26,16,3,8,1602000000,27.40,242.0,18.0,1,0,0,22.4
Status,1732152652000,26,17,6,21,1575420030,0.00,355.0,68.0,0,0,0,0.0
Status,1732152652000,26,18,6,19,1575420030,0.00,238.0,43.0,0,0,0,0.0
Status,1732152652000,26,19,6,13,1575420030,0.00,116.0,32.0,0,0,0,0.0
Status,1732152652000,26,20,6,27,1575420030,0.00,68.0,31.0,0,0,0,0.0
Status,1732152652000,26,21,6,4,1575420030,25.40,307.0,25.0,1,0,0,20.4
Status,1732152652000,26,22,6,15,1575420030,0.00,57.0,23.0,0,0,0,0.0
Status,1732152652000,26,23,6,29,1575420030,0.00,190.0,20.0,0,0,0,0.0
Status,1732152652000,26,24,6,26,1575420030,0.00,166.0,10.0,0,0,0,0.0
Status,1732152652000,26,25,6,6,1575420030,0.00,325.0,7.0,0,0,0,0.0
Fix,GPS,37.4256050000,-122.1581650000,22.099999999999998,0.0,4.9,0.0,1732152653000,1.6,179.9,31537091000000,84.3,0,,,
Fix,FLP,37.4256027000,-122.1581608000,5.400000095367432,0.0061738463,5.057,,1732152653244,1.6,,31537091000000,15.450207,0,,,
Raw,1732152653001,30153000000,,699939.0141429108,-1416187840848000000,0.0,141.1462807850275,1095.3275546095372,0.0,0,6,0.0,16431,351070920587628,396,23.19300079345703,-328.26866476539413,0.14999,16,0.0,0.0,1575420030,,,,0,7.394295849694243,1,6.0,23.19300079345703,0.0,0.0,0.0,66.7128,C,31537091000000,
Raw,1732152653001,30153000000,,699939.0141429108,-1416187840848000000,0.0,141.1462807850275,1095.3275546095372,0.0,0,13,0.0,16431,351070928210473,396,20.468000411987305,768.3586490089274,0.14999,16,0.0,0.0,1575420030,,,,0,3.2946793631130253,1,6.0,20.468000411987305,0.0,0.0,0.0,66.7128,C,31537091000000,
Raw,1732152653001,30153000000,,699939.0141429108,-1416187840848000000,0.0,141.1462807850275,1095.3275546095372,0.0,0,24,0.0,16431,351070922746062,316,14.6899995803833,-287.21336236014145,0.14999,16,0.0,0.0,1575420030,,,,0,0.0,1,6.0,14.6899995803833,0.0,0.0,0.0,66.7128,C,31537091000000,
Raw,1732152653001,30153000000,,699939.0141429108,-1416187840848000000,0.0,141.1462807850275,1095.3275546095372,0.0,0,15,0.0,16431,351070924701459,316,23.83099937438965,580.6549864558839,0.14999,16,0.0,0.0,1575420030,,,,0,8.369437243709786,1,6.0,23.83099937438965,0.0,0.0,0.0,66.7128,C,31537091000000,
Raw,1732152653001,30153000000,,699939.0141429108,-1416187840848000000,0.0,141.1462807850275,1095.3275546095372,0.0,0,4,0.0,16431,351070912425260,396,20.402999877929688,127.14061055623448,0.14999,16,0.0,0.0,1575420030,,,,0,3.742504807842275,6,6.0,20.402999877929688,0.0,0.0,-3.9835821767268436,66.7128,C,31537091000000,
Raw,1732152653001,30153000000,,699939.0141429108,-1416187840848000000,0.0,141.1462807850275,1095.3275546095372,0.0,0,8,0.0,17,387482,396,5.0,958.8177998159357,0.14999,16,0.0,0.0,1605374980,,,,0,7.766053963325629,3,6.0,22.0,0.0,0.0,56.06421867116693,66.7128,C,31537091000000,
Raw,1732152653001,30153000000,,699939.0141429108,-1416187840848000000,0.0,141.1462807850275,1095.3275546095372,0.0,0,30,0.0,16431,351070925002199,797,17.06800079345703,889.2201258638104,0.14999,16,0.0,0.0,1575420030,,,,0,0.0,1,6.0,17.06800079345703,0.0,0.0,0.0,66.7128,C,31537091000000,
Status,1732152653000,26,0,1,17,1575420030,0.00,62.0,75.0,0,0,0,0.0
Status,1732152653000,26,1,1,19,1575420030,0.00,202.0,67.0,0,0,0,0.0
Status,1732152653000,26,2,1,22,1575420030,0.00,25.0,64.0,0,0,0,0.0
Status,1732152653000,26,3,1,14,1575420030,0.00,59.0,49.0,0,0,0,0.0
Status,1732152653000,26,4,1,13,1575420030,29.40,228.0,43.0,1,0,0,24.4
Status,1732152653000,26,5,1,30,1575420030,22.00,135.0,31.0,1,0,0,17.0
Status,1732152653000,26,6,1,15,1575420030,29.90,269.0,29.0,1,0,0,24.9
Status,1732152653000,26,7,1,24,1575420030,30.20,313.0,21.0,1,0,0,25.2
Status,1732152653000,26,8,1,6,1575420030,28.20,159.0,17.0,1,0,0,23.2
Status,1732152653000,26,9,1,2,1575420030,0.00,43.0,15.0,0,0,0,0.0
Status,1732152653000,26,10,1,12,1575420030,0.00,270.0,2.0,0,0,0,0.0
Status,1732152653000,26,11,1,21,1575420030,0.00,31.0,1.0,0,0,0,0.0
Status,1732152653000,26,12,3,20,1602000000,0.00,103.0,57.0,0,0,0,0.0
Status,1732152653000,26,13,3,11,1602000000,0.00,316.0,32.0,0,0,0,0.0
Status,1732152653000,26,14,3,9,1602000000,0.00,87.0,30.0,0,0,0,0.0
Status,1732152653000,26,15,3,19,1602000000,0.00,29.0,19.0,0,0,0,0.0
Status,1732152653000,26,16,3,8,1602000000,28.10,242.0,18.0,1,0,0,23.1
Status,1732152653000,26,17,6,21,1575420030,0.00,355.0,68.0,0,0,0,0.0
Status,1732152653000,26,18,6,19,1575420030,0.00,238.0,43.0,0,0,0,0.0
Status,1732152653000,26,19,6,13,1575420030,0.00,116.0,32.0,0,0,0,0.0
Status,1732152653000,26,20,6,27,1575420030,0.00,68.0,31.0,0,0,0,0.0
Status,1732152653000,26,21,6,4,1575420030,28.70,307.0,25.0,1,0,0,23.7
Status,1732152653000,26,22,6,15,1575420030,0.00,57.0,23.0,0,0,0,0.0
Status,1732152653000,26,23,6,29,1575420030,0.00,190.0,20.0,0,0,0,0.0
Status,1732152653000,26,24,6,26,1575420030,0.00,166.0,10.0,0,0,0,0.0
Status,1732152653000,26,25,6,6,1575420030,0.00,325.0,7.0,0,0,0,0.0
Fix,GPS,37.4256000000,-122.1581783333,22.099999999999998,0.0,4.9,0.0,1732152654000,2.4,160.0,31538091000000,83.7,0,,,
Fix,FLP,37.4256013000,-122.1581692000,5.400000095367432,0.009284617,5.028,,1732152654243,2.4,,31538091000000,14.695791,0,,,
Raw,1732152654001,31153000000,,699897.0059146718,-1416187840848000000,0.0,140.59248681868786,1096.907505880673,0.0,0,6,0.0,16431,351071920588723,797,23.19300079345703,-328.4197475349108,0.14999,16,0.0,0.0,1575420030,,,,0,7.394295849694243,1,6.0,23.19300079345703,0.0,0.0,0.0,66.7128,C,31538091000000,
Raw,1732152654001,31153000000,,699897.0059146718,-1416187840848000000,0.0,140.59248681868786,1096.907505880673,0.0,0,13,0.0,16431,351071928207920,487,24.358999252319336,768.9807272019865,0.14999,16,0.0,0.0,1575420030,,,,0,9.10597060282935,1,6.0,24.358999252319336,0.0,0.0,0.0,66.7128,C,31538091000000,
Raw,1732152654001,31153000000,,699897.0059146718,-1416187840848000000,0.0,140.59248681868786,1096.907505880673,0.0,0,24,0.0,16431,351071922747016,396,25.239999771118164,-286.89730575466115,0.14999,16,0.0,0.0,1575420030,,,,0,10.37400078014862,1,6.0,25.239999771118164,0.0,0.0,0.0,66.7128,C,31538091000000,
Raw,1732152654001,31153000000,,699897.0059146718,-1416187840848000000,0.0,140.59248681868786,1096.907505880673,0.0,0,15,0.0,16431,351071924699524,396,24.881999969482422,580.749250582375,0.14999,16,0.0,0.0,1575420030,,,,0,9.871544202470332,1,6.0,24.881999969482422,0.0,0.0,0.0,66.7128,C,31538091000000,
Raw,1732152654001,31153000000,,699897.0059146718,-1416187840848000000,0.0,140.59248681868786,1096.907505880673,0.0,0,4,0.0,16431,351071912424849,316,23.700000762939453,127.1733172812467,0.14999,16,0.0,0.0,1575420030,,,,0,9.474657869818156,6,6.0,23.700000762939453,0.0,0.0,-5.736040466321316,66.7128,C,31538091000000,
Raw,1732152654001,31153000000,,699897.0059146718,-1416187840848000000,0.0,140.59248681868786,1096.907505880673,0.0,0,8,0.0,17,384283,316,5.0,960.1357600459528,0.14999,16,0.0,0.0,1605374980,,,,0,8.601880030187104,3,6.0,24.0,0.0,0.0,52.843369084129094,66.7128,C,31538091000000,
Raw,1732152654001,31153000000,,699897.0059146718,-1416187840848000000,0.0,140.59248681868786,1096.907505880673,0.0,0,30,0.0,16431,351071924999232,797,17.020999908447266,890.0037864284498,0.14999,16,0.0,0.0,1575420030,,,,0,0.0,1,6.0,17.020999908447266,0.0,0.0,0.0,66.7128,C,31538091000000,
Fix,FLP,37.4256007000,-122.1581730000,5.400000095367432,0.010498991,4.983,,1732152654790,2.4,,31538638000000,13.099605,0,,,
Fix,NLP,37.4257222000,-122.1580895000,5.400000095367432,,48.9,,1732152654790,,,31538638000000,9.954048,0,,,
Status,1732152654000,26,0,1,17,1575420030,0.00,62.0,75.0,0,0,0,0.0
Status,1732152654000,26,1,1,19,1575420030,0.00,202.0,67.0,0,0,0,0.0
Status,1732152654000,26,2,1,22,1575420030,0.00,25.0,64.0,0,0,0,0.0
Status,1732152654000,26,3,1,14,1575420030,0.00,59.0,49.0,0,0,0,0.0
Status,1732152654000,26,4,1,13,1575420030,28.00,228.0,43.0,1,0,0,23.0
Status,1732152654000,26,5,1,30,1575420030,22.00,135.0,31.0,1,0,0,17.0
Status,1732152654000,26,6,1,15,1575420030,30.90,269.0,29.0,1,0,0,25.9
Status,1732152654000,26,7,1,24,1575420030,28.70,313.0,21.0,1,0,0,23.7
Status,1732152654000,26,8,1,6,1575420030,28.20,159.0,17.0,1,0,0,23.2
Status,1732152654000,26,9,1,2,1575420030,0.00,43.0,15.0,0,0,0,0.0
Status,1732152654000,26,10,1,12,1575420030,0.00,270.0,2.0,0,0,0,0.0
Status,1732152654000,26,11,1,21,1575420030,0.00,31.0,1.0,0,0,0,0.0
Status,1732152654000,26,12,3,20,1602000000,0.00,103.0,57.0,0,0,0,0.0
Status,1732152654000,26,13,3,11,1602000000,0.00,316.0,32.0,0,0,0,0.0
Status,1732152654000,26,14,3,9,1602000000,0.00,87.0,30.0,0,0,0,0.0
Status,1732152654000,26,15,3,19,1602000000,0.00,29.0,19.0,0,0,0,0.0
Status,1732152654000,26,16,3,8,1602000000,28.10,242.0,18.0,1,0,0,23.1
Status,1732152654000,26,17,6,21,1575420030,0.00,355.0,68.0,0,0,0,0.0
Status,1732152654000,26,18,6,19,1575420030,0.00,238.0,43.0,0,0,0,0.0
Status,1732152654000,26,19,6,13,1575420030,0.00,116.0,32.0,0,0,0,0.0
