# 
# Header Description:
# 
# Version: v3.1.0.3 Platform: 13 Manufacturer: samsung Model: SM-S135DL GNSS Hardware Model Name: MediaTek,MT6631,MTK_MNLD_default,MNL_VER_default
# 
# Raw,utcTimeMillis,TimeNanos,LeapSecond,TimeUncertaintyNanos,FullBiasNanos,BiasNanos,BiasUncertaintyNanos,DriftNanosPerSecond,DriftUncertaintyNanosPerSecond,HardwareClockDiscontinuityCount,Svid,TimeOffsetNanos,State,ReceivedSvTimeNanos,ReceivedSvTimeUncertaintyNanos,Cn0DbHz,PseudorangeRateMetersPerSecond,PseudorangeRateUncertaintyMetersPerSecond,AccumulatedDeltaRangeState,AccumulatedDeltaRangeMeters,AccumulatedDeltaRangeUncertaintyMeters,CarrierFrequencyHz,CarrierCycles,CarrierPhase,CarrierPhaseUncertainty,MultipathIndicator,SnrInDb,ConstellationType,AgcDb,BasebandCn0DbHz,FullInterSignalBiasNanos,FullInterSignalBiasUncertaintyNanos,SatelliteInterSignalBiasNanos,SatelliteInterSignalBiasUncertaintyNanos,CodeType,ChipsetElapsedRealtimeNanos,IsFullTracking
# 
# UncalAccel,utcTimeMillis,elapsedRealtimeNanos,UncalAccelXMps2,UncalAccelYMps2,UncalAccelZMps2,BiasXMps2,BiasYMps2,BiasZMps2
# 
# Accel,utcTimeMillis,elapsedRealtimeNanos,AccelXMps2,AccelYMps2,AccelZMps2
# 
# UncalGyro,utcTimeMillis,elapsedRealtimeNanos,UncalGyroXRadPerSec,UncalGyroYRadPerSec,UncalGyroZRadPerSec,DriftXRadPerSec,DriftYRadPerSec,DriftZRadPerSec
# 
# Gyro,utcTimeMillis,elapsedRealtimeNanos,GyroXRadPerSec,GyroYRadPerSec,GyroZRadPerSec
# 
# UncalMag,utcTimeMillis,elapsedRealtimeNanos,UncalMagXMicroT,UncalMagYMicroT,UncalMagZMicroT,BiasXMicroT,BiasYMicroT,BiasZMicroT
# 
# Mag,utcTimeMillis,elapsedRealtimeNanos,MagXMicroT,MagYMicroT,MagZMicroT
# 
# Pressure,utcTimeMillis,elapsedRealtimeNanos,PressureHpa
# 
# OrientationDeg,utcTimeMillis,elapsedRealtimeNanos,yawDeg,rollDeg,pitchDeg
# 
# Fix,Provider,LatitudeDegrees,LongitudeDegrees,AltitudeMeters,SpeedMps,AccuracyMeters,BearingDegrees,UnixTimeMillis,SpeedAccuracyMps,BearingAccuracyDegrees,elapsedRealtimeNanos,VerticalAccuracyMeters,MockLocation,NumberOfUsedSignals,VerticalSpeedAccuracyMps,SolutionType
# 
# Nav,Svid,Type,Status,MessageId,Sub-messageId,Data(Bytes)
# 
# Status,UnixTimeMillis,SignalCount,SignalIndex,ConstellationType,Svid,CarrierFrequencyHz,Cn0DbHz,AzimuthDegrees,ElevationDegrees,UsedInFix,HasAlmanacData,HasEphemerisData,BasebandCn0DbHz
# 
# Agc,utcTimeMillis,TimeNanos,LeapSecond,TimeUncertaintyNanos,FullBiasNanos,BiasNanos,BiasUncertaintyNanos,DriftNanosPerSecond,DriftUncertaintyNanosPerSecond,HardwareClockDiscontinuityCount,AgcDb,CarrierFrequencyHz,ConstellationType
# 
Fix,FLP,37.4248441000,-122.1586982000,3.556481848297354,0.20731825,9.93,180.0,1732150908241,2.1,179.9,29792089000000,11.416963,0,,,
Status,,27,0,1,17,1575420030,0.00,127.0,79.0,0,0,0,0.0
Status,,27,1,1,22,1575420030,0.00,355.0,68.0,0,0,0,0.0
Status,,27,2,1,14,1575420030,0.00,43.0,58.0,0,0,0,0.0
Status,,27,3,1,19,1575420030,0.00,198.0,52.0,0,0,0,0.0
Status,,27,4,1,13,1575420030,0.00,245.0,52.0,0,0,0,0.0
Status,,27,5,2,133,1575420030,0.00,191.0,45.0,0,0,0,0.0
Status,,27,6,1,30,1575420030,28.50,126.0,43.0,1,0,0,23.5
Status,,27,7,1,15,1575420030,18.90,284.0,31.0,1,0,0,13.9
Status,,27,8,1,2,1575420030,0.00,54.0,19.0,0,0,0,0.0
Status,,27,9,1,7,1575420030,0.00,128.0,10.0,0,0,0,0.0
Status,,27,10,1,24,1575420030,0.00,312.0,10.0,0,0,0,0.0
Status,,27,11,1,21,1575420030,0.00,39.0,8.0,0,0,0,0.0
Status,,27,12,1,6,1575420030,0.00,165.0,6.0,0,0,0,0.0
Status,,27,13,3,20,1602000000,0.00,125.0,46.0,0,0,0,0.0
Status,,27,14,3,9,1602000000,0.00,71.0,38.0,0,0,0,0.0
Status,,27,15,3,8,1602000000,0.00,254.0,29.0,0,0,0,0.0
Status,,27,16,3,19,1602000000,0.00,40.0,29.0,0,0,0,0.0
Status,,27,17,3,11,1602000000,30.70,303.0,23.0,0,0,0,25.7
Status,,27,18,6,21,1575420030,0.00,328.0,67.0,0,0,0,0.0
Status,,27,19,6,19,1575420030,0.00,251.0,50.0,0,0,0,0.0
Status,,27,20,6,27,1575420030,0.00,59.0,38.0,0,0,0,0.0
Status,,27,21,6,29,1575420030,25.70,193.0,31.0,1,0,0,20.7
Status,,27,22,6,13,1575420030,0.00,125.0,23.0,0,0,0,0.0
Status,,27,23,6,15,1575420030,0.00,68.0,23.0,0,0,0,0.0
Status,,27,24,6,4,1575420030,0.00,316.0,20.0,0,0,0,0.0
Status,,27,25,6,26,1575420030,0.00,170.0,1.0,0,0,0,0.0
Status,,27,26,6,34,1575420030,0.00,25.0,1.0,0,0,0,0.0
Fix,GPS,37.4248500000,-122.1586500000,-0.5,0.0,39.4,0.0,1732150909000,2.1,179.9,29793089000000,78.2,0,,,
Fix,FLP,37.4249240000,-122.1586531000,3.2338316760551047,0.60400796,9.915,0.00000000027602126,1732150909241,1.5,45.0,29793089000000,12.68575,0,,,
Status,1732150909000,27,0,1,17,1575420030,0.00,127.0,79.0,0,0,0,0.0
Status,1732150909000,27,1,1,22,1575420030,0.00,355.0,68.0,0,0,0,0.0
Status,1732150909000,27,2,1,14,1575420030,0.00,43.0,58.0,0,0,0,0.0
Status,1732150909000,27,3,1,19,1575420030,0.00,198.0,52.0,0,0,0,0.0
Status,1732150909000,27,4,1,13,1575420030,0.00,245.0,52.0,0,0,0,0.0
Status,1732150909000,27,5,2,133,1575420030,0.00,191.0,45.0,0,0,0,0.0
Status,1732150909000,27,6,1,30,1575420030,28.60,126.0,43.0,1,0,0,23.6
Status,1732150909000,27,7,1,15,1575420030,21.40,284.0,31.0,1,0,0,16.4
Status,1732150909000,27,8,1,2,1575420030,0.00,54.0,19.0,0,0,0,0.0
Status,1732150909000,27,9,1,7,1575420030,24.40,128.0,10.0,1,0,0,19.4
Status,1732150909000,27,10,1,24,1575420030,0.00,312.0,10.0,0,0,0,0.0
Status,1732150909000,27,11,1,21,1575420030,0.00,39.0,8.0,0,0,0,0.0
Status,1732150909000,27,12,1,6,1575420030,0.00,165.0,6.0,0,0,0,0.0
Status,1732150909000,27,13,3,20,1602000000,0.00,125.0,46.0,0,0,0,0.0
Status,1732150909000,27,14,3,9,1602000000,0.00,71.0,38.0,0,0,0,0.0
Status,1732150909000,27,15,3,8,1602000000,0.00,254.0,29.0,0,0,0,0.0
Status,1732150909000,27,16,3,19,1602000000,0.00,40.0,29.0,0,0,0,0.0
Status,1732150909000,27,17,3,11,1602000000,29.80,303.0,23.0,0,0,0,24.8
Status,1732150909000,27,18,6,21,1575420030,0.00,328.0,67.0,0,0,0,0.0
Status,1732150909000,27,19,6,19,1575420030,0.00,251.0,50.0,0,0,0,0.0
Status,1732150909000,27,20,6,27,1575420030,0.00,59.0,38.0,0,0,0,0.0
Status,1732150909000,27,21,6,29,1575420030,22.00,193.0,31.0,1,0,0,17.0
Status,1732150909000,27,22,6,13,1575420030,0.00,125.0,23.0,0,0,0,0.0
Status,1732150909000,27,23,6,15,1575420030,0.00,68.0,23.0,0,0,0,0.0
Status,1732150909000,27,24,6,4,1575420030,0.00,316.0,20.0,0,0,0,0.0
Status,1732150909000,27,25,6,26,1575420030,0.00,170.0,1.0,0,0,0,0.0
Status,1732150909000,27,26,6,34,1575420030,0.00,25.0,1.0,0,0,0,0.0
Fix,GPS,37.4248533333,-122.1586366667,-0.5,0.0,6.3,0.0,1732150910000,2.1,179.9,29794089000000,100.0,0,,,
Fix,FLP,37.4248896000,-122.1586459000,3.0597826170266025,0.093922965,9.399,,1732150910241,2.1,,29794089000000,11.912575,0,,,
Raw,1732150910000,15454000000,,705962.97322463,-1416186112546999808,0.0,255.48991083777636,1418.8730605668904,0.0,0,15,0.0,16431,349327925715178,797,16.44499969482422,472.15576894571166,0.14999,16,0.0,0.0,1575420030,,,,0,0.0,1,6.0,16.44499969482422,0.0,0.0,0.0,66.7128,C,29794089000000,
Raw,1732150910000,15454000000,,705962.97322463,-1416186112546999808,0.0,255.48991083777636,1418.8730605668904,0.0,0,29,0.0,16431,349327914545985,487,17.0,964.0912085930601,0.14999,16,0.0,0.0,1575420030,,,,0,0.0,6,6.0,17.0,0.0,0.0,-3.931414212334064,66.7128,C,29794089000000,
Raw,1732150910000,15454000000,,705962.97322463,-1416186112546999808,0.0,255.48991083777636,1418.8730605668904,0.0,0,30,0.0,16431,349327928041440,797,23.57900047302246,865.0053489170509,0.14999,16,0.0,0.0,1575420030,,,,0,10.168164379123292,1,6.0,23.57900047302246,0.0,0.0,0.0,66.7128,C,29794089000000,
Raw,1732150910000,15454000000,,705962.97322463,-1416186112546999808,0.0,255.48991083777636,1418.8730605668904,0.0,0,11,0.0,17,939429,316,25.0,-52.62392480072791,0.14999,16,0.0,0.0,1602000000,,,,0,10.826027849408241,3,6.0,25.0,0.0,0.0,48.25135048369075,66.7128,C,29794089000000,
Raw,1732150910000,15454000000,,705962.97322463,-1416186112546999808,0.0,255.48991083777636,1418.8730605668904,0.0,0,7,0.0,16431,349327919528542,797,19.39699935913086,1022.5445374513324,0.14999,16,0.0,0.0,1575420030,,,,0,1.2291686478936237,1,6.0,19.39699935913086,0.0,0.0,0.0,66.7128,C,29794089000000,
Status,1732150910000,27,0,1,17,1575420030,0.00,127.0,79.0,0,0,0,0.0
Status,1732150910000,27,1,1,22,1575420030,0.00,355.0,68.0,0,0,0,0.0
Status,1732150910000,27,2,1,14,1575420030,0.00,43.0,58.0,0,0,0,0.0
Status,1732150910000,27,3,1,19,1575420030,0.00,198.0,53.0,0,0,0,0.0
Status,1732150910000,27,4,1,13,1575420030,21.10,245.0,52.0,1,0,0,16.1
Status,1732150910000,27,5,2,133,1575420030,0.00,191.0,45.0,0,0,0,0.0
Status,1732150910000,27,6,1,30,1575420030,28.70,126.0,43.0,1,0,0,23.7
Status,1732150910000,27,7,1,15,1575420030,21.40,284.0,31.0,1,0,0,16.4
Status,1732150910000,27,8,1,2,1575420030,0.00,54.0,19.0,0,0,0,0.0
Status,1732150910000,27,9,1,7,1575420030,26.70,128.0,10.0,1,0,0,21.7
Status,1732150910000,27,10,1,24,1575420030,0.00,312.0,10.0,0,0,0,0.0
Status,1732150910000,27,11,1,21,1575420030,0.00,39.0,8.0,0,0,0,0.0
Status,1732150910000,27,12,1,6,1575420030,0.00,165.0,6.0,0,0,0,0.0
Status,1732150910000,27,13,3,20,1602000000,0.00,125.0,46.0,0,0,0,0.0
Status,1732150910000,27,14,3,9,1602000000,0.00,71.0,38.0,0,0,0,0.0
Status,1732150910000,27,15,3,8,1602000000,0.00,254.0,29.0,0,0,0,0.0
Status,1732150910000,27,16,3,19,1602000000,0.00,40.0,29.0,0,0,0,0.0
Status,1732150910000,27,17,3,11,1602000000,30.40,303.0,23.0,0,0,0,25.4
Status,1732150910000,27,18,6,21,1575420030,0.00,328.0,67.0,0,0,0,0.0
Status,1732150910000,27,19,6,19,1575420030,0.00,251.0,50.0,0,0,0,0.0
Status,1732150910000,27,20,6,27,1575420030,0.00,59.0,38.0,0,0,0,0.0
Status,1732150910000,27,21,6,29,1575420030,21.80,193.0,31.0,1,0,0,16.8
Status,1732150910000,27,22,6,13,1575420030,0.00,125.0,23.0,0,0,0,0.0
Status,1732150910000,27,23,6,15,1575420030,0.00,68.0,23.0,0,0,0,0.0
Status,1732150910000,27,24,6,4,1575420030,0.00,316.0,20.0,0,0,0,0.0
Status,1732150910000,27,25,6,26,1575420030,0.00,170.0,1.0,0,0,0,0.0
Status,1732150910000,27,26,6,34,1575420030,0.00,25.0,1.0,0,0,0,0.0
Fix,GPS,37.4248533333,-122.1586300000,-0.5,0.0,6.3,0.0,1732150911000,2.0,179.9,29795089000000,73.9,0,,,
Fix,FLP,37.4248732000,-122.1586395000,3.267927724014098,0.10163738,7.88,180.0,1732150911241,2.0,179.9,29795089000000,11.766922,0,,,
Raw,1732150911000,16454000000,,705961.8265980528,-1416186112546999808,0.0,132.69426154331876,1417.3827726030447,0.0,0,15,0.0,16431,349328925713603,797,16.44499969482422,471.93295438156593,0.14999,16,0.0,0.0,1575420030,,,,0,0.0,1,6.0,16.44499969482422,0.0,0.0,0.0,66.7128,C,29795089000000,
Raw,1732150911000,16454000000,,705961.8265980528,-1416186112546999808,0.0,132.69426154331876,1417.3827726030447,0.0,0,29,0.0,16431,349328914542779,487,16.799999237060547,963.1181835239465,0.14999,16,0.0,0.0,1575420030,,,,0,0.0,6,6.0,16.799999237060547,0.0,0.0,-3.931414212334064,66.7128,C,29795089000000,
Raw,1732150911000,16454000000,,705961.8265980528,-1416186112546999808,0.0,132.69426154331876,1417.3827726030447,0.0,0,30,0.0,16431,349328928038556,396,23.655000686645508,864.0434738678279,0.14999,16,0.0,0.0,1575420030,,,,0,10.168164379123292,1,6.0,23.655000686645508,0.0,0.0,0.0,66.7128,C,29795089000000,
Raw,1732150911000,16454000000,,705961.8265980528,-1416186112546999808,0.0,132.69426154331876,1417.3827726030447,0.0,0,11,0.0,17,939608,316,26.0,-52.81613248893351,0.14999,16,0.0,0.0,1602000000,,,,0,11.63085222497319,3,6.0,26.0,0.0,0.0,48.25135048369075,66.7128,C,29795089000000,
Raw,1732150911000,16454000000,,705961.8265980528,-1416186112546999808,0.0,132.69426154331876,1417.3827726030447,0.0,0,7,0.0,16431,349328919525168,396,21.72800064086914,1023.2416924449877,0.14999,16,0.0,0.0,1575420030,,,,0,5.112561700168521,1,6.0,21.72800064086914,0.0,0.0,0.0,66.7128,C,29795089000000,
Raw,1732150911000,16454000000,,705961.8265980528,-1416186112546999808,0.0,132.69426154331876,1417.3827726030447,0.0,0,13,0.0,16431,349328930379287,797,16.1299991607666,680.5314290005477,0.14999,16,0.0,0.0,1575420030,,,,0,0.0,1,6.0,16.1299991607666,0.0,0.0,0.0,66.7128,C,29795089000000,
Fix,FLP,37.4248659000,-122.1586364000,2.976321766379452,0.13950713,8.077,180.0,1732150911598,2.0,179.9,29795446000000,12.252423,0,,,
Fix,NLP,37.4257057000,-122.1580923000,5.400000095367432,,25.647,,1732150911598,,,29795446000000,27.992052,0,,,
Status,1732150911000,27,0,1,17,1575420030,0.00,127.0,79.0,0,0,0,0.0
Status,1732150911000,27,1,1,22,1575420030,0.00,355.0,68.0,0,0,0,0.0
Status,1732150911000,27,2,1,14,1575420030,0.00,43.0,58.0,0,0,0,0.0
Status,1732150911000,27,3,1,19,1575420030,0.00,198.0,53.0,0,0,0,0.0
Status,1732150911000,27,4,1,13,1575420030,21.10,245.0,52.0,1,0,0,16.1
Status,1732150911000,27,5,2,133,1575420030,0.00,191.0,45.0,0,0,0,0.0
Status,1732150911000,27,6,1,30,1575420030,24.30,126.0,43.0,1,0,0,19.3
Status,1732150911000,27,7,1,15,1575420030,21.40,284.0,31.0,1,0,0,16.4
Status,1732150911000,27,8,1,2,1575420030,0.00,54.0,19.0,0,0,0,0.0
Status,1732150911000,27,9,1,7,1575420030,32.10,128.0,10.0,1,0,0,27.099998
Status,1732150911000,27,10,1,24,1575420030,0.00,312.0,10.0,0,0,0,0.0
Status,1732150911000,27,11,1,21,1575420030,0.00,39.0,8.0,0,0,0,0.0
Status,1732150911000,27,12,1,6,1575420030,0.00,165.0,6.0,0,0,0,0.0
Status,1732150911000,27,13,3,20,1602000000,0.00,125.0,46.0,0,0,0,0.0
Status,1732150911000,27,14,3,9,1602000000,0.00,71.0,38.0,0,0,0,0.0
Status,1732150911000,27,15,3,8,1602000000,0.00,254.0,29.0,0,0,0,0.0
Status,1732150911000,27,16,3,19,1602000000,0.00,40.0,29.0,0,0,0,0.0
Status,1732150911000,27,17,3,11,1602000000,21.40,303.0,23.0,0,0,0,16.4
Status,1732150911000,27,18,6,21,1575420030,0.00,328.0,67.0,0,0,0,0.0
Status,1732150911000,27,19,6,19,1575420030,0.00,251.0,50.0,0,0,0,0.0
Status,1732150911000,27,20,6,27,1575420030,0.00,59.0,38.0,0,0,0,0.0
Status,1732150911000,27,21,6,29,1575420030,21.80,193.0,31.0,1,0,0,16.8
Status,1732150911000,27,22,6,13,1575420030,20.50,125.0,23.0,1,0,0,15.5
Status,1732150911000,27,23,6,15,1575420030,0.00,68.0,23.0,0,0,0,0.0
Status,1732150911000,27,24,6,4,1575420030,0.00,316.0,20.0,0,0,0,0.0
Status,1732150911000,27,25,6,26,1575420030,0.00,170.0,1.0,0,0,0,0.0
Status,1732150911000,27,26,6,34,1575420030,0.00,25.0,1.0,0,0,0,0.0
Fix,GPS,37.4248850000,-122.1585900000,-0.5,0.0,6.3,0.0,1732150912000,2.0,179.9,29796089000000,72.3,0,,,
Fix,FLP,37.4248724000,-122.1586215000,2.8928617397469223,0.02809492,7.823,,1732150912241,2.0,,29796089000000,12.259063,0,,,
Raw,1732150912000,17454000000,,996711.6150733852,-1416186112546999808,0.0,127.13284525044995,1414.338258789856,0.0,0,15,0.0,16431,349329925712030,1797,16.44499969482422,471.3565448116418,0.14999,16,0.0,0.0,1575420030,,,,0,0.0,1,6.0,16.44499969482422,0.0,0.0,0.0,66.7128,C,29796089000000,
Raw,1732150912000,17454000000,,996711.6150733852,-1416186112546999808,0.0,127.13284525044995,1414.338258789856,0.0,0,13,0.0,16431,349329912239279,396,15.5,-57.62808801112455,0.14999,16,0.0,0.0,1575420030,,,,0,0.0,6,6.0,15.5,0.0,0.0,-3.931414212334064,66.7128,C,29796089000000,
Raw,1732150912000,17454000000,,996711.6150733852,-1416186112546999808,0.0,127.13284525044995,1414.338258789856,0.0,0,29,0.0,16431,349329914539568,487,16.799999237060547,961.962669795958,0.14999,16,0.0,0.0,1575420030,,,,0,0.0,6,6.0,16.799999237060547,0.0,0.0,-3.931414212334064,66.7128,C,29796089000000,
Raw,1732150912000,17454000000,,996711.6150733852,-1416186112546999808,0.0,127.13284525044995,1414.338258789856,0.0,0,30,0.0,16431,349329928035648,487,19.274999618530273,863.4532661482892,0.14999,16,0.0,0.0,1575420030,,,,0,0.9928033243476406,1,6.0,19.274999618530273,0.0,0.0,0.0,66.7128,C,29796089000000,
Raw,1732150912000,17454000000,,996711.6150733852,-1416186112546999808,0.0,127.13284525044995,1414.338258789856,0.0,0,11,0.0,17,939786,797,17.0,-54.38499861807354,0.14999,16,0.0,0.0,1602000000,,,,0,0.0,3,6.0,17.0,0.0,0.0,48.25135048369075,66.7128,C,29796089000000,
Raw,1732150912000,17454000000,,996711.6150733852,-1416186112546999808,0.0,127.13284525044995,1414.338258789856,0.0,0,7,0.0,16431,349329919521811,316,27.059999465942383,1022.8438225685607,0.14999,16,0.0,0.0,1575420030,,,,0,12.837104457506275,1,6.0,27.059999465942383,0.0,0.0,0.0,66.7128,C,29796089000000,
Raw,1732150912000,17454000000,,996711.6150733852,-1416186112546999808,0.0,127.13284525044995,1414.338258789856,0.0,0,13,0.0,16431,349329930377018,797,16.1299991607666,679.6988941820549,0.14999,16,0.0,0.0,1575420030,,,,0,0.0,1,6.0,16.1299991607666,0.0,0.0,0.0,66.7128,C,29796089000000,
Status,1732150912000,26,0,1,17,1575420030,0.00,127.0,79.0,0,0,0,0.0
Status,1732150912000,26,1,1,22,1575420030,0.00,355.0,68.0,0,0,0,0.0
Status,1732150912000,26,2,1,14,1575420030,0.00,43.0,58.0,0,0,0,0.0
Status,1732150912000,26,3,1,19,1575420030,0.00,198.0,53.0,0,0,0,0.0
Status,1732150912000,26,4,1,13,1575420030,0.00,245.0,52.0,0,0,0,0.0
Status,1732150912000,26,5,1,30,1575420030,24.30,126.0,43.0,1,0,0,19.3
Status,1732150912000,26,6,1,15,1575420030,21.40,284.0,31.0,1,0,0,16.4
Status,1732150912000,26,7,1,2,1575420030,0.00,54.0,19.0,0,0,0,0.0
Status,1732150912000,26,8,1,7,1575420030,0.00,128.0,10.0,0,0,0,0.0
Status,1732150912000,26,9,1,24,1575420030,0.00,312.0,10.0,0,0,0,0.0
Status,1732150912000,26,10,1,21,1575420030,0.00,38.0,8.0,0,0,0,0.0
Status,1732150912000,26,11,1,6,1575420030,0.00,165.0,6.0,0,0,0,0.0
Status,1732150912000,26,12,3,20,1602000000,0.00,125.0,46.0,0,0,0,0.0
Status,1732150912000,26,13,3,9,1602000000,0.00,71.0,38.0,0,0,0,0.0
Status,1732150912000,26,14,3,8,1602000000,0.00,254.0,29.0,0,0,0,0.0
Status,1732150912000,26,15,3,19,1602000000,0.00,40.0,29.0,0,0,0,0.0
Status,1732150912000,26,16,3,11,1602000000,21.40,303.0,23.0,0,0,0,16.4
Status,1732150912000,26,17,6,21,1575420030,0.00,328.0,67.0,0,0,0,0.0
Status,1732150912000,26,18,6,19,1575420030,0.00,251.0,50.0,0,0,0,0.0
Status,1732150912000,26,19,6,27,1575420030,0.00,59.0,38.0,0,0,0,0.0
Status,1732150912000,26,20,6,29,1575420030,22.40,193.0,31.0,1,0,0,17.4
Status,1732150912000,26,21,6,13,1575420030,20.50,125.0,23.0,1,0,0,15.5
Status,1732150912000,26,22,6,15,1575420030,0.00,68.0,23.0,0,0,0,0.0
Status,1732150912000,26,23,6,4,1575420030,0.00,316.0,20.0,0,0,0,0.0
Status,1732150912000,26,24,6,26,1575420030,0.00,170.0,1.0,0,0,0,0.0
Status,1732150912000,26,25,6,34,1575420030,0.00,25.0,1.0,0,0,0,0.0
Fix,GPS,37.4248850000,-122.1585766667,-0.5,0.0,6.4,0.0,1732150913000,2.0,179.9,29797089000000,73.1,0,,,
Fix,FLP,37.4248773000,-122.1586059000,2.8928617397469223,0.03515801,7.823,,1732150913242,2.0,,29797089000000,13.564086,0,,,
Raw,1732150913000,18454000000,,705908.1957458716,-1416186112546999808,0.0,127.31080955386491,1411.7404707038884,0.0,0,15,0.0,16431,349330925710434,797,16.43899917602539,470.4319758706359,0.14999,16,0.0,0.0,1575420030,,,,0,0.0,1,6.0,16.43899917602539,0.0,0.0,0.0,66.7128,C,29797089000000,
Raw,1732150913000,18454000000,,705908.1957458716,-1416186112546999808,0.0,127.31080955386491,1411.7404707038884,0.0,0,13,0.0,16431,349330912239472,487,15.5,-58.3870326983399,0.14999,16,0.0,0.0,1575420030,,,,0,0.0,6,6.0,15.5,0.0,0.0,-3.931414212334064,66.7128,C,29797089000000,
Raw,1732150913000,18454000000,,705908.1957458716,-1416186112546999808,0.0,127.31080955386491,1411.7404707038884,0.0,0,29,0.0,16431,349330914536362,487,17.399999618530273,961.5601540779099,0.14999,16,0.0,0.0,1575420030,,,,0,0.0,6,6.0,17.399999618530273,0.0,0.0,-3.931414212334064,66.7128,C,29797089000000,
Raw,1732150913000,18454000000,,705908.1957458716,-1416186112546999808,0.0,127.31080955386491,1411.7404707038884,0.0,0,30,0.0,16431,349330928032770,797,19.274999618530273,862.2040922532203,0.14999,16,0.0,0.0,1575420030,,,,0,0.9928033243476406,1,6.0,19.274999618530273,0.0,0.0,0.0,66.7128,C,29797089000000,
Raw,1732150913000,18454000000,,705908.1957458716,-1416186112546999808,0.0,127.31080955386491,1411.7404707038884,0.0,0,11,0.0,17,939968,797,16.0,-55.05847937201667,0.14999,16,0.0,0.0,1602000000,,,,0,0.0,3,6.0,16.0,0.0,0.0,48.25135048369075,66.7128,C,29797089000000,
Status,1732150913000,26,0,1,17,1575420030,0.00,127.0,79.0,0,0,0,0.0
Status,1732150913000,26,1,1,22,1575420030,0.00,355.0,68.0,0,0,0,0.0
Status,1732150913000,26,2,1,14,1575420030,0.00,43.0,58.0,0,0,0,0.0
Status,1732150913000,26,3,1,19,1575420030,0.00,198.0,53.0,0,0,0,0.0
Status,1732150913000,26,4,1,13,1575420030,0.00,245.0,52.0,0,0,0,0.0
Status,1732150913000,26,5,1,30,1575420030,24.30,126.0,43.0,1,0,0,19.3
Status,1732150913000,26,6,1,15,1575420030,21.50,284.0,31.0,1,0,0,16.5
Status,1732150913000,26,7,1,2,1575420030,0.00,54.0,19.0,0,0,0,0.0
Status,1732150913000,26,8,1,7,1575420030,24.50,128.0,10.0,1,0,0,19.5
Status,1732150913000,26,9,1,24,1575420030,0.00,312.0,10.0,0,0,0,0.0
Status,1732150913000,26,10,1,21,1575420030,0.00,38.0,8.0,0,0,0,0.0
Status,1732150913000,26,11,1,6,1575420030,0.00,165.0,6.0,0,0,0,0.0
Status,1732150913000,26,12,3,20,1602000000,0.00,125.0,46.0,0,0,0,0.0
Status,1732150913000,26,13,3,9,1602000000,0.00,71.0,38.0,0,0,0,0.0
Status,1732150913000,26,14,3,8,1602000000,0.00,254.0,29.0,0,0,0,0.0
Status,1732150913000,26,15,3,19,1602000000,0.00,40.0,29.0,0,0,0,0.0
Status,1732150913000,26,16,3,11,1602000000,19.60,303.0,23.0,0,0,0,14.6
Status,1732150913000,26,17,6,21,1575420030,0.00,328.0,67.0,0,0,0,0.0
Status,1732150913000,26,18,6,19,1575420030,0.00,251.0,50.0,0,0,0,0.0
Status,1732150913000,26,19,6,27,1575420030,0.00,59.0,38.0,0,0,0,0.0
Status,1732150913000,26,20,6,29,1575420030,22.40,193.0,31.0,1,0,0,17.4
Status,1732150913000,26,21,6,13,1575420030,20.10,125.0,23.0,1,0,0,15.1
Status,1732150913000,26,22,6,15,1575420030,0.00,68.0,23.0,0,0,0,0.0
Status,1732150913000,26,23,6,4,1575420030,0.00,316.0,20.0,0,0,0,0.0
Status,1732150913000,26,24,6,26,1575420030,0.00,170.0,1.0,0,0,0,0.0
Status,1732150913000,26,25,6,34,1575420030,0.00,25.0,1.0,0,0,0,0.0
Fix,GPS,37.4249316667,-122.1585300000,-0.5,0.0,6.3,0.0,1732150914000,1.9,179.9,29798089000000,82.9,0,,,
Fix,FLP,37.4249009000,-122.1585778000,2.976321766379452,0.26585764,7.823,0.0000000064010064,1732150914241,1.9,179.9,29798089000000,11.72129,0,,,
Raw,1732150914000,19454000000,,705857.2229825741,-1416186112546999808,0.0,140.1814994716265,1405.9699385852564,0.0,0,15,0.0,16431,349331925708875,797,16.54400062561035,468.76946144654175,0.14999,16,0.0,0.0,1575420030,,,,0,0.0,1,6.0,16.54400062561035,0.0,0.0,0.0,66.7128,C,29798089000000,
Raw,1732150914000,19454000000,,705857.2229825741,-1416186112546999808,0.0,140.1814994716265,1405.9699385852564,0.0,0,13,0.0,16431,349331912239661,797,15.100000381469727,-60.60361019416089,0.14999,16,0.0,0.0,1575420030,,,,0,0.0,6,6.0,15.100000381469727,0.0,0.0,-3.931414212334064,66.7128,C,29798089000000,
Raw,1732150914000,19454000000,,705857.2229825741,-1416186112546999808,0.0,140.1814994716265,1405.9699385852564,0.0,0,29,0.0,16431,349331914533154,487,17.354999542236328,960.5486614401741,0.14999,16,0.0,0.0,1575420030,,,,0,0.0,6,6.0,17.354999542236328,0.0,0.0,-3.931414212334064,66.7128,C,29798089000000,
Raw,1732150914000,19454000000,,705857.2229825741,-1416186112546999808,0.0,140.1814994716265,1405.9699385852564,0.0,0,30,0.0,16431,349331928029896,487,19.274999618530273,861.0786835789362,0.14999,16,0.0,0.0,1575420030,,,,0,0.9928033243476406,1,6.0,19.274999618530273,0.0,0.0,0.0,66.7128,C,29798089000000,
Raw,1732150914000,19454000000,,705857.2229825741,-1416186112546999808,0.0,140.1814994716265,1405.9699385852564,0.0,0,11,0.0,17,940152,797,17.0,-56.235300297331584,0.14999,16,0.0,0.0,1602000000,,,,0,0.0,3,6.0,17.0,0.0,0.0,48.25135048369075,66.7128,C,29798089000000,
Raw,1732150914000,19454000000,,705857.2229825741,-1416186112546999808,0.0,140.1814994716265,1405.9699385852564,0.0,0,7,0.0,16431,349331919515080,487,19.457000732421875,1020.2294216547289,0.14999,16,0.0,0.0,1575420030,,,,0,1.3449822255115311,1,6.0,19.457000732421875,0.0,0.0,0.0,66.7128,C,29798089000000,
Status,1732150914000,26,0,1,17,1575420030,0.00,127.0,79.0,0,0,0,0.0
Status,1732150914000,26,1,1,22,1575420030,0.00,355.0,68.0,0,0,0,0.0
Status,1732150914000,26,2,1,14,1575420030,0.00,43.0,58.0,0,0,0,0.0
Status,1732150914000,26,3,1,19,1575420030,0.00,198.0,53.0,0,0,0,0.0
Status,1732150914000,26,4,1,13,1575420030,0.00,245.0,52.0,0,0,0,0.0
Status,1732150914000,26,5,1,30,1575420030,24.30,126.0,43.0,1,0,0,19.3
Status,1732150914000,26,6,1,15,1575420030,21.60,284.0,31.0,1,0,0,16.6
Status,1732150914000,26,7,1,2,1575420030,0.00,54.0,19.0,0,0,0,0.0
Status,1732150914000,26,8,1,7,1575420030,0.00,128.0,10.0,0,0,0,0.0
Status,1732150914000,26,9,1,24,1575420030,0.00,312.0,10.0,0,0,0,0.0
Status,1732150914000,26,10,1,21,1575420030,0.00,38.0,8.0,0,0,0,0.0
Status,1732150914000,26,11,1,6,1575420030,0.00,165.0,6.0,0,0,0,0.0
Status,1732150914000,26,12,3,20,1602000000,0.00,125.0,46.0,0,0,0,0.0
Status,1732150914000,26,13,3,9,1602000000,0.00,71.0,38.0,0,0,0,0.0
Status,1732150914000,26,14,3,8,1602000000,0.00,254.0,29.0,0,0,0,0.0
Status,1732150914000,26,15,3,19,1602000000,0.00,40.0,29.0,0,0,0,0.0
Status,1732150914000,26,16,3,11,1602000000,20.70,303.0,23.0,0,0,0,15.700001
Status,1732150914000,26,17,6,21,1575420030,0.00,328.0,67.0,0,0,0,0.0
Status,1732150914000,26,18,6,19,1575420030,0.00,251.0,50.0,0,0,0,0.0
Status,1732150914000,26,19,6,27,1575420030,0.00,59.0,38.0,0,0,0,0.0
Status,1732150914000,26,20,6,29,1575420030,22.30,193.0,31.0,1,0,0,17.3
Status,1732150914000,26,21,6,13,1575420030,0.00,125.0,23.0,0,0,0,0.0
Status,1732150914000,26,22,6,15,1575420030,0.00,68.0,23.0,0,0,0,0.0
Status,1732150914000,26,23,6,4,1575420030,0.00,316.0,20.0,0,0,0,0.0
Status,1732150914000,26,24,6,26,1575420030,0.00,170.0,1.0,0,0,0,0.0
Status,1732150914000,26,25,6,34,1575420030,0.00,25.0,1.0,0,0,0,0.0
Fix,GPS,37.4249250000,-122.1585266667,-0.5,0.0,39.5,0.0,1732150915000,1.9,179.9,29799089000000,83.8,0,,,
Fix,FLP,37.4249318000,-122.1585635000,3.1432442917037227,0.3937914,9.268,0.0000000001349573,1732150915241,1.5,45.0,29799089000000,13.067945,0,,,
Status,1732150915000,26,0,1,17,1575420030,0.00,127.0,79.0,0,0,0,0.0
Status,1732150915000,26,1,1,22,1575420030,0.00,355.0,68.0,0,0,0,0.0
Status,1732150915000,26,2,1,14,1575420030,0.00,43.0,58.0,0,0,0,0.0
Status,1732150915000,26,3,1,19,1575420030,0.00,198.0,53.0,0,0,0,0.0
Status,1732150915000,26,4,1,13,1575420030,0.00,245.0,52.0,0,0,0,0.0
Status,1732150915000,26,5,1,30,1575420030,24.20,126.0,43.0,1,0,0,19.2
Status,1732150915000,26,6,1,15,1575420030,21.70,284.0,31.0,1,0,0,16.7
Status,1732150915000,26,7,1,2,1575420030,0.00,54.0,19.0,0,0,0,0.0
Status,1732150915000,26,8,1,7,1575420030,22.20,128.0,10.0,1,0,0,17.2
Status,1732150915000,26,9,1,24,1575420030,0.00,312.0,10.0,0,0,0,0.0
Status,1732150915000,26,10,1,21,1575420030,0.00,38.0,8.0,0,0,0,0.0
Status,1732150915000,26,11,1,6,1575420030,0.00,165.0,6.0,0,0,0,0.0
Status,1732150915000,26,12,3,20,1602000000,0.00,125.0,46.0,0,0,0,0.0
Status,1732150915000,26,13,3,9,1602000000,0.00,71.0,38.0,0,0,0,0.0
Status,1732150915000,26,14,3,8,1602000000,0.00,254.0,29.0,0,0,0,0.0
Status,1732150915000,26,15,3,19,1602000000,0.00,40.0,29.0,0,0,0,0.0
Status,1732150915000,26,16,3,11,1602000000,24.90,303.0,23.0,0,0,0,19.9
Status,1732150915000,26,17,6,21,1575420030,0.00,328.0,67.0,0,0,0,0.0
Status,1732150915000,26,18,6,19,1575420030,0.00,251.0,50.0,0,0,0,0.0
Status,1732150915000,26,19,6,27,1575420030,0.00,59.0,38.0,0,0,0,0.0
Status,1732150915000,26,20,6,29,1575420030,0.00,193.0,31.0,0,0,0,0.0
Status,1732150915000,26,21,6,13,1575420030,0.00,125.0,23.0,0,0,0,0.0
Status,1732150915000,26,22,6,15,1575420030,0.00,68.0,23.0,0,0,0,0.0
Status,1732150915000,26,23,6,4,1575420030,0.00,316.0,20.0,0,0,0,0.0
Status,1732150915000,26,24,6,26,1575420030,0.00,170.0,1.0,0,0,0,0.0
Status,1732150915000,26,25,6,34,1575420030,0.00,25.0,1.0,0,0,0,0.0
Fix,GPS,37.4249266667,-122.1585266667,-0.5,0.0,40.0,0.0,1732150916000,2.0,179.9,29800089000000,82.9,0,,,
Fix,FLP,37.4249730000,-122.1585449000,5.400000095367432,0.4783994,12.226,0.0000000000066664426,1732150916241,1.5,45.0,29800089000000,11.872861,0,,,
Fix,FLP,37.4250160000,-122.1585234000,5.400000095367432,0.53225815,14.841,0.000000000006869998,1732150916446,1.5,45.0,29800294000000,12.435097,0,,,
Fix,NLP,37.4256897000,-122.1580965000,5.400000095367432,,23.206,,1732150916446,,,29800294000000,24.658024,0,,,
Status,1732150916000,26,0,1,17,1575420030,0.00,127.0,79.0,0,0,0,0.0
Status,1732150916000,26,1,1,22,1575420030,0.00,355.0,68.0,0,0,0,0.0
Status,1732150916000,26,2,1,14,1575420030,0.00,43.0,58.0,0,0,0,0.0
Status,1732150916000,26,3,1,19,1575420030,0.00,198.0,53.0,0,0,0,0.0
Status,1732150916000,26,4,1,13,1575420030,0.00,245.0,52.0,0,0,0,0.0
Status,1732150916000,26,5,1,30,1575420030,24.10,126.0,43.0,0,0,0,19.1
Status,1732150916000,26,6,1,15,1575420030,21.80,284.0,31.0,0,0,0,16.8
Status,1732150916000,26,7,1,2,1575420030,0.00,54.0,19.0,0,0,0,0.0
Status,1732150916000,26,8,1,7,1575420030,0.00,128.0,10.0,0,0,0,0.0
Status,1732150916000,26,9,1,24,1575420030,0.00,312.0,10.0,0,0,0,0.0
Status,1732150916000,26,10,1,21,1575420030,0.00,38.0,8.0,0,0,0,0.0
Status,1732150916000,26,11,1,6,1575420030,0.00,165.0,6.0,0,0,0,0.0
Status,1732150916000,26,12,3,20,1602000000,0.00,125.0,46.0,0,0,0,0.0
Status,1732150916000,26,13,3,9,1602000000,0.00,71.0,38.0,0,0,0,0.0
Status,1732150916000,26,14,3,8,1602000000,0.00,254.0,29.0,0,0,0,0.0
Status,1732150916000,26,15,3,19,1602000000,0.00,40.0,29.0,0,0,0,0.0
Status,1732150916000,26,16,3,11,1602000000,29.10,303.0,23.0,0,0,0,24.1
Status,1732150916000,26,17,6,21,1575420030,0.00,328.0,67.0,0,0,0,0.0
Status,1732150916000,26,18,6,19,1575420030,0.00,251.0,50.0,0,0,0,0.0
Status,1732150916000,26,19,6,27,1575420030,0.00,59.0,38.0,0,0,0,0.0
Status,1732150916000,26,20,6,29,1575420030,0.00,193.0,31.0,0,0,0,0.0
Status,1732150916000,26,21,6,13,1575420030,0.00,125.0,23.0,0,0,0,0.0
Status,1732150916000,26,22,6,15,1575420030,0.00,68.0,23.0,0,0,0,0.0
Status,1732150916000,26,23,6,4,1575420030,0.00,316.0,20.0,0,0,0,0.0
Status,1732150916000,26,24,6,26,1575420030,0.00,170.0,1.0,0,0,0,0.0
Status,1732150916000,26,25,6,34,1575420030,0.00,25.0,1.0,0,0,0,0.0
Status,,26,0,1,17,1575420030,0.00,127.0,79.0,0,0,0,0.0
Status,,26,1,1,22,1575420030,0.00,355.0,68.0,0,0,0,0.0
Status,,26,2,1,14,1575420030,0.00,43.0,58.0,0,0,0,0.0
Status,,26,3,1,19,1575420030,0.00,198.0,53.0,0,0,0,0.0
Status,,26,4,1,13,1575420030,0.00,245.0,52.0,0,0,0,0.0
Status,,26,5,1,30,1575420030,24.00,126.0,43.0,0,0,0,19.0
Status,,26,6,1,15,1575420030,26.20,284.0,31.0,0,0,0,21.2
Status,,26,7,1,2,1575420030,0.00,54.0,19.0,0,0,0,0.0
Status,,26,8,1,7,1575420030,0.00,128.0,10.0,0,0,0,0.0
Status,,26,9,1,24,1575420030,0.00,312.0,10.0,0,0,0,0.0
Status,,26,10,1,21,1575420030,0.00,38.0,8.0,0,0,0,0.0
Status,,26,11,1,6,1575420030,0.00,165.0,6.0,0,0,0,0.0
Status,,26,12,3,20,1602000000,0.00,125.0,46.0,0,0,0,0.0
Status,,26,13,3,9,1602000000,0.00,71.0,38.0,0,0,0,0.0
Status,,26,14,3,8,1602000000,0.00,254.0,29.0,0,0,0,0.0
Status,,26,15,3,19,1602000000,0.00,40.0,29.0,0,0,0,0.0
Status,,26,16,3,11,1602000000,31.70,303.0,23.0,0,0,0,26.7
Status,,26,17,6,21,1575420030,0.00,328.0,67.0,0,0,0,0.0
Status,,26,18,6,19,1575420030,0.00,251.0,50.0,0,0,0,0.0
Status,,26,19,6,27,1575420030,0.00,59.0,38.0,0,0,0,0.0
Status,,26,20,6,29,1575420030,20.80,193.0,31.0,0,0,0,15.799999
Status,,26,21,6,13,1575420030,0.00,125.0,23.0,0,0,0,0.0
Status,,26,22,6,15,1575420030,0.00,68.0,23.0,0,0,0,0.0
Status,,26,23,6,4,1575420030,0.00,316.0,20.0,0,0,0,0.0
Status,,26,24,6,26,1575420030,0.00,170.0,1.0,0,0,0,0.0
Status,,26,25,6,34,1575420030,0.00,25.0,1.0,0,0,0,0.0
Status,,26,0,1,17,1575420030,0.00,127.0,79.0,0,0,0,0.0
Status,,26,1,1,22,1575420030,0.00,355.0,68.0,0,0,0,0.0
Status,,26,2,1,14,1575420030,0.00,43.0,58.0,0,0,0,0.0
Status,,26,3,1,19,1575420030,0.00,198.0,53.0,0,0,0,0.0
Status,,26,4,1,13,1575420030,0.00,245.0,52.0,0,0,0,0.0
Status,,26,5,1,30,1575420030,21.20,126.0,43.0,0,0,0,16.2
Status,,26,6,1,15,1575420030,26.20,284.0,31.0,0,0,0,21.2
Status,,26,7,1,2,1575420030,0.00,54.0,19.0,0,0,0,0.0
Status,,26,8,1,7,1575420030,0.00,128.0,10.0,0,0,0,0.0
Status,,26,9,1,24,1575420030,0.00,312.0,10.0,0,0,0,0.0
Status,,26,10,1,21,1575420030,0.00,38.0,8.0,0,0,0,0.0
Status,,26,11,1,6,1575420030,0.00,165.0,6.0,0,0,0,0.0
Status,,26,12,3,20,1602000000,0.00,125.0,46.0,0,0,0,0.0
Status,,26,13,3,9,1602000000,0.00,71.0,38.0,0,0,0,0.0
Status,,26,14,3,8,1602000000,0.00,254.0,29.0,0,0,0,0.0
Status,,26,15,3,19,1602000000,0.00,40.0,29.0,0,0,0,0.0
Status,,26,16,3,11,1602000000,38.00,303.0,23.0,0,0,0,33.0
Status,,26,17,6,21,1575420030,0.00,328.0,67.0,0,0,0,0.0
Status,,26,18,6,19,1575420030,0.00,251.0,50.0,0,0,0,0.0
Status,,26,19,6,27,1575420030,0.00,59.0,38.0,0,0,0,0.0
Status,,26,20,6,29,1575420030,20.80,193.0,31.0,0,0,0,15.799999
Status,,26,21,6,13,1575420030,0.00,125.0,23.0,0,0,0,0.0
Status,,26,22,6,15,1575420030,0.00,68.0,23.0,0,0,0,0.0
Status,,26,23,6,4,1575420030,0.00,316.0,20.0,0,0,0,0.0
Status,,26,24,6,26,1575420030,0.00,170.0,1.0,0,0,0,0.0
Status,,26,25,6,34,1575420030,0.00,25.0,1.0,0,0,0,0.0
Status,,27,0,1,17,1575420030,0.00,127.0,79.0,0,0,0,0.0
Status,,27,1,1,22,1575420030,0.00,355.0,68.0,0,0,0,0.0
Status,,27,2,1,14,1575420030,0.00,43.0,58.0,0,0,0,0.0
Status,,27,3,1,19,1575420030,0.00,198.0,53.0,0,0,0,0.0
Status,,27,4,1,13,1575420030,0.00,245.0,52.0,0,0,0,0.0
Status,,27,5,2,135,1575420030,0.00,197.0,45.0,0,0,0,0.0
Status,,27,6,1,30,1575420030,21.20,126.0,43.0,1,0,0,16.2
Status,,27,7,1,15,1575420030,26.20,284.0,31.0,1,0,0,21.2
Status,,27,8,1,2,1575420030,0.00,54.0,19.0,0,0,0,0.0
Status,,27,9,1,7,1575420030,24.10,128.0,10.0,1,0,0,19.1
Status,,27,10,1,24,1575420030,0.00,312.0,10.0,0,0,0,0.0
Status,,27,11,1,21,1575420030,0.00,38.0,8.0,0,0,0,0.0
Status,,27,12,1,6,1575420030,0.00,165.0,6.0,0,0,0,0.0
Status,,27,13,3,20,1602000000,0.00,125.0,46.0,0,0,0,0.0
Status,,27,14,3,9,1602000000,0.00,71.0,38.0,0,0,0,0.0
Status,,27,15,3,8,1602000000,0.00,254.0,29.0,0,0,0,0.0
Status,,27,16,3,19,1602000000,0.00,40.0,29.0,0,0,0,0.0
Status,,27,17,3,11,1602000000,34.30,303.0,23.0,0,0,0,29.3
Status,,27,18,6,21,1575420030,0.00,328.0,67.0,0,0,0,0.0
Status,,27,19,6,19,1575420030,0.00,251.0,50.0,0,0,0,0.0
Status,,27,20,6,27,1575420030,0.00,59.0,38.0,0,0,0,0.0
Status,,27,21,6,29,1575420030,20.20,193.0,31.0,1,0,0,15.200001
Status,,27,22,6,13,1575420030,0.00,125.0,23.0,0,0,0,0.0
Status,,27,23,6,15,1575420030,0.00,68.0,23.0,0,0,0,0.0
Status,,27,24,6,4,1575420030,0.00,316.0,20.0,0,0,0,0.0
Status,,27,25,6,26,1575420030,0.00,170.0,1.0,0,0,0,0.0
Status,,27,26,6,34,1575420030,0.00,25.0,1.0,0,0,0,0.0
Fix,GPS,37.4249233333,-122.1585100000,-0.5,0.0,6.5,0.0,1732150920000,2.1,179.9,29804089000000,100.0,0,,,
Fix,FLP,37.4249537000,-122.1585152000,5.400000095367432,0.07615107,21.273,,1732150920242,2.1,,29804089000000,13.624182,0,,,
Raw,1732150920000,25454000000,,705760.4372755769,-1416186112546999808,0.0,188.65208669899332,1386.5198887770712,0.0,0,15,0.0,16431,349337925699505,487,21.17799949645996,465.1474704019358,0.14999,16,0.0,0.0,1575420030,,,,0,3.0144650742567314,1,6.0,21.17799949645996,0.0,0.0,0.0,66.7128,C,29804089000000,
Raw,1732150920000,25454000000,,705760.4372755769,-1416186112546999808,0.0,188.65208669899332,1386.5198887770712,0.0,0,7,0.0,16431,349337919494662,487,19.148000717163086,1016.4008764916508,0.14999,16,0.0,0.0,1575420030,,,,0,0.7498255327557404,1,6.0,19.148000717163086,0.0,0.0,0.0,66.7128,C,29804089000000,
Raw,1732150920000,25454000000,,705760.4372755769,-1416186112546999808,0.0,188.65208669899332,1386.5198887770712,0.0,0,29,0.0,16431,349337914513995,1797,15.199999809265137,956.4720283345317,0.14999,16,0.0,0.0,1575420030,,,,0,0.0,6,6.0,15.199999809265137,0.0,0.0,-3.931414212334064,66.7128,C,29804089000000,
Raw,1732150920000,25454000000,,705760.4372755769,-1416186112546999808,0.0,188.65208669899332,1386.5198887770712,0.0,0,30,0.0,16431,349337928012724,1797,16.23900032043457,856.181873593513,0.14999,16,0.0,0.0,1575420030,,,,0,0.0,1,6.0,16.23900032043457,0.0,0.0,0.0,66.7128,C,29804089000000,
Raw,1732150920000,25454000000,,705760.4372755769,-1416186112546999808,0.0,188.65208669899332,1386.5198887770712,0.0,0,11,0.0,17,941336,316,26.0,-60.689566129020854,0.14999,16,0.0,0.0,1602000000,,,,0,16.156157115292086,3,6.0,26.0,0.0,0.0,48.25135048369075,66.7128,C,29804089000000,
Status,1732150920000,27,0,1,17,1575420030,0.00,127.0,79.0,0,0,0,0.0
Status,1732150920000,27,1,1,22,1575420030,0.00,355.0,68.0,0,0,0,0.0
Status,1732150920000,27,2,1,14,1575420030,0.00,43.0,58.0,0,0,0,0.0
Status,1732150920000,27,3,1,19,1575420030,0.00,198.0,53.0,0,0,0,0.0
Status,1732150920000,27,4,1,13,1575420030,0.00,245.0,52.0,0,0,0,0.0
Status,1732150920000,27,5,2,135,1575420030,0.00,197.0,45.0,0,0,0,0.0
Status,1732150920000,27,6,1,30,1575420030,18.00,126.0,43.0,1,0,0,13.0
Status,1732150920000,27,7,1,15,1575420030,26.10,284.0,31.0,1,0,0,21.1
Status,1732150920000,27,8,1,2,1575420030,0.00,54.0,19.0,0,0,0,0.0
Status,1732150920000,27,9,1,7,1575420030,22.20,128.0,10.0,1,0,0,17.2
Status,1732150920000,27,10,1,24,1575420030,0.00,312.0,10.0,0,0,0,0.0
Status,1732150920000,27,11,1,21,1575420030,0.00,38.0,8.0,0,0,0,0.0
Status,1732150920000,27,12,1,6,1575420030,0.00,165.0,6.0,0,0,0,0.0
Status,1732150920000,27,13,3,20,1602000000,0.00,125.0,46.0,0,0,0,0.0
Status,1732150920000,27,14,3,9,1602000000,0.00,71.0,38.0,0,0,0,0.0
Status,1732150920000,27,15,3,8,1602000000,0.00,254.0,29.0,0,0,0,0.0
Status,1732150920000,27,16,3,19,1602000000,0.00,40.0,29.0,0,0,0,0.0
Status,1732150920000,27,17,3,11,1602000000,28.50,303.0,23.0,0,0,0,23.5
Status,1732150920000,27,18,6,21,1575420030,0.00,328.0,67.0,0,0,0,0.0
Status,1732150920000,27,19,6,19,1575420030,0.00,251.0,50.0,0,0,0,0.0
Status,1732150920000,27,20,6,27,1575420030,0.00,59.0,38.0,0,0,0,0.0
Status,1732150920000,27,21,6,29,1575420030,20.20,193.0,31.0,1,0,0,15.200001
Status,1732150920000,27,22,6,13,1575420030,0.00,125.0,23.0,0,0,0,0.0
Status,1732150920000,27,23,6,15,1575420030,0.00,68.0,23.0,0,0,0,0.0
Status,1732150920000,27,24,6,4,1575420030,0.00,316.0,20.0,0,0,0,0.0
Status,1732150920000,27,25,6,26,1575420030,0.00,170.0,1.0,0,0,0,0.0
Status,1732150920000,27,26,6,34,1575420030,0.00,25.0,1.0,0,0,0,0.0
Fix,GPS,37.4249350000,-122.1585033333,-0.5,0.0,6.6,0.0,1732150921000,2.1,179.9,29805089000000,100.0,0,,,
Fix,FLP,37.4249440000,-122.1585099000,5.400000095367432,0.12817915,16.178,180.0,1732150921241,2.1,179.9,29805089000000,13.599249,0,,,
Raw,1732150921000,26454000000,,705758.1961418123,-1416186112546999808,0.0,188.10277174272102,1385.7082986584164,0.0,0,15,0.0,16431,349338925697959,487,21.117000579833984,465.3423169995228,0.14999,16,0.0,0.0,1575420030,,,,0,2.2197727025998084,1,6.0,21.117000579833984,0.0,0.0,0.0,66.7128,C,29805089000000,
Raw,1732150921000,26454000000,,705758.1961418123,-1416186112546999808,0.0,188.10277174272102,1385.7082986584164,0.0,0,7,0.0,16431,349338919491227,797,17.209999084472656,1016.1443331173361,0.14999,16,0.0,0.0,1575420030,,,,0,0.0,1,6.0,17.209999084472656,0.0,0.0,0.0,66.7128,C,29805089000000,
Raw,1732150921000,26454000000,,705758.1961418123,-1416186112546999808,0.0,188.10277174272102,1385.7082986584164,0.0,0,29,0.0,16431,349338914510803,797,15.199999809265137,956.7815343033263,0.14999,16,0.0,0.0,1575420030,,,,0,0.0,6,6.0,15.199999809265137,0.0,0.0,-3.931414212334064,66.7128,C,29805089000000,
Raw,1732150921000,26454000000,,705758.1961418123,-1416186112546999808,0.0,188.10277174272102,1385.7082986584164,0.0,0,30,0.0,16431,349338928009870,1797,13.0,855.4163318111958,0.14999,16,0.0,0.0,1575420030,,,,0,0.0,1,6.0,13.0,0.0,0.0,0.0,66.7128,C,29805089000000,
Raw,1732150921000,26454000000,,705758.1961418123,-1416186112546999808,0.0,188.10277174272102,1385.7082986584164,0.0,0,11,0.0,17,941538,316,24.0,-61.0781847636481,0.14999,16,0.0,0.0,1602000000,,,,0,9.149994466146108,3,6.0,24.0,0.0,0.0,48.25135048369075,66.7128,C,29805089000000,
Fix,FLP,37.4249405000,-122.1585077000,5.400000095367432,0.11932873,6.566,180.0,1732150921587,2.1,179.9,29805435000000,10.902529,0,,,
Fix,NLP,37.4257187000,-122.1580900000,5.400000095367432,,48.9,,1732150921588,,,29805435000000,7.123377,0,,,
Status,1732150921000,27,0,1,17,1575420030,0.00,127.0,79.0,0,0,0,0.0
Status,1732150921000,27,1,1,22,1575420030,0.00,355.0,68.0,0,0,0,0.0
Status,1732150921000,27,2,1,14,1575420030,0.00,43.0,58.0,0,0,0,0.0
Status,1732150921000,27,3,1,19,1575420030,0.00,198.0,53.0,0,0,0,0.0
Status,1732150921000,27,4,1,13,1575420030,24.10,245.0,52.0,1,0,0,19.1
Status,1732150921000,27,5,2,135,1575420030,0.00,197.0,45.0,0,0,0,0.0
Status,1732150921000,27,6,1,30,1575420030,18.00,126.0,43.0,1,0,0,13.0
Status,1732150921000,27,7,1,15,1575420030,26.10,284.0,31.0,1,0,0,21.1
Status,1732150921000,27,8,1,2,1575420030,0.00,54.0,19.0,0,0,0,0.0
Status,1732150921000,27,9,1,7,1575420030,26.00,128.0,10.0,1,0,0,21.0
Status,1732150921000,27,10,1,24,1575420030,0.00,312.0,10.0,0,0,0,0.0
Status,1732150921000,27,11,1,21,1575420030,0.00,38.0,8.0,0,0,0,0.0
Status,1732150921000,27,12,1,6,1575420030,0.00,165.0,6.0,0,0,0,0.0
Status,1732150921000,27,13,3,20,1602000000,0.00,125.0,46.0,0,0,0,0.0
Status,1732150921000,27,14,3,9,1602000000,0.00,71.0,38.0,0,0,0,0.0
Status,1732150921000,27,15,3,8,1602000000,0.00,254.0,29.0,0,0,0,0.0
Status,1732150921000,27,16,3,19,1602000000,0.00,40.0,29.0,0,0,0,0.0
Status,1732150921000,27,17,3,11,1602000000,27.90,303.0,23.0,0,0,0,22.9
Status,1732150921000,27,18,6,21,1575420030,0.00,328.0,67.0,0,0,0,0.0
Status,1732150921000,27,19,6,19,1575420030,0.00,251.0,50.0,0,0,0,0.0
Status,1732150921000,27,20,6,27,1575420030,0.00,59.0,38.0,0,0,0,0.0
Status,1732150921000,27,21,6,29,1575420030,18.90,193.0,31.0,1,0,0,13.9
Status,1732150921000,27,22,6,13,1575420030,0.00,125.0,23.0,0,0,0,0.0
Status,1732150921000,27,23,6,15,1575420030,0.00,68.0,23.0,0,0,0,0.0
Status,1732150921000,27,24,6,4,1575420030,0.00,316.0,20.0,0,0,0,0.0
Status,1732150921000,27,25,6,26,1575420030,0.00,170.0,1.0,0,0,0,0.0
Status,1732150921000,27,26,6,34,1575420030,0.00,25.0,1.0,0,0,0,0.0
Fix,GPS,37.4249483333,-122.1584950000,-0.5,0.0,6.6,0.0,1732150922000,2.1,179.9,29806089000000,56.8,0,,,
Fix,FLP,37.4249430000,-122.1585036000,5.400000095367432,0.05335202,6.575,,1732150922241,2.1,,29806089000000,11.335813,0,,,
Raw,1732150922000,27454000000,,705755.9550080476,-1416186112546999808,0.0,91.73164675251184,1383.8965739382586,0.0,0,15,0.0,16431,349339925696418,487,21.106000900268555,465.06407754483786,0.14999,16,0.0,0.0,1575420030,,,,0,3.8293644280579193,1,6.0,21.106000900268555,0.0,0.0,0.0,66.7128,C,29806089000000,
Raw,1732150922000,27454000000,,705755.9550080476,-1416186112546999808,0.0,91.73164675251184,1383.8965739382586,0.0,0,7,0.0,16431,349339919487852,487,20.957000732421875,1013.6092831783919,0.14999,16,0.0,0.0,1575420030,,,,0,3.9153640379124006,1,6.0,20.957000732421875,0.0,0.0,0.0,66.7128,C,29806089000000,
Raw,1732150922000,27454000000,,705755.9550080476,-1416186112546999808,0.0,91.73164675251184,1383.8965739382586,0.0,0,29,0.0,16431,349339914507681,797,13.899999618530273,956.1386427398049,0.14999,16,0.0,0.0,1575420030,,,,0,0.0,6,6.0,13.899999618530273,0.0,0.0,-3.931414212334064,66.7128,C,29806089000000,
Raw,1732150922000,27454000000,,705755.9550080476,-1416186112546999808,0.0,91.73164675251184,1383.8965739382586,0.0,0,30,0.0,16431,349339928007015,1797,13.0,855.418375981509,0.14999,16,0.0,0.0,1575420030,,,,0,0.0,1,6.0,13.0,0.0,0.0,0.0,66.7128,C,29806089000000,
Raw,1732150922000,27454000000,,705755.9550080476,-1416186112546999808,0.0,91.73164675251184,1383.8965739382586,0.0,0,11,0.0,17,941738,396,22.0,-62.10304876693501,0.14999,16,0.0,0.0,1602000000,,,,0,8.375840406283636,3,6.0,22.0,0.0,0.0,48.25135048369075,66.7128,C,29806089000000,
Raw,1732150922000,27454000000,,705755.9550080476,-1416186112546999808,0.0,91.73164675251184,1383.8965739382586,0.0,0,13,0.0,16431,349339930354299,487,19.08300018310547,672.0035685793575,0.14999,16,0.0,0.0,1575420030,,,,0,0.6257392847300434,1,6.0,19.08300018310547,0.0,0.0,0.0,66.7128,C,29806089000000,
Status,1732150922000,27,0,1,17,1575420030,0.00,127.0,79.0,0,0,0,0.0
Status,1732150922000,27,1,1,22,1575420030,0.00,355.0,68.0,0,0,0,0.0
Status,1732150922000,27,2,1,14,1575420030,0.00,43.0,58.0,0,0,0,0.0
Status,1732150922000,27,3,1,19,1575420030,0.00,198.0,53.0,0,0,0,0.0
Status,1732150922000,27,4,1,13,1575420030,24.00,245.0,52.0,1,0,0,19.0
Status,1732150922000,27,5,2,135,1575420030,0.00,197.0,45.0,0,0,0,0.0
Status,1732150922000,27,6,1,30,1575420030,18.00,126.0,43.0,1,0,0,13.0
Status,1732150922000,27,7,1,15,1575420030,25.50,284.0,31.0,1,0,0,20.5
Status,1732150922000,27,8,1,2,1575420030,0.00,54.0,19.0,0,0,0,0.0
Status,1732150922000,27,9,1,7,1575420030,23.40,128.0,10.0,1,0,0,18.4
Status,1732150922000,27,10,1,24,1575420030,0.00,312.0,10.0,0,0,0,0.0
Status,1732150922000,27,11,1,21,1575420030,26.60,38.0,8.0,1,0,0,21.6
Status,1732150922000,27,12,1,6,1575420030,0.00,165.0,6.0,0,0,0,0.0
Status,1732150922000,27,13,3,20,1602000000,0.00,125.0,46.0,0,0,0,0.0
Status,1732150922000,27,14,3,9,1602000000,0.00,71.0,38.0,0,0,0,0.0
Status,1732150922000,27,15,3,8,1602000000,0.00,254.0,29.0,0,0,0,0.0
Status,1732150922000,27,16,3,19,1602000000,0.00,40.0,29.0,0,0,0,0.0
Status,1732150922000,27,17,3,11,1602000000,25.40,303.0,23.0,0,0,0,20.4
Status,1732150922000,27,18,6,21,1575420030,0.00,328.0,67.0,0,0,0,0.0
Status,1732150922000,27,19,6,19,1575420030,0.00,251.0,50.0,0,0,0,0.0
Status,1732150922000,27,20,6,27,1575420030,0.00,59.0,38.0,0,0,0,0.0
Status,1732150922000,27,21,6,29,1575420030,18.90,193.0,31.0,1,0,0,13.9
Status,1732150922000,27,22,6,13,1575420030,0.00,125.0,23.0,0,0,0,0.0
Status,1732150922000,27,23,6,15,1575420030,0.00,68.0,23.0,0,0,0,0.0
Status,1732150922000,27,24,6,4,1575420030,0.00,316.0,20.0,0,0,0,0.0
Status,1732150922000,27,25,6,26,1575420030,0.00,170.0,1.0,0,0,0,0.0
Status,1732150922000,27,26,6,34,1575420030,0.00,25.0,1.0,0,0,0,0.0
Fix,GPS,37.4247600000,-122.1586200000,-0.5,0.0,6.2,0.0,1732150923000,1.9,179.9,29807089000000,57.4,0,,,
Fix,FLP,37.4248639000,-122.1585474000,5.400000095367432,0.86561537,6.5,180.0,1732150923241,1.9,179.9,29807089000000,11.583957,0,,,
Raw,1732150923000,28454000000,,705739.537400237,-1416186112546999808,0.0,89.46651465554972,1381.844610762605,0.0,0,15,0.0,16431,349340925694873,487,20.459999084472656,463.69030217749224,0.14999,16,0.0,0.0,1575420030,,,,0,3.0144650742567314,1,6.0,20.459999084472656,0.0,0.0,0.0,66.7128,C,29807089000000,
Raw,1732150923000,28454000000,,705739.537400237,-1416186112546999808,0.0,89.46651465554972,1381.844610762605,0.0,0,7,0.0,16431,349340919484464,487,18.405000686645508,1013.5345780451254,0.14999,16,0.0,0.0,1575420030,,,,0,0.0,1,6.0,18.405000686645508,0.0,0.0,0.0,66.7128,C,29807089000000,
Raw,1732150923000,28454000000,,705739.537400237,-1416186112546999808,0.0,89.46651465554972,1381.844610762605,0.0,0,29,0.0,16431,349340914504493,797,13.899999618530273,955.0203886616173,0.14999,16,0.0,0.0,1575420030,,,,0,0.0,6,6.0,13.899999618530273,0.0,0.0,-3.931414212334064,66.7128,C,29807089000000,
Raw,1732150923000,28454000000,,705739.537400237,-1416186112546999808,0.0,89.46651465554972,1381.844610762605,0.0,0,30,0.0,16431,349340928004164,1797,13.0,854.6609179636124,0.14999,16,0.0,0.0,1575420030,,,,0,0.0,1,6.0,13.0,0.0,0.0,0.0,66.7128,C,29807089000000,
Raw,1732150923000,28454000000,,705739.537400237,-1416186112546999808,0.0,89.46651465554972,1381.844610762605,0.0,0,11,0.0,17,941943,396,21.0,-63.02703457303676,0.14999,16,0.0,0.0,1602000000,,,,0,4.780092313970736,3,6.0,21.0,0.0,0.0,48.25135048369075,66.7128,C,29807089000000,
Raw,1732150923000,28454000000,,705739.537400237,-1416186112546999808,0.0,89.46651465554972,1381.844610762605,0.0,0,21,0.0,16431,349340916973305,396,21.639999389648438,867.4020456925201,0.14999,16,0.0,0.0,1575420030,,,,0,4.962152926445903,1,6.0,21.639999389648438,0.0,0.0,0.0,66.7128,C,29807089000000,
Raw,1732150923000,28454000000,,705739.537400237,-1416186112546999808,0.0,89.46651465554972,1381.844610762605,0.0,0,13,0.0,16431,349340930352097,487,19.016000747680664,671.1037619741918,0.14999,16,0.0,0.0,1575420030,,,,0,0.4998546227762777,1,6.0,19.016000747680664,0.0,0.0,0.0,66.7128,C,29807089000000,
Status,1732150923000,27,0,1,17,1575420030,0.00,127.0,79.0,0,0,0,0.0
Status,1732150923000,27,1,1,22,1575420030,0.00,355.0,68.0,0,0,0,0.0
Status,1732150923000,27,2,1,14,1575420030,0.00,43.0,58.0,0,0,0,0.0
Status,1732150923000,27,3,1,19,1575420030,0.00,198.0,53.0,0,0,0,0.0
Status,1732150923000,27,4,1,13,1575420030,29.40,245.0,52.0,1,0,0,24.4
Status,1732150923000,27,5,2,135,1575420030,0.00,197.0,45.0,0,0,0,0.0
Status,1732150923000,27,6,1,30,1575420030,21.10,126.0,43.0,1,0,0,16.1
Status,1732150923000,27,7,1,15,1575420030,26.90,284.0,31.0,1,0,0,21.9
Status,1732150923000,27,8,1,2,1575420030,0.00,54.0,19.0,0,0,0,0.0
Status,1732150923000,27,9,1,7,1575420030,26.00,128.0,10.0,1,0,0,21.0
Status,1732150923000,27,10,1,24,1575420030,0.00,312.0,10.0,0,0,0,0.0
Status,1732150923000,27,11,1,21,1575420030,27.80,38.0,8.0,1,0,0,22.8
Status,1732150923000,27,12,1,6,1575420030,0.00,165.0,6.0,0,0,0,0.0
Status,1732150923000,27,13,3,20,1602000000,0.00,125.0,46.0,0,0,0,0.0
Status,1732150923000,27,14,3,9,1602000000,0.00,71.0,38.0,0,0,0,0.0
Status,1732150923000,27,15,3,8,1602000000,0.00,254.0,29.0,0,0,0,0.0
Status,1732150923000,27,16,3,19,1602000000,0.00,40.0,29.0,0,0,0,0.0
Status,1732150923000,27,17,3,11,1602000000,25.80,303.0,23.0,0,0,0,20.8
Status,1732150923000,27,18,6,21,1575420030,0.00,328.0,67.0,0,0,0,0.0
Status,1732150923000,27,19,6,19,1575420030,0.00,251.0,50.0,0,0,0,0.0
Status,1732150923000,27,20,6,27,1575420030,0.00,59.0,38.0,0,0,0,0.0
Status,1732150923000,27,21,6,29,1575420030,18.90,193.0,31.0,1,0,0,13.9
Status,1732150923000,27,22,6,13,1575420030,0.00,125.0,23.0,0,0,0,0.0
Status,1732150923000,27,23,6,15,1575420030,0.00,68.0,23.0,0,0,0,0.0
Status,1732150923000,27,24,6,4,1575420030,0.00,316.0,20.0,0,0,0,0.0
Status,1732150923000,27,25,6,26,1575420030,0.00,170.0,1.0,0,0,0,0.0
Status,1732150923000,27,26,6,34,1575420030,0.00,25.0,1.0,0,0,0,0.0
Fix,GPS,37.4248266667,-122.1585716667,-0.5,0.0,6.1,0.0,1732150924000,1.9,179.9,29808089000000,53.7,0,,,
Raw,1732150924000,29454000000,,705731.4588948064,-1416186112546999808,0.0,90.03882907402868,1379.040514786466,0.0,0,15,0.0,16431,349341925693332,487,21.854999542236328,462.2507416927925,0.14999,16,0.0,0.0,1575420030,,,,0,5.333401298610896,1,6.0,21.854999542236328,0.0,0.0,0.0,66.7128,C,29808089000000,
Raw,1732150924000,29454000000,,705731.4588948064,-1416186112546999808,0.0,90.03882907402868,1379.040514786466,0.0,0,7,0.0,16431,349341919481115,797,20.957000732421875,1012.7411612130818,0.14999,16,0.0,0.0,1575420030,,,,0,3.9153640379124006,1,6.0,20.957000732421875,0.0,0.0,0.0,66.7128,C,29808089000000,
Raw,1732150924000,29454000000,,705731.4588948064,-1416186112546999808,0.0,90.03882907402868,1379.040514786466,0.0,0,29,0.0,16431,349341914501310,797,13.899999618530273,953.6848021123967,0.14999,16,0.0,0.0,1575420030,,,,0,0.0,6,6.0,13.899999618530273,0.0,0.0,-3.931414212334064,66.7128,C,29808089000000,
Raw,1732150924000,29454000000,,705731.4588948064,-1416186112546999808,0.0,90.03882907402868,1379.040514786466,0.0,0,30,0.0,16431,349341928001307,797,16.1299991607666,853.4993646415165,0.14999,16,0.0,0.0,1575420030,,,,0,0.0,1,6.0,16.1299991607666,0.0,0.0,0.0,66.7128,C,29808089000000,
Raw,1732150924000,29454000000,,705731.4588948064,-1416186112546999808,0.0,90.03882907402868,1379.040514786466,0.0,0,11,0.0,17,942154,396,21.0,-63.59333224247065,0.14999,16,0.0,0.0,1602000000,,,,0,5.423785981398762,3,6.0,21.0,0.0,0.0,48.25135048369075,66.7128,C,29808089000000,
Raw,1732150924000,29454000000,,705731.4588948064,-1416186112546999808,0.0,90.03882907402868,1379.040514786466,0.0,0,21,0.0,16431,349341916970518,487,22.834999084472656,866.5564096006559,0.14999,16,0.0,0.0,1575420030,,,,0,6.8623404798183465,1,6.0,22.834999084472656,0.0,0.0,0.0,66.7128,C,29808089000000,
Raw,1732150924000,29454000000,,705731.4588948064,-1416186112546999808,0.0,90.03882907402868,1379.040514786466,0.0,0,13,0.0,16431,349341930349768,316,24.358999252319336,671.1402318309171,0.14999,16,0.0,0.0,1575420030,,,,0,9.10597060282935,1,6.0,24.358999252319336,0.0,0.0,0.0,66.7128,C,29808089000000,
Fix,FLP,37.4248444000,-122.1585568000,5.400000095367432,0.70183986,6.433,180.0,1732150924241,1.9,179.9,29808089000000,11.131411,0,,,
Status,1732150924000,27,0,1,17,1575420030,0.00,127.0,79.0,0,0,0,0.0
Status,1732150924000,27,1,1,22,1575420030,0.00,355.0,68.0,0,0,0,0.0
Status,1732150924000,27,2,1,14,1575420030,0.00,43.0,58.0,0,0,0,0.0
Status,1732150924000,27,3,1,19,1575420030,0.00,198.0,53.0,0,0,0,0.0
Status,1732150924000,27,4,1,13,1575420030,30.60,245.0,52.0,1,0,0,25.6
Status,1732150924000,27,5,2,135,1575420030,0.00,197.0,45.0,0,0,0,0.0
Status,1732150924000,27,6,1,30,1575420030,21.10,126.0,43.0,1,0,0,16.1
Status,1732150924000,27,7,1,15,1575420030,25.20,284.0,31.0,1,0,0,20.2
Status,1732150924000,27,8,1,2,1575420030,0.00,54.0,19.0,0,0,0,0.0
Status,1732150924000,27,9,1,7,1575420030,24.10,128.0,10.0,1,0,0,19.1
Status,1732150924000,27,10,1,24,1575420030,0.00,312.0,10.0,0,0,0,0.0
Status,1732150924000,27,11,1,21,1575420030,27.80,38.0,8.0,1,0,0,22.8
Status,1732150924000,27,12,1,6,1575420030,0.00,165.0,6.0,0,0,0,0.0
Status,1732150924000,27,13,3,20,1602000000,0.00,125.0,46.0,0,0,0,0.0
Status,1732150924000,27,14,3,9,1602000000,0.00,71.0,38.0,0,0,0,0.0
Status,1732150924000,27,15,3,8,1602000000,0.00,254.0,29.0,0,0,0,0.0
Status,1732150924000,27,16,3,19,1602000000,0.00,40.0,29.0,0,0,0,0.0
Status,1732150924000,27,17,3,11,1602000000,23.60,303.0,23.0,0,0,0,18.6
Status,1732150924000,27,18,6,21,1575420030,0.00,328.0,67.0,0,0,0,0.0
Status,1732150924000,27,19,6,19,1575420030,0.00,251.0,50.0,0,0,0,0.0
Status,1732150924000,27,20,6,27,1575420030,0.00,59.0,38.0,0,0,0,0.0
Status,1732150924000,27,21,6,29,1575420030,18.90,193.0,31.0,1,0,0,13.9
Status,1732150924000,27,22,6,13,1575420030,0.00,125.0,23.0,0,0,0,0.0
Status,1732150924000,27,23,6,15,1575420030,0.00,68.0,23.0,0,0,0,0.0
Status,1732150924000,27,24,6,4,1575420030,0.00,316.0,20.0,0,0,0,0.0
Status,1732150924000,27,25,6,26,1575420030,0.00,170.0,1.0,0,0,0,0.0
Status,1732150924000,27,26,6,34,1575420030,0.00,25.0,1.0,0,0,0,0.0
Fix,GPS,37.4248283333,-122.1585783333,-0.5,0.0,6.2,0.0,1732150925000,1.9,179.9,29809089000000,45.3,0,,,
Fix,FLP,37.4248350000,-122.1585650000,5.400000095367432,0.50243,6.4,180.0,1732150925242,1.9,179.9,29809089000000,12.992271,0,,,
Raw,1732150925000,30454000000,,705729.9474325001,-1416186112546999808,0.0,99.68276760984118,1379.5025469767509,0.0,0,15,0.0,16431,349342925691786,487,20.198999404907227,463.41127292973175,0.14999,16,0.0,0.0,1575420030,,,,0,2.626204253374032,1,6.0,20.198999404907227,0.0,0.0,0.0,66.7128,C,29809089000000,
Raw,1732150925000,30454000000,,705729.9474325001,-1416186112546999808,0.0,99.68276760984118,1379.5025469767509,0.0,0,7,0.0,16431,349342919477731,487,19.08300018310547,1013.6113273487052,0.14999,16,0.0,0.0,1575420030,,,,0,0.6257392847300434,1,6.0,19.08300018310547,0.0,0.0,0.0,66.7128,C,29809089000000,
Raw,1732150925000,30454000000,,705729.9474325001,-1416186112546999808,0.0,99.68276760984118,1379.5025469767509,0.0,0,29,0.0,16431,349342914498129,1797,13.899999618530273,953.600340711726,0.14999,16,0.0,0.0,1575420030,,,,0,0.0,6,6.0,13.899999618530273,0.0,0.0,-3.931414212334064,66.7128,C,29809089000000,
Raw,1732150925000,30454000000,,705729.9474325001,-1416186112546999808,0.0,99.68276760984118,1379.5025469767509,0.0,0,30,0.0,16431,349342927998460,1797,16.1299991607666,853.7540496791827,0.14999,16,0.0,0.0,1575420030,,,,0,0.0,1,6.0,16.1299991607666,0.0,0.0,0.0,66.7128,C,29809089000000,
Raw,1732150925000,30454000000,,705729.9474325001,-1416186112546999808,0.0,99.68276760984118,1379.5025469767509,0.0,0,11,0.0,17,942366,487,19.0,-62.82249123571884,0.14999,16,0.0,0.0,1602000000,,,,0,1.9019608002851363,3,6.0,19.0,0.0,0.0,48.25135048369075,66.7128,C,29809089000000,
Raw,1732150925000,30454000000,,705729.9474325001,-1416186112546999808,0.0,99.68276760984118,1379.5025469767509,0.0,0,21,0.0,16431,349342916967629,797,22.834999084472656,866.0669237274617,0.14999,16,0.0,0.0,1575420030,,,,0,6.8623404798183465,1,6.0,22.834999084472656,0.0,0.0,0.0,66.7128,C,29809089000000,
Raw,1732150925000,30454000000,,705729.9474325001,-1416186112546999808,0.0,99.68276760984118,1379.5025469767509,0.0,0,13,0.0,16431,349342930347656,316,25.631999969482422,671.6292995783655,0.14999,16,0.0,0.0,1575420030,,,,0,10.925671212790391,1,6.0,25.631999969482422,0.0,0.0,0.0,66.7128,C,29809089000000,
