# 
# Header Description:
# 
# Version: v3.1.0.3 Platform: 13 Manufacturer: samsung Model: SM-S135DL GNSS Hardware Model Name: MediaTek,MT6631,MTK_MNLD_default,MNL_VER_default
# 
# Raw,utcTimeMillis,TimeNanos,LeapSecond,TimeUncertaintyNanos,FullBiasNanos,BiasNanos,BiasUncertaintyNanos,DriftNanosPerSecond,DriftUncertaintyNanosPerSecond,HardwareClockDiscontinuityCount,Svid,TimeOffsetNanos,State,ReceivedSvTimeNanos,ReceivedSvTimeUncertaintyNanos,Cn0DbHz,PseudorangeRateMetersPerSecond,PseudorangeRateUncertaintyMetersPerSecond,AccumulatedDeltaRangeState,AccumulatedDeltaRangeMeters,AccumulatedDeltaRangeUncertaintyMeters,CarrierFrequencyHz,CarrierCycles,CarrierPhase,CarrierPhaseUncertainty,MultipathIndicator,SnrInDb,ConstellationType,AgcDb,BasebandCn0DbHz,FullInterSignalBiasNanos,FullInterSignalBiasUncertaintyNanos,SatelliteInterSignalBiasNanos,SatelliteInterSignalBiasUncertaintyNanos,CodeType,ChipsetElapsedRealtimeNanos,IsFullTracking
# 
# UncalAccel,utcTimeMillis,elapsedRealtimeNanos,UncalAccelXMps2,UncalAccelYMps2,UncalAccelZMps2,BiasXMps2,BiasYMps2,BiasZMps2
# 
# Accel,utcTimeMillis,elapsedRealtimeNanos,AccelXMps2,AccelYMps2,AccelZMps2
# 
# UncalGyro,utcTimeMillis,elapsedRealtimeNanos,UncalGyroXRadPerSec,UncalGyroYRadPerSec,UncalGyroZRadPerSec,DriftXRadPerSec,DriftYRadPerSec,DriftZRadPerSec
# 
# Gyro,utcTimeMillis,elapsedRealtimeNanos,GyroXRadPerSec,GyroYRadPerSec,GyroZRadPerSec
# 
# UncalMag,utcTimeMillis,elapsedRealtimeNanos,UncalMagXMicroT,UncalMagYMicroT,UncalMagZMicroT,BiasXMicroT,BiasYMicroT,BiasZMicroT
# 
# Mag,utcTimeMillis,elapsedRealtimeNanos,MagXMicroT,MagYMicroT,MagZMicroT
# 
# Pressure,utcTimeMillis,elapsedRealtimeNanos,PressureHpa
# 
# OrientationDeg,utcTimeMillis,elapsedRealtimeNanos,yawDeg,rollDeg,pitchDeg
# 
# Fix,Provider,LatitudeDegrees,LongitudeDegrees,AltitudeMeters,SpeedMps,AccuracyMeters,BearingDegrees,UnixTimeMillis,SpeedAccuracyMps,BearingAccuracyDegrees,elapsedRealtimeNanos,VerticalAccuracyMeters,MockLocation,NumberOfUsedSignals,VerticalSpeedAccuracyMps,SolutionType
# 
# Nav,Svid,Type,Status,MessageId,Sub-messageId,Data(Bytes)
# 
# Status,UnixTimeMillis,SignalCount,SignalIndex,ConstellationType,Svid,CarrierFrequencyHz,Cn0DbHz,AzimuthDegrees,ElevationDegrees,UsedInFix,HasAlmanacData,HasEphemerisData,BasebandCn0DbHz
# 
# Agc,utcTimeMillis,TimeNanos,LeapSecond,TimeUncertaintyNanos,FullBiasNanos,BiasNanos,BiasUncertaintyNanos,DriftNanosPerSecond,DriftUncertaintyNanosPerSecond,HardwareClockDiscontinuityCount,AgcDb,CarrierFrequencyHz,ConstellationType
# 
Fix,FLP,37.4248254000,-122.1584930000,3.1179636297534703,0.32262304,36.173,359.9865,1732151529224,1.5,45.0,30413072000000,11.91143,0,,,
Status,,17,0,1,17,1575420030,0.00,99.0,80.0,0,0,0,0.0
Status,,17,1,1,22,1575420030,0.00,7.0,67.0,0,0,0,0.0
Status,,17,2,1,19,1575420030,0.00,199.0,58.0,0,0,0,0.0
Status,,17,3,1,14,1575420030,0.00,49.0,55.0,0,0,0,0.0
Status,,17,4,1,13,1575420030,25.40,238.0,50.0,0,0,0,20.4
Status,,17,5,1,30,1575420030,28.20,129.0,39.0,0,0,0,23.2
Status,,17,6,1,15,1575420030,19.60,278.0,30.0,0,0,0,14.6
Status,,17,7,1,2,1575420030,0.00,50.0,18.0,0,0,0,0.0
Status,,17,8,1,24,1575420030,0.00,313.0,14.0,0,0,0,0.0
Status,,17,9,1,6,1575420030,0.00,163.0,9.0,0,0,0,0.0
Status,,17,10,1,7,1575420030,31.00,130.0,6.0,0,0,0,26.0
Status,,17,11,1,21,1575420030,0.00,35.0,6.0,0,0,0,0.0
Status,,17,12,3,20,1602000000,0.00,118.0,51.0,0,0,0,0.0
Status,,17,13,3,9,1602000000,0.00,77.0,35.0,0,0,0,0.0
Status,,17,14,3,11,1602000000,25.50,308.0,26.0,0,0,0,20.5
Status,,17,15,3,8,1602000000,25.20,249.0,25.0,0,0,0,20.2
Status,,17,16,3,19,1602000000,0.00,36.0,25.0,0,0,0,0.0
Status,,17,0,1,17,1575420030,20.80,99.0,80.0,1,0,0,15.799999
Status,,17,1,1,22,1575420030,0.00,7.0,67.0,0,0,0,0.0
Status,,17,2,1,19,1575420030,0.00,199.0,58.0,0,0,0,0.0
Status,,17,3,1,14,1575420030,0.00,49.0,55.0,0,0,0,0.0
Status,,17,4,1,13,1575420030,25.50,238.0,50.0,1,0,0,20.5
Status,,17,5,1,30,1575420030,27.90,129.0,39.0,1,0,0,22.9
Status,,17,6,1,15,1575420030,19.60,278.0,30.0,1,0,0,14.6
Status,,17,7,1,2,1575420030,0.00,50.0,18.0,0,0,0,0.0
Status,,17,8,1,24,1575420030,0.00,313.0,14.0,0,0,0,0.0
Status,,17,9,1,6,1575420030,0.00,163.0,9.0,0,0,0,0.0
Status,,17,10,1,7,1575420030,27.80,130.0,6.0,1,0,0,22.8
Status,,17,11,1,21,1575420030,0.00,35.0,6.0,0,0,0,0.0
Status,,17,12,3,20,1602000000,0.00,118.0,51.0,0,0,0,0.0
Status,,17,13,3,9,1602000000,0.00,77.0,35.0,0,0,0,0.0
Status,,17,14,3,11,1602000000,24.40,308.0,26.0,0,0,0,19.4
Status,,17,15,3,8,1602000000,23.00,249.0,25.0,0,0,0,18.0
Status,,17,16,3,19,1602000000,0.00,36.0,25.0,0,0,0,0.0
Fix,GPS,37.4248566667,-122.1584433333,23.7,0.0,6.7,0.0,1732151531426,2.4,179.9,30415517000000,80.7,0,,,
Fix,FLP,37.4248523000,-122.1584550000,2.8125596490803737,0.3731227,21.436,0.00030026687,1732151531669,2.4,179.9,30415517000000,11.708096,0,,,
Raw,1732151531427,20514000000,,707042.6785052745,-1416186728913999872,0.0,200.48893965666198,1262.600549890672,0.0,0,7,0.0,16431,349949345404586,316,22.834999084472656,1001.24985779707,0.14999,16,0.0,0.0,1575420030,,,,0,6.8623404798183465,1,6.0,22.834999084472656,0.0,0.0,0.0,66.7128,C,30415517000000,
Raw,1732151531427,20514000000,,707042.6785052745,-1416186728913999872,0.0,200.48893965666198,1262.600549890672,0.0,0,15,0.0,16431,349949352678454,797,14.604999542236328,503.9142776830736,0.14999,16,0.0,0.0,1575420030,,,,0,0.0,1,6.0,14.604999542236328,0.0,0.0,0.0,66.7128,C,30415517000000,
Raw,1732151531427,20514000000,,707042.6785052745,-1416186728913999872,0.0,200.48893965666198,1262.600549890672,0.0,0,30,0.0,16431,349949354226302,487,22.8799991607666,862.9687977840457,0.14999,16,0.0,0.0,1575420030,,,,0,4.000520500763228,1,6.0,22.8799991607666,0.0,0.0,0.0,66.7128,C,30415517000000,
Raw,1732151531427,20514000000,,707042.6785052745,-1416186728913999872,0.0,200.48893965666198,1262.600549890672,0.0,0,17,0.0,16431,349949360140351,797,15.795000076293945,442.663966335262,0.14999,16,0.0,0.0,1575420030,,,,0,0.0,1,6.0,15.795000076293945,0.0,0.0,0.0,66.7128,C,30415517000000,
Raw,1732151531427,20514000000,,707042.6785052745,-1416186728913999872,0.0,200.48893965666198,1262.600549890672,0.0,0,13,0.0,16431,349949356918881,487,20.451000213623047,705.1074665917604,0.14999,16,0.0,0.0,1575420030,,,,0,4.000520500763228,1,6.0,20.451000213623047,0.0,0.0,0.0,66.7128,C,30415517000000,
Raw,1732151531427,20514000000,,707042.6785052745,-1416186728913999872,0.0,200.48893965666198,1262.600549890672,0.0,0,8,0.0,17,874722,487,5.0,930.048535243297,0.14999,16,0.0,0.0,1605374980,,,,0,0.8937707307331308,3,6.0,19.0,0.0,0.0,108.67631620913818,66.7128,C,30415517000000,
Raw,1732151531427,20514000000,,707042.6785052745,-1416186728913999872,0.0,200.48893965666198,1262.600549890672,0.0,0,11,0.0,17,67708,487,18.0,-95.0953362564842,0.14999,16,0.0,0.0,1602000000,,,,0,3.2867325284890967,3,6.0,18.0,0.0,0.0,108.67631620913818,66.7128,C,30415517000000,
Status,1732151531426,27,0,1,17,1575420030,20.80,99.0,80.0,1,0,0,15.799999
Status,1732151531426,27,1,1,22,1575420030,0.00,7.0,67.0,0,0,0,0.0
Status,1732151531426,27,2,1,19,1575420030,0.00,199.0,58.0,0,0,0,0.0
Status,1732151531426,27,3,1,14,1575420030,0.00,49.0,55.0,0,0,0,0.0
Status,1732151531426,27,4,1,13,1575420030,30.60,238.0,50.0,1,0,0,25.6
Status,1732151531426,27,5,2,133,1575420030,0.00,191.0,45.0,0,0,0,0.0
Status,1732151531426,27,6,1,30,1575420030,34.00,129.0,39.0,1,0,0,29.0
Status,1732151531426,27,7,1,15,1575420030,19.60,278.0,30.0,1,0,0,14.6
Status,1732151531426,27,8,1,2,1575420030,0.00,50.0,18.0,0,0,0,0.0
Status,1732151531426,27,9,1,24,1575420030,0.00,313.0,14.0,0,0,0,0.0
Status,1732151531426,27,10,1,6,1575420030,0.00,163.0,9.0,0,0,0,0.0
Status,1732151531426,27,11,1,21,1575420030,0.00,35.0,6.0,0,0,0,0.0
Status,1732151531426,27,12,1,7,1575420030,32.50,130.0,6.0,1,0,0,27.5
Status,1732151531426,27,13,3,20,1602000000,0.00,118.0,51.0,0,0,0,0.0
Status,1732151531426,27,14,3,9,1602000000,0.00,77.0,35.0,0,0,0,0.0
Status,1732151531426,27,15,3,11,1602000000,24.80,308.0,26.0,0,0,0,19.8
Status,1732151531426,27,16,3,8,1602000000,21.60,249.0,25.0,0,0,0,16.6
Status,1732151531426,27,17,3,19,1602000000,0.00,36.0,25.0,0,0,0,0.0
Status,1732151531426,27,18,6,21,1575420030,0.00,338.0,68.0,0,0,0,0.0
Status,1732151531426,27,19,6,19,1575420030,0.00,246.0,48.0,0,0,0,0.0
Status,1732151531426,27,20,6,27,1575420030,0.00,62.0,35.0,0,0,0,0.0
Status,1732151531426,27,21,6,13,1575420030,0.00,122.0,27.0,0,0,0,0.0
Status,1732151531426,27,22,6,29,1575420030,0.00,192.0,27.0,0,0,0,0.0
Status,1732151531426,27,23,6,15,1575420030,0.00,64.0,23.0,0,0,0,0.0
Status,1732151531426,27,24,6,4,1575420030,0.00,313.0,22.0,0,0,0,0.0
Status,1732151531426,27,25,6,26,1575420030,0.00,168.0,4.0,0,0,0,0.0
Status,1732151531426,27,26,6,6,1575420030,0.00,328.0,3.0,0,0,0,0.0
Fix,GPS,37.4248650000,-122.1584216667,23.7,0.0,6.5,0.0,1732151532426,2.4,179.9,30416517000000,75.2,0,,,
Raw,1732151532427,21514000000,,707041.4797593073,-1416186728913999872,0.0,188.33828878060947,1257.0799270028715,0.0,0,7,0.0,16431,349950345401247,235,27.458999633789062,1000.1248207901157,0.14999,16,0.0,0.0,1575420030,,,,0,13.37178952245117,1,6.0,27.458999633789062,0.0,0.0,0.0,66.7128,C,30416517000000,
Raw,1732151532427,21514000000,,707041.4797593073,-1416186728913999872,0.0,188.33828878060947,1257.0799270028715,0.0,0,15,0.0,16431,349950352676775,797,14.609999656677246,502.40400748890136,0.14999,16,0.0,0.0,1575420030,,,,0,0.0,1,6.0,14.609999656677246,0.0,0.0,0.0,66.7128,C,30416517000000,
Raw,1732151532427,21514000000,,707041.4797593073,-1416186728913999872,0.0,188.33828878060947,1257.0799270028715,0.0,0,30,0.0,16431,349950354223430,316,29.006999969482422,861.5598069372126,0.14999,16,0.0,0.0,1575420030,,,,0,15.324382312231908,1,6.0,29.006999969482422,0.0,0.0,0.0,66.7128,C,30416517000000,
Raw,1732151532427,21514000000,,707041.4797593073,-1416186728913999872,0.0,188.33828878060947,1257.0799270028715,0.0,0,17,0.0,16431,349950360138873,797,15.795000076293945,442.37295081611916,0.14999,16,0.0,0.0,1575420030,,,,0,0.0,1,6.0,15.795000076293945,0.0,0.0,0.0,66.7128,C,30416517000000,
Raw,1732151532427,21514000000,,707041.4797593073,-1416186728913999872,0.0,188.33828878060947,1257.0799270028715,0.0,0,13,0.0,16431,349950356916534,316,25.579999923706055,703.7660727405136,0.14999,16,0.0,0.0,1575420030,,,,0,10.848974117207353,1,6.0,25.579999923706055,0.0,0.0,0.0,66.7128,C,30416517000000,
Raw,1732151532427,21514000000,,707041.4797593073,-1416186728913999872,0.0,188.33828878060947,1257.0799270028715,0.0,0,8,0.0,17,871623,487,5.0,927.1251145338341,0.14999,16,0.0,0.0,1605374980,,,,0,0.0,3,6.0,18.0,0.0,0.0,108.67631620913818,66.7128,C,30416517000000,
Raw,1732151532427,21514000000,,707041.4797593073,-1416186728913999872,0.0,188.33828878060947,1257.0799270028715,0.0,0,11,0.0,17,68026,487,16.600000381469727,-97.23735319345386,0.14999,16,0.0,0.0,1602000000,,,,0,3.9164204584486177,3,6.0,16.600000381469727,0.0,0.0,108.67631620913818,66.7128,C,30416517000000,
Fix,FLP,37.4248606000,-122.1584378000,2.8125596490803737,0.37582445,16.457,0.0000005074542,1732151532669,2.4,179.9,30416517000000,12.547852,0,,,
Fix,FLP,37.4248650000,-122.1584302000,2.8125596490803737,0.36090934,13.968,0.00000006281153,1732151534098,2.4,179.9,30417946000000,11.410163,0,,,
Fix,NLP,37.4256474000,-122.1580286000,5.400000095367432,,36.55,,1732151534099,,,30417946000000,51.407326,0,,,
Status,1732151532426,27,0,1,17,1575420030,0.00,99.0,80.0,0,0,0,0.0
Status,1732151532426,27,1,1,22,1575420030,0.00,7.0,67.0,0,0,0,0.0
Status,1732151532426,27,2,1,19,1575420030,0.00,199.0,58.0,0,0,0,0.0
Status,1732151532426,27,3,1,14,1575420030,0.00,49.0,55.0,0,0,0,0.0
Status,1732151532426,27,4,1,13,1575420030,0.00,238.0,50.0,0,0,0,0.0
Status,1732151532426,27,5,2,133,1575420030,0.00,191.0,45.0,0,0,0,0.0
Status,1732151532426,27,6,1,30,1575420030,0.00,129.0,39.0,0,0,0,0.0
Status,1732151532426,27,7,1,15,1575420030,24.00,278.0,30.0,1,0,0,19.0
Status,1732151532426,27,8,1,2,1575420030,0.00,50.0,18.0,0,0,0,0.0
Status,1732151532426,27,9,1,24,1575420030,0.00,313.0,14.0,0,0,0,0.0
Status,1732151532426,27,10,1,6,1575420030,0.00,163.0,9.0,0,0,0,0.0
Status,1732151532426,27,11,1,21,1575420030,0.00,35.0,6.0,0,0,0,0.0
Status,1732151532426,27,12,1,7,1575420030,30.70,130.0,6.0,1,0,0,25.7
Status,1732151532426,27,13,3,20,1602000000,0.00,118.0,51.0,0,0,0,0.0
Status,1732151532426,27,14,3,9,1602000000,0.00,77.0,35.0,0,0,0,0.0
Status,1732151532426,27,15,3,11,1602000000,26.60,308.0,26.0,0,0,0,21.6
Status,1732151532426,27,16,3,8,1602000000,22.00,249.0,25.0,1,0,0,17.0
Status,1732151532426,27,17,3,19,1602000000,0.00,36.0,25.0,0,0,0,0.0
Status,1732151532426,27,18,6,21,1575420030,0.00,338.0,68.0,0,0,0,0.0
Status,1732151532426,27,19,6,19,1575420030,0.00,246.0,48.0,0,0,0,0.0
Status,1732151532426,27,20,6,27,1575420030,0.00,62.0,35.0,0,0,0,0.0
Status,1732151532426,27,21,6,13,1575420030,0.00,122.0,27.0,0,0,0,0.0
Status,1732151532426,27,22,6,29,1575420030,0.00,192.0,27.0,0,0,0,0.0
Status,1732151532426,27,23,6,15,1575420030,0.00,64.0,23.0,0,0,0,0.0
Status,1732151532426,27,24,6,4,1575420030,0.00,313.0,22.0,0,0,0,0.0
Status,1732151532426,27,25,6,26,1575420030,0.00,168.0,4.0,0,0,0,0.0
Status,1732151532426,27,26,6,6,1575420030,0.00,328.0,3.0,0,0,0,0.0
Fix,GPS,37.4248733333,-122.1584433333,23.7,0.0,42.3,0.0,1732151534000,2.5,179.9,30418090000000,67.1,0,,,
Status,1732151534000,26,0,1,17,1575420030,0.00,99.0,80.0,0,0,0,0.0
Status,1732151534000,26,1,1,22,1575420030,0.00,7.0,67.0,0,0,0,0.0
Status,1732151534000,26,2,1,19,1575420030,0.00,199.0,58.0,0,0,0,0.0
Status,1732151534000,26,3,1,14,1575420030,0.00,49.0,55.0,0,0,0,0.0
Status,1732151534000,26,4,1,13,1575420030,0.00,238.0,50.0,0,0,0,0.0
Status,1732151534000,26,5,1,30,1575420030,0.00,129.0,39.0,0,0,0,0.0
Status,1732151534000,26,6,1,15,1575420030,24.00,278.0,30.0,0,0,0,19.0
Status,1732151534000,26,7,1,2,1575420030,0.00,50.0,18.0,0,0,0,0.0
Status,1732151534000,26,8,1,24,1575420030,0.00,313.0,14.0,0,0,0,0.0
Status,1732151534000,26,9,1,6,1575420030,0.00,163.0,9.0,0,0,0,0.0
Status,1732151534000,26,10,1,21,1575420030,0.00,35.0,6.0,0,0,0,0.0
Status,1732151534000,26,11,1,7,1575420030,28.90,130.0,6.0,0,0,0,23.9
Status,1732151534000,26,12,3,20,1602000000,0.00,118.0,51.0,0,0,0,0.0
Status,1732151534000,26,13,3,9,1602000000,0.00,77.0,35.0,0,0,0,0.0
Status,1732151534000,26,14,3,11,1602000000,23.40,308.0,26.0,0,0,0,18.4
Status,1732151534000,26,15,3,8,1602000000,0.00,249.0,25.0,0,0,0,0.0
Status,1732151534000,26,16,3,19,1602000000,0.00,36.0,25.0,0,0,0,0.0
Status,1732151534000,26,17,6,21,1575420030,0.00,338.0,68.0,0,0,0,0.0
Status,1732151534000,26,18,6,19,1575420030,0.00,246.0,48.0,0,0,0,0.0
Status,1732151534000,26,19,6,27,1575420030,0.00,62.0,35.0,0,0,0,0.0
Status,1732151534000,26,20,6,13,1575420030,0.00,122.0,27.0,0,0,0,0.0
Status,1732151534000,26,21,6,29,1575420030,0.00,192.0,27.0,0,0,0,0.0
Status,1732151534000,26,22,6,15,1575420030,0.00,64.0,23.0,0,0,0,0.0
Status,1732151534000,26,23,6,4,1575420030,0.00,313.0,22.0,0,0,0,0.0
Status,1732151534000,26,24,6,26,1575420030,0.00,168.0,4.0,0,0,0,0.0
Status,1732151534000,26,25,6,6,1575420030,0.00,328.0,3.0,0,0,0,0.0
Status,,26,0,1,17,1575420030,0.00,99.0,80.0,0,0,0,0.0
Status,,26,1,1,22,1575420030,0.00,7.0,67.0,0,0,0,0.0
Status,,26,2,1,19,1575420030,0.00,199.0,58.0,0,0,0,0.0
Status,,26,3,1,14,1575420030,0.00,49.0,55.0,0,0,0,0.0
Status,,26,4,1,13,1575420030,0.00,238.0,50.0,0,0,0,0.0
Status,,26,5,1,30,1575420030,0.00,129.0,39.0,0,0,0,0.0
Status,,26,6,1,15,1575420030,19.10,278.0,30.0,0,0,0,14.1
Status,,26,7,1,2,1575420030,0.00,50.0,18.0,0,0,0,0.0
Status,,26,8,1,24,1575420030,0.00,313.0,14.0,0,0,0,0.0
Status,,26,9,1,6,1575420030,0.00,163.0,9.0,0,0,0,0.0
Status,,26,10,1,21,1575420030,0.00,35.0,6.0,0,0,0,0.0
Status,,26,11,1,7,1575420030,28.70,130.0,6.0,0,0,0,23.7
Status,,26,12,3,20,1602000000,0.00,118.0,51.0,0,0,0,0.0
Status,,26,13,3,9,1602000000,0.00,77.0,35.0,0,0,0,0.0
Status,,26,14,3,11,1602000000,23.70,308.0,26.0,0,0,0,18.7
Status,,26,15,3,8,1602000000,0.00,249.0,25.0,0,0,0,0.0
Status,,26,16,3,19,1602000000,0.00,36.0,25.0,0,0,0,0.0
Status,,26,17,6,21,1575420030,0.00,338.0,68.0,0,0,0,0.0
Status,,26,18,6,19,1575420030,0.00,246.0,48.0,0,0,0,0.0
Status,,26,19,6,27,1575420030,0.00,62.0,35.0,0,0,0,0.0
Status,,26,20,6,13,1575420030,0.00,122.0,27.0,0,0,0,0.0
Status,,26,21,6,29,1575420030,0.00,192.0,27.0,0,0,0,0.0
Status,,26,22,6,15,1575420030,0.00,64.0,23.0,0,0,0,0.0
Status,,26,23,6,4,1575420030,0.00,313.0,22.0,0,0,0,0.0
Status,,26,24,6,26,1575420030,0.00,168.0,4.0,0,0,0,0.0
Status,,26,25,6,6,1575420030,0.00,328.0,3.0,0,0,0,0.0
Status,,26,0,1,17,1575420030,0.00,99.0,80.0,0,0,0,0.0
Status,,26,1,1,22,1575420030,0.00,7.0,67.0,0,0,0,0.0
Status,,26,2,1,19,1575420030,0.00,199.0,58.0,0,0,0,0.0
Status,,26,3,1,14,1575420030,0.00,49.0,55.0,0,0,0,0.0
Status,,26,4,1,13,1575420030,0.00,238.0,50.0,0,0,0,0.0
Status,,26,5,1,30,1575420030,0.00,129.0,39.0,0,0,0,0.0
Status,,26,6,1,15,1575420030,23.40,278.0,30.0,0,0,0,18.4
Status,,26,7,1,2,1575420030,0.00,50.0,18.0,0,0,0,0.0
Status,,26,8,1,24,1575420030,0.00,313.0,14.0,0,0,0,0.0
Status,,26,9,1,6,1575420030,0.00,163.0,9.0,0,0,0,0.0
Status,,26,10,1,21,1575420030,0.00,35.0,6.0,0,0,0,0.0
Status,,26,11,1,7,1575420030,30.40,130.0,6.0,0,0,0,25.4
Status,,26,12,3,20,1602000000,0.00,118.0,51.0,0,0,0,0.0
Status,,26,13,3,9,1602000000,0.00,77.0,35.0,0,0,0,0.0
Status,,26,14,3,11,1602000000,25.70,308.0,26.0,0,0,0,20.7
Status,,26,15,3,8,1602000000,0.00,249.0,25.0,0,0,0,0.0
Status,,26,16,3,19,1602000000,0.00,36.0,25.0,0,0,0,0.0
Status,,26,17,6,21,1575420030,0.00,338.0,68.0,0,0,0,0.0
Status,,26,18,6,19,1575420030,0.00,246.0,48.0,0,0,0,0.0
Status,,26,19,6,27,1575420030,0.00,62.0,35.0,0,0,0,0.0
Status,,26,20,6,13,1575420030,0.00,122.0,27.0,0,0,0,0.0
Status,,26,21,6,29,1575420030,0.00,192.0,27.0,0,0,0,0.0
Status,,26,22,6,15,1575420030,0.00,64.0,23.0,0,0,0,0.0
Status,,26,23,6,4,1575420030,0.00,313.0,22.0,0,0,0,0.0
Status,,26,24,6,26,1575420030,0.00,168.0,4.0,0,0,0,0.0
Status,,26,25,6,6,1575420030,0.00,328.0,3.0,0,0,0,0.0
Status,,26,0,1,17,1575420030,0.00,99.0,80.0,0,0,0,0.0
Status,,26,1,1,22,1575420030,0.00,7.0,67.0,0,0,0,0.0
Status,,26,2,1,19,1575420030,0.00,199.0,58.0,0,0,0,0.0
Status,,26,3,1,14,1575420030,0.00,49.0,55.0,0,0,0,0.0
Status,,26,4,1,13,1575420030,0.00,238.0,50.0,0,0,0,0.0
Status,,26,5,1,30,1575420030,0.00,129.0,39.0,0,0,0,0.0
Status,,26,6,1,15,1575420030,23.40,278.0,30.0,0,0,0,18.4
Status,,26,7,1,2,1575420030,0.00,50.0,18.0,0,0,0,0.0
Status,,26,8,1,24,1575420030,0.00,313.0,14.0,0,0,0,0.0
Status,,26,9,1,6,1575420030,0.00,163.0,9.0,0,0,0,0.0
Status,,26,10,1,21,1575420030,0.00,35.0,6.0,0,0,0,0.0
Status,,26,11,1,7,1575420030,30.40,130.0,6.0,0,0,0,25.4
Status,,26,12,3,20,1602000000,0.00,118.0,51.0,0,0,0,0.0
Status,,26,13,3,9,1602000000,0.00,77.0,35.0,0,0,0,0.0
Status,,26,14,3,11,1602000000,25.40,308.0,26.0,0,0,0,20.4
Status,,26,15,3,8,1602000000,0.00,249.0,25.0,0,0,0,0.0
Status,,26,16,3,19,1602000000,0.00,36.0,25.0,0,0,0,0.0
Status,,26,17,6,21,1575420030,0.00,338.0,68.0,0,0,0,0.0
Status,,26,18,6,19,1575420030,0.00,246.0,48.0,0,0,0,0.0
Status,,26,19,6,27,1575420030,0.00,62.0,35.0,0,0,0,0.0
Status,,26,20,6,13,1575420030,0.00,122.0,27.0,0,0,0,0.0
Status,,26,21,6,29,1575420030,0.00,192.0,27.0,0,0,0,0.0
Status,,26,22,6,15,1575420030,0.00,64.0,23.0,0,0,0,0.0
Status,,26,23,6,4,1575420030,0.00,313.0,22.0,0,0,0,0.0
Status,,26,24,6,26,1575420030,0.00,168.0,4.0,0,0,0,0.0
Status,,26,25,6,6,1575420030,0.00,328.0,3.0,0,0,0,0.0
Status,,26,0,1,17,1575420030,0.00,99.0,80.0,0,0,0,0.0
Status,,26,1,1,22,1575420030,0.00,7.0,67.0,0,0,0,0.0
Status,,26,2,1,19,1575420030,0.00,199.0,58.0,0,0,0,0.0
Status,,26,3,1,14,1575420030,0.00,49.0,55.0,0,0,0,0.0
Status,,26,4,1,13,1575420030,0.00,238.0,50.0,0,0,0,0.0
Status,,26,5,1,30,1575420030,25.80,129.0,39.0,1,0,0,20.8
Status,,26,6,1,15,1575420030,19.50,278.0,30.0,1,0,0,14.5
Status,,26,7,1,2,1575420030,0.00,50.0,18.0,0,0,0,0.0
Status,,26,8,1,24,1575420030,0.00,313.0,14.0,0,0,0,0.0
Status,,26,9,1,6,1575420030,0.00,163.0,9.0,0,0,0,0.0
Status,,26,10,1,21,1575420030,0.00,35.0,6.0,0,0,0,0.0
Status,,26,11,1,7,1575420030,24.80,130.0,6.0,1,0,0,19.8
Status,,26,12,3,20,1602000000,0.00,118.0,51.0,0,0,0,0.0
Status,,26,13,3,9,1602000000,0.00,77.0,35.0,0,0,0,0.0
Status,,26,14,3,11,1602000000,23.70,308.0,26.0,0,0,0,18.7
Status,,26,15,3,8,1602000000,0.00,249.0,25.0,0,0,0,0.0
Status,,26,16,3,19,1602000000,0.00,36.0,25.0,0,0,0,0.0
Status,,26,17,6,21,1575420030,0.00,338.0,68.0,0,0,0,0.0
Status,,26,18,6,19,1575420030,0.00,246.0,48.0,0,0,0,0.0
Status,,26,19,6,27,1575420030,0.00,62.0,35.0,0,0,0,0.0
Status,,26,20,6,13,1575420030,0.00,122.0,27.0,0,0,0,0.0
Status,,26,21,6,29,1575420030,0.00,192.0,27.0,0,0,0,0.0
Status,,26,22,6,15,1575420030,0.00,64.0,23.0,0,0,0,0.0
Status,,26,23,6,4,1575420030,0.00,313.0,22.0,0,0,0,0.0
Status,,26,24,6,26,1575420030,0.00,168.0,4.0,0,0,0,0.0
Status,,26,25,6,6,1575420030,0.00,328.0,3.0,0,0,0,0.0
Fix,GPS,37.4249000000,-122.1585016667,23.7,0.0,42.6,0.0,1732151539000,2.6,179.9,30423090000000,67.4,0,,,
Fix,FLP,37.4249297000,-122.1584097000,3.481171822921146,0.17969765,37.364,0.0000000000070735535,1732151539242,1.5,45.0,30423090000000,12.285881,0,,,
Fix,FLP,37.4250436000,-122.1583728000,5.400000095367432,0.2789572,29.542,0.000000000010941108,1732151539574,1.5,45.0,30423422000000,13.801089,0,,,
Fix,NLP,37.4257159000,-122.1580950000,5.400000095367432,,20.255,,1732151539574,,,30423422000000,12.610465,0,,,
Status,1732151539000,26,0,1,17,1575420030,0.00,99.0,80.0,0,0,0,0.0
Status,1732151539000,26,1,1,22,1575420030,0.00,7.0,67.0,0,0,0,0.0
Status,1732151539000,26,2,1,19,1575420030,0.00,199.0,58.0,0,0,0,0.0
Status,1732151539000,26,3,1,14,1575420030,0.00,49.0,55.0,0,0,0,0.0
Status,1732151539000,26,4,1,13,1575420030,0.00,238.0,50.0,0,0,0,0.0
Status,1732151539000,26,5,1,30,1575420030,25.80,129.0,39.0,1,0,0,20.8
Status,1732151539000,26,6,1,15,1575420030,25.80,278.0,30.0,1,0,0,20.8
Status,1732151539000,26,7,1,2,1575420030,0.00,50.0,18.0,0,0,0,0.0
Status,1732151539000,26,8,1,24,1575420030,0.00,313.0,14.0,0,0,0,0.0
Status,1732151539000,26,9,1,6,1575420030,0.00,163.0,9.0,0,0,0,0.0
Status,1732151539000,26,10,1,21,1575420030,0.00,35.0,6.0,0,0,0,0.0
Status,1732151539000,26,11,1,7,1575420030,24.90,130.0,6.0,1,0,0,19.9
Status,1732151539000,26,12,3,20,1602000000,0.00,118.0,51.0,0,0,0,0.0
Status,1732151539000,26,13,3,9,1602000000,0.00,77.0,35.0,0,0,0,0.0
Status,1732151539000,26,14,3,11,1602000000,25.60,308.0,26.0,0,0,0,20.6
Status,1732151539000,26,15,3,8,1602000000,0.00,249.0,25.0,0,0,0,0.0
Status,1732151539000,26,16,3,19,1602000000,0.00,36.0,25.0,0,0,0,0.0
Status,1732151539000,26,17,6,21,1575420030,0.00,338.0,68.0,0,0,0,0.0
Status,1732151539000,26,18,6,19,1575420030,0.00,246.0,48.0,0,0,0,0.0
Status,1732151539000,26,19,6,27,1575420030,0.00,62.0,35.0,0,0,0,0.0
Status,1732151539000,26,20,6,13,1575420030,0.00,122.0,27.0,0,0,0,0.0
Status,1732151539000,26,21,6,29,1575420030,0.00,192.0,27.0,0,0,0,0.0
Status,1732151539000,26,22,6,15,1575420030,0.00,64.0,23.0,0,0,0,0.0
Status,1732151539000,26,23,6,4,1575420030,0.00,313.0,22.0,0,0,0,0.0
Status,1732151539000,26,24,6,26,1575420030,0.00,168.0,4.0,0,0,0,0.0
Status,1732151539000,26,25,6,6,1575420030,0.00,328.0,3.0,0,0,0,0.0
Fix,GPS,37.4249050000,-122.1585150000,23.7,0.0,43.2,0.0,1732151540000,2.6,179.9,30424090000000,66.6,0,,,
Fix,FLP,37.4251360000,-122.1583415000,5.400000095367432,0.3586848,26.933,0.0000000000074806645,1732151540242,1.5,45.0,30424090000000,21.013437,0,,,
Status,1732151540000,26,0,1,17,1575420030,0.00,99.0,80.0,0,0,0,0.0
Status,1732151540000,26,1,1,22,1575420030,0.00,7.0,67.0,0,0,0,0.0
Status,1732151540000,26,2,1,19,1575420030,0.00,199.0,58.0,0,0,0,0.0
Status,1732151540000,26,3,1,14,1575420030,0.00,49.0,55.0,0,0,0,0.0
Status,1732151540000,26,4,1,13,1575420030,0.00,238.0,50.0,0,0,0,0.0
Status,1732151540000,26,5,1,30,1575420030,22.50,129.0,39.0,1,0,0,17.5
Status,1732151540000,26,6,1,15,1575420030,25.80,278.0,30.0,1,0,0,20.8
Status,1732151540000,26,7,1,2,1575420030,0.00,50.0,18.0,0,0,0,0.0
Status,1732151540000,26,8,1,24,1575420030,0.00,313.0,14.0,0,0,0,0.0
Status,1732151540000,26,9,1,6,1575420030,0.00,163.0,9.0,0,0,0,0.0
Status,1732151540000,26,10,1,21,1575420030,0.00,35.0,6.0,0,0,0,0.0
Status,1732151540000,26,11,1,7,1575420030,25.00,130.0,6.0,1,0,0,20.0
Status,1732151540000,26,12,3,20,1602000000,0.00,118.0,51.0,0,0,0,0.0
Status,1732151540000,26,13,3,9,1602000000,0.00,77.0,35.0,0,0,0,0.0
Status,1732151540000,26,14,3,11,1602000000,27.40,308.0,26.0,0,0,0,22.4
Status,1732151540000,26,15,3,8,1602000000,22.70,249.0,25.0,1,0,0,17.7
Status,1732151540000,26,16,3,19,1602000000,0.00,36.0,25.0,0,0,0,0.0
Status,1732151540000,26,17,6,21,1575420030,0.00,338.0,68.0,0,0,0,0.0
Status,1732151540000,26,18,6,19,1575420030,0.00,246.0,48.0,0,0,0,0.0
Status,1732151540000,26,19,6,27,1575420030,0.00,62.0,35.0,0,0,0,0.0
Status,1732151540000,26,20,6,13,1575420030,0.00,122.0,27.0,0,0,0,0.0
Status,1732151540000,26,21,6,29,1575420030,0.00,192.0,27.0,0,0,0,0.0
Status,1732151540000,26,22,6,15,1575420030,0.00,64.0,23.0,0,0,0,0.0
Status,1732151540000,26,23,6,4,1575420030,0.00,313.0,22.0,0,0,0,0.0
Status,1732151540000,26,24,6,26,1575420030,0.00,168.0,4.0,0,0,0,0.0
Status,1732151540000,26,25,6,6,1575420030,0.00,328.0,3.0,0,0,0,0.0
Fix,GPS,37.4249216667,-122.1585100000,23.7,0.0,6.6,0.0,1732151541000,2.6,179.9,30425090000000,35.1,0,,,
Raw,1732151541000,30087000000,,991600.0580308128,-1416186728913999872,0.0,93.98789717610175,1250.7300799744403,0.0,0,7,0.0,16431,349958918372703,797,20.01799964904785,998.7769692190155,0.14999,16,0.0,0.0,1575420030,,,,0,5.477568751614386,1,6.0,20.01799964904785,0.0,0.0,0.0,66.7128,C,30425090000000,
Raw,1732151541000,30087000000,,991600.0580308128,-1416186728913999872,0.0,93.98789717610175,1250.7300799744403,0.0,0,15,0.0,16431,349958925662505,487,20.77899932861328,500.4502452535834,0.14999,16,0.0,0.0,1575420030,,,,0,4.000520500763228,1,6.0,20.77899932861328,0.0,0.0,0.0,66.7128,C,30425090000000,
Raw,1732151541000,30087000000,,991600.0580308128,-1416186728913999872,0.0,93.98789717610175,1250.7300799744403,0.0,0,30,0.0,16431,349958927198788,797,17.466999053955078,861.0898335988268,0.14999,16,0.0,0.0,1575420030,,,,0,0.0,1,6.0,17.466999053955078,0.0,0.0,0.0,66.7128,C,30425090000000,
Raw,1732151541000,30087000000,,991600.0580308128,-1416186728913999872,0.0,93.98789717610175,1250.7300799744403,0.0,0,11,0.0,17,70871,316,17.700000762939453,-98.58787833330591,0.14999,16,0.0,0.0,1602000000,,,,0,7.686730218973601,3,6.0,17.700000762939453,0.0,0.0,108.67631620913818,66.7128,C,30425090000000,
Raw,1732151541000,30087000000,,991600.0580308128,-1416186728913999872,0.0,93.98789717610175,1250.7300799744403,0.0,0,8,0.0,17,845158,487,5.0,926.5230326603871,0.14999,16,0.0,0.0,1605374980,,,,0,0.3013213985971124,3,6.0,20.0,0.0,0.0,108.67631620913818,66.7128,C,30425090000000,
Fix,FLP,37.4249977000,-122.1584429000,5.400000095367432,0.2286068,21.85,180.0,1732151541242,2.6,179.9,30425090000000,11.855068,0,,,
Status,1732151541000,26,0,1,17,1575420030,0.00,99.0,80.0,0,0,0,0.0
Status,1732151541000,26,1,1,22,1575420030,0.00,7.0,67.0,0,0,0,0.0
Status,1732151541000,26,2,1,19,1575420030,0.00,199.0,58.0,0,0,0,0.0
Status,1732151541000,26,3,1,14,1575420030,0.00,49.0,55.0,0,0,0,0.0
Status,1732151541000,26,4,1,13,1575420030,25.90,238.0,50.0,1,0,0,20.9
Status,1732151541000,26,5,1,30,1575420030,22.50,129.0,39.0,1,0,0,17.5
Status,1732151541000,26,6,1,15,1575420030,25.80,278.0,30.0,1,0,0,20.8
Status,1732151541000,26,7,1,2,1575420030,0.00,50.0,18.0,0,0,0,0.0
Status,1732151541000,26,8,1,24,1575420030,0.00,313.0,14.0,0,0,0,0.0
Status,1732151541000,26,9,1,6,1575420030,0.00,163.0,9.0,0,0,0,0.0
Status,1732151541000,26,10,1,21,1575420030,0.00,35.0,6.0,0,0,0,0.0
Status,1732151541000,26,11,1,7,1575420030,25.10,130.0,6.0,1,0,0,20.1
Status,1732151541000,26,12,3,20,1602000000,0.00,118.0,51.0,0,0,0,0.0
Status,1732151541000,26,13,3,9,1602000000,0.00,77.0,35.0,0,0,0,0.0
Status,1732151541000,26,14,3,11,1602000000,25.70,308.0,26.0,0,0,0,20.7
Status,1732151541000,26,15,3,8,1602000000,22.70,249.0,25.0,1,0,0,17.7
Status,1732151541000,26,16,3,19,1602000000,0.00,36.0,25.0,0,0,0,0.0
Status,1732151541000,26,17,6,21,1575420030,0.00,338.0,68.0,0,0,0,0.0
Status,1732151541000,26,18,6,19,1575420030,0.00,246.0,48.0,0,0,0,0.0
Status,1732151541000,26,19,6,27,1575420030,0.00,62.0,35.0,0,0,0,0.0
Status,1732151541000,26,20,6,13,1575420030,0.00,122.0,27.0,0,0,0,0.0
Status,1732151541000,26,21,6,29,1575420030,0.00,192.0,27.0,0,0,0,0.0
Status,1732151541000,26,22,6,15,1575420030,0.00,64.0,23.0,0,0,0,0.0
Status,1732151541000,26,23,6,4,1575420030,0.00,313.0,22.0,0,0,0,0.0
Status,1732151541000,26,24,6,26,1575420030,0.00,168.0,4.0,0,0,0,0.0
Status,1732151541000,26,25,6,6,1575420030,0.00,328.0,3.0,0,0,0,0.0
Fix,GPS,37.4249683333,-122.1584800000,23.500000000000004,0.0,6.7,0.0,1732151542000,2.5,179.9,30426090000000,33.8,0,,,
Raw,1732151542000,31087000000,,996668.2517410094,-1416186728913999872,0.0,93.2837000876139,1254.2925180355182,0.0,0,7,0.0,16431,349959918369369,797,20.113000869750977,999.5519885182397,0.14999,16,0.0,0.0,1575420030,,,,0,5.477568751614386,1,6.0,20.113000869750977,0.0,0.0,0.0,66.7128,C,30426090000000,
Raw,1732151542000,31087000000,,996668.2517410094,-1416186728913999872,0.0,93.2837000876139,1254.2925180355182,0.0,0,15,0.0,16431,349959925660843,487,20.79199981689453,501.43850868321397,0.14999,16,0.0,0.0,1575420030,,,,0,4.000520500763228,1,6.0,20.79199981689453,0.0,0.0,0.0,66.7128,C,30426090000000,
Raw,1732151542000,31087000000,,996668.2517410094,-1416186728913999872,0.0,93.2837000876139,1254.2925180355182,0.0,0,30,0.0,16431,349959927195915,797,17.466999053955078,861.3715574347274,0.14999,16,0.0,0.0,1575420030,,,,0,0.0,1,6.0,17.466999053955078,0.0,0.0,0.0,66.7128,C,30426090000000,
Raw,1732151542000,31087000000,,996668.2517410094,-1416186728913999872,0.0,93.2837000876139,1254.2925180355182,0.0,0,11,0.0,17,71199,396,17.700000762939453,-97.51303210731946,0.14999,16,0.0,0.0,1602000000,,,,0,5.2706103489907035,3,6.0,17.700000762939453,0.0,0.0,108.67631620913818,66.7128,C,30426090000000,
Raw,1732151542000,31087000000,,996668.2517410094,-1416186728913999872,0.0,93.2837000876139,1254.2925180355182,0.0,0,8,0.0,17,842072,396,5.0,926.6361908619542,0.14999,16,0.0,0.0,1605374980,,,,0,0.3013213985971124,3,6.0,22.0,0.0,0.0,108.67631620913818,66.7128,C,30426090000000,
Raw,1732151542000,31087000000,,996668.2517410094,-1416186728913999872,0.0,93.2837000876139,1254.2925180355182,0.0,0,13,0.0,16431,349959929893979,487,20.86199951171875,704.7876003961509,0.14999,16,0.0,0.0,1575420030,,,,0,3.742504807842275,1,6.0,20.86199951171875,0.0,0.0,0.0,66.7128,C,30426090000000,
Fix,FLP,37.4249827000,-122.1584593000,5.400000095367432,0.27618662,18.82,180.0,1732151542242,2.5,179.9,30426090000000,11.030946,0,,,
Status,1732151542000,26,0,1,17,1575420030,0.00,99.0,80.0,0,0,0,0.0
Status,1732151542000,26,1,1,22,1575420030,0.00,7.0,67.0,0,0,0,0.0
Status,1732151542000,26,2,1,19,1575420030,0.00,199.0,58.0,0,0,0,0.0
Status,1732151542000,26,3,1,14,1575420030,0.00,49.0,55.0,0,0,0,0.0
Status,1732151542000,26,4,1,13,1575420030,25.00,238.0,50.0,1,0,0,20.0
Status,1732151542000,26,5,1,30,1575420030,22.50,129.0,39.0,1,0,0,17.5
Status,1732151542000,26,6,1,15,1575420030,25.90,278.0,30.0,1,0,0,20.9
Status,1732151542000,26,7,1,2,1575420030,0.00,50.0,18.0,0,0,0,0.0
Status,1732151542000,26,8,1,24,1575420030,0.00,313.0,14.0,0,0,0,0.0
Status,1732151542000,26,9,1,6,1575420030,0.00,163.0,9.0,0,0,0,0.0
Status,1732151542000,26,10,1,21,1575420030,0.00,35.0,6.0,0,0,0,0.0
Status,1732151542000,26,11,1,7,1575420030,25.10,130.0,6.0,1,0,0,20.1
Status,1732151542000,26,12,3,20,1602000000,0.00,118.0,51.0,0,0,0,0.0
Status,1732151542000,26,13,3,9,1602000000,0.00,77.0,35.0,0,0,0,0.0
Status,1732151542000,26,14,3,11,1602000000,25.50,308.0,26.0,0,0,0,20.5
Status,1732151542000,26,15,3,8,1602000000,28.10,249.0,25.0,1,0,0,23.1
Status,1732151542000,26,16,3,19,1602000000,0.00,36.0,25.0,0,0,0,0.0
Status,1732151542000,26,17,6,21,1575420030,0.00,338.0,68.0,0,0,0,0.0
Status,1732151542000,26,18,6,19,1575420030,0.00,246.0,48.0,0,0,0,0.0
Status,1732151542000,26,19,6,27,1575420030,0.00,62.0,35.0,0,0,0,0.0
Status,1732151542000,26,20,6,13,1575420030,0.00,122.0,27.0,0,0,0,0.0
Status,1732151542000,26,21,6,29,1575420030,0.00,192.0,27.0,0,0,0,0.0
Status,1732151542000,26,22,6,15,1575420030,0.00,64.0,23.0,0,0,0,0.0
Status,1732151542000,26,23,6,4,1575420030,0.00,313.0,22.0,0,0,0,0.0
Status,1732151542000,26,24,6,26,1575420030,0.00,168.0,4.0,0,0,0,0.0
Status,1732151542000,26,25,6,6,1575420030,0.00,328.0,3.0,0,0,0,0.0
Fix,GPS,37.4249950000,-122.1584600000,23.599999999999998,0.0,6.7,0.0,1732151543000,2.5,179.9,30427090000000,33.7,0,,,
Fix,FLP,37.4249872000,-122.1584595000,5.400000095367432,0.1298473,16.8,180.0,1732151543242,2.5,179.9,30427090000000,13.294526,0,,,
Raw,1732151543000,32087000000,,705856.7539080653,-1416186728913999872,0.0,92.96841976959128,1256.2337309938857,0.0,0,7,0.0,16431,349960918366052,487,20.073999404907227,999.8646536593367,0.14999,16,0.0,0.0,1575420030,,,,0,1.1117899746116637,1,6.0,20.073999404907227,0.0,0.0,0.0,66.7128,C,30427090000000,
Raw,1732151543000,32087000000,,705856.7539080653,-1416186728913999872,0.0,92.96841976959128,1256.2337309938857,0.0,0,15,0.0,16431,349960925659168,487,20.90999984741211,502.90608359288865,0.14999,16,0.0,0.0,1575420030,,,,0,7.33677319152501,1,6.0,20.90999984741211,0.0,0.0,0.0,66.7128,C,30427090000000,
Raw,1732151543000,32087000000,,705856.7539080653,-1416186728913999872,0.0,92.96841976959128,1256.2337309938857,0.0,0,30,0.0,16431,349960927193040,1797,17.466999053955078,862.2313168851197,0.14999,16,0.0,0.0,1575420030,,,,0,0.0,1,6.0,17.466999053955078,0.0,0.0,0.0,66.7128,C,30427090000000,
Raw,1732151543000,32087000000,,705856.7539080653,-1416186728913999872,0.0,92.96841976959128,1256.2337309938857,0.0,0,11,0.0,17,71529,396,23.100000381469727,-97.03998280765681,0.14999,16,0.0,0.0,1602000000,,,,0,4.944851309096222,3,6.0,23.100000381469727,0.0,0.0,108.67631620913818,66.7128,C,30427090000000,
Raw,1732151543000,32087000000,,705856.7539080653,-1416186728913999872,0.0,92.96841976959128,1256.2337309938857,0.0,0,8,0.0,17,839015,487,5.0,926.523670941943,0.14999,16,0.0,0.0,1605374980,,,,0,8.600788358013473,3,6.0,20.0,0.0,0.0,108.67631620913818,66.7128,C,30427090000000,
Raw,1732151543000,32087000000,,705856.7539080653,-1416186728913999872,0.0,92.96841976959128,1256.2337309938857,0.0,0,13,0.0,16431,349960929891682,487,19.976999282836914,705.9138453219267,0.14999,16,0.0,0.0,1575420030,,,,0,2.2197727025998084,1,6.0,19.976999282836914,0.0,0.0,0.0,66.7128,C,30427090000000,
Fix,FLP,37.4249901000,-122.1584597000,5.400000095367432,0.046681773,15.357,,1732151544149,2.5,,30427997000000,13.777012,0,,,
Fix,NLP,37.4257025000,-122.1580898000,5.400000095367432,,19.567,,1732151544149,,,30427997000000,18.131512,0,,,
Status,1732151543000,26,0,1,17,1575420030,0.00,99.0,80.0,0,0,0,0.0
Status,1732151543000,26,1,1,22,1575420030,20.80,7.0,67.0,1,0,0,15.799999
Status,1732151543000,26,2,1,19,1575420030,0.00,199.0,58.0,0,0,0,0.0
Status,1732151543000,26,3,1,14,1575420030,0.00,49.0,55.0,0,0,0,0.0
Status,1732151543000,26,4,1,13,1575420030,23.30,238.0,50.0,1,0,0,18.3
Status,1732151543000,26,5,1,30,1575420030,17.90,129.0,39.0,1,0,0,12.9
Status,1732151543000,26,6,1,15,1575420030,29.50,278.0,30.0,1,0,0,24.5
Status,1732151543000,26,7,1,2,1575420030,0.00,50.0,18.0,0,0,0,0.0
Status,1732151543000,26,8,1,24,1575420030,0.00,313.0,14.0,0,0,0,0.0
Status,1732151543000,26,9,1,6,1575420030,0.00,163.0,9.0,0,0,0,0.0
Status,1732151543000,26,10,1,21,1575420030,0.00,35.0,6.0,0,0,0,0.0
Status,1732151543000,26,11,1,7,1575420030,26.70,130.0,6.0,1,0,0,21.7
Status,1732151543000,26,12,3,20,1602000000,0.00,118.0,51.0,0,0,0,0.0
Status,1732151543000,26,13,3,9,1602000000,0.00,77.0,35.0,0,0,0,0.0
Status,1732151543000,26,14,3,11,1602000000,27.70,308.0,26.0,0,0,0,22.7
Status,1732151543000,26,15,3,8,1602000000,23.30,249.0,25.0,1,0,0,18.3
Status,1732151543000,26,16,3,19,1602000000,0.00,36.0,25.0,0,0,0,0.0
Status,1732151543000,26,17,6,21,1575420030,0.00,338.0,68.0,0,0,0,0.0
Status,1732151543000,26,18,6,19,1575420030,0.00,246.0,48.0,0,0,0,0.0
Status,1732151543000,26,19,6,27,1575420030,0.00,62.0,35.0,0,0,0,0.0
Status,1732151543000,26,20,6,13,1575420030,0.00,122.0,27.0,0,0,0,0.0
Status,1732151543000,26,21,6,29,1575420030,0.00,192.0,27.0,0,0,0,0.0
Status,1732151543000,26,22,6,15,1575420030,0.00,64.0,23.0,0,0,0,0.0
Status,1732151543000,26,23,6,4,1575420030,0.00,313.0,22.0,0,0,0,0.0
Status,1732151543000,26,24,6,26,1575420030,0.00,168.0,4.0,0,0,0,0.0
Status,1732151543000,26,25,6,6,1575420030,0.00,328.0,3.0,0,0,0,0.0
Fix,GPS,37.4250166667,-122.1584500000,23.500000000000004,0.0,6.8,0.0,1732151544000,2.4,173.8,30428090000000,31.9,0,,,
Raw,1732151544000,33087000000,,996710.5726855877,-1416186728913999872,0.0,92.26102884153835,1258.8355110282473,0.0,0,7,0.0,16431,349961918362688,396,21.68400001525879,1000.8375858116177,0.14999,16,0.0,0.0,1575420030,,,,0,5.0376828774910285,1,6.0,21.68400001525879,0.0,0.0,0.0,66.7128,C,30428090000000,
Raw,1732151544000,33087000000,,996710.5726855877,-1416186728913999872,0.0,92.26102884153835,1258.8355110282473,0.0,0,15,0.0,16431,349961925657458,396,24.5049991607666,503.8730226094786,0.14999,16,0.0,0.0,1575420030,,,,0,9.33822747900959,1,6.0,24.5049991607666,0.0,0.0,0.0,66.7128,C,30428090000000,
Raw,1732151544000,33087000000,,996710.5726855877,-1416186728913999872,0.0,92.26102884153835,1258.8355110282473,0.0,0,30,0.0,16431,349961927190167,797,12.899999618530273,863.4129402430185,0.14999,16,0.0,0.0,1575420030,,,,0,0.0,1,6.0,12.899999618530273,0.0,0.0,0.0,66.7128,C,30428090000000,
Raw,1732151544000,33087000000,,996710.5726855877,-1416186728913999872,0.0,92.26102884153835,1258.8355110282473,0.0,0,11,0.0,17,71851,396,18.299999237060547,-96.03325677732394,0.14999,16,0.0,0.0,1602000000,,,,0,8.070508623138798,3,6.0,18.299999237060547,0.0,0.0,108.67631620913818,66.7128,C,30428090000000,
Raw,1732151544000,33087000000,,996710.5726855877,-1416186728913999872,0.0,92.26102884153835,1258.8355110282473,0.0,0,8,0.0,17,835980,797,5.0,925.7447850774898,0.14999,16,0.0,0.0,1605374980,,,,0,1.448377569636155,3,6.0,17.0,0.0,0.0,108.67631620913818,66.7128,C,30428090000000,
Raw,1732151544000,33087000000,,996710.5726855877,-1416186728913999872,0.0,92.26102884153835,1258.8355110282473,0.0,0,22,0.0,16431,349961930965694,797,15.795000076293945,483.42165612626997,0.14999,16,0.0,0.0,1575420030,,,,0,0.0,1,6.0,15.795000076293945,0.0,0.0,0.0,66.7128,C,30428090000000,
Raw,1732151544000,33087000000,,996710.5726855877,-1416186728913999872,0.0,92.26102884153835,1258.8355110282473,0.0,0,13,0.0,16431,349961929889313,797,18.333999633789062,706.817322141973,0.14999,16,0.0,0.0,1575420030,,,,0,0.0,1,6.0,18.333999633789062,0.0,0.0,0.0,66.7128,C,30428090000000,
Status,1732151544000,26,0,1,17,1575420030,0.00,99.0,80.0,0,0,0,0.0
Status,1732151544000,26,1,1,22,1575420030,20.80,7.0,67.0,1,0,0,15.799999
Status,1732151544000,26,2,1,19,1575420030,25.00,199.0,58.0,1,0,0,20.0
Status,1732151544000,26,3,1,14,1575420030,0.00,49.0,55.0,0,0,0,0.0
Status,1732151544000,26,4,1,13,1575420030,23.30,238.0,50.0,1,0,0,18.3
Status,1732151544000,26,5,1,30,1575420030,17.90,129.0,39.0,1,0,0,12.9
Status,1732151544000,26,6,1,15,1575420030,26.40,278.0,30.0,1,0,0,21.4
Status,1732151544000,26,7,1,2,1575420030,0.00,50.0,18.0,0,0,0,0.0
Status,1732151544000,26,8,1,24,1575420030,0.00,313.0,14.0,0,0,0,0.0
Status,1732151544000,26,9,1,6,1575420030,0.00,163.0,9.0,0,0,0,0.0
Status,1732151544000,26,10,1,21,1575420030,0.00,35.0,6.0,0,0,0,0.0
Status,1732151544000,26,11,1,7,1575420030,28.90,130.0,6.0,1,0,0,23.9
Status,1732151544000,26,12,3,20,1602000000,0.00,118.0,51.0,0,0,0,0.0
Status,1732151544000,26,13,3,9,1602000000,0.00,77.0,35.0,0,0,0,0.0
Status,1732151544000,26,14,3,11,1602000000,28.80,308.0,26.0,0,0,0,23.8
Status,1732151544000,26,15,3,8,1602000000,23.30,249.0,25.0,1,0,0,18.3
Status,1732151544000,26,16,3,19,1602000000,0.00,36.0,25.0,0,0,0,0.0
Status,1732151544000,26,17,6,21,1575420030,0.00,338.0,68.0,0,0,0,0.0
Status,1732151544000,26,18,6,19,1575420030,0.00,246.0,48.0,0,0,0,0.0
Status,1732151544000,26,19,6,27,1575420030,0.00,62.0,35.0,0,0,0,0.0
Status,1732151544000,26,20,6,13,1575420030,0.00,122.0,27.0,0,0,0,0.0
Status,1732151544000,26,21,6,29,1575420030,0.00,192.0,27.0,0,0,0,0.0
Status,1732151544000,26,22,6,15,1575420030,0.00,64.0,23.0,0,0,0,0.0
Status,1732151544000,26,23,6,4,1575420030,0.00,313.0,22.0,0,0,0,0.0
Status,1732151544000,26,24,6,26,1575420030,0.00,168.0,4.0,0,0,0,0.0
Status,1732151544000,26,25,6,6,1575420030,0.00,328.0,3.0,0,0,0,0.0
Fix,GPS,37.4250383333,-122.1584500000,23.500000000000004,0.0,6.8,0.0,1732151545000,2.3,162.5,30429090000000,31.2,0,,,
Raw,1732151545000,34087000000,,996627.3901393476,-1416186728913999872,0.0,92.01057328711843,1261.8666167639653,0.0,0,7,0.0,16431,349962918359343,396,23.86199951171875,1002.0351908646929,0.14999,16,0.0,0.0,1575420030,,,,0,8.420530859498097,1,6.0,23.86199951171875,0.0,0.0,0.0,66.7128,C,30429090000000,
Raw,1732151545000,34087000000,,996627.3901393476,-1416186728913999872,0.0,92.01057328711843,1261.8666167639653,0.0,0,15,0.0,16431,349962925655784,487,21.420000076293945,504.73041268064406,0.14999,16,0.0,0.0,1575420030,,,,0,4.653288753350356,1,6.0,21.420000076293945,0.0,0.0,0.0,66.7128,C,30429090000000,
Raw,1732151545000,34087000000,,996627.3901393476,-1416186728913999872,0.0,92.01057328711843,1261.8666167639653,0.0,0,19,0.0,16431,349962930784581,487,20.031999588012695,-39.720087523361826,0.14999,16,0.0,0.0,1575420030,,,,0,2.323177371921613,1,6.0,20.031999588012695,0.0,0.0,0.0,66.7128,C,30429090000000,
Raw,1732151545000,34087000000,,996627.3901393476,-1416186728913999872,0.0,92.01057328711843,1261.8666167639653,0.0,0,30,0.0,16431,349962927187285,797,12.899999618530273,864.5859223355021,0.14999,16,0.0,0.0,1575420030,,,,0,0.0,1,6.0,12.899999618530273,0.0,0.0,0.0,66.7128,C,30429090000000,
Raw,1732151545000,34087000000,,996627.3901393476,-1416186728913999872,0.0,92.01057328711843,1261.8666167639653,0.0,0,11,0.0,17,72170,316,18.299999237060547,-96.16565941112945,0.14999,16,0.0,0.0,1602000000,,,,0,9.557083488203052,3,6.0,18.299999237060547,0.0,0.0,105.06929375064209,66.7128,C,30429090000000,
Raw,1732151545000,34087000000,,996627.3901393476,-1416186728913999872,0.0,92.01057328711843,1261.8666167639653,0.0,0,8,0.0,17,832890,487,5.0,927.2735605871388,0.14999,16,0.0,0.0,1605374980,,,,0,1.448377569636155,3,6.0,20.0,0.0,0.0,105.06929375064209,66.7128,C,30429090000000,
Raw,1732151545000,34087000000,,996627.3901393476,-1416186728913999872,0.0,92.01057328711843,1261.8666167639653,0.0,0,22,0.0,16431,349962930964079,797,15.795000076293945,484.89647854887346,0.14999,16,0.0,0.0,1575420030,,,,0,0.0,1,6.0,15.795000076293945,0.0,0.0,0.0,66.7128,C,30429090000000,
Raw,1732151545000,34087000000,,996627.3901393476,-1416186728913999872,0.0,92.01057328711843,1261.8666167639653,0.0,0,13,0.0,16431,349962929886956,797,18.333999633789062,707.0347475298383,0.14999,16,0.0,0.0,1575420030,,,,0,0.0,1,6.0,18.333999633789062,0.0,0.0,0.0,66.7128,C,30429090000000,
Fix,FLP,37.4250134000,-122.1584548000,5.400000095367432,0.22352248,8.859,0.00000000050166254,1732151545242,2.3,162.5,30429090000000,13.799778,0,,,
Status,1732151545000,26,0,1,17,1575420030,0.00,99.0,80.0,0,0,0,0.0
Status,1732151545000,26,1,1,22,1575420030,20.80,7.0,67.0,1,0,0,15.799999
Status,1732151545000,26,2,1,19,1575420030,0.00,199.0,58.0,0,0,0,0.0
Status,1732151545000,26,3,1,14,1575420030,0.00,49.0,55.0,0,0,0,0.0
Status,1732151545000,26,4,1,13,1575420030,26.40,238.0,50.0,1,0,0,21.4
Status,1732151545000,26,5,1,30,1575420030,18.00,129.0,39.0,1,0,0,13.0
Status,1732151545000,26,6,1,15,1575420030,26.50,278.0,30.0,1,0,0,21.5
Status,1732151545000,26,7,1,2,1575420030,0.00,50.0,18.0,0,0,0,0.0
Status,1732151545000,26,8,1,24,1575420030,0.00,313.0,14.0,0,0,0,0.0
Status,1732151545000,26,9,1,6,1575420030,0.00,163.0,9.0,0,0,0,0.0
Status,1732151545000,26,10,1,21,1575420030,0.00,35.0,6.0,0,0,0,0.0
Status,1732151545000,26,11,1,7,1575420030,32.30,130.0,6.0,1,0,0,27.3
Status,1732151545000,26,12,3,20,1602000000,0.00,118.0,51.0,0,0,0,0.0
Status,1732151545000,26,13,3,9,1602000000,0.00,77.0,35.0,0,0,0,0.0
Status,1732151545000,26,14,3,11,1602000000,27.00,308.0,26.0,0,0,0,22.0
Status,1732151545000,26,15,3,8,1602000000,23.40,249.0,25.0,1,0,0,18.4
Status,1732151545000,26,16,3,19,1602000000,0.00,36.0,25.0,0,0,0,0.0
Status,1732151545000,26,17,6,21,1575420030,0.00,338.0,68.0,0,0,0,0.0
Status,1732151545000,26,18,6,19,1575420030,0.00,246.0,48.0,0,0,0,0.0
Status,1732151545000,26,19,6,27,1575420030,0.00,62.0,35.0,0,0,0,0.0
Status,1732151545000,26,20,6,13,1575420030,0.00,122.0,27.0,0,0,0,0.0
Status,1732151545000,26,21,6,29,1575420030,0.00,192.0,27.0,0,0,0,0.0
Status,1732151545000,26,22,6,15,1575420030,0.00,64.0,23.0,0,0,0,0.0
Status,1732151545000,26,23,6,4,1575420030,0.00,313.0,22.0,0,0,0,0.0
Status,1732151545000,26,24,6,26,1575420030,0.00,168.0,4.0,0,0,0,0.0
Status,1732151545000,26,25,6,6,1575420030,0.00,328.0,3.0,0,0,0,0.0
Fix,GPS,37.4250516667,-122.1584583333,23.500000000000004,0.0,6.7,0.0,1732151546000,2.2,157.1,30430090000000,31.2,0,,,
Raw,1732151546000,35087000000,,705845.4961198524,-1416186728913999872,0.0,91.41186197550103,1261.4032839071394,0.0,0,7,0.0,16431,349963918356007,396,27.336999893188477,1001.5195953615885,0.14999,16,0.0,0.0,1575420030,,,,0,13.19719289727325,1,6.0,27.336999893188477,0.0,0.0,0.0,66.7128,C,30430090000000,
Raw,1732151546000,35087000000,,705845.4961198524,-1416186728913999872,0.0,91.41186197550103,1261.4032839071394,0.0,0,15,0.0,16431,349963925654096,316,21.518999099731445,503.69387895657076,0.14999,16,0.0,0.0,1575420030,,,,0,7.731654355440154,1,6.0,21.518999099731445,0.0,0.0,0.0,66.7128,C,30430090000000,
Raw,1732151546000,35087000000,,705845.4961198524,-1416186728913999872,0.0,91.41186197550103,1261.4032839071394,0.0,0,30,0.0,16431,349963927184354,797,13.0,865.0665811096164,0.14999,16,0.0,0.0,1575420030,,,,0,0.0,1,6.0,13.0,0.0,0.0,0.0,66.7128,C,30430090000000,
Raw,1732151546000,35087000000,,705845.4961198524,-1416186728913999872,0.0,91.41186197550103,1261.4032839071394,0.0,0,11,0.0,17,72493,487,18.354999542236328,-96.47427907688387,0.14999,16,0.0,0.0,1602000000,,,,0,7.090779409321325,3,6.0,18.354999542236328,0.0,0.0,105.06929375064209,66.7128,C,30430090000000,
Raw,1732151546000,35087000000,,705845.4961198524,-1416186728913999872,0.0,91.41186197550103,1261.4032839071394,0.0,0,8,0.0,17,829801,487,5.0,927.4019463629701,0.14999,16,0.0,0.0,1605374980,,,,0,3.2238821121618733,3,6.0,19.0,0.0,0.0,105.06929375064209,66.7128,C,30430090000000,
Raw,1732151546000,35087000000,,705845.4961198524,-1416186728913999872,0.0,91.41186197550103,1261.4032839071394,0.0,0,22,0.0,16431,349963930962460,1797,15.795000076293945,485.57314538097995,0.14999,16,0.0,0.0,1575420030,,,,0,0.0,1,6.0,15.795000076293945,0.0,0.0,0.0,66.7128,C,30430090000000,
Raw,1732151546000,35087000000,,705845.4961198524,-1416186728913999872,0.0,91.41186197550103,1261.4032839071394,0.0,0,13,0.0,16431,349963929884621,487,21.420000076293945,706.5212426554633,0.14999,16,0.0,0.0,1575420030,,,,0,4.653288753350356,1,6.0,21.420000076293945,0.0,0.0,0.0,66.7128,C,30430090000000,
Fix,FLP,37.4250301000,-122.1584560000,5.400000095367432,0.343523,6.714,0.0,1732151546242,2.2,157.1,30430090000000,11.784034,0,,,
Status,1732151546000,26,0,1,17,1575420030,0.00,99.0,80.0,0,0,0,0.0
Status,1732151546000,26,1,1,22,1575420030,0.00,7.0,67.0,0,0,0,0.0
Status,1732151546000,26,2,1,19,1575420030,0.00,199.0,58.0,0,0,0,0.0
Status,1732151546000,26,3,1,14,1575420030,0.00,49.0,55.0,0,0,0,0.0
Status,1732151546000,26,4,1,13,1575420030,26.50,238.0,50.0,1,0,0,21.5
Status,1732151546000,26,5,1,30,1575420030,18.10,129.0,39.0,1,0,0,13.1
Status,1732151546000,26,6,1,15,1575420030,26.60,278.0,30.0,1,0,0,21.6
Status,1732151546000,26,7,1,2,1575420030,0.00,50.0,18.0,0,0,0,0.0
Status,1732151546000,26,8,1,24,1575420030,0.00,313.0,14.0,0,0,0,0.0
Status,1732151546000,26,9,1,6,1575420030,0.00,163.0,9.0,0,0,0,0.0
Status,1732151546000,26,10,1,21,1575420030,0.00,35.0,6.0,0,0,0,0.0
Status,1732151546000,26,11,1,7,1575420030,27.50,130.0,6.0,1,0,0,22.5
Status,1732151546000,26,12,3,20,1602000000,0.00,118.0,51.0,0,0,0,0.0
Status,1732151546000,26,13,3,9,1602000000,0.00,77.0,35.0,0,0,0,0.0
Status,1732151546000,26,14,3,11,1602000000,23.00,308.0,26.0,0,0,0,18.0
Status,1732151546000,26,15,3,8,1602000000,23.40,249.0,25.0,1,0,0,18.4
Status,1732151546000,26,16,3,19,1602000000,0.00,36.0,25.0,0,0,0,0.0
Status,1732151546000,26,17,6,21,1575420030,0.00,338.0,68.0,0,0,0,0.0
Status,1732151546000,26,18,6,19,1575420030,0.00,246.0,48.0,0,0,0,0.0
Status,1732151546000,26,19,6,27,1575420030,0.00,62.0,35.0,0,0,0,0.0
Status,1732151546000,26,20,6,13,1575420030,0.00,122.0,27.0,0,0,0,0.0
Status,1732151546000,26,21,6,29,1575420030,0.00,192.0,27.0,0,0,0,0.0
Status,1732151546000,26,22,6,15,1575420030,0.00,64.0,23.0,0,0,0,0.0
Status,1732151546000,26,23,6,4,1575420030,0.00,313.0,22.0,0,0,0,0.0
Status,1732151546000,26,24,6,26,1575420030,0.00,168.0,4.0,0,0,0,0.0
Status,1732151546000,26,25,6,6,1575420030,0.00,328.0,3.0,0,0,0,0.0
Fix,GPS,37.4250650000,-122.1584650000,23.500000000000004,0.0,6.6,0.0,1732151547000,2.2,156.6,30431090000000,31.1,0,,,
Fix,FLP,37.4250464000,-122.1584593000,5.400000095367432,0.40918395,6.714,0.0,1732151547242,2.2,156.6,30431090000000,11.655643,0,,,
Raw,1732151547000,36087000000,,705779.92992739,-1416186728913999872,0.0,91.45967413552403,1264.7702251411572,0.0,0,7,0.0,16431,349964918352663,396,22.533000946044922,1002.3590060256804,0.14999,16,0.0,0.0,1575420030,,,,0,6.424829097136257,1,6.0,22.533000946044922,0.0,0.0,0.0,66.7128,C,30431090000000,
Raw,1732151547000,36087000000,,705779.92992739,-1416186728913999872,0.0,91.45967413552403,1264.7702251411572,0.0,0,15,0.0,16431,349964925652413,487,21.559999465942383,505.03931469002794,0.14999,16,0.0,0.0,1575420030,,,,0,6.098253426413763,1,6.0,21.559999465942383,0.0,0.0,0.0,66.7128,C,30431090000000,
Raw,1732151547000,36087000000,,705779.92992739,-1416186728913999872,0.0,91.45967413552403,1264.7702251411572,0.0,0,30,0.0,16431,349964927181467,797,13.095000267028809,866.2592615705734,0.14999,16,0.0,0.0,1575420030,,,,0,0.0,1,6.0,13.095000267028809,0.0,0.0,0.0,66.7128,C,30431090000000,
Raw,1732151547000,36087000000,,705779.92992739,-1416186728913999872,0.0,91.45967413552403,1264.7702251411572,0.0,0,11,0.0,17,72812,487,18.43199920654297,-95.14883642356021,0.14999,16,0.0,0.0,1602000000,,,,0,0.9395621528625462,3,6.0,18.43199920654297,0.0,0.0,105.06929375064209,66.7128,C,30431090000000,
Raw,1732151547000,36087000000,,705779.92992739,-1416186728913999872,0.0,91.45967413552403,1264.7702251411572,0.0,0,8,0.0,17,826666,487,5.0,929.2711994911941,0.14999,16,0.0,0.0,1605374980,,,,0,4.058368797426544,3,6.0,18.0,0.0,0.0,105.06929375064209,66.7128,C,30431090000000,
Raw,1732151547000,36087000000,,705779.92992739,-1416186728913999872,0.0,91.45967413552403,1264.7702251411572,0.0,0,13,0.0,16431,349964929882306,396,21.459999084472656,707.5079264989427,0.14999,16,0.0,0.0,1575420030,,,,0,5.896246888327246,1,6.0,21.459999084472656,0.0,0.0,0.0,66.7128,C,30431090000000,
