# 
# Header Description:
# 
# Version: v3.1.0.3 Platform: 13 Manufacturer: samsung Model: SM-S135DL GNSS Hardware Model Name: MediaTek,MT6631,MTK_MNLD_default,MNL_VER_default
# 
# Raw,utcTimeMillis,TimeNanos,LeapSecond,TimeUncertaintyNanos,FullBiasNanos,BiasNanos,BiasUncertaintyNanos,DriftNanosPerSecond,DriftUncertaintyNanosPerSecond,HardwareClockDiscontinuityCount,Svid,TimeOffsetNanos,State,ReceivedSvTimeNanos,ReceivedSvTimeUncertaintyNanos,Cn0DbHz,PseudorangeRateMetersPerSecond,PseudorangeRateUncertaintyMetersPerSecond,AccumulatedDeltaRangeState,AccumulatedDeltaRangeMeters,AccumulatedDeltaRangeUncertaintyMeters,CarrierFrequencyHz,CarrierCycles,CarrierPhase,CarrierPhaseUncertainty,MultipathIndicator,SnrInDb,ConstellationType,AgcDb,BasebandCn0DbHz,FullInterSignalBiasNanos,FullInterSignalBiasUncertaintyNanos,SatelliteInterSignalBiasNanos,SatelliteInterSignalBiasUncertaintyNanos,CodeType,ChipsetElapsedRealtimeNanos,IsFullTracking
# 
# UncalAccel,utcTimeMillis,elapsedRealtimeNanos,UncalAccelXMps2,UncalAccelYMps2,UncalAccelZMps2,BiasXMps2,BiasYMps2,BiasZMps2
# 
# Accel,utcTimeMillis,elapsedRealtimeNanos,AccelXMps2,AccelYMps2,AccelZMps2
# 
# UncalGyro,utcTimeMillis,elapsedRealtimeNanos,UncalGyroXRadPerSec,UncalGyroYRadPerSec,UncalGyroZRadPerSec,DriftXRadPerSec,DriftYRadPerSec,DriftZRadPerSec
# 
# Gyro,utcTimeMillis,elapsedRealtimeNanos,GyroXRadPerSec,GyroYRadPerSec,GyroZRadPerSec
# 
# UncalMag,utcTimeMillis,elapsedRealtimeNanos,UncalMagXMicroT,UncalMagYMicroT,UncalMagZMicroT,BiasXMicroT,BiasYMicroT,BiasZMicroT
# 
# Mag,utcTimeMillis,elapsedRealtimeNanos,MagXMicroT,MagYMicroT,MagZMicroT
# 
# Pressure,utcTimeMillis,elapsedRealtimeNanos,PressureHpa
# 
# OrientationDeg,utcTimeMillis,elapsedRealtimeNanos,yawDeg,rollDeg,pitchDeg
# 
# Fix,Provider,LatitudeDegrees,LongitudeDegrees,AltitudeMeters,SpeedMps,AccuracyMeters,BearingDegrees,UnixTimeMillis,SpeedAccuracyMps,BearingAccuracyDegrees,elapsedRealtimeNanos,VerticalAccuracyMeters,MockLocation,NumberOfUsedSignals,VerticalSpeedAccuracyMps,SolutionType
# 
# Nav,Svid,Type,Status,MessageId,Sub-messageId,Data(Bytes)
# 
# Status,UnixTimeMillis,SignalCount,SignalIndex,ConstellationType,Svid,CarrierFrequencyHz,Cn0DbHz,AzimuthDegrees,ElevationDegrees,UsedInFix,HasAlmanacData,HasEphemerisData,BasebandCn0DbHz
# 
# Agc,utcTimeMillis,TimeNanos,LeapSecond,TimeUncertaintyNanos,FullBiasNanos,BiasNanos,BiasUncertaintyNanos,DriftNanosPerSecond,DriftUncertaintyNanosPerSecond,HardwareClockDiscontinuityCount,AgcDb,CarrierFrequencyHz,ConstellationType
# 
Fix,FLP,37.4255694000,-122.1583153000,5.400000095367432,0.007394151,9.088,,1732150876801,1.9,,29760649000000,11.263707,0,,,
Status,,27,0,1,17,1575420030,0.00,129.0,79.0,0,0,0,0.0
Status,,27,1,1,22,1575420030,0.00,354.0,68.0,0,0,0,0.0
Status,,27,2,1,14,1575420030,0.00,43.0,58.0,0,0,0,0.0
Status,,27,3,1,13,1575420030,23.60,245.0,53.0,1,0,0,18.6
Status,,27,4,1,19,1575420030,0.00,198.0,52.0,0,0,0,0.0
Status,,27,5,2,133,1575420030,0.00,191.0,45.0,0,0,0,0.0
Status,,27,6,1,30,1575420030,27.80,125.0,44.0,1,0,0,22.8
Status,,27,7,1,15,1575420030,23.40,284.0,31.0,1,0,0,18.4
Status,,27,8,1,2,1575420030,0.00,54.0,19.0,0,0,0,0.0
Status,,27,9,1,7,1575420030,25.50,128.0,11.0,1,0,0,20.5
Status,,27,10,1,24,1575420030,0.00,312.0,10.0,0,0,0,0.0
Status,,27,11,1,21,1575420030,0.00,39.0,8.0,0,0,0,0.0
Status,,27,12,1,6,1575420030,0.00,165.0,5.0,0,0,0,0.0
Status,,27,13,3,20,1602000000,0.00,125.0,46.0,0,0,0,0.0
Status,,27,14,3,9,1602000000,0.00,71.0,38.0,0,0,0,0.0
Status,,27,15,3,8,1602000000,0.00,254.0,29.0,0,0,0,0.0
Status,,27,16,3,19,1602000000,0.00,40.0,29.0,0,0,0,0.0
Status,,27,17,3,11,1602000000,23.30,303.0,22.0,0,0,0,18.3
Status,,27,18,6,21,1575420030,0.00,327.0,67.0,0,0,0,0.0
Status,,27,19,6,19,1575420030,0.00,252.0,50.0,0,0,0,0.0
Status,,27,20,6,27,1575420030,0.00,59.0,38.0,0,0,0,0.0
Status,,27,21,6,29,1575420030,0.00,193.0,31.0,0,0,0,0.0
Status,,27,22,6,13,1575420030,0.00,125.0,23.0,0,0,0,0.0
Status,,27,23,6,15,1575420030,0.00,69.0,23.0,0,0,0,0.0
Status,,27,24,6,4,1575420030,0.00,316.0,20.0,0,0,0,0.0
Status,,27,25,6,26,1575420030,0.00,170.0,1.0,0,0,0,0.0
Status,,27,26,6,34,1575420030,0.00,25.0,1.0,0,0,0,0.0
Fix,GPS,37.4255800000,-122.1583450000,-0.5999999999999979,0.0,7.3,0.0,1732150877522,1.9,154.7,29761649000000,70.3,0,,,
Fix,FLP,37.4255732000,-122.1583249000,2.7363839216036467,0.02782226,9.117,,1732150877801,1.9,,29761649000000,15.0564995,0,,,
Raw,1732150877522,16514000000,,33353073.878863223,-1416186079008999936,0.0,186.94616918850917,1423.5618830079175,0.0,0,15,0.0,16431,349295447766009,797,18.41699981689453,470.17106540519745,0.14999,16,0.0,0.0,1575420030,,,,0,0.0,1,6.0,18.41699981689453,0.0,0.0,0.0,66.7128,C,29761649000000,
Raw,1732150877522,16514000000,,33353073.878863223,-1416186079008999936,0.0,186.94616918850917,1423.5618830079175,0.0,0,30,0.0,16431,349295450134584,487,22.829999923706055,861.9556326433263,0.14999,16,0.0,0.0,1575420030,,,,0,6.849416969566234,1,6.0,22.829999923706055,0.0,0.0,0.0,66.7128,C,29761649000000,
Raw,1732150877522,16514000000,,33353073.878863223,-1416186079008999936,0.0,186.94616918850917,1423.5618830079175,0.0,0,13,0.0,16431,349295452454766,487,18.56100082397461,678.7519322844355,0.14999,16,0.0,0.0,1575420030,,,,0,0.5875268282589978,1,6.0,18.56100082397461,0.0,0.0,0.0,66.7128,C,29761649000000,
Raw,1732150877522,16514000000,,33353073.878863223,-1416186079008999936,0.0,186.94616918850917,1423.5618830079175,0.0,0,7,0.0,16431,349295441639194,487,20.474000930786133,1023.5194208570944,0.14999,16,0.0,0.0,1575420030,,,,0,3.0249169258714654,1,6.0,20.474000930786133,0.0,0.0,0.0,66.7128,C,29761649000000,
Raw,1732150877522,16514000000,,33353073.878863223,-1416186079008999936,0.0,186.94616918850917,1423.5618830079175,0.0,0,11,0.0,17,933731,487,20.0,-50.829681793546946,0.14999,16,0.0,0.0,1602000000,,,,0,1.4506442423103088,3,6.0,20.0,0.0,0.0,49.72762092291757,66.7128,C,29761649000000,
Status,1732150877522,27,0,1,17,1575420030,0.00,129.0,79.0,0,0,0,0.0
Status,1732150877522,27,1,1,22,1575420030,0.00,354.0,68.0,0,0,0,0.0
Status,1732150877522,27,2,1,14,1575420030,0.00,43.0,58.0,0,0,0,0.0
Status,1732150877522,27,3,1,13,1575420030,23.60,245.0,53.0,1,0,0,18.6
Status,1732150877522,27,4,1,19,1575420030,0.00,198.0,52.0,0,0,0,0.0
Status,1732150877522,27,5,2,133,1575420030,0.00,191.0,45.0,0,0,0,0.0
Status,1732150877522,27,6,1,30,1575420030,24.70,125.0,44.0,1,0,0,19.7
Status,1732150877522,27,7,1,15,1575420030,24.10,284.0,31.0,1,0,0,19.1
Status,1732150877522,27,8,1,2,1575420030,0.00,54.0,19.0,0,0,0,0.0
Status,1732150877522,27,9,1,7,1575420030,25.60,128.0,11.0,1,0,0,20.6
Status,1732150877522,27,10,1,24,1575420030,0.00,312.0,10.0,0,0,0,0.0
Status,1732150877522,27,11,1,21,1575420030,0.00,39.0,8.0,0,0,0,0.0
Status,1732150877522,27,12,1,6,1575420030,0.00,165.0,5.0,0,0,0,0.0
Status,1732150877522,27,13,3,20,1602000000,0.00,125.0,46.0,0,0,0,0.0
Status,1732150877522,27,14,3,9,1602000000,0.00,71.0,38.0,0,0,0,0.0
Status,1732150877522,27,15,3,8,1602000000,0.00,254.0,29.0,0,0,0,0.0
Status,1732150877522,27,16,3,19,1602000000,0.00,40.0,29.0,0,0,0,0.0
Status,1732150877522,27,17,3,11,1602000000,28.00,303.0,22.0,0,0,0,23.0
Status,1732150877522,27,18,6,21,1575420030,0.00,327.0,67.0,0,0,0,0.0
Status,1732150877522,27,19,6,19,1575420030,0.00,252.0,50.0,0,0,0,0.0
Status,1732150877522,27,20,6,27,1575420030,0.00,59.0,38.0,0,0,0,0.0
Status,1732150877522,27,21,6,29,1575420030,0.00,193.0,31.0,0,0,0,0.0
Status,1732150877522,27,22,6,13,1575420030,0.00,125.0,23.0,0,0,0,0.0
Status,1732150877522,27,23,6,15,1575420030,0.00,69.0,23.0,0,0,0,0.0
Status,1732150877522,27,24,6,4,1575420030,0.00,316.0,20.0,0,0,0,0.0
Status,1732150877522,27,25,6,26,1575420030,0.00,170.0,1.0,0,0,0,0.0
Status,1732150877522,27,26,6,34,1575420030,0.00,25.0,1.0,0,0,0,0.0
Fix,GPS,37.4255900000,-122.1583183333,-0.5,0.0,7.3,0.0,1732150878522,2.0,147.3,29762649000000,71.3,0,,,
Raw,1732150878523,17514000000,,33353073.878863223,-1416186079009999872,0.0,188.62268047096586,1421.7055026501944,0.0,0,15,0.0,16431,349296448764429,797,19.141000747680664,469.75753904250746,0.14999,16,0.0,0.0,1575420030,,,,0,0.7090097825028616,1,6.0,19.141000747680664,0.0,0.0,0.0,66.7128,C,29762649000000,
Raw,1732150878523,17514000000,,33353073.878863223,-1416186079009999872,0.0,188.62268047096586,1421.7055026501944,0.0,0,30,0.0,16431,349296451131722,487,19.732999801635742,862.1711996945432,0.14999,16,0.0,0.0,1575420030,,,,0,1.732060231450487,1,6.0,19.732999801635742,0.0,0.0,0.0,66.7128,C,29762649000000,
Raw,1732150878523,17514000000,,33353073.878863223,-1416186079009999872,0.0,188.62268047096586,1421.7055026501944,0.0,0,13,0.0,16431,349296453452500,797,18.586000442504883,678.9448276285416,0.14999,16,0.0,0.0,1575420030,,,,0,0.5875268282589978,1,6.0,18.586000442504883,0.0,0.0,0.0,66.7128,C,29762649000000,
Raw,1732150878523,17514000000,,33353073.878863223,-1416186079009999872,0.0,188.62268047096586,1421.7055026501944,0.0,0,7,0.0,16431,349296442635803,487,20.575000762939453,1022.6040042240819,0.14999,16,0.0,0.0,1575420030,,,,0,6.2967711970056275,1,6.0,20.575000762939453,0.0,0.0,0.0,66.7128,C,29762649000000,
Raw,1732150878523,17514000000,,33353073.878863223,-1416186079009999872,0.0,188.62268047096586,1421.7055026501944,0.0,0,11,0.0,17,933893,396,23.0,-51.69390823283792,0.14999,16,0.0,0.0,1602000000,,,,0,8.447267730728761,3,6.0,23.0,0.0,0.0,49.72762092291757,66.7128,C,29762649000000,
Fix,FLP,37.4255798000,-122.1583227000,3.3957727209060424,0.0780839,8.492,,1732150878801,2.0,,29762649000000,11.359331,0,,,
Status,1732150878522,27,0,1,17,1575420030,24.60,129.0,79.0,1,0,0,19.6
Status,1732150878522,27,1,1,22,1575420030,0.00,354.0,68.0,0,0,0,0.0
Status,1732150878522,27,2,1,14,1575420030,0.00,43.0,58.0,0,0,0,0.0
Status,1732150878522,27,3,1,13,1575420030,23.60,245.0,53.0,1,0,0,18.6
Status,1732150878522,27,4,1,19,1575420030,0.00,198.0,52.0,0,0,0,0.0
Status,1732150878522,27,5,2,135,1575420030,0.00,197.0,45.0,0,0,0,0.0
Status,1732150878522,27,6,1,30,1575420030,24.70,125.0,44.0,1,0,0,19.7
Status,1732150878522,27,7,1,15,1575420030,24.10,284.0,31.0,1,0,0,19.1
Status,1732150878522,27,8,1,2,1575420030,0.00,54.0,19.0,0,0,0,0.0
Status,1732150878522,27,9,1,7,1575420030,28.90,128.0,11.0,1,0,0,23.9
Status,1732150878522,27,10,1,24,1575420030,0.00,312.0,10.0,0,0,0,0.0
Status,1732150878522,27,11,1,21,1575420030,0.00,39.0,8.0,0,0,0,0.0
Status,1732150878522,27,12,1,6,1575420030,0.00,165.0,5.0,0,0,0,0.0
Status,1732150878522,27,13,3,20,1602000000,0.00,125.0,46.0,0,0,0,0.0
Status,1732150878522,27,14,3,9,1602000000,0.00,71.0,38.0,0,0,0,0.0
Status,1732150878522,27,15,3,8,1602000000,0.00,254.0,29.0,0,0,0,0.0
Status,1732150878522,27,16,3,19,1602000000,0.00,40.0,29.0,0,0,0,0.0
Status,1732150878522,27,17,3,11,1602000000,31.20,303.0,22.0,0,0,0,26.2
Status,1732150878522,27,18,6,21,1575420030,0.00,327.0,67.0,0,0,0,0.0
Status,1732150878522,27,19,6,19,1575420030,0.00,252.0,50.0,0,0,0,0.0
Status,1732150878522,27,20,6,27,1575420030,0.00,59.0,38.0,0,0,0,0.0
Status,1732150878522,27,21,6,29,1575420030,0.00,193.0,31.0,0,0,0,0.0
Status,1732150878522,27,22,6,13,1575420030,0.00,125.0,23.0,0,0,0,0.0
Status,1732150878522,27,23,6,15,1575420030,0.00,69.0,23.0,0,0,0,0.0
Status,1732150878522,27,24,6,4,1575420030,0.00,316.0,20.0,0,0,0,0.0
Status,1732150878522,27,25,6,26,1575420030,0.00,170.0,1.0,0,0,0,0.0
Status,1732150878522,27,26,6,34,1575420030,0.00,25.0,1.0,0,0,0,0.0
Fix,GPS,37.4256033333,-122.1582916667,-0.5,0.0,7.4,0.0,1732150879524,2.0,144.1,29763649000000,60.3,0,,,
Fix,FLP,37.4255891000,-122.1583125000,2.026439772068377,0.13935483,7.882,0.0000000016598425,1732150879801,2.0,144.1,29763649000000,15.757619,0,,,
Raw,1732150879523,18514000000,,33353073.878863223,-1416186079009999872,0.0,202.63383832712847,1417.9188834446127,0.0,0,15,0.0,16431,349297448762864,797,19.141000747680664,468.14622179307736,0.14999,16,0.0,0.0,1575420030,,,,0,0.7090097825028616,1,6.0,19.141000747680664,0.0,0.0,0.0,66.7128,C,29763649000000,
Raw,1732150879523,18514000000,,33353073.878863223,-1416186079009999872,0.0,202.63383832712847,1417.9188834446127,0.0,0,30,0.0,16431,349297451128848,487,19.732999801635742,860.992363841617,0.14999,16,0.0,0.0,1575420030,,,,0,1.732060231450487,1,6.0,19.732999801635742,0.0,0.0,0.0,66.7128,C,29763649000000,
Raw,1732150879523,18514000000,,33353073.878863223,-1416186079009999872,0.0,202.63383832712847,1417.9188834446127,0.0,0,13,0.0,16431,349297453450238,1797,18.610000610351562,677.9988878160789,0.14999,16,0.0,0.0,1575420030,,,,0,0.5875268282589978,1,6.0,18.610000610351562,0.0,0.0,0.0,66.7128,C,29763649000000,
Raw,1732150879523,18514000000,,33353073.878863223,-1416186079009999872,0.0,202.63383832712847,1417.9188834446127,0.0,0,7,0.0,16431,349297442632418,396,23.926000595092773,1021.6815259118055,0.14999,16,0.0,0.0,1575420030,,,,0,8.472613210160489,1,6.0,23.926000595092773,0.0,0.0,0.0,66.7128,C,29763649000000,
Raw,1732150879523,18514000000,,33353073.878863223,-1416186079009999872,0.0,202.63383832712847,1417.9188834446127,0.0,0,11,0.0,17,934066,316,26.0,-53.84017411561293,0.14999,16,0.0,0.0,1602000000,,,,0,12.501542514250668,3,6.0,26.0,0.0,0.0,49.72762092291757,66.7128,C,29763649000000,
Raw,1732150879523,18514000000,,33353073.878863223,-1416186079009999872,0.0,202.63383832712847,1417.9188834446127,0.0,0,17,0.0,16431,349297456101701,487,19.558000564575195,416.4668087687988,0.14999,16,0.0,0.0,1575420030,,,,0,1.404251907687101,1,6.0,19.558000564575195,0.0,0.0,0.0,66.7128,C,29763649000000,
Status,1732150879524,27,0,1,17,1575420030,24.60,129.0,79.0,1,0,0,19.6
Status,1732150879524,27,1,1,22,1575420030,0.00,354.0,68.0,0,0,0,0.0
Status,1732150879524,27,2,1,14,1575420030,0.00,43.0,58.0,0,0,0,0.0
Status,1732150879524,27,3,1,13,1575420030,18.80,245.0,53.0,1,0,0,13.799999
Status,1732150879524,27,4,1,19,1575420030,0.00,198.0,52.0,0,0,0,0.0
Status,1732150879524,27,5,2,135,1575420030,0.00,197.0,45.0,0,0,0,0.0
Status,1732150879524,27,6,1,30,1575420030,24.80,125.0,44.0,1,0,0,19.8
Status,1732150879524,27,7,1,15,1575420030,24.10,284.0,31.0,1,0,0,19.1
Status,1732150879524,27,8,1,2,1575420030,0.00,54.0,19.0,0,0,0,0.0
Status,1732150879524,27,9,1,7,1575420030,29.00,128.0,11.0,1,0,0,24.0
Status,1732150879524,27,10,1,24,1575420030,0.00,312.0,10.0,0,0,0,0.0
Status,1732150879524,27,11,1,21,1575420030,0.00,39.0,8.0,0,0,0,0.0
Status,1732150879524,27,12,1,6,1575420030,0.00,165.0,5.0,0,0,0,0.0
Status,1732150879524,27,13,3,20,1602000000,0.00,125.0,46.0,0,0,0,0.0
Status,1732150879524,27,14,3,9,1602000000,0.00,71.0,38.0,0,0,0,0.0
Status,1732150879524,27,15,3,8,1602000000,0.00,254.0,29.0,0,0,0,0.0
Status,1732150879524,27,16,3,19,1602000000,0.00,40.0,29.0,0,0,0,0.0
Status,1732150879524,27,17,3,11,1602000000,30.50,303.0,22.0,0,0,0,25.5
Status,1732150879524,27,18,6,21,1575420030,0.00,327.0,67.0,0,0,0,0.0
Status,1732150879524,27,19,6,19,1575420030,0.00,252.0,50.0,0,0,0,0.0
Status,1732150879524,27,20,6,27,1575420030,0.00,59.0,38.0,0,0,0,0.0
Status,1732150879524,27,21,6,29,1575420030,0.00,193.0,31.0,0,0,0,0.0
Status,1732150879524,27,22,6,13,1575420030,0.00,125.0,23.0,0,0,0,0.0
Status,1732150879524,27,23,6,15,1575420030,0.00,69.0,23.0,0,0,0,0.0
Status,1732150879524,27,24,6,4,1575420030,0.00,316.0,20.0,0,0,0,0.0
Status,1732150879524,27,25,6,26,1575420030,0.00,170.0,1.0,0,0,0,0.0
Status,1732150879524,27,26,6,34,1575420030,0.00,25.0,1.0,0,0,0,0.0
Fix,GPS,37.4256116667,-122.1582750000,-0.5,0.0,7.5,0.0,1732150880524,2.0,140.2,29764649000000,61.8,0,,,
Fix,FLP,37.4255983000,-122.1583003000,2.5694664709447386,0.17573048,7.939,0.0000000014117592,1732150880801,2.0,140.2,29764649000000,17.803202,0,,,
Raw,1732150880525,19514000000,,33353073.878863223,-1416186079011000320,0.0,204.4596711525978,1412.0752395870954,0.0,0,15,0.0,16431,349298449761305,797,19.141000747680664,466.7420161631139,0.14999,16,0.0,0.0,1575420030,,,,0,0.7090097825028616,1,6.0,19.141000747680664,0.0,0.0,0.0,66.7128,C,29764649000000,
Raw,1732150880525,19514000000,,33353073.878863223,-1416186079011000320,0.0,204.4596711525978,1412.0752395870954,0.0,0,30,0.0,16431,349298452125980,797,19.756999969482422,859.5080174436903,0.14999,16,0.0,0.0,1575420030,,,,0,2.550159986775748,1,6.0,19.756999969482422,0.0,0.0,0.0,66.7128,C,29764649000000,
Raw,1732150880525,19514000000,,33353073.878863223,-1416186079011000320,0.0,204.4596711525978,1412.0752395870954,0.0,0,13,0.0,16431,349298454447992,797,13.800000190734863,676.1296334398479,0.14999,16,0.0,0.0,1575420030,,,,0,0.0,1,6.0,13.800000190734863,0.0,0.0,0.0,66.7128,C,29764649000000,
Raw,1732150880525,19514000000,,33353073.878863223,-1416186079011000320,0.0,204.4596711525978,1412.0752395870954,0.0,0,7,0.0,16431,349298443629022,396,24.04800033569336,1020.453444137696,0.14999,16,0.0,0.0,1575420030,,,,0,8.667809955943614,1,6.0,24.04800033569336,0.0,0.0,0.0,66.7128,C,29764649000000,
Raw,1732150880525,19514000000,,33353073.878863223,-1416186079011000320,0.0,204.4596711525978,1412.0752395870954,0.0,0,11,0.0,17,934249,316,26.0,-55.309167174532504,0.14999,16,0.0,0.0,1602000000,,,,0,11.715842038463862,3,6.0,26.0,0.0,0.0,49.72762092291757,66.7128,C,29764649000000,
Raw,1732150880525,19514000000,,33353073.878863223,-1416186079011000320,0.0,204.4596711525978,1412.0752395870954,0.0,0,17,0.0,16431,349298457100318,797,19.558000564575195,413.6935200715269,0.14999,16,0.0,0.0,1575420030,,,,0,1.404251907687101,1,6.0,19.558000564575195,0.0,0.0,0.0,66.7128,C,29764649000000,
Fix,FLP,37.4256031000,-122.1582930000,2.1098972614442353,0.16448179,7.366,0.0000000010130957,1732150881322,2.0,140.2,29765169000000,15.709423,0,,,
Fix,NLP,37.4256842000,-122.1581301000,-0.4000000059604645,,21.652,,1732150881321,,,29765169000000,19.656532,0,,,
Status,1732150880524,27,0,1,17,1575420030,24.60,129.0,79.0,1,0,0,19.6
Status,1732150880524,27,1,1,22,1575420030,0.00,354.0,68.0,0,0,0,0.0
Status,1732150880524,27,2,1,14,1575420030,0.00,43.0,58.0,0,0,0,0.0
Status,1732150880524,27,3,1,13,1575420030,18.80,245.0,53.0,1,0,0,13.799999
Status,1732150880524,27,4,1,19,1575420030,0.00,198.0,52.0,0,0,0,0.0
Status,1732150880524,27,5,2,135,1575420030,0.00,197.0,45.0,0,0,0,0.0
Status,1732150880524,27,6,1,30,1575420030,24.80,125.0,44.0,1,0,0,19.8
Status,1732150880524,27,7,1,15,1575420030,24.10,284.0,31.0,1,0,0,19.1
Status,1732150880524,27,8,1,2,1575420030,0.00,54.0,19.0,0,0,0,0.0
Status,1732150880524,27,9,1,7,1575420030,29.70,128.0,11.0,1,0,0,24.7
Status,1732150880524,27,10,1,24,1575420030,0.00,312.0,10.0,0,0,0,0.0
Status,1732150880524,27,11,1,21,1575420030,0.00,39.0,8.0,0,0,0,0.0
Status,1732150880524,27,12,1,6,1575420030,0.00,165.0,5.0,0,0,0,0.0
Status,1732150880524,27,13,3,20,1602000000,0.00,125.0,46.0,0,0,0,0.0
Status,1732150880524,27,14,3,9,1602000000,0.00,71.0,38.0,0,0,0,0.0
Status,1732150880524,27,15,3,8,1602000000,0.00,254.0,29.0,0,0,0,0.0
Status,1732150880524,27,16,3,19,1602000000,0.00,40.0,29.0,0,0,0,0.0
Status,1732150880524,27,17,3,11,1602000000,24.50,303.0,22.0,0,0,0,19.5
Status,1732150880524,27,18,6,21,1575420030,0.00,327.0,67.0,0,0,0,0.0
Status,1732150880524,27,19,6,19,1575420030,0.00,252.0,50.0,0,0,0,0.0
Status,1732150880524,27,20,6,27,1575420030,0.00,59.0,38.0,0,0,0,0.0
Status,1732150880524,27,21,6,29,1575420030,0.00,193.0,31.0,0,0,0,0.0
Status,1732150880524,27,22,6,13,1575420030,0.00,125.0,23.0,0,0,0,0.0
Status,1732150880524,27,23,6,15,1575420030,0.00,69.0,23.0,0,0,0,0.0
Status,1732150880524,27,24,6,4,1575420030,0.00,316.0,20.0,0,0,0,0.0
Status,1732150880524,27,25,6,26,1575420030,0.00,170.0,1.0,0,0,0,0.0
Status,1732150880524,27,26,6,34,1575420030,0.00,25.0,1.0,0,0,0,0.0
Fix,GPS,37.4256183333,-122.1582583333,-0.5,0.0,7.5,0.0,1732150881524,2.1,136.7,29765649000000,62.2,0,,,
Raw,1732150881526,20514000000,,33353073.878863223,-1416186079012000256,0.0,203.1742970589494,1408.7146630423642,0.0,0,15,0.0,16431,349299450759741,797,19.062999725341797,465.36995975716803,0.14999,16,0.0,0.0,1575420030,,,,0,0.0,1,6.0,19.062999725341797,0.0,0.0,0.0,66.7128,C,29765649000000,
Raw,1732150881526,20514000000,,33353073.878863223,-1416186079012000256,0.0,203.1742970589494,1408.7146630423642,0.0,0,30,0.0,16431,349299453123112,797,19.780000686645508,859.4079460151728,0.14999,16,0.0,0.0,1575420030,,,,0,2.550159986775748,1,6.0,19.780000686645508,0.0,0.0,0.0,66.7128,C,29765649000000,
Raw,1732150881526,20514000000,,33353073.878863223,-1416186079012000256,0.0,203.1742970589494,1408.7146630423642,0.0,0,13,0.0,16431,349299455445738,797,13.800000190734863,675.5789618325043,0.14999,16,0.0,0.0,1575420030,,,,0,0.0,1,6.0,13.800000190734863,0.0,0.0,0.0,66.7128,C,29765649000000,
Raw,1732150881526,20514000000,,33353073.878863223,-1416186079012000256,0.0,203.1742970589494,1408.7146630423642,0.0,0,7,0.0,16431,349299444625618,316,24.749000549316406,1019.9608920090319,0.14999,16,0.0,0.0,1575420030,,,,0,9.669387242809968,1,6.0,24.749000549316406,0.0,0.0,0.0,66.7128,C,29765649000000,
Raw,1732150881526,20514000000,,33353073.878863223,-1416186079012000256,0.0,203.1742970589494,1408.7146630423642,0.0,0,11,0.0,17,934434,487,20.0,-55.2415952299506,0.14999,16,0.0,0.0,1602000000,,,,0,3.416375079047504,3,6.0,20.0,0.0,0.0,49.72762092291757,66.7128,C,29765649000000,
Raw,1732150881526,20514000000,,33353073.878863223,-1416186079012000256,0.0,203.1742970589494,1408.7146630423642,0.0,0,17,0.0,16431,349299458098940,1797,19.558000564575195,412.5203056869622,0.14999,16,0.0,0.0,1575420030,,,,0,1.404251907687101,1,6.0,19.558000564575195,0.0,0.0,0.0,66.7128,C,29765649000000,
Fix,FLP,37.4256080000,-122.1582836000,2.65292478428423,0.16557017,7.385,0.0000000013490641,1732150881801,2.1,136.7,29765649000000,17.698944,0,,,
Status,1732150881524,27,0,1,17,1575420030,17.60,129.0,79.0,1,0,0,12.6
Status,1732150881524,27,1,1,22,1575420030,0.00,354.0,68.0,0,0,0,0.0
Status,1732150881524,27,2,1,14,1575420030,0.00,43.0,58.0,0,0,0,0.0
Status,1732150881524,27,3,1,13,1575420030,18.80,245.0,53.0,1,0,0,13.799999
Status,1732150881524,27,4,1,19,1575420030,22.50,198.0,52.0,1,0,0,17.5
Status,1732150881524,27,5,2,135,1575420030,0.00,197.0,45.0,0,0,0,0.0
Status,1732150881524,27,6,1,30,1575420030,21.00,125.0,44.0,1,0,0,16.0
Status,1732150881524,27,7,1,15,1575420030,24.00,284.0,31.0,1,0,0,19.0
Status,1732150881524,27,8,1,2,1575420030,0.00,54.0,19.0,0,0,0,0.0
Status,1732150881524,27,9,1,7,1575420030,28.50,128.0,11.0,1,0,0,23.5
Status,1732150881524,27,10,1,24,1575420030,0.00,312.0,10.0,0,0,0,0.0
Status,1732150881524,27,11,1,21,1575420030,0.00,39.0,8.0,0,0,0,0.0
Status,1732150881524,27,12,1,6,1575420030,0.00,165.0,5.0,0,0,0,0.0
Status,1732150881524,27,13,3,20,1602000000,0.00,125.0,46.0,0,0,0,0.0
Status,1732150881524,27,14,3,9,1602000000,0.00,71.0,38.0,0,0,0,0.0
Status,1732150881524,27,15,3,8,1602000000,0.00,254.0,29.0,0,0,0,0.0
Status,1732150881524,27,16,3,19,1602000000,0.00,40.0,29.0,0,0,0,0.0
Status,1732150881524,27,17,3,11,1602000000,24.70,303.0,22.0,0,0,0,19.7
Status,1732150881524,27,18,6,21,1575420030,0.00,327.0,67.0,0,0,0,0.0
Status,1732150881524,27,19,6,19,1575420030,0.00,252.0,50.0,0,0,0,0.0
Status,1732150881524,27,20,6,27,1575420030,0.00,59.0,38.0,0,0,0,0.0
Status,1732150881524,27,21,6,29,1575420030,0.00,193.0,31.0,0,0,0,0.0
Status,1732150881524,27,22,6,13,1575420030,0.00,125.0,23.0,0,0,0,0.0
Status,1732150881524,27,23,6,15,1575420030,0.00,69.0,23.0,0,0,0,0.0
Status,1732150881524,27,24,6,4,1575420030,0.00,316.0,20.0,0,0,0,0.0
Status,1732150881524,27,25,6,26,1575420030,0.00,170.0,1.0,0,0,0,0.0
Status,1732150881524,27,26,6,34,1575420030,0.00,25.0,1.0,0,0,0,0.0
Fix,GPS,37.4255916667,-122.1582566667,-0.5,0.0,7.5,0.0,1732150882527,2.1,141.1,29766649000000,57.8,0,,,
Raw,1732150882526,21514000000,,33353073.878863223,-1416186079012000256,0.0,192.0415266696248,1405.375072903324,0.0,0,15,0.0,16431,349300450758189,797,18.98900032043457,465.3278219736651,0.14999,16,0.0,0.0,1575420030,,,,0,0.0,1,6.0,18.98900032043457,0.0,0.0,0.0,66.7128,C,29766649000000,
Raw,1732150882526,21514000000,,33353073.878863223,-1416186079012000256,0.0,192.0415266696248,1405.375072903324,0.0,0,30,0.0,16431,349300453120235,797,16.003999710083008,858.3231419966568,0.14999,16,0.0,0.0,1575420030,,,,0,0.0,1,6.0,16.003999710083008,0.0,0.0,0.0,66.7128,C,29766649000000,
Raw,1732150882526,21514000000,,33353073.878863223,-1416186079012000256,0.0,192.0415266696248,1405.375072903324,0.0,0,13,0.0,16431,349300455443487,797,13.800000190734863,674.3646782080095,0.14999,16,0.0,0.0,1575420030,,,,0,0.0,1,6.0,13.800000190734863,0.0,0.0,0.0,66.7128,C,29766649000000,
Raw,1732150882526,21514000000,,33353073.878863223,-1416186079012000256,0.0,192.0415266696248,1405.375072903324,0.0,0,7,0.0,16431,349300444622218,487,23.51099967956543,1018.7526015202283,0.14999,16,0.0,0.0,1575420030,,,,0,7.85923681483145,1,6.0,23.51099967956543,0.0,0.0,0.0,66.7128,C,29766649000000,
Raw,1732150882526,21514000000,,33353073.878863223,-1416186079012000256,0.0,192.0415266696248,1405.375072903324,0.0,0,11,0.0,17,934615,487,19.0,-56.26125084805675,0.14999,16,0.0,0.0,1602000000,,,,0,3.7612696040396827,3,6.0,19.0,0.0,0.0,49.72762092291757,66.7128,C,29766649000000,
Raw,1732150882526,21514000000,,33353073.878863223,-1416186079012000256,0.0,192.0415266696248,1405.375072903324,0.0,0,19,0.0,16431,349300454711361,797,17.506000518798828,-52.789490421213195,0.14999,16,0.0,0.0,1575420030,,,,0,0.0,1,6.0,17.506000518798828,0.0,0.0,0.0,66.7128,C,29766649000000,
Raw,1732150882526,21514000000,,33353073.878863223,-1416186079012000256,0.0,192.0415266696248,1405.375072903324,0.0,0,17,0.0,16431,349300458097561,1797,12.600000381469727,412.0814594874374,0.14999,16,0.0,0.0,1575420030,,,,0,0.0,1,6.0,12.600000381469727,0.0,0.0,0.0,66.7128,C,29766649000000,
Fix,FLP,37.4256029000,-122.1582755000,2.3602746734187745,0.05235077,7.428,,1732150882802,2.1,,29766649000000,15.715809,0,,,
Status,1732150882527,27,0,1,17,1575420030,17.60,129.0,79.0,1,0,0,12.6
Status,1732150882527,27,1,1,22,1575420030,0.00,354.0,68.0,0,0,0,0.0
Status,1732150882527,27,2,1,14,1575420030,0.00,43.0,58.0,0,0,0,0.0
Status,1732150882527,27,3,1,13,1575420030,20.90,245.0,53.0,1,0,0,15.9
Status,1732150882527,27,4,1,19,1575420030,22.50,198.0,52.0,1,0,0,17.5
Status,1732150882527,27,5,2,135,1575420030,0.00,197.0,45.0,0,0,0,0.0
Status,1732150882527,27,6,1,30,1575420030,21.00,125.0,44.0,1,0,0,16.0
Status,1732150882527,27,7,1,15,1575420030,23.90,284.0,31.0,1,0,0,18.9
Status,1732150882527,27,8,1,2,1575420030,0.00,54.0,19.0,0,0,0,0.0
Status,1732150882527,27,9,1,7,1575420030,26.50,128.0,11.0,1,0,0,21.5
Status,1732150882527,27,10,1,24,1575420030,0.00,312.0,10.0,0,0,0,0.0
Status,1732150882527,27,11,1,21,1575420030,0.00,39.0,8.0,0,0,0,0.0
Status,1732150882527,27,12,1,6,1575420030,0.00,165.0,5.0,0,0,0,0.0
Status,1732150882527,27,13,3,20,1602000000,0.00,125.0,46.0,0,0,0,0.0
Status,1732150882527,27,14,3,9,1602000000,0.00,71.0,38.0,0,0,0,0.0
Status,1732150882527,27,15,3,8,1602000000,0.00,254.0,29.0,0,0,0,0.0
Status,1732150882527,27,16,3,19,1602000000,0.00,40.0,29.0,0,0,0,0.0
Status,1732150882527,27,17,3,11,1602000000,22.90,303.0,22.0,0,0,0,17.9
Status,1732150882527,27,18,6,21,1575420030,0.00,327.0,67.0,0,0,0,0.0
Status,1732150882527,27,19,6,19,1575420030,0.00,252.0,50.0,0,0,0,0.0
Status,1732150882527,27,20,6,27,1575420030,0.00,59.0,38.0,0,0,0,0.0
Status,1732150882527,27,21,6,29,1575420030,0.00,193.0,31.0,0,0,0,0.0
Status,1732150882527,27,22,6,13,1575420030,0.00,125.0,23.0,0,0,0,0.0
Status,1732150882527,27,23,6,15,1575420030,0.00,69.0,23.0,0,0,0,0.0
Status,1732150882527,27,24,6,4,1575420030,0.00,316.0,20.0,0,0,0,0.0
Status,1732150882527,27,25,6,26,1575420030,0.00,170.0,1.0,0,0,0,0.0
Status,1732150882527,27,26,6,34,1575420030,0.00,25.0,1.0,0,0,0,0.0
Fix,GPS,37.4257133333,-122.1580800000,-0.5999999999999979,0.0,14.4,0.0,1732150883559,2.7,174.2,29767649000000,58.1,0,,,
Raw,1732150883560,22514000000,,992260.6191780849,-1416186079046000128,0.0,265.9236375450826,1402.8861218928641,0.0,0,15,0.0,16431,349301484756646,797,18.948999404907227,464.4528241627558,0.14999,16,0.0,0.0,1575420030,,,,0,0.0,1,6.0,18.948999404907227,0.0,0.0,0.0,66.7128,C,29767649000000,
Raw,1732150883560,22514000000,,992260.6191780849,-1416186079046000128,0.0,265.9236375450826,1402.8861218928641,0.0,0,30,0.0,16431,349301487117373,1797,16.003999710083008,858.1031149374836,0.14999,16,0.0,0.0,1575420030,,,,0,0.0,1,6.0,16.003999710083008,0.0,0.0,0.0,66.7128,C,29767649000000,
Raw,1732150883560,22514000000,,992260.6191780849,-1416186079046000128,0.0,265.9236375450826,1402.8861218928641,0.0,0,13,0.0,16431,349301489441233,797,15.89799976348877,673.4703072375404,0.14999,16,0.0,0.0,1575420030,,,,0,0.0,1,6.0,15.89799976348877,0.0,0.0,0.0,66.7128,C,29767649000000,
Raw,1732150883560,22514000000,,992260.6191780849,-1416186079046000128,0.0,265.9236375450826,1402.8861218928641,0.0,0,7,0.0,16431,349301478618818,487,21.452999114990234,1018.882963836115,0.14999,16,0.0,0.0,1575420030,,,,0,4.623928723545887,1,6.0,21.452999114990234,0.0,0.0,0.0,66.7128,C,29767649000000,
Raw,1732150883560,22514000000,,992260.6191780849,-1416186079046000128,0.0,265.9236375450826,1402.8861218928641,0.0,0,11,0.0,17,934804,797,17.0,-56.23726486367169,0.14999,16,0.0,0.0,1602000000,,,,0,0.7622929462364452,3,6.0,17.0,0.0,0.0,49.72762092291757,66.7128,C,29767649000000,
Raw,1732150883560,22514000000,,992260.6191780849,-1416186079046000128,0.0,265.9236375450826,1402.8861218928641,0.0,0,19,0.0,16431,349301488711540,1797,17.506000518798828,-53.842423966208834,0.14999,16,0.0,0.0,1575420030,,,,0,0.0,1,6.0,17.506000518798828,0.0,0.0,0.0,66.7128,C,29767649000000,
Raw,1732150883560,22514000000,,992260.6191780849,-1416186079046000128,0.0,265.9236375450826,1402.8861218928641,0.0,0,17,0.0,16431,349301492096189,1797,12.600000381469727,410.93528390110725,0.14999,16,0.0,0.0,1575420030,,,,0,0.0,1,6.0,12.600000381469727,0.0,0.0,0.0,66.7128,C,29767649000000,
Fix,FLP,37.4256103000,-122.1582654000,2.757275659794262,0.08631107,9.197,,1732150883801,1.5,,29767649000000,19.775236,0,,,
Status,1732150883559,27,0,1,17,1575420030,0.00,129.0,79.0,0,0,0,0.0
Status,1732150883559,27,1,1,22,1575420030,0.00,354.0,68.0,0,0,0,0.0
Status,1732150883559,27,2,1,14,1575420030,0.00,43.0,58.0,0,0,0,0.0
Status,1732150883559,27,3,1,13,1575420030,20.90,245.0,53.0,0,0,0,15.9
Status,1732150883559,27,4,1,19,1575420030,16.40,198.0,52.0,0,0,0,11.4
Status,1732150883559,27,5,2,135,1575420030,0.00,197.0,45.0,0,0,0,0.0
Status,1732150883559,27,6,1,30,1575420030,18.10,125.0,44.0,0,0,0,13.1
Status,1732150883559,27,7,1,15,1575420030,23.90,284.0,31.0,0,0,0,18.9
Status,1732150883559,27,8,1,2,1575420030,0.00,54.0,19.0,0,0,0,0.0
Status,1732150883559,27,9,1,7,1575420030,23.80,128.0,11.0,0,0,0,18.8
Status,1732150883559,27,10,1,24,1575420030,0.00,312.0,10.0,0,0,0,0.0
Status,1732150883559,27,11,1,21,1575420030,0.00,39.0,8.0,0,0,0,0.0
Status,1732150883559,27,12,1,6,1575420030,0.00,165.0,5.0,0,0,0,0.0
Status,1732150883559,27,13,3,20,1602000000,0.00,125.0,46.0,0,0,0,0.0
Status,1732150883559,27,14,3,9,1602000000,0.00,71.0,38.0,0,0,0,0.0
Status,1732150883559,27,15,3,8,1602000000,0.00,254.0,29.0,0,0,0,0.0
Status,1732150883559,27,16,3,19,1602000000,0.00,40.0,29.0,0,0,0,0.0
Status,1732150883559,27,17,3,11,1602000000,29.90,303.0,22.0,0,0,0,24.9
Status,1732150883559,27,18,6,21,1575420030,0.00,327.0,67.0,0,0,0,0.0
Status,1732150883559,27,19,6,19,1575420030,0.00,252.0,50.0,0,0,0,0.0
Status,1732150883559,27,20,6,27,1575420030,0.00,59.0,38.0,0,0,0,0.0
Status,1732150883559,27,21,6,29,1575420030,0.00,193.0,31.0,0,0,0,0.0
Status,1732150883559,27,22,6,13,1575420030,0.00,125.0,23.0,0,0,0,0.0
Status,1732150883559,27,23,6,15,1575420030,0.00,69.0,23.0,0,0,0,0.0
Status,1732150883559,27,24,6,4,1575420030,0.00,316.0,20.0,0,0,0,0.0
Status,1732150883559,27,25,6,26,1575420030,0.00,170.0,1.0,0,0,0,0.0
Status,1732150883559,27,26,6,34,1575420030,0.00,25.0,1.0,0,0,0,0.0
Raw,1732150885000,23955000000,,704348.5751232607,-1416186079045999872,0.0,200.22682849649863,1404.0093243835802,0.0,0,15,0.0,16431,349302925754441,487,18.922000885009766,465.63769960978937,0.14999,16,0.0,0.0,1575420030,,,,0,0.0,1,6.0,18.922000885009766,0.0,0.0,0.0,66.7128,C,29769090000000,
Raw,1732150885000,23955000000,,704348.5751232607,-1416186079045999872,0.0,200.22682849649863,1404.0093243835802,0.0,0,30,0.0,16431,349302928113237,797,13.100000381469727,858.7097689363609,0.14999,16,0.0,0.0,1575420030,,,,0,0.0,1,6.0,13.100000381469727,0.0,0.0,0.0,66.7128,C,29769090000000,
Raw,1732150885000,23955000000,,704348.5751232607,-1416186079045999872,0.0,200.22682849649863,1404.0093243835802,0.0,0,13,0.0,16431,349302930437995,1797,15.89799976348877,673.6382079537253,0.14999,16,0.0,0.0,1575420030,,,,0,0.0,1,6.0,15.89799976348877,0.0,0.0,0.0,66.7128,C,29769090000000,
Raw,1732150885000,23955000000,,704348.5751232607,-1416186079045999872,0.0,200.22682849649863,1404.0093243835802,0.0,0,7,0.0,16431,349302919613917,487,18.823999404907227,1019.5202803896912,0.14999,16,0.0,0.0,1575420030,,,,0,0.08385590789402109,1,6.0,18.823999404907227,0.0,0.0,0.0,66.7128,C,29769090000000,
Raw,1732150885000,23955000000,,704348.5751232607,-1416186079045999872,0.0,200.22682849649863,1404.0093243835802,0.0,0,11,0.0,17,935065,316,25.0,-55.30030378220736,0.14999,16,0.0,0.0,1602000000,,,,0,10.937745011840518,3,6.0,25.0,0.0,0.0,49.72762092291757,66.7128,C,29769090000000,
Raw,1732150885000,23955000000,,704348.5751232607,-1416186079045999872,0.0,200.22682849649863,1404.0093243835802,0.0,0,19,0.0,16431,349302929711798,1797,11.399999618530273,-53.37286875356892,0.14999,16,0.0,0.0,1575420030,,,,0,0.0,1,6.0,11.399999618530273,0.0,0.0,0.0,66.7128,C,29769090000000,
Fix,FLP,37.4256243000,-122.1582480000,3.7578711216871308,0.10634289,12.261,0.000000000019541329,1732150886188,1.5,45.0,29770036000000,16.42247,0,,,
Fix,NLP,37.4256790000,-122.1581235000,5.400000095367432,,20.78,,1732150886188,,,29770036000000,23.499813,0,,,
Status,,27,0,1,17,1575420030,0.00,129.0,79.0,0,0,0,0.0
Status,,27,1,1,22,1575420030,0.00,354.0,68.0,0,0,0,0.0
Status,,27,2,1,14,1575420030,0.00,43.0,58.0,0,0,0,0.0
Status,,27,3,1,13,1575420030,17.90,245.0,53.0,0,0,0,12.9
Status,,27,4,1,19,1575420030,0.00,198.0,52.0,0,0,0,0.0
Status,,27,5,2,135,1575420030,0.00,197.0,45.0,0,0,0,0.0
Status,,27,6,1,30,1575420030,18.10,125.0,44.0,0,0,0,13.1
Status,,27,7,1,15,1575420030,23.90,284.0,31.0,0,0,0,18.9
Status,,27,8,1,2,1575420030,0.00,54.0,19.0,0,0,0,0.0
Status,,27,9,1,7,1575420030,24.30,128.0,11.0,0,0,0,19.3
Status,,27,10,1,24,1575420030,0.00,312.0,10.0,0,0,0,0.0
Status,,27,11,1,21,1575420030,0.00,39.0,8.0,0,0,0,0.0
Status,,27,12,1,6,1575420030,0.00,165.0,5.0,0,0,0,0.0
Status,,27,13,3,20,1602000000,0.00,125.0,46.0,0,0,0,0.0
Status,,27,14,3,9,1602000000,0.00,71.0,38.0,0,0,0,0.0
Status,,27,15,3,8,1602000000,0.00,254.0,29.0,0,0,0,0.0
Status,,27,16,3,19,1602000000,0.00,40.0,29.0,0,0,0,0.0
Status,,27,17,3,11,1602000000,35.10,303.0,22.0,0,0,0,30.099998
Status,,27,18,6,21,1575420030,0.00,327.0,67.0,0,0,0,0.0
Status,,27,19,6,19,1575420030,0.00,252.0,50.0,0,0,0,0.0
Status,,27,20,6,27,1575420030,0.00,59.0,38.0,0,0,0,0.0
Status,,27,21,6,29,1575420030,0.00,193.0,31.0,0,0,0,0.0
Status,,27,22,6,13,1575420030,0.00,125.0,23.0,0,0,0,0.0
Status,,27,23,6,15,1575420030,0.00,69.0,23.0,0,0,0,0.0
Status,,27,24,6,4,1575420030,0.00,316.0,20.0,0,0,0,0.0
Status,,27,25,6,26,1575420030,0.00,170.0,1.0,0,0,0,0.0
Status,,27,26,6,34,1575420030,0.00,25.0,1.0,0,0,0,0.0
Raw,1732150886000,24955000000,,704348.1581681417,-1416186079045999872,0.0,186.45229470628087,1407.3342265759502,0.0,0,15,0.0,16431,349303925752883,487,18.926000595092773,466.9770957491392,0.14999,16,0.0,0.0,1575420030,,,,0,0.4643206541626279,1,6.0,18.926000595092773,0.0,0.0,0.0,66.7128,C,29770090000000,
Raw,1732150886000,24955000000,,704348.1581681417,-1416186079045999872,0.0,186.45229470628087,1407.3342265759502,0.0,0,30,0.0,16431,349303928110372,1797,13.100000381469727,859.5258574755152,0.14999,16,0.0,0.0,1575420030,,,,0,0.0,1,6.0,13.100000381469727,0.0,0.0,0.0,66.7128,C,29770090000000,
Raw,1732150886000,24955000000,,704348.1581681417,-1416186079045999872,0.0,186.45229470628087,1407.3342265759502,0.0,0,13,0.0,16431,349303930435758,797,12.899999618530273,674.892399357745,0.14999,16,0.0,0.0,1575420030,,,,0,0.0,1,6.0,12.899999618530273,0.0,0.0,0.0,66.7128,C,29770090000000,
Raw,1732150886000,24955000000,,704348.1581681417,-1416186079045999872,0.0,186.45229470628087,1407.3342265759502,0.0,0,7,0.0,16431,349303919610513,797,19.264999389648438,1020.8328235644713,0.14999,16,0.0,0.0,1575420030,,,,0,0.946994248497016,1,6.0,19.264999389648438,0.0,0.0,0.0,66.7128,C,29770090000000,
Raw,1732150886000,24955000000,,704348.1581681417,-1416186079045999872,0.0,186.45229470628087,1407.3342265759502,0.0,0,11,0.0,17,935249,74,30.0,-54.95741842447429,0.14999,16,0.0,0.0,1602000000,,,,0,17.09670090765469,3,6.0,30.0,0.0,0.0,49.72762092291757,66.7128,C,29770090000000,
Status,,27,0,1,17,1575420030,0.00,129.0,79.0,0,0,0,0.0
Status,,27,1,1,22,1575420030,0.00,354.0,68.0,0,0,0,0.0
Status,,27,2,1,14,1575420030,0.00,43.0,58.0,0,0,0,0.0
Status,,27,3,1,13,1575420030,25.00,245.0,53.0,0,0,0,20.0
Status,,27,4,1,19,1575420030,0.00,198.0,52.0,0,0,0,0.0
Status,,27,5,2,135,1575420030,0.00,197.0,45.0,0,0,0,0.0
Status,,27,6,1,30,1575420030,18.10,125.0,44.0,0,0,0,13.1
Status,,27,7,1,15,1575420030,24.00,284.0,31.0,0,0,0,19.0
Status,,27,8,1,2,1575420030,0.00,54.0,19.0,0,0,0,0.0
Status,,27,9,1,7,1575420030,24.30,128.0,11.0,0,0,0,19.3
Status,,27,10,1,24,1575420030,0.00,312.0,10.0,0,0,0,0.0
Status,,27,11,1,21,1575420030,0.00,39.0,8.0,0,0,0,0.0
Status,,27,12,1,6,1575420030,0.00,165.0,5.0,0,0,0,0.0
Status,,27,13,3,20,1602000000,0.00,125.0,46.0,0,0,0,0.0
Status,,27,14,3,9,1602000000,0.00,71.0,38.0,0,0,0,0.0
Status,,27,15,3,8,1602000000,0.00,254.0,29.0,0,0,0,0.0
Status,,27,16,3,19,1602000000,0.00,40.0,29.0,0,0,0,0.0
Status,,27,17,3,11,1602000000,33.80,303.0,22.0,0,0,0,28.8
Status,,27,18,6,21,1575420030,0.00,327.0,67.0,0,0,0,0.0
Status,,27,19,6,19,1575420030,0.00,252.0,50.0,0,0,0,0.0
Status,,27,20,6,27,1575420030,0.00,59.0,38.0,0,0,0,0.0
Status,,27,21,6,29,1575420030,0.00,193.0,31.0,0,0,0,0.0
Status,,27,22,6,13,1575420030,0.00,125.0,23.0,0,0,0,0.0
Status,,27,23,6,15,1575420030,0.00,69.0,23.0,0,0,0,0.0
Status,,27,24,6,4,1575420030,0.00,316.0,20.0,0,0,0,0.0
Status,,27,25,6,26,1575420030,0.00,170.0,1.0,0,0,0,0.0
Status,,27,26,6,34,1575420030,0.00,25.0,1.0,0,0,0,0.0
Raw,1732150887000,25955000000,,704344.4055720707,-1416186079045999872,0.0,176.64331355660852,1411.9851614713618,0.0,0,15,0.0,16431,349304925751309,487,18.993000030517578,468.3186289756347,0.14999,16,0.0,0.0,1575420030,,,,0,2.6472100426639895,1,6.0,18.993000030517578,0.0,0.0,0.0,66.7128,C,29771090000000,
Raw,1732150887000,25955000000,,704344.4055720707,-1416186079045999872,0.0,176.64331355660852,1411.9851614713618,0.0,0,30,0.0,16431,349304928107503,1797,13.100000381469727,860.6328686169799,0.14999,16,0.0,0.0,1575420030,,,,0,0.0,1,6.0,13.100000381469727,0.0,0.0,0.0,66.7128,C,29771090000000,
Raw,1732150887000,25955000000,,704344.4055720707,-1416186079045999872,0.0,176.64331355660852,1411.9851614713618,0.0,0,13,0.0,16431,349304930433500,487,19.95199966430664,677.1481412984315,0.14999,16,0.0,0.0,1575420030,,,,0,2.150738368163347,1,6.0,19.95199966430664,0.0,0.0,0.0,66.7128,C,29771090000000,
Raw,1732150887000,25955000000,,704344.4055720707,-1416186079045999872,0.0,176.64331355660852,1411.9851614713618,0.0,0,7,0.0,16431,349304919607106,487,19.264999389648438,1022.0197431818182,0.14999,16,0.0,0.0,1575420030,,,,0,0.946994248497016,1,6.0,19.264999389648438,0.0,0.0,0.0,66.7128,C,29771090000000,
Raw,1732150887000,25955000000,,704344.4055720707,-1416186079045999872,0.0,176.64331355660852,1411.9851614713618,0.0,0,11,0.0,17,935418,235,29.0,-53.37603389586473,0.14999,16,0.0,0.0,1602000000,,,,0,15.590186483587015,3,6.0,29.0,0.0,0.0,49.72762092291757,66.7128,C,29771090000000,
Status,,27,0,1,17,1575420030,0.00,129.0,79.0,0,0,0,0.0
Status,,27,1,1,22,1575420030,0.00,354.0,68.0,0,0,0,0.0
Status,,27,2,1,14,1575420030,0.00,43.0,58.0,0,0,0,0.0
Status,,27,3,1,13,1575420030,25.00,245.0,53.0,0,0,0,20.0
Status,,27,4,1,19,1575420030,0.00,198.0,52.0,0,0,0,0.0
Status,,27,5,2,135,1575420030,0.00,197.0,45.0,0,0,0,0.0
Status,,27,6,1,30,1575420030,17.20,126.0,43.0,0,0,0,12.200001
Status,,27,7,1,15,1575420030,24.10,284.0,31.0,0,0,0,19.1
Status,,27,8,1,2,1575420030,0.00,54.0,19.0,0,0,0,0.0
Status,,27,9,1,7,1575420030,24.20,128.0,11.0,0,0,0,19.2
Status,,27,10,1,24,1575420030,0.00,312.0,10.0,0,0,0,0.0
Status,,27,11,1,21,1575420030,0.00,39.0,8.0,0,0,0,0.0
Status,,27,12,1,6,1575420030,0.00,165.0,5.0,0,0,0,0.0
Status,,27,13,3,20,1602000000,0.00,125.0,46.0,0,0,0,0.0
Status,,27,14,3,9,1602000000,0.00,71.0,38.0,0,0,0,0.0
Status,,27,15,3,8,1602000000,0.00,254.0,29.0,0,0,0,0.0
Status,,27,16,3,19,1602000000,0.00,40.0,29.0,0,0,0,0.0
Status,,27,17,3,11,1602000000,34.50,303.0,22.0,0,0,0,29.5
Status,,27,18,6,21,1575420030,0.00,327.0,67.0,0,0,0,0.0
Status,,27,19,6,19,1575420030,0.00,252.0,50.0,0,0,0,0.0
Status,,27,20,6,27,1575420030,0.00,59.0,38.0,0,0,0,0.0
Status,,27,21,6,29,1575420030,0.00,193.0,31.0,0,0,0,0.0
Status,,27,22,6,13,1575420030,0.00,125.0,23.0,0,0,0,0.0
Status,,27,23,6,15,1575420030,0.00,69.0,23.0,0,0,0,0.0
Status,,27,24,6,4,1575420030,0.00,316.0,20.0,0,0,0,0.0
Status,,27,25,6,26,1575420030,0.00,170.0,1.0,0,0,0,0.0
Status,,27,26,6,34,1575420030,0.00,25.0,1.0,0,0,0,0.0
Raw,1732150888000,26955000000,,704344.0407363416,-1416186079045999872,0.0,171.11533714571988,1417.9394899722522,0.0,0,15,0.0,16431,349305925749734,487,19.05699920654297,470.07262002124736,0.14999,16,0.0,0.0,1575420030,,,,0,2.6472100426639895,1,6.0,19.05699920654297,0.0,0.0,0.0,66.7128,C,29772090000000,
Raw,1732150888000,26955000000,,704344.0407363416,-1416186079045999872,0.0,171.11533714571988,1417.9394899722522,0.0,0,30,0.0,16431,349305928104630,1797,12.199999809265137,862.5467695311892,0.14999,16,0.0,0.0,1575420030,,,,0,0.0,1,6.0,12.199999809265137,0.0,0.0,0.0,66.7128,C,29772090000000,
Raw,1732150888000,26955000000,,704344.0407363416,-1416186079045999872,0.0,171.11533714571988,1417.9394899722522,0.0,0,13,0.0,16431,349305930431238,797,19.95199966430664,678.7231745248012,0.14999,16,0.0,0.0,1575420030,,,,0,2.150738368163347,1,6.0,19.95199966430664,0.0,0.0,0.0,66.7128,C,29772090000000,
Raw,1732150888000,26955000000,,704344.0407363416,-1416186079045999872,0.0,171.11533714571988,1417.9394899722522,0.0,0,7,0.0,16431,349305919603683,797,19.21500015258789,1023.4171194245987,0.14999,16,0.0,0.0,1575420030,,,,0,0.0,1,6.0,19.21500015258789,0.0,0.0,0.0,66.7128,C,29772090000000,
Raw,1732150888000,26955000000,,704344.0407363416,-1416186079045999872,0.0,171.11533714571988,1417.9394899722522,0.0,0,11,0.0,17,935594,74,30.0,-51.892009620063845,0.14999,16,0.0,0.0,1602000000,,,,0,16.43596772590854,3,6.0,30.0,0.0,0.0,49.72762092291757,66.7128,C,29772090000000,
Status,,26,0,1,17,1575420030,0.00,129.0,79.0,0,0,0,0.0
Status,,26,1,1,22,1575420030,0.00,354.0,68.0,0,0,0,0.0
Status,,26,2,1,14,1575420030,0.00,43.0,58.0,0,0,0,0.0
Status,,26,3,1,13,1575420030,25.00,245.0,53.0,0,0,0,20.0
Status,,26,4,1,19,1575420030,0.00,198.0,52.0,0,0,0,0.0
Status,,26,5,1,30,1575420030,17.20,126.0,43.0,0,0,0,12.200001
Status,,26,6,1,15,1575420030,24.10,284.0,31.0,0,0,0,19.1
Status,,26,7,1,2,1575420030,0.00,54.0,19.0,0,0,0,0.0
Status,,26,8,1,7,1575420030,24.20,128.0,11.0,0,0,0,19.2
Status,,26,9,1,24,1575420030,0.00,312.0,10.0,0,0,0,0.0
Status,,26,10,1,21,1575420030,0.00,39.0,8.0,0,0,0,0.0
Status,,26,11,1,6,1575420030,0.00,165.0,5.0,0,0,0,0.0
Status,,26,12,3,20,1602000000,0.00,125.0,46.0,0,0,0,0.0
Status,,26,13,3,9,1602000000,0.00,71.0,38.0,0,0,0,0.0
Status,,26,14,3,8,1602000000,0.00,254.0,29.0,0,0,0,0.0
Status,,26,15,3,19,1602000000,0.00,40.0,29.0,0,0,0,0.0
Status,,26,16,3,11,1602000000,29.00,303.0,22.0,0,0,0,24.0
Status,,26,17,6,21,1575420030,0.00,327.0,67.0,0,0,0,0.0
Status,,26,18,6,19,1575420030,0.00,252.0,50.0,0,0,0,0.0
Status,,26,19,6,27,1575420030,0.00,59.0,38.0,0,0,0,0.0
Status,,26,20,6,29,1575420030,0.00,193.0,31.0,0,0,0,0.0
Status,,26,21,6,13,1575420030,0.00,125.0,23.0,0,0,0,0.0
Status,,26,22,6,15,1575420030,0.00,69.0,23.0,0,0,0,0.0
Status,,26,23,6,4,1575420030,0.00,316.0,20.0,0,0,0,0.0
Status,,26,24,6,26,1575420030,0.00,170.0,1.0,0,0,0,0.0
Status,,26,25,6,34,1575420030,0.00,25.0,1.0,0,0,0,0.0
Raw,1732150889000,27955000000,,704343.7280200024,-1416186079045999872,0.0,166.83546488391343,1421.5680609366725,0.0,0,15,0.0,16431,349306925748164,487,19.117000579833984,471.4536429015218,0.14999,16,0.0,0.0,1575420030,,,,0,2.6472100426639895,1,6.0,19.117000579833984,0.0,0.0,0.0,66.7128,C,29773090000000,
Raw,1732150889000,27955000000,,704343.7280200024,-1416186079045999872,0.0,166.83546488391343,1421.5680609366725,0.0,0,30,0.0,16431,349306928101751,1837,12.199999809265137,863.4809553643507,0.14999,16,0.0,0.0,1575420030,,,,0,0.0,1,6.0,12.199999809265137,0.0,0.0,0.0,66.7128,C,29773090000000,
Raw,1732150889000,27955000000,,704343.7280200024,-1416186079045999872,0.0,166.83546488391343,1421.5680609366725,0.0,0,13,0.0,16431,349306930428974,797,19.95199966430664,679.4755221169146,0.14999,16,0.0,0.0,1575420030,,,,0,2.150738368163347,1,6.0,19.95199966430664,0.0,0.0,0.0,66.7128,C,29773090000000,
Raw,1732150889000,27955000000,,704343.7280200024,-1416186079045999872,0.0,166.83546488391343,1421.5680609366725,0.0,0,7,0.0,16431,349306919600204,487,19.222999572753906,1024.6580237215821,0.14999,16,0.0,0.0,1575420030,,,,0,1.1786316994933186,1,6.0,19.222999572753906,0.0,0.0,0.0,66.7128,C,29773090000000,
Raw,1732150889000,27955000000,,704343.7280200024,-1416186079045999872,0.0,166.83546488391343,1421.5680609366725,0.0,0,11,0.0,17,935765,316,24.0,-51.52988978723343,0.14999,16,0.0,0.0,1602000000,,,,0,9.764783316090515,3,6.0,24.0,0.0,0.0,49.72762092291757,66.7128,C,29773090000000,
Status,,26,0,1,17,1575420030,0.00,129.0,79.0,0,0,0,0.0
Status,,26,1,1,22,1575420030,0.00,354.0,68.0,0,0,0,0.0
Status,,26,2,1,14,1575420030,0.00,43.0,58.0,0,0,0,0.0
Status,,26,3,1,13,1575420030,19.00,245.0,53.0,0,0,0,14.0
Status,,26,4,1,19,1575420030,29.60,198.0,52.0,0,0,0,24.6
Status,,26,5,1,30,1575420030,0.00,126.0,43.0,0,0,0,0.0
Status,,26,6,1,15,1575420030,24.20,284.0,31.0,0,0,0,19.2
Status,,26,7,1,2,1575420030,0.00,54.0,19.0,0,0,0,0.0
Status,,26,8,1,7,1575420030,24.10,128.0,11.0,0,0,0,19.1
Status,,26,9,1,24,1575420030,0.00,312.0,10.0,0,0,0,0.0
Status,,26,10,1,21,1575420030,0.00,39.0,8.0,0,0,0,0.0
Status,,26,11,1,6,1575420030,0.00,165.0,5.0,0,0,0,0.0
Status,,26,12,3,20,1602000000,0.00,125.0,46.0,0,0,0,0.0
Status,,26,13,3,9,1602000000,0.00,71.0,38.0,0,0,0,0.0
Status,,26,14,3,8,1602000000,0.00,254.0,29.0,0,0,0,0.0
Status,,26,15,3,19,1602000000,0.00,40.0,29.0,0,0,0,0.0
Status,,26,16,3,11,1602000000,25.00,303.0,22.0,0,0,0,20.0
Status,,26,17,6,21,1575420030,0.00,327.0,67.0,0,0,0,0.0
Status,,26,18,6,19,1575420030,0.00,252.0,50.0,0,0,0,0.0
Status,,26,19,6,27,1575420030,0.00,59.0,38.0,0,0,0,0.0
Status,,26,20,6,29,1575420030,0.00,193.0,31.0,0,0,0,0.0
Status,,26,21,6,13,1575420030,0.00,125.0,23.0,0,0,0,0.0
Status,,26,22,6,15,1575420030,0.00,69.0,23.0,0,0,0,0.0
Status,,26,23,6,4,1575420030,0.00,316.0,20.0,0,0,0,0.0
Status,,26,24,6,26,1575420030,0.00,170.0,1.0,0,0,0,0.0
Status,,26,25,6,34,1575420030,0.00,25.0,1.0,0,0,0,0.0
Raw,1732150890000,28955000000,,704335.1283206731,-1416186079045999872,0.0,154.42854337502968,1423.965679172456,0.0,0,15,0.0,16431,349307925746590,487,19.194000244140625,471.78233619621136,0.14999,16,0.0,0.0,1575420030,,,,0,3.3868813677273897,1,6.0,19.194000244140625,0.0,0.0,0.0,66.7128,C,29774090000000,
Raw,1732150890000,28955000000,,704335.1283206731,-1416186079045999872,0.0,154.42854337502968,1423.965679172456,0.0,0,13,0.0,16431,349307930426686,797,14.0,679.5664876958549,0.14999,16,0.0,0.0,1575420030,,,,0,0.0,1,6.0,14.0,0.0,0.0,0.0,66.7128,C,29774090000000,
Raw,1732150890000,28955000000,,704335.1283206731,-1416186079045999872,0.0,154.42854337502968,1423.965679172456,0.0,0,19,0.0,16431,349307929712684,316,24.63599967956543,-48.4329918163186,0.14999,16,0.0,0.0,1575420030,,,,0,9.495663659108114,1,6.0,24.63599967956543,0.0,0.0,0.0,66.7128,C,29774090000000,
Raw,1732150890000,28955000000,,704335.1283206731,-1416186079045999872,0.0,154.42854337502968,1423.965679172456,0.0,0,7,0.0,16431,349307919596802,487,19.114999771118164,1025.080981142763,0.14999,16,0.0,0.0,1575420030,,,,0,0.0,1,6.0,19.114999771118164,0.0,0.0,0.0,66.7128,C,29774090000000,
Raw,1732150890000,28955000000,,704335.1283206731,-1416186079045999872,0.0,154.42854337502968,1423.965679172456,0.0,0,11,0.0,17,935937,487,20.0,-51.39844659280331,0.14999,16,0.0,0.0,1602000000,,,,0,4.233967836378337,3,6.0,20.0,0.0,0.0,49.72762092291757,66.7128,C,29774090000000,
Status,,26,0,1,17,1575420030,0.00,129.0,79.0,0,0,0,0.0
Status,,26,1,1,22,1575420030,0.00,354.0,68.0,0,0,0,0.0
Status,,26,2,1,14,1575420030,0.00,43.0,58.0,0,0,0,0.0
Status,,26,3,1,13,1575420030,25.60,245.0,53.0,1,0,0,20.6
Status,,26,4,1,19,1575420030,29.90,198.0,52.0,1,0,0,24.9
Status,,26,5,1,30,1575420030,0.00,126.0,43.0,0,0,0,0.0
Status,,26,6,1,15,1575420030,29.00,284.0,31.0,1,0,0,24.0
Status,,26,7,1,2,1575420030,0.00,54.0,19.0,0,0,0,0.0
Status,,26,8,1,7,1575420030,24.00,128.0,11.0,1,0,0,19.0
Status,,26,9,1,24,1575420030,0.00,312.0,10.0,0,0,0,0.0
Status,,26,10,1,21,1575420030,27.20,39.0,8.0,1,0,0,22.2
Status,,26,11,1,6,1575420030,0.00,165.0,5.0,0,0,0,0.0
Status,,26,12,3,20,1602000000,0.00,125.0,46.0,0,0,0,0.0
Status,,26,13,3,9,1602000000,0.00,71.0,38.0,0,0,0,0.0
Status,,26,14,3,8,1602000000,26.50,254.0,29.0,1,0,0,21.5
Status,,26,15,3,19,1602000000,0.00,40.0,29.0,0,0,0,0.0
Status,,26,16,3,11,1602000000,28.10,303.0,22.0,0,0,0,23.1
Status,,26,17,6,21,1575420030,0.00,327.0,67.0,0,0,0,0.0
Status,,26,18,6,19,1575420030,0.00,252.0,50.0,0,0,0,0.0
Status,,26,19,6,27,1575420030,0.00,59.0,38.0,0,0,0,0.0
Status,,26,20,6,29,1575420030,0.00,193.0,31.0,0,0,0,0.0
Status,,26,21,6,13,1575420030,0.00,125.0,23.0,0,0,0,0.0
Status,,26,22,6,15,1575420030,0.00,69.0,23.0,0,0,0,0.0
Status,,26,23,6,4,1575420030,0.00,316.0,20.0,0,0,0,0.0
Status,,26,24,6,26,1575420030,0.00,170.0,1.0,0,0,0,0.0
Status,,26,25,6,34,1575420030,0.00,25.0,1.0,0,0,0,0.0
Fix,GPS,37.4248766667,-122.1587150000,-0.5999999999999979,0.0,7.0,0.0,1732150891000,2.1,179.9,29775090000000,37.6,0,,,
Raw,1732150891000,29955000000,,704310.1110135332,-1416186079045999872,0.0,106.66119890161933,1424.5287683338213,0.0,0,15,0.0,16431,349308925744991,396,24.016000747680664,472.00840284949186,0.14999,16,0.0,0.0,1575420030,,,,0,8.619420473475355,1,6.0,24.016000747680664,0.0,0.0,0.0,66.7128,C,29775090000000,
Raw,1732150891000,29955000000,,704310.1110135332,-1416186079045999872,0.0,106.66119890161933,1424.5287683338213,0.0,0,13,0.0,16431,349308930424474,487,20.572999954223633,679.6913679186288,0.14999,16,0.0,0.0,1575420030,,,,0,3.207784514668861,1,6.0,20.572999954223633,0.0,0.0,0.0,66.7128,C,29775090000000,
Raw,1732150891000,29955000000,,704310.1110135332,-1416186079045999872,0.0,106.66119890161933,1424.5287683338213,0.0,0,19,0.0,16431,349308929712799,487,24.858999252319336,-46.9962652950077,0.14999,16,0.0,0.0,1575420030,,,,0,9.839704261260561,1,6.0,24.858999252319336,0.0,0.0,0.0,66.7128,C,29775090000000,
Raw,1732150891000,29955000000,,704310.1110135332,-1416186079045999872,0.0,106.66119890161933,1424.5287683338213,0.0,0,21,0.0,16431,349308917066681,396,22.155000686645508,876.709896463469,0.14999,16,0.0,0.0,1575420030,,,,0,5.774154059862472,1,6.0,22.155000686645508,0.0,0.0,0.0,66.7128,C,29775090000000,
Raw,1732150891000,29955000000,,704310.1110135332,-1416186079045999872,0.0,106.66119890161933,1424.5287683338213,0.0,0,7,0.0,16431,349308919593384,487,19.01300048828125,1025.0354518948766,0.14999,16,0.0,0.0,1575420030,,,,0,0.0,1,6.0,19.01300048828125,0.0,0.0,0.0,66.7128,C,29775090000000,
Raw,1732150891000,29955000000,,704310.1110135332,-1416186079045999872,0.0,106.66119890161933,1424.5287683338213,0.0,0,11,0.0,17,936110,396,21.5,-51.24260622568438,0.14999,16,0.0,0.0,1602000000,,,,0,8.670942828705464,3,6.0,21.5,0.0,0.0,179.1694079896706,66.7128,C,29775090000000,
Raw,1732150891000,29955000000,,704310.1110135332,-1416186079045999872,0.0,106.66119890161933,1424.5287683338213,0.0,0,8,0.0,17,864743,487,5.0,910.5615257900217,0.14999,16,0.0,0.0,1605374980,,,,0,6.405750657752846,3,6.0,20.0,0.0,0.0,179.1694079896706,66.7128,C,29775090000000,
Fix,FLP,37.4250273000,-122.1585468000,5.400000095367432,2.6796017,7.0,180.0,1732150891242,2.1,179.9,29775090000000,16.723637,0,,,
Fix,NLP,37.4257176000,-122.1580932000,5.400000095367432,,64.1,,1732150891340,,,29775188000000,9.585216,0,,,
Status,1732150891000,26,0,1,17,1575420030,0.00,129.0,79.0,0,0,0,0.0
Status,1732150891000,26,1,1,22,1575420030,0.00,354.0,68.0,0,0,0,0.0
Status,1732150891000,26,2,1,14,1575420030,0.00,43.0,58.0,0,0,0,0.0
Status,1732150891000,26,3,1,13,1575420030,31.20,245.0,53.0,1,0,0,26.2
Status,1732150891000,26,4,1,19,1575420030,0.00,198.0,52.0,0,0,0,0.0
Status,1732150891000,26,5,1,30,1575420030,0.00,126.0,43.0,0,0,0,0.0
Status,1732150891000,26,6,1,15,1575420030,29.10,284.0,31.0,1,0,0,24.1
Status,1732150891000,26,7,1,2,1575420030,0.00,54.0,19.0,0,0,0,0.0
Status,1732150891000,26,8,1,7,1575420030,0.00,128.0,11.0,0,0,0,0.0
Status,1732150891000,26,9,1,24,1575420030,0.00,312.0,10.0,0,0,0,0.0
Status,1732150891000,26,10,1,21,1575420030,29.00,39.0,8.0,1,0,0,24.0
Status,1732150891000,26,11,1,6,1575420030,0.00,165.0,5.0,0,0,0,0.0
Status,1732150891000,26,12,3,20,1602000000,0.00,125.0,46.0,0,0,0,0.0
Status,1732150891000,26,13,3,9,1602000000,0.00,71.0,38.0,0,0,0,0.0
Status,1732150891000,26,14,3,8,1602000000,26.60,254.0,29.0,1,0,0,21.6
Status,1732150891000,26,15,3,19,1602000000,0.00,40.0,29.0,0,0,0,0.0
Status,1732150891000,26,16,3,11,1602000000,26.20,303.0,22.0,0,0,0,21.2
Status,1732150891000,26,17,6,21,1575420030,0.00,327.0,67.0,0,0,0,0.0
Status,1732150891000,26,18,6,19,1575420030,0.00,252.0,50.0,0,0,0,0.0
Status,1732150891000,26,19,6,27,1575420030,0.00,59.0,38.0,0,0,0,0.0
Status,1732150891000,26,20,6,29,1575420030,0.00,193.0,31.0,0,0,0,0.0
Status,1732150891000,26,21,6,13,1575420030,0.00,125.0,23.0,0,0,0,0.0
Status,1732150891000,26,22,6,15,1575420030,0.00,69.0,23.0,0,0,0,0.0
Status,1732150891000,26,23,6,4,1575420030,0.00,316.0,20.0,0,0,0,0.0
Status,1732150891000,26,24,6,26,1575420030,0.00,170.0,1.0,0,0,0,0.0
Status,1732150891000,26,25,6,34,1575420030,0.00,25.0,1.0,0,0,0,0.0
Fix,GPS,37.4247833333,-122.1587700000,-0.5,0.0,6.4,0.0,1732150892000,2.0,153.6,29776090000000,37.7,0,,,
Raw,1732150892000,30955000000,,704305.5766266141,-1416186079045999872,0.0,103.78552810708068,1426.315708712733,0.0,0,15,0.0,16431,349309925743404,396,24.052000045776367,472.4715468006947,0.14999,16,0.0,0.0,1575420030,,,,0,9.669387242809968,1,6.0,24.052000045776367,0.0,0.0,0.0,66.7128,C,29776090000000,
Raw,1732150892000,30955000000,,704305.5766266141,-1416186079045999872,0.0,103.78552810708068,1426.315708712733,0.0,0,13,0.0,16431,349309930422187,396,26.197999954223633,680.5739849097965,0.14999,16,0.0,0.0,1575420030,,,,0,11.659034186276253,1,6.0,26.197999954223633,0.0,0.0,0.0,66.7128,C,29776090000000,
Raw,1732150892000,30955000000,,704305.5766266141,-1416186079045999872,0.0,103.78552810708068,1426.315708712733,0.0,0,21,0.0,16431,349309917063705,487,23.95599937438965,877.05610458107,0.14999,16,0.0,0.0,1575420030,,,,0,8.521825181113625,1,6.0,23.95599937438965,0.0,0.0,0.0,66.7128,C,29776090000000,
Raw,1732150892000,30955000000,,704305.5766266141,-1416186079045999872,0.0,103.78552810708068,1426.315708712733,0.0,0,11,0.0,17,936279,396,21.600000381469727,-50.653875949901796,0.14999,16,0.0,0.0,1602000000,,,,0,6.010507645846647,3,6.0,21.600000381469727,0.0,0.0,179.1694079896706,66.7128,C,29776090000000,
Raw,1732150892000,30955000000,,704305.5766266141,-1416186079045999872,0.0,103.78552810708068,1426.315708712733,0.0,0,8,0.0,17,861685,487,5.0,912.7411661206104,0.14999,16,0.0,0.0,1605374980,,,,0,6.603165738278731,3,6.0,18.0,0.0,0.0,179.1694079896706,66.7128,C,29776090000000,
Fix,FLP,37.4248744000,-122.1586767000,5.400000095367432,1.9009185,6.8,180.0,1732150892243,2.0,153.6,29776090000000,13.275236,0,,,
