# 
# Header Description:
# 
# Version: v3.1.0.3 Platform: 13 Manufacturer: samsung Model: SM-S135DL GNSS Hardware Model Name: MediaTek,MT6631,MTK_MNLD_default,MNL_VER_default
# 
# Raw,utcTimeMillis,TimeNanos,LeapSecond,TimeUncertaintyNanos,FullBiasNanos,BiasNanos,BiasUncertaintyNanos,DriftNanosPerSecond,DriftUncertaintyNanosPerSecond,HardwareClockDiscontinuityCount,Svid,TimeOffsetNanos,State,ReceivedSvTimeNanos,ReceivedSvTimeUncertaintyNanos,Cn0DbHz,PseudorangeRateMetersPerSecond,PseudorangeRateUncertaintyMetersPerSecond,AccumulatedDeltaRangeState,AccumulatedDeltaRangeMeters,AccumulatedDeltaRangeUncertaintyMeters,CarrierFrequencyHz,CarrierCycles,CarrierPhase,CarrierPhaseUncertainty,MultipathIndicator,SnrInDb,ConstellationType,AgcDb,BasebandCn0DbHz,FullInterSignalBiasNanos,FullInterSignalBiasUncertaintyNanos,SatelliteInterSignalBiasNanos,SatelliteInterSignalBiasUncertaintyNanos,CodeType,ChipsetElapsedRealtimeNanos,IsFullTracking
# 
# UncalAccel,utcTimeMillis,elapsedRealtimeNanos,UncalAccelXMps2,UncalAccelYMps2,UncalAccelZMps2,BiasXMps2,BiasYMps2,BiasZMps2
# 
# Accel,utcTimeMillis,elapsedRealtimeNanos,AccelXMps2,AccelYMps2,AccelZMps2
# 
# UncalGyro,utcTimeMillis,elapsedRealtimeNanos,UncalGyroXRadPerSec,UncalGyroYRadPerSec,UncalGyroZRadPerSec,DriftXRadPerSec,DriftYRadPerSec,DriftZRadPerSec
# 
# Gyro,utcTimeMillis,elapsedRealtimeNanos,GyroXRadPerSec,GyroYRadPerSec,GyroZRadPerSec
# 
# UncalMag,utcTimeMillis,elapsedRealtimeNanos,UncalMagXMicroT,UncalMagYMicroT,UncalMagZMicroT,BiasXMicroT,BiasYMicroT,BiasZMicroT
# 
# Mag,utcTimeMillis,elapsedRealtimeNanos,MagXMicroT,MagYMicroT,MagZMicroT
# 
# Pressure,utcTimeMillis,elapsedRealtimeNanos,PressureHpa
# 
# OrientationDeg,utcTimeMillis,elapsedRealtimeNanos,yawDeg,rollDeg,pitchDeg
# 
# Fix,Provider,LatitudeDegrees,LongitudeDegrees,AltitudeMeters,SpeedMps,AccuracyMeters,BearingDegrees,UnixTimeMillis,SpeedAccuracyMps,BearingAccuracyDegrees,elapsedRealtimeNanos,VerticalAccuracyMeters,MockLocation,NumberOfUsedSignals,VerticalSpeedAccuracyMps,SolutionType
# 
# Nav,Svid,Type,Status,MessageId,Sub-messageId,Data(Bytes)
# 
# Status,UnixTimeMillis,SignalCount,SignalIndex,ConstellationType,Svid,CarrierFrequencyHz,Cn0DbHz,AzimuthDegrees,ElevationDegrees,UsedInFix,HasAlmanacData,HasEphemerisData,BasebandCn0DbHz
# 
# Agc,utcTimeMillis,TimeNanos,LeapSecond,TimeUncertaintyNanos,FullBiasNanos,BiasNanos,BiasUncertaintyNanos,DriftNanosPerSecond,DriftUncertaintyNanosPerSecond,HardwareClockDiscontinuityCount,AgcDb,CarrierFrequencyHz,ConstellationType
# 
Status,,26,0,1,17,1575420030,0.00,105.0,80.0,0,0,0,0.0
Status,,26,1,1,22,1575420030,0.00,4.0,67.0,0,0,0,0.0
Status,,26,2,1,19,1575420030,21.10,199.0,57.0,1,0,0,16.1
Status,,26,3,1,14,1575420030,0.00,48.0,55.0,0,0,0,0.0
Status,,26,4,1,13,1575420030,0.00,239.0,50.0,0,0,0,0.0
Status,,26,5,1,30,1575420030,25.40,128.0,40.0,1,0,0,20.4
Status,,26,6,1,15,1575420030,0.00,279.0,30.0,0,0,0,0.0
Status,,26,7,1,2,1575420030,0.00,51.0,18.0,0,0,0,0.0
Status,,26,8,1,24,1575420030,0.00,313.0,13.0,0,0,0,0.0
Status,,26,9,1,6,1575420030,0.00,164.0,9.0,0,0,0,0.0
Status,,26,10,1,21,1575420030,0.00,36.0,7.0,0,0,0,0.0
Status,,26,11,1,7,1575420030,29.60,130.0,7.0,1,0,0,24.6
Status,,26,12,3,20,1602000000,0.00,120.0,50.0,0,0,0,0.0
Status,,26,13,3,9,1602000000,0.00,76.0,35.0,0,0,0,0.0
Status,,26,14,3,8,1602000000,0.00,250.0,26.0,0,0,0,0.0
Status,,26,15,3,19,1602000000,0.00,36.0,26.0,0,0,0,0.0
Status,,26,16,3,11,1602000000,21.40,307.0,25.0,0,0,0,16.4
Status,,26,17,6,21,1575420030,0.00,335.0,68.0,0,0,0,0.0
Status,,26,18,6,19,1575420030,0.00,247.0,48.0,0,0,0,0.0
Status,,26,19,6,27,1575420030,0.00,62.0,36.0,0,0,0,0.0
Status,,26,20,6,29,1575420030,0.00,192.0,28.0,0,0,0,0.0
Status,,26,21,6,13,1575420030,0.00,122.0,26.0,0,0,0,0.0
Status,,26,22,6,15,1575420030,0.00,65.0,23.0,0,0,0,0.0
Status,,26,23,6,4,1575420030,0.00,313.0,21.0,0,0,0,0.0
Status,,26,24,6,26,1575420030,0.00,169.0,4.0,0,0,0,0.0
Status,,26,25,6,6,1575420030,0.00,329.0,3.0,0,0,0,0.0
Fix,GPS,37.4249500000,-122.1584733333,23.7,0.0,34.5,0.0,1732151404000,2.2,179.9,30288090000000,56.7,0,,,
Fix,FLP,37.4249915000,-122.1584417000,2.706261437398293,0.015914045,9.128,,1732151404242,1.5,,30288090000000,17.998968,0,,,
Status,1732151404000,26,0,1,17,1575420030,0.00,105.0,80.0,0,0,0,0.0
Status,1732151404000,26,1,1,22,1575420030,0.00,4.0,67.0,0,0,0,0.0
Status,1732151404000,26,2,1,19,1575420030,21.10,199.0,57.0,1,0,0,16.1
Status,1732151404000,26,3,1,14,1575420030,0.00,48.0,55.0,0,0,0,0.0
Status,1732151404000,26,4,1,13,1575420030,0.00,239.0,50.0,0,0,0,0.0
Status,1732151404000,26,5,1,30,1575420030,27.30,128.0,40.0,1,0,0,22.3
Status,1732151404000,26,6,1,15,1575420030,0.00,279.0,30.0,0,0,0,0.0
Status,1732151404000,26,7,1,2,1575420030,0.00,51.0,18.0,0,0,0,0.0
Status,1732151404000,26,8,1,24,1575420030,0.00,313.0,13.0,0,0,0,0.0
Status,1732151404000,26,9,1,6,1575420030,0.00,164.0,9.0,0,0,0,0.0
Status,1732151404000,26,10,1,21,1575420030,0.00,36.0,7.0,0,0,0,0.0
Status,1732151404000,26,11,1,7,1575420030,27.30,130.0,7.0,1,0,0,22.3
Status,1732151404000,26,12,3,20,1602000000,0.00,120.0,50.0,0,0,0,0.0
Status,1732151404000,26,13,3,9,1602000000,0.00,76.0,35.0,0,0,0,0.0
Status,1732151404000,26,14,3,8,1602000000,0.00,250.0,26.0,0,0,0,0.0
Status,1732151404000,26,15,3,19,1602000000,0.00,36.0,26.0,0,0,0,0.0
Status,1732151404000,26,16,3,11,1602000000,21.90,307.0,25.0,0,0,0,16.9
Status,1732151404000,26,17,6,21,1575420030,0.00,335.0,68.0,0,0,0,0.0
Status,1732151404000,26,18,6,19,1575420030,0.00,247.0,48.0,0,0,0,0.0
Status,1732151404000,26,19,6,27,1575420030,0.00,62.0,36.0,0,0,0,0.0
Status,1732151404000,26,20,6,29,1575420030,0.00,192.0,28.0,0,0,0,0.0
Status,1732151404000,26,21,6,13,1575420030,0.00,122.0,26.0,0,0,0,0.0
Status,1732151404000,26,22,6,15,1575420030,0.00,65.0,23.0,0,0,0,0.0
Status,1732151404000,26,23,6,4,1575420030,0.00,313.0,21.0,0,0,0,0.0
Status,1732151404000,26,24,6,26,1575420030,0.00,169.0,4.0,0,0,0,0.0
Status,1732151404000,26,25,6,6,1575420030,0.00,329.0,3.0,0,0,0,0.0
Fix,GPS,37.4249500000,-122.1584750000,23.7,0.0,34.8,0.0,1732151405000,2.3,179.9,30289090000000,57.1,0,,,
Fix,FLP,37.4250559000,-122.1584134000,3.176591700174435,0.18852784,11.047,0.00000000196314,1732151405242,1.5,45.0,30289090000000,24.435978,0,,,
Status,1732151405000,26,0,1,17,1575420030,0.00,105.0,80.0,0,0,0,0.0
Status,1732151405000,26,1,1,22,1575420030,0.00,4.0,67.0,0,0,0,0.0
Status,1732151405000,26,2,1,19,1575420030,21.00,199.0,57.0,1,0,0,16.0
Status,1732151405000,26,3,1,14,1575420030,0.00,48.0,55.0,0,0,0,0.0
Status,1732151405000,26,4,1,13,1575420030,24.00,239.0,50.0,1,0,0,19.0
Status,1732151405000,26,5,1,30,1575420030,27.30,128.0,40.0,1,0,0,22.3
Status,1732151405000,26,6,1,15,1575420030,21.30,279.0,30.0,1,0,0,16.3
Status,1732151405000,26,7,1,2,1575420030,0.00,51.0,18.0,0,0,0,0.0
Status,1732151405000,26,8,1,24,1575420030,0.00,313.0,13.0,0,0,0,0.0
Status,1732151405000,26,9,1,6,1575420030,0.00,164.0,9.0,0,0,0,0.0
Status,1732151405000,26,10,1,7,1575420030,27.30,130.0,7.0,1,0,0,22.3
Status,1732151405000,26,11,1,21,1575420030,0.00,36.0,6.0,0,0,0,0.0
Status,1732151405000,26,12,3,20,1602000000,0.00,120.0,50.0,0,0,0,0.0
Status,1732151405000,26,13,3,9,1602000000,0.00,76.0,35.0,0,0,0,0.0
Status,1732151405000,26,14,3,8,1602000000,0.00,250.0,26.0,0,0,0,0.0
Status,1732151405000,26,15,3,19,1602000000,0.00,36.0,26.0,0,0,0,0.0
Status,1732151405000,26,16,3,11,1602000000,22.20,307.0,25.0,0,0,0,17.2
Status,1732151405000,26,17,6,21,1575420030,0.00,335.0,68.0,0,0,0,0.0
Status,1732151405000,26,18,6,19,1575420030,0.00,247.0,48.0,0,0,0,0.0
Status,1732151405000,26,19,6,27,1575420030,0.00,62.0,36.0,0,0,0,0.0
Status,1732151405000,26,20,6,29,1575420030,0.00,192.0,28.0,0,0,0,0.0
Status,1732151405000,26,21,6,13,1575420030,0.00,122.0,26.0,0,0,0,0.0
Status,1732151405000,26,22,6,15,1575420030,0.00,65.0,23.0,0,0,0,0.0
Status,1732151405000,26,23,6,4,1575420030,0.00,313.0,21.0,0,0,0,0.0
Status,1732151405000,26,24,6,26,1575420030,0.00,169.0,4.0,0,0,0,0.0
Status,1732151405000,26,25,6,6,1575420030,0.00,329.0,3.0,0,0,0,0.0
Fix,GPS,37.4249483333,-122.1584850000,23.7,0.0,5.9,0.0,1732151406000,2.3,179.9,30290090000000,57.2,0,,,
Raw,1732151406000,17844000000,,705926.2290547683,-1416186606156999936,0.0,137.77679276833243,1353.8469623271599,0.0,0,19,0.0,16431,349823930769860,797,16.01799964904785,-24.9831526924656,0.14999,16,0.0,0.0,1575420030,,,,0,0.0,1,6.0,16.01799964904785,0.0,0.0,0.0,66.7128,C,30290090000000,
Raw,1732151406000,17844000000,,705926.2290547683,-1416186606156999936,0.0,137.77679276833243,1353.8469623271599,0.0,0,7,0.0,16431,349823918828829,396,22.341999053955078,1024.0522059741968,0.14999,16,0.0,0.0,1575420030,,,,0,6.098253426413763,1,6.0,22.341999053955078,0.0,0.0,0.0,66.7128,C,30290090000000,
Raw,1732151406000,17844000000,,705926.2290547683,-1416186606156999936,0.0,137.77679276833243,1353.8469623271599,0.0,0,11,0.0,17,33957,487,20.0,-69.89593518707785,0.14999,16,0.0,0.0,1602000000,,,,0,0.0,3,6.0,20.0,0.0,0.0,108.67631620913818,66.7128,C,30290090000000,
Raw,1732151406000,17844000000,,705926.2290547683,-1416186606156999936,0.0,137.77679276833243,1353.8469623271599,0.0,0,13,0.0,16431,349823930217365,487,18.952999114990234,718.6542761745912,0.14999,16,0.0,0.0,1575420030,,,,0,0.37211864954826535,1,6.0,18.952999114990234,0.0,0.0,0.0,66.7128,C,30290090000000,
Raw,1732151406000,17844000000,,705926.2290547683,-1416186606156999936,0.0,137.77679276833243,1353.8469623271599,0.0,0,15,0.0,16431,349823925892058,797,16.3439998626709,514.8347465391065,0.14999,16,0.0,0.0,1575420030,,,,0,0.0,1,6.0,16.3439998626709,0.0,0.0,0.0,66.7128,C,30290090000000,
Raw,1732151406000,17844000000,,705926.2290547683,-1416186606156999936,0.0,137.77679276833243,1353.8469623271599,0.0,0,30,0.0,16431,349823927591823,487,22.341999053955078,881.5750218090367,0.14999,16,0.0,0.0,1575420030,,,,0,6.098253426413763,1,6.0,22.341999053955078,0.0,0.0,0.0,66.7128,C,30290090000000,
Fix,FLP,37.4249952000,-122.1584524000,2.5479872992772785,0.011564867,10.189,,1732151406242,2.3,,30290090000000,13.891444,0,,,
Status,1732151406000,26,0,1,17,1575420030,0.00,105.0,80.0,0,0,0,0.0
Status,1732151406000,26,1,1,22,1575420030,0.00,5.0,67.0,0,0,0,0.0
Status,1732151406000,26,2,1,19,1575420030,20.90,199.0,57.0,1,0,0,15.9
Status,1732151406000,26,3,1,14,1575420030,0.00,48.0,55.0,0,0,0,0.0
Status,1732151406000,26,4,1,13,1575420030,22.30,239.0,50.0,1,0,0,17.3
Status,1732151406000,26,5,1,30,1575420030,25.30,128.0,40.0,1,0,0,20.3
Status,1732151406000,26,6,1,15,1575420030,23.60,279.0,30.0,1,0,0,18.6
Status,1732151406000,26,7,1,2,1575420030,0.00,51.0,18.0,0,0,0,0.0
Status,1732151406000,26,8,1,24,1575420030,0.00,313.0,13.0,0,0,0,0.0
Status,1732151406000,26,9,1,6,1575420030,0.00,164.0,9.0,0,0,0,0.0
Status,1732151406000,26,10,1,7,1575420030,27.30,130.0,7.0,1,0,0,22.3
Status,1732151406000,26,11,1,21,1575420030,18.20,36.0,6.0,1,0,0,13.200001
Status,1732151406000,26,12,3,20,1602000000,0.00,120.0,50.0,0,0,0,0.0
Status,1732151406000,26,13,3,9,1602000000,0.00,76.0,35.0,0,0,0,0.0
Status,1732151406000,26,14,3,8,1602000000,0.00,250.0,26.0,0,0,0,0.0
Status,1732151406000,26,15,3,19,1602000000,0.00,36.0,26.0,0,0,0,0.0
Status,1732151406000,26,16,3,11,1602000000,25.50,307.0,25.0,0,0,0,20.5
Status,1732151406000,26,17,6,21,1575420030,0.00,335.0,68.0,0,0,0,0.0
Status,1732151406000,26,18,6,19,1575420030,0.00,247.0,48.0,0,0,0,0.0
Status,1732151406000,26,19,6,27,1575420030,0.00,62.0,36.0,0,0,0,0.0
Status,1732151406000,26,20,6,29,1575420030,0.00,192.0,28.0,0,0,0,0.0
Status,1732151406000,26,21,6,13,1575420030,0.00,122.0,26.0,0,0,0,0.0
Status,1732151406000,26,22,6,15,1575420030,0.00,65.0,23.0,0,0,0,0.0
Status,1732151406000,26,23,6,4,1575420030,0.00,313.0,21.0,0,0,0,0.0
Status,1732151406000,26,24,6,26,1575420030,0.00,169.0,4.0,0,0,0,0.0
Status,1732151406000,26,25,6,6,1575420030,0.00,329.0,3.0,0,0,0,0.0
Fix,GPS,37.4249416667,-122.1584866667,23.7,0.0,5.8,0.0,1732151407000,2.2,179.9,30291090000000,56.5,0,,,
Raw,1732151407000,18844000000,,9768939.884404965,-1416186606156999936,0.0,120.22911290355937,1348.9486587909214,0.0,0,19,0.0,16431,349824930769944,1797,15.911999702453613,-26.151767693825484,0.14999,16,0.0,0.0,1575420030,,,,0,0.0,1,6.0,15.911999702453613,0.0,0.0,0.0,66.7128,C,30291090000000,
Raw,1732151407000,18844000000,,9768939.884404965,-1416186606156999936,0.0,120.22911290355937,1348.9486587909214,0.0,0,7,0.0,16431,349824918825423,396,22.30299949645996,1022.8156687683371,0.14999,16,0.0,0.0,1575420030,,,,0,6.031438561273179,1,6.0,22.30299949645996,0.0,0.0,0.0,66.7128,C,30291090000000,
Raw,1732151407000,18844000000,,9768939.884404965,-1416186606156999936,0.0,120.22911290355937,1348.9486587909214,0.0,0,21,0.0,16431,349824916533977,797,13.199999809265137,895.5866943044701,0.14999,16,0.0,0.0,1575420030,,,,0,0.0,1,6.0,13.199999809265137,0.0,0.0,0.0,66.7128,C,30291090000000,
Raw,1732151407000,18844000000,,9768939.884404965,-1416186606156999936,0.0,120.22911290355937,1348.9486587909214,0.0,0,11,0.0,17,34194,487,20.0,-67.72531781920335,0.14999,16,0.0,0.0,1602000000,,,,0,5.0,3,6.0,20.0,0.0,0.0,108.67631620913818,66.7128,C,30291090000000,
Raw,1732151407000,18844000000,,9768939.884404965,-1416186606156999936,0.0,120.22911290355937,1348.9486587909214,0.0,0,13,0.0,16431,349824930214975,797,17.29800033569336,717.4281456539627,0.14999,16,0.0,0.0,1575420030,,,,0,0.0,1,6.0,17.29800033569336,0.0,0.0,0.0,66.7128,C,30291090000000,
Raw,1732151407000,18844000000,,9768939.884404965,-1416186606156999936,0.0,120.22911290355937,1348.9486587909214,0.0,0,15,0.0,16431,349824925890356,487,18.617000579833984,513.8715706542296,0.14999,16,0.0,0.0,1575420030,,,,0,0.0,1,6.0,18.617000579833984,0.0,0.0,0.0,66.7128,C,30291090000000,
Raw,1732151407000,18844000000,,9768939.884404965,-1416186606156999936,0.0,120.22911290355937,1348.9486587909214,0.0,0,30,0.0,16431,349824927588895,487,20.305999755859375,880.9688323943216,0.14999,16,0.0,0.0,1575420030,,,,0,2.8225038992460054,1,6.0,20.305999755859375,0.0,0.0,0.0,66.7128,C,30291090000000,
Fix,FLP,37.4249690000,-122.1584685000,2.403427125812967,0.0933884,10.155,,1732151407242,2.2,,30291090000000,13.355004,0,,,
Status,1732151407000,27,0,1,17,1575420030,0.00,105.0,80.0,0,0,0,0.0
Status,1732151407000,27,1,1,22,1575420030,0.00,5.0,67.0,0,0,0,0.0
Status,1732151407000,27,2,1,19,1575420030,21.00,199.0,57.0,1,0,0,16.0
Status,1732151407000,27,3,1,14,1575420030,0.00,48.0,55.0,0,0,0,0.0
Status,1732151407000,27,4,1,13,1575420030,0.00,239.0,50.0,0,0,0,0.0
Status,1732151407000,27,5,2,133,1575420030,0.00,191.0,45.0,0,0,0,0.0
Status,1732151407000,27,6,1,30,1575420030,25.80,128.0,40.0,1,0,0,20.8
Status,1732151407000,27,7,1,15,1575420030,23.60,279.0,30.0,1,0,0,18.6
Status,1732151407000,27,8,1,2,1575420030,0.00,51.0,18.0,0,0,0,0.0
Status,1732151407000,27,9,1,24,1575420030,0.00,313.0,13.0,0,0,0,0.0
Status,1732151407000,27,10,1,6,1575420030,0.00,164.0,9.0,0,0,0,0.0
Status,1732151407000,27,11,1,7,1575420030,33.00,130.0,7.0,1,0,0,28.0
Status,1732151407000,27,12,1,21,1575420030,18.20,36.0,6.0,1,0,0,13.200001
Status,1732151407000,27,13,3,20,1602000000,0.00,120.0,50.0,0,0,0,0.0
Status,1732151407000,27,14,3,9,1602000000,0.00,76.0,35.0,0,0,0,0.0
Status,1732151407000,27,15,3,8,1602000000,0.00,250.0,26.0,0,0,0,0.0
Status,1732151407000,27,16,3,19,1602000000,0.00,36.0,26.0,0,0,0,0.0
Status,1732151407000,27,17,3,11,1602000000,26.30,307.0,25.0,0,0,0,21.3
Status,1732151407000,27,18,6,21,1575420030,0.00,335.0,68.0,0,0,0,0.0
Status,1732151407000,27,19,6,19,1575420030,0.00,247.0,48.0,0,0,0,0.0
Status,1732151407000,27,20,6,27,1575420030,0.00,62.0,36.0,0,0,0,0.0
Status,1732151407000,27,21,6,29,1575420030,0.00,192.0,28.0,0,0,0,0.0
Status,1732151407000,27,22,6,13,1575420030,0.00,122.0,26.0,0,0,0,0.0
Status,1732151407000,27,23,6,15,1575420030,0.00,65.0,23.0,0,0,0,0.0
Status,1732151407000,27,24,6,4,1575420030,0.00,313.0,21.0,0,0,0,0.0
Status,1732151407000,27,25,6,26,1575420030,0.00,169.0,4.0,0,0,0,0.0
Status,1732151407000,27,26,6,6,1575420030,0.00,329.0,3.0,0,0,0,0.0
Fix,GPS,37.4249400000,-122.1585000000,23.7,0.0,5.7,0.0,1732151408000,2.1,179.9,30292090000000,30.9,0,,,
Raw,1732151408000,19844000000,,994750.675148739,-1416186606156999936,0.0,99.42087912773512,1346.3780442461489,0.0,0,19,0.0,16431,349825930769994,797,15.980999946594238,-26.541925473161584,0.14999,16,0.0,0.0,1575420030,,,,0,0.0,1,6.0,15.980999946594238,0.0,0.0,0.0,66.7128,C,30292090000000,
Raw,1732151408000,19844000000,,994750.675148739,-1416186606156999936,0.0,99.42087912773512,1346.3780442461489,0.0,0,7,0.0,16431,349825918822091,316,27.957000732421875,1023.1178343073705,0.14999,16,0.0,0.0,1575420030,,,,0,14.010337215655527,1,6.0,27.957000732421875,0.0,0.0,0.0,66.7128,C,30292090000000,
Raw,1732151408000,19844000000,,994750.675148739,-1416186606156999936,0.0,99.42087912773512,1346.3780442461489,0.0,0,21,0.0,16431,349825916530990,797,13.199999809265137,894.8704913601684,0.14999,16,0.0,0.0,1575420030,,,,0,0.0,1,6.0,13.199999809265137,0.0,0.0,0.0,66.7128,C,30292090000000,
Raw,1732151408000,19844000000,,994750.675148739,-1416186606156999936,0.0,99.42087912773512,1346.3780442461489,0.0,0,11,0.0,17,34430,487,20.0,-72.01652464466353,0.14999,16,0.0,0.0,1602000000,,,,0,6.213956807072233,3,6.0,20.0,0.0,0.0,108.67631620913818,66.7128,C,30292090000000,
Raw,1732151408000,19844000000,,994750.675148739,-1416186606156999936,0.0,99.42087912773512,1346.3780442461489,0.0,0,15,0.0,16431,349825925888645,797,18.617000579833984,512.1455011167594,0.14999,16,0.0,0.0,1575420030,,,,0,0.0,1,6.0,18.617000579833984,0.0,0.0,0.0,66.7128,C,30292090000000,
Raw,1732151408000,19844000000,,994750.675148739,-1416186606156999936,0.0,99.42087912773512,1346.3780442461489,0.0,0,30,0.0,16431,349825927585932,797,20.81399917602539,880.242501515286,0.14999,16,0.0,0.0,1575420030,,,,0,3.6547678028800012,1,6.0,20.81399917602539,0.0,0.0,0.0,66.7128,C,30292090000000,
Fix,FLP,37.4249550000,-122.1584827000,2.8946162359761063,0.13172212,10.122,180.0,1732151408242,2.1,179.9,30292090000000,15.387693,0,,,
Fix,FLP,37.4249497000,-122.1584886000,2.403427125812967,0.13837871,10.089,180.0,1732151408446,2.1,179.9,30292294000000,10.792651,0,,,
Fix,NLP,37.4256873000,-122.1581096000,-0.4000000059604645,,82.5,,1732151408446,,,30292294000000,26.130083,0,,,
Status,1732151408000,27,0,1,17,1575420030,0.00,105.0,80.0,0,0,0,0.0
Status,1732151408000,27,1,1,22,1575420030,0.00,5.0,67.0,0,0,0,0.0
Status,1732151408000,27,2,1,19,1575420030,21.00,199.0,57.0,1,0,0,16.0
Status,1732151408000,27,3,1,14,1575420030,0.00,48.0,55.0,0,0,0,0.0
Status,1732151408000,27,4,1,13,1575420030,0.00,239.0,50.0,0,0,0,0.0
Status,1732151408000,27,5,2,133,1575420030,0.00,191.0,45.0,0,0,0,0.0
Status,1732151408000,27,6,1,30,1575420030,25.80,128.0,40.0,1,0,0,20.8
Status,1732151408000,27,7,1,15,1575420030,23.60,279.0,30.0,1,0,0,18.6
Status,1732151408000,27,8,1,2,1575420030,0.00,51.0,18.0,0,0,0,0.0
Status,1732151408000,27,9,1,24,1575420030,0.00,313.0,13.0,0,0,0,0.0
Status,1732151408000,27,10,1,6,1575420030,0.00,164.0,9.0,0,0,0,0.0
Status,1732151408000,27,11,1,7,1575420030,28.60,130.0,7.0,1,0,0,23.6
Status,1732151408000,27,12,1,21,1575420030,0.00,36.0,6.0,0,0,0,0.0
Status,1732151408000,27,13,3,20,1602000000,0.00,120.0,50.0,0,0,0,0.0
Status,1732151408000,27,14,3,9,1602000000,0.00,76.0,35.0,0,0,0,0.0
Status,1732151408000,27,15,3,8,1602000000,0.00,250.0,26.0,0,0,0,0.0
Status,1732151408000,27,16,3,19,1602000000,0.00,36.0,26.0,0,0,0,0.0
Status,1732151408000,27,17,3,11,1602000000,22.70,307.0,25.0,0,0,0,17.7
Status,1732151408000,27,18,6,21,1575420030,0.00,335.0,68.0,0,0,0,0.0
Status,1732151408000,27,19,6,19,1575420030,0.00,247.0,48.0,0,0,0,0.0
Status,1732151408000,27,20,6,27,1575420030,0.00,62.0,36.0,0,0,0,0.0
Status,1732151408000,27,21,6,29,1575420030,0.00,192.0,28.0,0,0,0,0.0
Status,1732151408000,27,22,6,13,1575420030,0.00,122.0,26.0,0,0,0,0.0
Status,1732151408000,27,23,6,15,1575420030,0.00,65.0,23.0,0,0,0,0.0
Status,1732151408000,27,24,6,4,1575420030,0.00,313.0,21.0,0,0,0,0.0
Status,1732151408000,27,25,6,26,1575420030,0.00,169.0,4.0,0,0,0,0.0
Status,1732151408000,27,26,6,6,1575420030,0.00,329.0,3.0,0,0,0,0.0
Fix,GPS,37.4249466667,-122.1585116667,23.7,0.0,5.7,0.0,1732151409000,2.1,179.9,30293090000000,31.1,0,,,
Raw,1732151409000,20844000000,,705230.6436775004,-1416186606156999936,0.0,98.46039231972541,1342.6451176173632,0.0,0,19,0.0,16431,349826930770083,797,16.04599952697754,-27.262170299673556,0.14999,16,0.0,0.0,1575420030,,,,0,0.0,1,6.0,16.04599952697754,0.0,0.0,0.0,66.7128,C,30293090000000,
Raw,1732151409000,20844000000,,705230.6436775004,-1416186606156999936,0.0,98.46039231972541,1342.6451176173632,0.0,0,7,0.0,16431,349826918818655,396,23.60099983215332,1022.7870503839514,0.14999,16,0.0,0.0,1575420030,,,,0,8.003110499225631,1,6.0,23.60099983215332,0.0,0.0,0.0,66.7128,C,30293090000000,
Raw,1732151409000,20844000000,,705230.6436775004,-1416186606156999936,0.0,98.46039231972541,1342.6451176173632,0.0,0,11,0.0,17,34672,487,19.0,-70.79278256513251,0.14999,16,0.0,0.0,1602000000,,,,0,0.38015741887547794,3,6.0,19.0,0.0,0.0,108.67631620913818,66.7128,C,30293090000000,
Raw,1732151409000,20844000000,,705230.6436775004,-1416186606156999936,0.0,98.46039231972541,1342.6451176173632,0.0,0,15,0.0,16431,349826925886938,797,18.617000579833984,511.4834686857593,0.14999,16,0.0,0.0,1575420030,,,,0,0.0,1,6.0,18.617000579833984,0.0,0.0,0.0,66.7128,C,30293090000000,
Raw,1732151409000,20844000000,,705230.6436775004,-1416186606156999936,0.0,98.46039231972541,1342.6451176173632,0.0,0,30,0.0,16431,349826927582997,797,20.81399917602539,879.4102454472904,0.14999,16,0.0,0.0,1575420030,,,,0,3.6547678028800012,1,6.0,20.81399917602539,0.0,0.0,0.0,66.7128,C,30293090000000,
Fix,FLP,37.4249480000,-122.1584969000,2.319978000757529,0.11736045,9.462,180.0,1732151409242,2.1,179.9,30293090000000,14.343792,0,,,
Status,1732151409000,27,0,1,17,1575420030,0.00,105.0,80.0,0,0,0,0.0
Status,1732151409000,27,1,1,22,1575420030,0.00,5.0,67.0,0,0,0,0.0
Status,1732151409000,27,2,1,19,1575420030,21.10,199.0,57.0,1,0,0,16.1
Status,1732151409000,27,3,1,14,1575420030,0.00,48.0,55.0,0,0,0,0.0
Status,1732151409000,27,4,1,13,1575420030,18.50,239.0,50.0,1,0,0,13.5
Status,1732151409000,27,5,2,133,1575420030,0.00,191.0,45.0,0,0,0,0.0
Status,1732151409000,27,6,1,30,1575420030,21.40,128.0,40.0,1,0,0,16.4
Status,1732151409000,27,7,1,15,1575420030,28.10,279.0,30.0,1,0,0,23.1
Status,1732151409000,27,8,1,2,1575420030,0.00,51.0,18.0,0,0,0,0.0
Status,1732151409000,27,9,1,24,1575420030,0.00,313.0,13.0,0,0,0,0.0
Status,1732151409000,27,10,1,6,1575420030,0.00,164.0,9.0,0,0,0,0.0
Status,1732151409000,27,11,1,7,1575420030,28.70,130.0,7.0,1,0,0,23.7
Status,1732151409000,27,12,1,21,1575420030,0.00,36.0,6.0,0,0,0,0.0
Status,1732151409000,27,13,3,20,1602000000,0.00,120.0,50.0,0,0,0,0.0
Status,1732151409000,27,14,3,9,1602000000,0.00,76.0,35.0,0,0,0,0.0
Status,1732151409000,27,15,3,8,1602000000,0.00,250.0,26.0,0,0,0,0.0
Status,1732151409000,27,16,3,19,1602000000,0.00,36.0,26.0,0,0,0,0.0
Status,1732151409000,27,17,3,11,1602000000,25.60,307.0,25.0,0,0,0,20.6
Status,1732151409000,27,18,6,21,1575420030,0.00,335.0,68.0,0,0,0,0.0
Status,1732151409000,27,19,6,19,1575420030,0.00,247.0,48.0,0,0,0,0.0
Status,1732151409000,27,20,6,27,1575420030,0.00,62.0,36.0,0,0,0,0.0
Status,1732151409000,27,21,6,29,1575420030,0.00,192.0,28.0,0,0,0,0.0
Status,1732151409000,27,22,6,13,1575420030,0.00,122.0,26.0,0,0,0,0.0
Status,1732151409000,27,23,6,15,1575420030,0.00,65.0,23.0,0,0,0,0.0
Status,1732151409000,27,24,6,4,1575420030,0.00,313.0,21.0,0,0,0,0.0
Status,1732151409000,27,25,6,26,1575420030,0.00,169.0,4.0,0,0,0,0.0
Status,1732151409000,27,26,6,6,1575420030,0.00,329.0,3.0,0,0,0,0.0
Fix,GPS,37.4249466667,-122.1585150000,23.7,0.0,5.7,0.0,1732151410000,2.1,179.9,30294090000000,31.4,0,,,
Raw,1732151410000,21844000000,,705214.2781890797,-1416186606156999936,0.0,98.39822060611999,1339.5820646534266,0.0,0,19,0.0,16431,349827930770175,797,16.107999801635742,-28.164485659314632,0.14999,16,0.0,0.0,1575420030,,,,0,0.0,1,6.0,16.107999801635742,0.0,0.0,0.0,66.7128,C,30294090000000,
Raw,1732151410000,21844000000,,705214.2781890797,-1416186606156999936,0.0,98.39822060611999,1339.5820646534266,0.0,0,13,0.0,16431,349827930207920,797,13.5,715.2182117116598,0.14999,16,0.0,0.0,1575420030,,,,0,0.0,1,6.0,13.5,0.0,0.0,0.0,66.7128,C,30294090000000,
Raw,1732151410000,21844000000,,705214.2781890797,-1416186606156999936,0.0,98.39822060611999,1339.5820646534266,0.0,0,7,0.0,16431,349827918815242,396,23.701000213623047,1020.8342173169576,0.14999,16,0.0,0.0,1575420030,,,,0,8.162003155162516,1,6.0,23.701000213623047,0.0,0.0,0.0,66.7128,C,30294090000000,
Raw,1732151410000,21844000000,,705214.2781890797,-1416186606156999936,0.0,98.39822060611999,1339.5820646534266,0.0,0,11,0.0,17,34917,396,22.0,-72.35488693105542,0.14999,16,0.0,0.0,1602000000,,,,0,5.107900637734123,3,6.0,22.0,0.0,0.0,108.67631620913818,66.7128,C,30294090000000,
Raw,1732151410000,21844000000,,705214.2781890797,-1416186606156999936,0.0,98.39822060611999,1339.5820646534266,0.0,0,15,0.0,16431,349827925885124,396,23.121999740600586,510.9686165173141,0.14999,16,0.0,0.0,1575420030,,,,0,7.278867046136735,1,6.0,23.121999740600586,0.0,0.0,0.0,66.7128,C,30294090000000,
Raw,1732151410000,21844000000,,705214.2781890797,-1416186606156999936,0.0,98.39822060611999,1339.5820646534266,0.0,0,30,0.0,16431,349827927580074,797,16.44499969482422,878.4271853602754,0.14999,16,0.0,0.0,1575420030,,,,0,0.0,1,6.0,16.44499969482422,0.0,0.0,0.0,66.7128,C,30294090000000,
Fix,FLP,37.4249469000,-122.1585039000,2.403427125812967,0.08805422,7.603,,1732151410243,2.1,,30294090000000,17.79442,0,,,
Status,1732151410000,27,0,1,17,1575420030,0.00,105.0,80.0,0,0,0,0.0
Status,1732151410000,27,1,1,22,1575420030,0.00,5.0,67.0,0,0,0,0.0
Status,1732151410000,27,2,1,19,1575420030,18.90,199.0,57.0,1,0,0,13.9
Status,1732151410000,27,3,1,14,1575420030,0.00,48.0,55.0,0,0,0,0.0
Status,1732151410000,27,4,1,13,1575420030,18.50,239.0,50.0,1,0,0,13.5
Status,1732151410000,27,5,2,133,1575420030,0.00,191.0,45.0,0,0,0,0.0
Status,1732151410000,27,6,1,30,1575420030,21.40,128.0,40.0,1,0,0,16.4
Status,1732151410000,27,7,1,15,1575420030,28.10,279.0,30.0,1,0,0,23.1
Status,1732151410000,27,8,1,2,1575420030,0.00,51.0,18.0,0,0,0,0.0
Status,1732151410000,27,9,1,24,1575420030,0.00,313.0,13.0,0,0,0,0.0
Status,1732151410000,27,10,1,6,1575420030,0.00,164.0,9.0,0,0,0,0.0
Status,1732151410000,27,11,1,7,1575420030,26.00,130.0,7.0,1,0,0,21.0
Status,1732151410000,27,12,1,21,1575420030,0.00,36.0,6.0,0,0,0,0.0
Status,1732151410000,27,13,3,20,1602000000,0.00,120.0,50.0,0,0,0,0.0
Status,1732151410000,27,14,3,9,1602000000,0.00,76.0,35.0,0,0,0,0.0
Status,1732151410000,27,15,3,8,1602000000,0.00,250.0,26.0,0,0,0,0.0
Status,1732151410000,27,16,3,19,1602000000,0.00,36.0,26.0,0,0,0,0.0
Status,1732151410000,27,17,3,11,1602000000,27.10,307.0,25.0,0,0,0,22.1
Status,1732151410000,27,18,6,21,1575420030,0.00,335.0,68.0,0,0,0,0.0
Status,1732151410000,27,19,6,19,1575420030,0.00,247.0,48.0,0,0,0,0.0
Status,1732151410000,27,20,6,27,1575420030,0.00,62.0,36.0,0,0,0,0.0
Status,1732151410000,27,21,6,29,1575420030,0.00,192.0,28.0,0,0,0,0.0
Status,1732151410000,27,22,6,13,1575420030,0.00,122.0,26.0,0,0,0,0.0
Status,1732151410000,27,23,6,15,1575420030,0.00,65.0,23.0,0,0,0,0.0
Status,1732151410000,27,24,6,4,1575420030,0.00,313.0,21.0,0,0,0,0.0
Status,1732151410000,27,25,6,26,1575420030,0.00,169.0,4.0,0,0,0,0.0
Status,1732151410000,27,26,6,6,1575420030,0.00,329.0,3.0,0,0,0,0.0
Fix,GPS,37.4249483333,-122.1585200000,23.7,0.0,5.8,0.0,1732151411000,2.2,179.9,30295090000000,31.7,0,,,
Raw,1732151411000,22844000000,,705202.1864906288,-1416186606156999936,0.0,99.04240913927359,1338.1728869997603,0.0,0,19,0.0,16431,349828930770272,1797,13.899999618530273,-28.668420099950342,0.14999,16,0.0,0.0,1575420030,,,,0,0.0,1,6.0,13.899999618530273,0.0,0.0,0.0,66.7128,C,30295090000000,
Raw,1732151411000,22844000000,,705202.1864906288,-1416186606156999936,0.0,99.04240913927359,1338.1728869997603,0.0,0,13,0.0,16431,349828930205534,797,13.5,715.7827279270341,0.14999,16,0.0,0.0,1575420030,,,,0,0.0,1,6.0,13.5,0.0,0.0,0.0,66.7128,C,30295090000000,
Raw,1732151411000,22844000000,,705202.1864906288,-1416186606156999936,0.0,99.04240913927359,1338.1728869997603,0.0,0,7,0.0,16431,349828918811838,487,20.957000732421875,1020.5529580652191,0.14999,16,0.0,0.0,1575420030,,,,0,3.9153640379124006,1,6.0,20.957000732421875,0.0,0.0,0.0,66.7128,C,30295090000000,
Raw,1732151411000,22844000000,,705202.1864906288,-1416186606156999936,0.0,99.04240913927359,1338.1728869997603,0.0,0,11,0.0,17,35168,396,22.0,-73.70431556876414,0.14999,16,0.0,0.0,1602000000,,,,0,7.278867046136735,3,6.0,22.0,0.0,0.0,108.67631620913818,66.7128,C,30295090000000,
Raw,1732151411000,22844000000,,705202.1864906288,-1416186606156999936,0.0,99.04240913927359,1338.1728869997603,0.0,0,15,0.0,16431,349828925883420,487,23.121999740600586,510.84094878956756,0.14999,16,0.0,0.0,1575420030,,,,0,7.278867046136735,1,6.0,23.121999740600586,0.0,0.0,0.0,66.7128,C,30295090000000,
Raw,1732151411000,22844000000,,705202.1864906288,-1416186606156999936,0.0,99.04240913927359,1338.1728869997603,0.0,0,30,0.0,16431,349828927577145,797,16.44499969482422,878.1222323162694,0.14999,16,0.0,0.0,1575420030,,,,0,0.0,1,6.0,16.44499969482422,0.0,0.0,0.0,66.7128,C,30295090000000,
Fix,FLP,37.4249472000,-122.1585103000,2.6349730192067673,0.053844355,5.757,,1732151411242,2.2,,30295090000000,16.390465,0,,,
Status,1732151411000,27,0,1,17,1575420030,0.00,105.0,80.0,0,0,0,0.0
Status,1732151411000,27,1,1,22,1575420030,0.00,5.0,67.0,0,0,0,0.0
Status,1732151411000,27,2,1,19,1575420030,18.90,199.0,57.0,1,0,0,13.9
Status,1732151411000,27,3,1,14,1575420030,0.00,48.0,55.0,0,0,0,0.0
Status,1732151411000,27,4,1,13,1575420030,18.50,239.0,50.0,1,0,0,13.5
Status,1732151411000,27,5,2,133,1575420030,0.00,191.0,45.0,0,0,0,0.0
Status,1732151411000,27,6,1,30,1575420030,21.40,128.0,40.0,1,0,0,16.4
Status,1732151411000,27,7,1,15,1575420030,26.40,279.0,30.0,1,0,0,21.4
Status,1732151411000,27,8,1,2,1575420030,0.00,51.0,18.0,0,0,0,0.0
Status,1732151411000,27,9,1,24,1575420030,0.00,313.0,13.0,0,0,0,0.0
Status,1732151411000,27,10,1,6,1575420030,0.00,164.0,9.0,0,0,0,0.0
Status,1732151411000,27,11,1,7,1575420030,26.10,130.0,7.0,1,0,0,21.1
Status,1732151411000,27,12,1,21,1575420030,0.00,36.0,6.0,0,0,0,0.0
Status,1732151411000,27,13,3,20,1602000000,0.00,120.0,50.0,0,0,0,0.0
Status,1732151411000,27,14,3,9,1602000000,0.00,76.0,35.0,0,0,0,0.0
Status,1732151411000,27,15,3,8,1602000000,26.70,250.0,26.0,1,0,0,21.7
Status,1732151411000,27,16,3,19,1602000000,0.00,36.0,26.0,0,0,0,0.0
Status,1732151411000,27,17,3,11,1602000000,25.50,307.0,25.0,0,0,0,20.5
Status,1732151411000,27,18,6,21,1575420030,0.00,335.0,68.0,0,0,0,0.0
Status,1732151411000,27,19,6,19,1575420030,0.00,247.0,48.0,0,0,0,0.0
Status,1732151411000,27,20,6,27,1575420030,0.00,62.0,36.0,0,0,0,0.0
Status,1732151411000,27,21,6,29,1575420030,0.00,192.0,28.0,0,0,0,0.0
Status,1732151411000,27,22,6,13,1575420030,0.00,122.0,26.0,0,0,0,0.0
Status,1732151411000,27,23,6,15,1575420030,0.00,65.0,23.0,0,0,0,0.0
Status,1732151411000,27,24,6,4,1575420030,0.00,313.0,21.0,0,0,0,0.0
Status,1732151411000,27,25,6,26,1575420030,0.00,169.0,4.0,0,0,0,0.0
Status,1732151411000,27,26,6,6,1575420030,0.00,329.0,3.0,0,0,0,0.0
Fix,GPS,37.4249466667,-122.1585183333,23.7,0.0,5.8,0.0,1732151412000,2.2,179.9,30296090000000,31.8,0,,,
Raw,1732151412000,23844000000,,705190.5117472969,-1416186606156999936,0.0,98.69306544071028,1336.9125738223954,0.0,0,19,0.0,16431,349829930770369,1797,13.899999618530273,-29.524137668132248,0.14999,16,0.0,0.0,1575420030,,,,0,0.0,1,6.0,13.899999618530273,0.0,0.0,0.0,66.7128,C,30296090000000,
Raw,1732151412000,23844000000,,705190.5117472969,-1416186606156999936,0.0,98.69306544071028,1336.9125738223954,0.0,0,13,0.0,16431,349829930203148,797,13.5,714.4588953571148,0.14999,16,0.0,0.0,1575420030,,,,0,0.0,1,6.0,13.5,0.0,0.0,0.0,66.7128,C,30296090000000,
Raw,1732151412000,23844000000,,705190.5117472969,-1416186606156999936,0.0,98.69306544071028,1336.9125738223954,0.0,0,7,0.0,16431,349829918808434,797,21.14699935913086,1019.8314588614694,0.14999,16,0.0,0.0,1575420030,,,,0,4.168369001869222,1,6.0,21.14699935913086,0.0,0.0,0.0,66.7128,C,30296090000000,
Raw,1732151412000,23844000000,,705190.5117472969,-1416186606156999936,0.0,98.69306544071028,1336.9125738223954,0.0,0,8,0.0,17,247745,396,5.0,939.6078957410347,0.14999,16,0.0,0.0,1605374980,,,,0,6.700215794166974,3,6.0,21.0,0.0,0.0,108.85399270765214,66.7128,C,30296090000000,
Raw,1732151412000,23844000000,,705190.5117472969,-1416186606156999936,0.0,98.69306544071028,1336.9125738223954,0.0,0,11,0.0,17,35411,487,21.700000762939453,-72.76488735747735,0.14999,16,0.0,0.0,1602000000,,,,0,4.944851309096222,3,6.0,21.700000762939453,0.0,0.0,108.85399270765214,66.7128,C,30296090000000,
Raw,1732151412000,23844000000,,705190.5117472969,-1416186606156999936,0.0,98.69306544071028,1336.9125738223954,0.0,0,15,0.0,16431,349829925881725,797,21.420000076293945,511.57796510433155,0.14999,16,0.0,0.0,1575420030,,,,0,4.653288753350356,1,6.0,21.420000076293945,0.0,0.0,0.0,66.7128,C,30296090000000,
Raw,1732151412000,23844000000,,705190.5117472969,-1416186606156999936,0.0,98.69306544071028,1336.9125738223954,0.0,0,30,0.0,16431,349829927574217,797,16.44499969482422,877.5307237610768,0.14999,16,0.0,0.0,1575420030,,,,0,0.0,1,6.0,16.44499969482422,0.0,0.0,0.0,66.7128,C,30296090000000,
Fix,FLP,37.4249468000,-122.1585135000,2.801877036053747,0.038249817,5.742,,1732151412242,2.2,,30296090000000,14.482195,0,,,
Status,1732151412000,28,0,1,17,1575420030,0.00,105.0,80.0,0,0,0,0.0
Status,1732151412000,28,1,1,22,1575420030,0.00,5.0,67.0,0,0,0,0.0
Status,1732151412000,28,2,1,19,1575420030,18.90,199.0,57.0,1,0,0,13.9
Status,1732151412000,28,3,1,14,1575420030,0.00,48.0,55.0,0,0,0,0.0
Status,1732151412000,28,4,1,13,1575420030,0.00,239.0,50.0,0,0,0,0.0
Status,1732151412000,28,5,2,133,1575420030,0.00,191.0,45.0,0,0,0,0.0
Status,1732151412000,28,6,1,30,1575420030,21.40,128.0,40.0,1,0,0,16.4
Status,1732151412000,28,7,1,15,1575420030,26.40,279.0,30.0,1,0,0,21.4
Status,1732151412000,28,8,1,2,1575420030,0.00,51.0,18.0,0,0,0,0.0
Status,1732151412000,28,9,1,24,1575420030,0.00,313.0,13.0,0,0,0,0.0
Status,1732151412000,28,10,1,6,1575420030,0.00,164.0,9.0,0,0,0,0.0
Status,1732151412000,28,11,1,7,1575420030,26.10,130.0,7.0,1,0,0,21.1
Status,1732151412000,28,12,1,21,1575420030,0.00,36.0,6.0,0,0,0,0.0
Status,1732151412000,28,13,3,20,1602000000,0.00,120.0,50.0,0,0,0,0.0
Status,1732151412000,28,14,3,9,1602000000,0.00,76.0,35.0,0,0,0,0.0
Status,1732151412000,28,15,3,8,1602000000,27.50,250.0,26.0,1,0,0,22.5
Status,1732151412000,28,16,3,19,1602000000,0.00,36.0,26.0,0,0,0,0.0
Status,1732151412000,28,17,3,11,1602000000,25.30,307.0,25.0,0,0,0,20.3
Status,1732151412000,28,18,3,17,1602000000,29.40,0.0,0.0,0,0,0,24.4
Status,1732151412000,28,19,6,21,1575420030,0.00,335.0,68.0,0,0,0,0.0
Status,1732151412000,28,20,6,19,1575420030,0.00,247.0,48.0,0,0,0,0.0
Status,1732151412000,28,21,6,27,1575420030,0.00,62.0,36.0,0,0,0,0.0
Status,1732151412000,28,22,6,29,1575420030,0.00,192.0,28.0,0,0,0,0.0
Status,1732151412000,28,23,6,13,1575420030,0.00,122.0,26.0,0,0,0,0.0
Status,1732151412000,28,24,6,15,1575420030,0.00,65.0,23.0,0,0,0,0.0
Status,1732151412000,28,25,6,4,1575420030,0.00,313.0,21.0,0,0,0,0.0
Status,1732151412000,28,26,6,26,1575420030,0.00,169.0,4.0,0,0,0,0.0
Status,1732151412000,28,27,6,6,1575420030,0.00,329.0,3.0,0,0,0,0.0
Fix,GPS,37.4249450000,-122.1585116667,23.7,0.0,5.9,0.0,1732151413000,2.2,179.9,30297090000000,29.5,0,,,
Raw,1732151413000,24844000000,,705171.1233342635,-1416186606156999936,0.0,85.49356274127086,1338.6360715585456,0.0,0,19,0.0,16431,349830930770466,797,13.899999618530273,-28.926450143583672,0.14999,16,0.0,0.0,1575420030,,,,0,0.0,1,6.0,13.899999618530273,0.0,0.0,0.0,66.7128,C,30297090000000,
Raw,1732151413000,24844000000,,705171.1233342635,-1416186606156999936,0.0,85.49356274127086,1338.6360715585456,0.0,0,7,0.0,16431,349830918805031,797,21.14699935913086,1020.7570034292157,0.14999,16,0.0,0.0,1575420030,,,,0,4.168369001869222,1,6.0,21.14699935913086,0.0,0.0,0.0,66.7128,C,30297090000000,
Raw,1732151413000,24844000000,,705171.1233342635,-1416186606156999936,0.0,85.49356274127086,1338.6360715585456,0.0,0,8,0.0,17,244588,396,5.0,938.8656654745106,0.14999,16,0.0,0.0,1605374980,,,,0,7.7873690406188265,3,6.0,22.0,0.0,0.0,108.85399270765214,66.7128,C,30297090000000,
Raw,1732151413000,24844000000,,705171.1233342635,-1416186606156999936,0.0,85.49356274127086,1338.6360715585456,0.0,0,11,0.0,17,35650,396,22.5,-71.35569935295786,0.14999,16,0.0,0.0,1602000000,,,,0,4.720686877263524,3,6.0,22.5,0.0,0.0,108.85399270765214,66.7128,C,30297090000000,
Raw,1732151413000,24844000000,,705171.1233342635,-1416186606156999936,0.0,85.49356274127086,1338.6360715585456,0.0,0,15,0.0,16431,349830925880016,797,21.420000076293945,512.4862271412476,0.14999,16,0.0,0.0,1575420030,,,,0,4.653288753350356,1,6.0,21.420000076293945,0.0,0.0,0.0,66.7128,C,30297090000000,
Raw,1732151413000,24844000000,,705171.1233342635,-1416186606156999936,0.0,85.49356274127086,1338.6360715585456,0.0,0,30,0.0,16431,349830927571300,797,16.43400001525879,878.0824639119933,0.14999,16,0.0,0.0,1575420030,,,,0,0.0,1,6.0,16.43400001525879,0.0,0.0,0.0,66.7128,C,30297090000000,
Fix,FLP,37.4249458000,-122.1585128000,3.207444271404552,0.03521068,5.757,,1732151413243,2.2,,30297090000000,14.321507,0,,,
Fix,NLP,37.4256837000,-122.1581180000,5.400000095367432,,23.02,,1732151413318,,,30297166000000,27.484745,0,,,
Status,1732151413000,28,0,1,17,1575420030,0.00,105.0,80.0,0,0,0,0.0
Status,1732151413000,28,1,1,22,1575420030,0.00,5.0,67.0,0,0,0,0.0
Status,1732151413000,28,2,1,19,1575420030,18.30,199.0,57.0,1,0,0,13.299999
Status,1732151413000,28,3,1,14,1575420030,0.00,48.0,55.0,0,0,0,0.0
Status,1732151413000,28,4,1,13,1575420030,0.00,239.0,50.0,0,0,0,0.0
Status,1732151413000,28,5,2,133,1575420030,0.00,191.0,45.0,0,0,0,0.0
Status,1732151413000,28,6,1,30,1575420030,21.40,128.0,40.0,1,0,0,16.4
Status,1732151413000,28,7,1,15,1575420030,25.00,279.0,30.0,1,0,0,20.0
Status,1732151413000,28,8,1,2,1575420030,0.00,51.0,18.0,0,0,0,0.0
Status,1732151413000,28,9,1,24,1575420030,0.00,313.0,13.0,0,0,0,0.0
Status,1732151413000,28,10,1,6,1575420030,0.00,164.0,9.0,0,0,0,0.0
Status,1732151413000,28,11,1,7,1575420030,21.10,130.0,7.0,1,0,0,16.1
Status,1732151413000,28,12,1,21,1575420030,0.00,36.0,6.0,0,0,0,0.0
Status,1732151413000,28,13,3,20,1602000000,0.00,120.0,50.0,0,0,0,0.0
Status,1732151413000,28,14,3,9,1602000000,0.00,76.0,35.0,0,0,0,0.0
Status,1732151413000,28,15,3,8,1602000000,23.20,250.0,26.0,1,0,0,18.2
Status,1732151413000,28,16,3,19,1602000000,0.00,36.0,26.0,0,0,0,0.0
Status,1732151413000,28,17,3,11,1602000000,29.20,307.0,25.0,0,0,0,24.2
Status,1732151413000,28,18,3,17,1602000000,28.10,0.0,0.0,0,0,0,23.1
Status,1732151413000,28,19,6,21,1575420030,0.00,335.0,68.0,0,0,0,0.0
Status,1732151413000,28,20,6,19,1575420030,0.00,247.0,48.0,0,0,0,0.0
Status,1732151413000,28,21,6,27,1575420030,0.00,62.0,36.0,0,0,0,0.0
Status,1732151413000,28,22,6,29,1575420030,0.00,192.0,28.0,0,0,0,0.0
Status,1732151413000,28,23,6,13,1575420030,0.00,122.0,26.0,0,0,0,0.0
Status,1732151413000,28,24,6,15,1575420030,0.00,65.0,23.0,0,0,0,0.0
Status,1732151413000,28,25,6,4,1575420030,0.00,313.0,21.0,0,0,0,0.0
Status,1732151413000,28,26,6,26,1575420030,0.00,169.0,4.0,0,0,0,0.0
Status,1732151413000,28,27,6,6,1575420030,0.00,329.0,3.0,0,0,0,0.0
Fix,GPS,37.4249400000,-122.1585066667,23.7,0.0,5.9,0.0,1732151414000,2.2,179.9,30298090000000,29.5,0,,,
Raw,1732151414000,25844000000,,705156.6862632681,-1416186606156999936,0.0,84.75228021289291,1339.8560993747967,0.0,0,19,0.0,16431,349831930770576,1797,13.300000190734863,-28.625724815452855,0.14999,16,0.0,0.0,1575420030,,,,0,0.0,1,6.0,13.300000190734863,0.0,0.0,0.0,66.7128,C,30298090000000,
Raw,1732151414000,25844000000,,705156.6862632681,-1416186606156999936,0.0,84.75228021289291,1339.8560993747967,0.0,0,7,0.0,16431,349831918801601,797,16.1299991607666,1021.7014101139436,0.14999,16,0.0,0.0,1575420030,,,,0,0.0,1,6.0,16.1299991607666,0.0,0.0,0.0,66.7128,C,30298090000000,
Raw,1732151414000,25844000000,,705156.6862632681,-1416186606156999936,0.0,84.75228021289291,1339.8560993747967,0.0,0,8,0.0,17,241514,487,5.0,940.0979136098676,0.14999,16,0.0,0.0,1605374980,,,,0,1.240190352892221,3,6.0,20.0,0.0,0.0,108.85399270765214,66.7128,C,30298090000000,
Raw,1732151414000,25844000000,,705156.6862632681,-1416186606156999936,0.0,84.75228021289291,1339.8560993747967,0.0,0,11,0.0,17,35891,316,18.200000762939453,-71.48778217363824,0.14999,16,0.0,0.0,1602000000,,,,0,10.123755461081752,3,6.0,18.200000762939453,0.0,0.0,108.85399270765214,66.7128,C,30298090000000,
Raw,1732151414000,25844000000,,705156.6862632681,-1416186606156999936,0.0,84.75228021289291,1339.8560993747967,0.0,0,15,0.0,16431,349831925878320,487,20.031999588012695,512.4979346621326,0.14999,16,0.0,0.0,1575420030,,,,0,2.323177371921613,1,6.0,20.031999588012695,0.0,0.0,0.0,66.7128,C,30298090000000,
Raw,1732151414000,25844000000,,705156.6862632681,-1416186606156999936,0.0,84.75228021289291,1339.8560993747967,0.0,0,30,0.0,16431,349831927568370,797,16.423999786376953,878.4133407522447,0.14999,16,0.0,0.0,1575420030,,,,0,0.0,1,6.0,16.423999786376953,0.0,0.0,0.0,66.7128,C,30298090000000,
Fix,FLP,37.4249432000,-122.1585105000,5.400000095367432,0.047171433,5.814,,1732151414242,2.2,,30298090000000,22.37805,0,,,
Status,1732151414000,28,0,1,17,1575420030,0.00,105.0,80.0,0,0,0,0.0
Status,1732151414000,28,1,1,22,1575420030,0.00,5.0,67.0,0,0,0,0.0
Status,1732151414000,28,2,1,19,1575420030,18.30,199.0,57.0,1,0,0,13.299999
Status,1732151414000,28,3,1,14,1575420030,0.00,48.0,55.0,0,0,0,0.0
Status,1732151414000,28,4,1,13,1575420030,0.00,239.0,50.0,0,0,0,0.0
Status,1732151414000,28,5,2,133,1575420030,0.00,191.0,45.0,0,0,0,0.0
Status,1732151414000,28,6,1,30,1575420030,21.50,129.0,40.0,1,0,0,16.5
Status,1732151414000,28,7,1,15,1575420030,25.00,279.0,30.0,1,0,0,20.0
Status,1732151414000,28,8,1,2,1575420030,0.00,51.0,18.0,0,0,0,0.0
Status,1732151414000,28,9,1,24,1575420030,0.00,313.0,13.0,0,0,0,0.0
Status,1732151414000,28,10,1,6,1575420030,0.00,164.0,9.0,0,0,0,0.0
Status,1732151414000,28,11,1,7,1575420030,21.10,130.0,7.0,1,0,0,16.1
Status,1732151414000,28,12,1,21,1575420030,0.00,36.0,6.0,0,0,0,0.0
Status,1732151414000,28,13,3,20,1602000000,0.00,120.0,50.0,0,0,0,0.0
Status,1732151414000,28,14,3,9,1602000000,0.00,76.0,35.0,0,0,0,0.0
Status,1732151414000,28,15,3,8,1602000000,23.20,250.0,26.0,1,0,0,18.2
Status,1732151414000,28,16,3,19,1602000000,0.00,36.0,26.0,0,0,0,0.0
Status,1732151414000,28,17,3,11,1602000000,26.80,307.0,25.0,0,0,0,21.8
Status,1732151414000,28,18,3,17,1602000000,23.00,0.0,0.0,0,0,0,18.0
Status,1732151414000,28,19,6,21,1575420030,0.00,335.0,68.0,0,0,0,0.0
Status,1732151414000,28,20,6,19,1575420030,0.00,247.0,48.0,0,0,0,0.0
Status,1732151414000,28,21,6,27,1575420030,0.00,62.0,36.0,0,0,0,0.0
Status,1732151414000,28,22,6,29,1575420030,0.00,192.0,28.0,0,0,0,0.0
Status,1732151414000,28,23,6,13,1575420030,0.00,122.0,26.0,0,0,0,0.0
Status,1732151414000,28,24,6,15,1575420030,0.00,65.0,23.0,0,0,0,0.0
Status,1732151414000,28,25,6,4,1575420030,0.00,313.0,21.0,0,0,0,0.0
Status,1732151414000,28,26,6,26,1575420030,0.00,169.0,4.0,0,0,0,0.0
Status,1732151414000,28,27,6,6,1575420030,0.00,329.0,3.0,0,0,0,0.0
Fix,GPS,37.4249350000,-122.1585050000,23.7,0.0,6.0,0.0,1732151415000,2.2,179.9,30299090000000,29.6,0,,,
Raw,1732151415000,26844000000,,705144.7509229869,-1416186606156999936,0.0,84.39063832333501,1344.9667895193356,0.0,0,19,0.0,16431,349832930770669,797,13.300000190734863,-27.22872024000197,0.14999,16,0.0,0.0,1575420030,,,,0,0.0,1,6.0,13.300000190734863,0.0,0.0,0.0,66.7128,C,30299090000000,
Raw,1732151415000,26844000000,,705144.7509229869,-1416186606156999936,0.0,84.39063832333501,1344.9667895193356,0.0,0,7,0.0,16431,349832918798191,797,16.1299991607666,1023.074720897127,0.14999,16,0.0,0.0,1575420030,,,,0,0.0,1,6.0,16.1299991607666,0.0,0.0,0.0,66.7128,C,30299090000000,
Raw,1732151415000,26844000000,,705144.7509229869,-1416186606156999936,0.0,84.39063832333501,1344.9667895193356,0.0,0,8,0.0,17,238378,797,5.0,940.7214235069797,0.14999,16,0.0,0.0,1605374980,,,,0,1.240190352892221,3,6.0,17.0,0.0,0.0,108.85399270765214,66.7128,C,30299090000000,
Raw,1732151415000,26844000000,,705144.7509229869,-1416186606156999936,0.0,84.39063832333501,1344.9667895193356,0.0,0,11,0.0,17,36129,396,18.200000762939453,-70.26796922678744,0.14999,16,0.0,0.0,1602000000,,,,0,6.827550488161908,3,6.0,18.200000762939453,0.0,0.0,108.85399270765214,66.7128,C,30299090000000,
Raw,1732151415000,26844000000,,705144.7509229869,-1416186606156999936,0.0,84.39063832333501,1344.9667895193356,0.0,0,15,0.0,16431,349832925876609,797,20.031999588012695,513.939632233978,0.14999,16,0.0,0.0,1575420030,,,,0,2.323177371921613,1,6.0,20.031999588012695,0.0,0.0,0.0,66.7128,C,30299090000000,
Raw,1732151415000,26844000000,,705144.7509229869,-1416186606156999936,0.0,84.39063832333501,1344.9667895193356,0.0,0,30,0.0,16431,349832927565441,797,16.466999053955078,880.516141586766,0.14999,16,0.0,0.0,1575420030,,,,0,0.0,1,6.0,16.466999053955078,0.0,0.0,0.0,66.7128,C,30299090000000,
Fix,FLP,37.4249395000,-122.1585084000,5.400000095367432,0.07591321,5.857,,1732151415242,2.2,,30299090000000,23.474045,0,,,
Status,1732151415000,28,0,1,17,1575420030,0.00,105.0,80.0,0,0,0,0.0
Status,1732151415000,28,1,1,22,1575420030,0.00,5.0,67.0,0,0,0,0.0
Status,1732151415000,28,2,1,19,1575420030,18.70,199.0,57.0,1,0,0,13.700001
Status,1732151415000,28,3,1,14,1575420030,0.00,48.0,55.0,0,0,0,0.0
Status,1732151415000,28,4,1,13,1575420030,0.00,239.0,50.0,0,0,0,0.0
Status,1732151415000,28,5,2,133,1575420030,0.00,191.0,45.0,0,0,0,0.0
Status,1732151415000,28,6,1,30,1575420030,21.50,129.0,40.0,1,0,0,16.5
Status,1732151415000,28,7,1,15,1575420030,25.00,279.0,30.0,1,0,0,20.0
Status,1732151415000,28,8,1,2,1575420030,0.00,51.0,18.0,0,0,0,0.0
Status,1732151415000,28,9,1,24,1575420030,0.00,313.0,13.0,0,0,0,0.0
Status,1732151415000,28,10,1,6,1575420030,0.00,164.0,9.0,0,0,0,0.0
Status,1732151415000,28,11,1,7,1575420030,21.10,130.0,7.0,1,0,0,16.1
Status,1732151415000,28,12,1,21,1575420030,0.00,36.0,6.0,0,0,0,0.0
Status,1732151415000,28,13,3,20,1602000000,0.00,120.0,50.0,0,0,0,0.0
Status,1732151415000,28,14,3,9,1602000000,0.00,76.0,35.0,0,0,0,0.0
Status,1732151415000,28,15,3,8,1602000000,21.50,250.0,26.0,1,0,0,16.5
Status,1732151415000,28,16,3,19,1602000000,0.00,36.0,26.0,0,0,0,0.0
Status,1732151415000,28,17,3,11,1602000000,26.00,307.0,25.0,0,0,0,21.0
Status,1732151415000,28,18,3,17,1602000000,22.90,0.0,0.0,0,0,0,17.9
Status,1732151415000,28,19,6,21,1575420030,0.00,335.0,68.0,0,0,0,0.0
Status,1732151415000,28,20,6,19,1575420030,0.00,247.0,48.0,0,0,0,0.0
Status,1732151415000,28,21,6,27,1575420030,0.00,62.0,36.0,0,0,0,0.0
Status,1732151415000,28,22,6,29,1575420030,0.00,192.0,28.0,0,0,0,0.0
Status,1732151415000,28,23,6,13,1575420030,0.00,122.0,26.0,0,0,0,0.0
Status,1732151415000,28,24,6,15,1575420030,0.00,65.0,23.0,0,0,0,0.0
Status,1732151415000,28,25,6,4,1575420030,0.00,313.0,21.0,0,0,0,0.0
Status,1732151415000,28,26,6,26,1575420030,0.00,169.0,4.0,0,0,0,0.0
Status,1732151415000,28,27,6,6,1575420030,0.00,329.0,3.0,0,0,0,0.0
Fix,GPS,37.4249383333,-122.1584950000,23.7,0.0,6.0,0.0,1732151416000,2.2,179.9,30300090000000,36.3,0,,,
Fix,FLP,37.4249387000,-122.1585033000,5.400000095367432,0.056393437,5.9,,1732151416242,2.2,,30300090000000,14.20729,0,,,
Raw,1732151416000,27844000000,,705134.1706868423,-1416186606156999936,0.0,85.9606076987065,1346.4860244391245,0.0,0,19,0.0,16431,349833930770741,1797,13.699999809265137,-27.09320103991583,0.14999,16,0.0,0.0,1575420030,,,,0,0.0,1,6.0,13.699999809265137,0.0,0.0,0.0,66.7128,C,30300090000000,
Raw,1732151416000,27844000000,,705134.1706868423,-1416186606156999936,0.0,85.9606076987065,1346.4860244391245,0.0,0,7,0.0,16431,349833918794777,797,16.1299991607666,1023.4328223692779,0.14999,16,0.0,0.0,1575420030,,,,0,0.0,1,6.0,16.1299991607666,0.0,0.0,0.0,66.7128,C,30300090000000,
Raw,1732151416000,27844000000,,705134.1706868423,-1416186606156999936,0.0,85.9606076987065,1346.4860244391245,0.0,0,8,0.0,17,235244,487,5.0,943.721620369319,0.14999,16,0.0,0.0,1605374980,,,,0,0.0,3,6.0,18.0,0.0,0.0,108.85399270765214,66.7128,C,30300090000000,
Raw,1732151416000,27844000000,,705134.1706868423,-1416186606156999936,0.0,85.9606076987065,1346.4860244391245,0.0,0,11,0.0,17,36367,396,16.5,-70.39813316871702,0.14999,16,0.0,0.0,1602000000,,,,0,5.7285853125334985,3,6.0,16.5,0.0,0.0,108.85399270765214,66.7128,C,30300090000000,
Raw,1732151416000,27844000000,,705134.1706868423,-1416186606156999936,0.0,85.9606076987065,1346.4860244391245,0.0,0,15,0.0,16431,349833925874894,487,20.031999588012695,514.4371089547604,0.14999,16,0.0,0.0,1575420030,,,,0,2.323177371921613,1,6.0,20.031999588012695,0.0,0.0,0.0,66.7128,C,30300090000000,
Raw,1732151416000,27844000000,,705134.1706868423,-1416186606156999936,0.0,85.9606076987065,1346.4860244391245,0.0,0,30,0.0,16431,349833927562503,797,16.507999420166016,880.5350037037475,0.14999,16,0.0,0.0,1575420030,,,,0,0.0,1,6.0,16.507999420166016,0.0,0.0,0.0,66.7128,C,30300090000000,
Status,1732151416000,27,0,1,17,1575420030,0.00,105.0,80.0,0,0,0,0.0
Status,1732151416000,27,1,1,22,1575420030,0.00,5.0,67.0,0,0,0,0.0
Status,1732151416000,27,2,1,19,1575420030,18.70,199.0,57.0,1,0,0,13.700001
Status,1732151416000,27,3,1,14,1575420030,0.00,48.0,55.0,0,0,0,0.0
Status,1732151416000,27,4,1,13,1575420030,0.00,239.0,50.0,0,0,0,0.0
Status,1732151416000,27,5,1,30,1575420030,21.50,129.0,40.0,1,0,0,16.5
Status,1732151416000,27,6,1,15,1575420030,22.10,279.0,30.0,1,0,0,17.1
Status,1732151416000,27,7,1,2,1575420030,0.00,51.0,18.0,0,0,0,0.0
Status,1732151416000,27,8,1,24,1575420030,0.00,313.0,13.0,0,0,0,0.0
Status,1732151416000,27,9,1,6,1575420030,0.00,164.0,9.0,0,0,0,0.0
Status,1732151416000,27,10,1,7,1575420030,21.10,130.0,7.0,1,0,0,16.1
Status,1732151416000,27,11,1,21,1575420030,0.00,36.0,6.0,0,0,0,0.0
Status,1732151416000,27,12,3,20,1602000000,0.00,120.0,50.0,0,0,0,0.0
Status,1732151416000,27,13,3,9,1602000000,0.00,76.0,35.0,0,0,0,0.0
Status,1732151416000,27,14,3,8,1602000000,18.90,250.0,26.0,1,0,0,13.9
Status,1732151416000,27,15,3,19,1602000000,0.00,36.0,26.0,0,0,0,0.0
Status,1732151416000,27,16,3,11,1602000000,23.80,307.0,25.0,0,0,0,18.8
Status,1732151416000,27,17,3,17,1602000000,25.70,0.0,0.0,0,0,0,20.7
Status,1732151416000,27,18,6,21,1575420030,0.00,335.0,68.0,0,0,0,0.0
Status,1732151416000,27,19,6,19,1575420030,0.00,247.0,48.0,0,0,0,0.0
Status,1732151416000,27,20,6,27,1575420030,0.00,62.0,36.0,0,0,0,0.0
Status,1732151416000,27,21,6,29,1575420030,0.00,192.0,28.0,0,0,0,0.0
Status,1732151416000,27,22,6,13,1575420030,0.00,122.0,26.0,0,0,0,0.0
Status,1732151416000,27,23,6,15,1575420030,0.00,65.0,23.0,0,0,0,0.0
Status,1732151416000,27,24,6,4,1575420030,0.00,313.0,21.0,0,0,0,0.0
Status,1732151416000,27,25,6,26,1575420030,0.00,169.0,4.0,0,0,0,0.0
Status,1732151416000,27,26,6,6,1575420030,0.00,329.0,3.0,0,0,0,0.0
Fix,GPS,37.4249316667,-122.1584950000,23.7,0.0,6.1,0.0,1732151417000,2.2,179.9,30301090000000,32.1,0,,,
Raw,1732151417000,28844000000,,705119.7857352368,-1416186606156999936,0.0,70.85720760912947,1350.1762137472833,0.0,0,19,0.0,16431,349834930770829,1797,13.699999809265137,-25.621212580701133,0.14999,16,0.0,0.0,1575420030,,,,0,0.0,1,6.0,13.699999809265137,0.0,0.0,0.0,66.7128,C,30301090000000,
Raw,1732151417000,28844000000,,705119.7857352368,-1416186606156999936,0.0,70.85720760912947,1350.1762137472833,0.0,0,7,0.0,16431,349834918791355,1797,16.058000564575195,1024.3103289346625,0.14999,16,0.0,0.0,1575420030,,,,0,0.0,1,6.0,16.058000564575195,0.0,0.0,0.0,66.7128,C,30301090000000,
Raw,1732151417000,28844000000,,705119.7857352368,-1416186606156999936,0.0,70.85720760912947,1350.1762137472833,0.0,0,8,0.0,17,232113,487,5.0,942.2542110721234,0.14999,16,0.0,0.0,1605374980,,,,0,0.0,3,6.0,18.0,0.0,0.0,108.85399270765214,66.7128,C,30301090000000,
Raw,1732151417000,28844000000,,705119.7857352368,-1416186606156999936,0.0,70.85720760912947,1350.1762137472833,0.0,0,11,0.0,17,36603,797,13.899999618530273,-69.97584278077208,0.14999,16,0.0,0.0,1602000000,,,,0,2.355240493004013,3,6.0,13.899999618530273,0.0,0.0,108.85399270765214,66.7128,C,30301090000000,
Raw,1732151417000,28844000000,,705119.7857352368,-1416186606156999936,0.0,70.85720760912947,1350.1762137472833,0.0,0,15,0.0,16431,349834925873173,797,17.118000030517578,515.3433268213632,0.14999,16,0.0,0.0,1575420030,,,,0,0.0,1,6.0,17.118000030517578,0.0,0.0,0.0,66.7128,C,30301090000000,
Raw,1732151417000,28844000000,,705119.7857352368,-1416186606156999936,0.0,70.85720760912947,1350.1762137472833,0.0,0,30,0.0,16431,349834927559566,797,16.547000885009766,881.4626853586395,0.14999,16,0.0,0.0,1575420030,,,,0,0.0,1,6.0,16.547000885009766,0.0,0.0,0.0,66.7128,C,30301090000000,
Fix,FLP,37.4249353000,-122.1585001000,5.400000095367432,0.076667294,5.942,,1732151417242,2.2,,30301090000000,14.932553,0,,,
Status,1732151417000,27,0,1,17,1575420030,0.00,105.0,80.0,0,0,0,0.0
Status,1732151417000,27,1,1,22,1575420030,0.00,5.0,67.0,0,0,0,0.0
Status,1732151417000,27,2,1,19,1575420030,18.70,199.0,57.0,1,0,0,13.700001
Status,1732151417000,27,3,1,14,1575420030,0.00,48.0,55.0,0,0,0,0.0
Status,1732151417000,27,4,1,13,1575420030,0.00,239.0,50.0,0,0,0,0.0
Status,1732151417000,27,5,1,30,1575420030,18.90,129.0,40.0,1,0,0,13.9
Status,1732151417000,27,6,1,15,1575420030,22.20,279.0,30.0,1,0,0,17.2
Status,1732151417000,27,7,1,2,1575420030,0.00,51.0,18.0,0,0,0,0.0
Status,1732151417000,27,8,1,24,1575420030,0.00,313.0,13.0,0,0,0,0.0
Status,1732151417000,27,9,1,6,1575420030,0.00,164.0,9.0,0,0,0,0.0
Status,1732151417000,27,10,1,7,1575420030,21.00,130.0,7.0,1,0,0,16.0
Status,1732151417000,27,11,1,21,1575420030,0.00,36.0,6.0,0,0,0,0.0
Status,1732151417000,27,12,3,20,1602000000,0.00,120.0,50.0,0,0,0,0.0
Status,1732151417000,27,13,3,9,1602000000,0.00,76.0,35.0,0,0,0,0.0
Status,1732151417000,27,14,3,8,1602000000,21.60,250.0,26.0,1,0,0,16.6
Status,1732151417000,27,15,3,19,1602000000,0.00,36.0,26.0,0,0,0,0.0
Status,1732151417000,27,16,3,11,1602000000,29.70,307.0,25.0,0,0,0,24.7
Status,1732151417000,27,17,3,17,1602000000,25.30,0.0,0.0,0,0,0,20.3
Status,1732151417000,27,18,6,21,1575420030,0.00,335.0,68.0,0,0,0,0.0
Status,1732151417000,27,19,6,19,1575420030,0.00,247.0,48.0,0,0,0,0.0
Status,1732151417000,27,20,6,27,1575420030,0.00,62.0,36.0,0,0,0,0.0
Status,1732151417000,27,21,6,29,1575420030,0.00,192.0,28.0,0,0,0,0.0
Status,1732151417000,27,22,6,13,1575420030,0.00,122.0,26.0,0,0,0,0.0
Status,1732151417000,27,23,6,15,1575420030,0.00,65.0,23.0,0,0,0,0.0
Status,1732151417000,27,24,6,4,1575420030,0.00,313.0,21.0,0,0,0,0.0
Status,1732151417000,27,25,6,26,1575420030,0.00,169.0,4.0,0,0,0,0.0
Status,1732151417000,27,26,6,6,1575420030,0.00,329.0,3.0,0,0,0,0.0
Fix,GPS,37.4249150000,-122.1585166667,23.7,0.0,6.1,0.0,1732151418000,2.2,179.9,30302090000000,32.2,0,,,
Raw,1732151418000,29844000000,,705102.0651426795,-1416186606156999936,0.0,69.65930781862895,1349.9791904204412,0.0,0,19,0.0,16431,349835930770915,1797,13.699999809265137,-25.587808979445757,0.14999,16,0.0,0.0,1575420030,,,,0,0.0,1,6.0,13.699999809265137,0.0,0.0,0.0,66.7128,C,30302090000000,
Raw,1732151418000,29844000000,,705102.0651426795,-1416186606156999936,0.0,69.65930781862895,1349.9791904204412,0.0,0,7,0.0,16431,349835918787940,797,15.989999771118164,1024.0856560338684,0.14999,16,0.0,0.0,1575420030,,,,0,0.0,1,6.0,15.989999771118164,0.0,0.0,0.0,66.7128,C,30302090000000,
Raw,1732151418000,29844000000,,705102.0651426795,-1416186606156999936,0.0,69.65930781862895,1349.9791904204412,0.0,0,8,0.0,17,228982,487,5.0,940.7055576511597,0.14999,16,0.0,0.0,1605374980,,,,0,0.0,3,6.0,19.0,0.0,0.0,108.85399270765214,66.7128,C,30302090000000,
Raw,1732151418000,29844000000,,705102.0651426795,-1416186606156999936,0.0,69.65930781862895,1349.9791904204412,0.0,0,11,0.0,17,36842,316,16.600000381469727,-70.49978805492036,0.14999,16,0.0,0.0,1602000000,,,,0,10.769625770455278,3,6.0,16.600000381469727,0.0,0.0,108.85399270765214,66.7128,C,30302090000000,
Raw,1732151418000,29844000000,,705102.0651426795,-1416186606156999936,0.0,69.65930781862895,1349.9791904204412,0.0,0,15,0.0,16431,349835925871484,487,17.174999237060547,515.2009782340941,0.14999,16,0.0,0.0,1575420030,,,,0,0.0,1,6.0,17.174999237060547,0.0,0.0,0.0,66.7128,C,30302090000000,
Raw,1732151418000,29844000000,,705102.0651426795,-1416186606156999936,0.0,69.65930781862895,1349.9791904204412,0.0,0,30,0.0,16431,349835927556622,797,13.899999618530273,881.4176206949153,0.14999,16,0.0,0.0,1575420030,,,,0,0.0,1,6.0,13.899999618530273,0.0,0.0,0.0,66.7128,C,30302090000000,
Fix,FLP,37.4249258000,-122.1585065000,5.400000095367432,0.16699517,5.985,180.0,1732151418242,2.2,179.9,30302090000000,14.908542,0,,,
Fix,FLP,37.4249219000,-122.1585097000,5.400000095367432,0.167307,6.033,180.0,1732151418494,2.2,179.9,30302341000000,12.795178,0,,,
Fix,NLP,37.4257163000,-122.1580969000,5.400000095367432,,22.505,,1732151418493,,,30302341000000,11.214429,0,,,
Status,1732151418000,28,0,1,17,1575420030,0.00,105.0,80.0,0,0,0,0.0
Status,1732151418000,28,1,1,22,1575420030,0.00,5.0,67.0,0,0,0,0.0
Status,1732151418000,28,2,1,19,1575420030,16.90,199.0,57.0,1,0,0,11.9
Status,1732151418000,28,3,1,14,1575420030,0.00,48.0,55.0,0,0,0,0.0
Status,1732151418000,28,4,1,13,1575420030,0.00,239.0,50.0,0,0,0,0.0
Status,1732151418000,28,5,2,135,1575420030,0.00,197.0,45.0,0,0,0,0.0
Status,1732151418000,28,6,1,30,1575420030,18.90,129.0,40.0,1,0,0,13.9
Status,1732151418000,28,7,1,15,1575420030,28.30,279.0,30.0,1,0,0,23.3
Status,1732151418000,28,8,1,2,1575420030,0.00,51.0,18.0,0,0,0,0.0
Status,1732151418000,28,9,1,24,1575420030,0.00,313.0,13.0,0,0,0,0.0
Status,1732151418000,28,10,1,6,1575420030,0.00,164.0,9.0,0,0,0,0.0
Status,1732151418000,28,11,1,7,1575420030,21.00,130.0,7.0,1,0,0,16.0
Status,1732151418000,28,12,1,21,1575420030,0.00,36.0,6.0,0,0,0,0.0
Status,1732151418000,28,13,3,20,1602000000,0.00,120.0,50.0,0,0,0,0.0
Status,1732151418000,28,14,3,9,1602000000,0.00,76.0,35.0,0,0,0,0.0
Status,1732151418000,28,15,3,8,1602000000,24.60,250.0,26.0,1,0,0,19.6
Status,1732151418000,28,16,3,19,1602000000,0.00,36.0,26.0,0,0,0,0.0
Status,1732151418000,28,17,3,11,1602000000,31.90,307.0,25.0,0,0,0,26.9
Status,1732151418000,28,18,3,17,1602000000,23.70,0.0,0.0,0,0,0,18.7
Status,1732151418000,28,19,6,21,1575420030,0.00,335.0,68.0,0,0,0,0.0
Status,1732151418000,28,20,6,19,1575420030,0.00,247.0,48.0,0,0,0,0.0
Status,1732151418000,28,21,6,27,1575420030,0.00,62.0,36.0,0,0,0,0.0
Status,1732151418000,28,22,6,29,1575420030,0.00,192.0,28.0,0,0,0,0.0
Status,1732151418000,28,23,6,13,1575420030,0.00,122.0,26.0,0,0,0,0.0
Status,1732151418000,28,24,6,15,1575420030,0.00,65.0,23.0,0,0,0,0.0
Status,1732151418000,28,25,6,4,1575420030,0.00,313.0,21.0,0,0,0,0.0
Status,1732151418000,28,26,6,26,1575420030,0.00,169.0,4.0,0,0,0,0.0
Status,1732151418000,28,27,6,6,1575420030,0.00,329.0,3.0,0,0,0,0.0
Fix,GPS,37.4248950000,-122.1585400000,23.7,0.0,6.1,0.0,1732151419000,2.1,156.9,30303090000000,32.9,0,,,
Raw,1732151419000,30844000000,,705085.595415479,-1416186606156999936,0.0,67.86588419384589,1349.9366764988692,0.0,0,19,0.0,16431,349836930770999,1797,11.899999618530273,-24.92796009400748,0.14999,16,0.0,0.0,1575420030,,,,0,0.0,1,6.0,11.899999618530273,0.0,0.0,0.0,66.7128,C,30303090000000,
Raw,1732151419000,30844000000,,705085.595415479,-1416186606156999936,0.0,67.86588419384589,1349.9366764988692,0.0,0,7,0.0,16431,349836918784543,797,16.04599952697754,1024.1141815014216,0.14999,16,0.0,0.0,1575420030,,,,0,0.0,1,6.0,16.04599952697754,0.0,0.0,0.0,66.7128,C,30303090000000,
Raw,1732151419000,30844000000,,705085.595415479,-1416186606156999936,0.0,67.86588419384589,1349.9366764988692,0.0,0,8,0.0,17,225816,487,5.0,941.3989137871116,0.14999,16,0.0,0.0,1605374980,,,,0,3.6511431444723863,3,6.0,20.0,0.0,0.0,108.85399270765214,66.7128,C,30303090000000,
Raw,1732151419000,30844000000,,705085.595415479,-1416186606156999936,0.0,67.86588419384589,1349.9366764988692,0.0,0,11,0.0,17,37082,235,19.600000381469727,-70.4804622046444,0.14999,16,0.0,0.0,1602000000,,,,0,13.345859294039569,3,6.0,19.600000381469727,0.0,0.0,108.85399270765214,66.7128,C,30303090000000,
