# 
# Header Description:
# 
# Version: v3.1.0.3 Platform: 13 Manufacturer: samsung Model: SM-S135DL GNSS Hardware Model Name: MediaTek,MT6631,MTK_MNLD_default,MNL_VER_default
# 
# Raw,utcTimeMillis,TimeNanos,LeapSecond,TimeUncertaintyNanos,FullBiasNanos,BiasNanos,BiasUncertaintyNanos,DriftNanosPerSecond,DriftUncertaintyNanosPerSecond,HardwareClockDiscontinuityCount,Svid,TimeOffsetNanos,State,ReceivedSvTimeNanos,ReceivedSvTimeUncertaintyNanos,Cn0DbHz,PseudorangeRateMetersPerSecond,PseudorangeRateUncertaintyMetersPerSecond,AccumulatedDeltaRangeState,AccumulatedDeltaRangeMeters,AccumulatedDeltaRangeUncertaintyMeters,CarrierFrequencyHz,CarrierCycles,CarrierPhase,CarrierPhaseUncertainty,MultipathIndicator,SnrInDb,ConstellationType,AgcDb,BasebandCn0DbHz,FullInterSignalBiasNanos,FullInterSignalBiasUncertaintyNanos,SatelliteInterSignalBiasNanos,SatelliteInterSignalBiasUncertaintyNanos,CodeType,ChipsetElapsedRealtimeNanos,IsFullTracking
# 
# UncalAccel,utcTimeMillis,elapsedRealtimeNanos,UncalAccelXMps2,UncalAccelYMps2,UncalAccelZMps2,BiasXMps2,BiasYMps2,BiasZMps2
# 
# Accel,utcTimeMillis,elapsedRealtimeNanos,AccelXMps2,AccelYMps2,AccelZMps2
# 
# UncalGyro,utcTimeMillis,elapsedRealtimeNanos,UncalGyroXRadPerSec,UncalGyroYRadPerSec,UncalGyroZRadPerSec,DriftXRadPerSec,DriftYRadPerSec,DriftZRadPerSec
# 
# Gyro,utcTimeMillis,elapsedRealtimeNanos,GyroXRadPerSec,GyroYRadPerSec,GyroZRadPerSec
# 
# UncalMag,utcTimeMillis,elapsedRealtimeNanos,UncalMagXMicroT,UncalMagYMicroT,UncalMagZMicroT,BiasXMicroT,BiasYMicroT,BiasZMicroT
# 
# Mag,utcTimeMillis,elapsedRealtimeNanos,MagXMicroT,MagYMicroT,MagZMicroT
# 
# Pressure,utcTimeMillis,elapsedRealtimeNanos,PressureHpa
# 
# OrientationDeg,utcTimeMillis,elapsedRealtimeNanos,yawDeg,rollDeg,pitchDeg
# 
# Fix,Provider,LatitudeDegrees,LongitudeDegrees,AltitudeMeters,SpeedMps,AccuracyMeters,BearingDegrees,UnixTimeMillis,SpeedAccuracyMps,BearingAccuracyDegrees,elapsedRealtimeNanos,VerticalAccuracyMeters,MockLocation,NumberOfUsedSignals,VerticalSpeedAccuracyMps,SolutionType
# 
# Nav,Svid,Type,Status,MessageId,Sub-messageId,Data(Bytes)
# 
# Status,UnixTimeMillis,SignalCount,SignalIndex,ConstellationType,Svid,CarrierFrequencyHz,Cn0DbHz,AzimuthDegrees,ElevationDegrees,UsedInFix,HasAlmanacData,HasEphemerisData,BasebandCn0DbHz
# 
# Agc,utcTimeMillis,TimeNanos,LeapSecond,TimeUncertaintyNanos,FullBiasNanos,BiasNanos,BiasUncertaintyNanos,DriftNanosPerSecond,DriftUncertaintyNanosPerSecond,HardwareClockDiscontinuityCount,AgcDb,CarrierFrequencyHz,ConstellationType
# 
Fix,FLP,37.4250292000,-122.1584965000,2.2254640722571493,1.1539863,7.1,180.0,1732150983836,2.3,179.9,29867684000000,10.936539,0,,,
Status,,27,0,1,17,1575420030,0.00,124.0,79.0,0,0,0,0.0
Status,,27,1,1,22,1575420030,0.00,356.0,68.0,0,0,0,0.0
Status,,27,2,1,14,1575420030,0.00,44.0,57.0,0,0,0,0.0
Status,,27,3,1,19,1575420030,19.90,198.0,53.0,1,0,0,14.9
Status,,27,4,1,13,1575420030,27.40,244.0,52.0,1,0,0,22.4
Status,,27,5,1,30,1575420030,24.90,126.0,43.0,1,0,0,19.9
Status,,27,6,1,15,1575420030,19.60,283.0,31.0,1,0,0,14.6
Status,,27,7,1,2,1575420030,0.00,53.0,19.0,0,0,0,0.0
Status,,27,8,1,7,1575420030,27.40,128.0,10.0,1,0,0,22.4
Status,,27,9,1,24,1575420030,0.00,312.0,10.0,0,0,0,0.0
Status,,27,10,1,21,1575420030,19.80,38.0,8.0,1,0,0,14.799999
Status,,27,11,1,6,1575420030,0.00,165.0,6.0,0,0,0,0.0
Status,,27,12,3,20,1602000000,0.00,124.0,47.0,0,0,0,0.0
Status,,27,13,3,9,1602000000,0.00,72.0,37.0,0,0,0,0.0
Status,,27,14,3,8,1602000000,0.00,254.0,28.0,0,0,0,0.0
Status,,27,15,3,19,1602000000,0.00,39.0,28.0,0,0,0,0.0
Status,,27,16,3,11,1602000000,29.90,304.0,23.0,0,0,0,24.9
Status,,27,17,6,21,1575420030,0.00,329.0,67.0,0,0,0,0.0
Status,,27,18,6,19,1575420030,0.00,251.0,50.0,0,0,0,0.0
Status,,27,19,6,27,1575420030,0.00,59.0,38.0,0,0,0,0.0
Status,,27,20,6,29,1575420030,0.00,193.0,31.0,0,0,0,0.0
Status,,27,21,6,13,1575420030,0.00,124.0,24.0,0,0,0,0.0
Status,,27,22,6,15,1575420030,0.00,68.0,23.0,0,0,0,0.0
Status,,27,23,6,4,1575420030,0.00,315.0,20.0,0,0,0,0.0
Status,,27,24,6,6,1575420030,0.00,329.0,1.0,0,0,0,0.0
Status,,27,25,6,26,1575420030,0.00,170.0,1.0,0,0,0,0.0
Status,,27,26,6,34,1575420030,0.00,25.0,1.0,0,0,0,0.0
Fix,GPS,37.4248983333,-122.1584716667,-0.5,0.0,6.8,0.0,1732150984161,2.1,179.9,29868251000000,87.3,0,,,
Fix,FLP,37.4249731000,-122.1584870000,2.537636655584768,1.2486352,7.0,180.0,1732150984403,2.1,179.9,29868251000000,11.170447,0,,,
Raw,1732150984162,16514000000,,998335.4467843217,-1416186185648999936,0.0,191.37017141347744,1398.4231350307743,0.0,0,13,0.0,16431,349402092214092,396,22.35300064086914,683.3778897033512,0.14999,16,0.0,0.0,1575420030,,,,0,6.968623722571784,1,6.0,22.35300064086914,0.0,0.0,0.0,66.7128,C,29868251000000,
Raw,1732150984162,16514000000,,998335.4467843217,-1416186185648999936,0.0,191.37017141347744,1398.4231350307743,0.0,0,7,0.0,16431,349402081277287,797,22.43000030517578,1019.5834638357375,0.14999,16,0.0,0.0,1575420030,,,,0,6.207328886385834,1,6.0,22.43000030517578,0.0,0.0,0.0,66.7128,C,29868251000000,
Raw,1732150984162,16514000000,,998335.4467843217,-1416186185648999936,0.0,191.37017141347744,1398.4231350307743,0.0,0,30,0.0,16431,349402089829208,396,19.864999771118164,862.8868451378504,0.14999,16,0.0,0.0,1575420030,,,,0,2.5518719981419027,1,6.0,19.864999771118164,0.0,0.0,0.0,66.7128,C,29868251000000,
Raw,1732150984162,16514000000,,998335.4467843217,-1416186185648999936,0.0,191.37017141347744,1398.4231350307743,0.0,0,19,0.0,16431,349402091729107,797,14.899999618530273,-46.6325423544954,0.14999,16,0.0,0.0,1575420030,,,,0,0.0,1,6.0,14.899999618530273,0.0,0.0,0.0,66.7128,C,29868251000000,
Raw,1732150984162,16514000000,,998335.4467843217,-1416186185648999936,0.0,191.37017141347744,1398.4231350307743,0.0,0,15,0.0,16431,349402087599270,797,14.600000381469727,475.39721910313716,0.14999,16,0.0,0.0,1575420030,,,,0,0.0,1,6.0,14.600000381469727,0.0,0.0,0.0,66.7128,C,29868251000000,
Raw,1732150984162,16514000000,,998335.4467843217,-1416186185648999936,0.0,191.37017141347744,1398.4231350307743,0.0,0,21,0.0,16431,349402078795732,797,14.800000190734863,876.7442756914648,0.14999,16,0.0,0.0,1575420030,,,,0,0.0,1,6.0,14.800000190734863,0.0,0.0,0.0,66.7128,C,29868251000000,
Raw,1732150984162,16514000000,,998335.4467843217,-1416186185648999936,0.0,191.37017141347744,1398.4231350307743,0.0,0,11,0.0,17,954608,316,25.0,-58.59223165439136,0.14999,16,0.0,0.0,1602000000,,,,0,10.966142746570158,3,6.0,25.0,0.0,0.0,48.25135048369075,66.7128,C,29868251000000,
Status,1732150984161,27,0,1,17,1575420030,0.00,124.0,79.0,0,0,0,0.0
Status,1732150984161,27,1,1,22,1575420030,0.00,356.0,68.0,0,0,0,0.0
Status,1732150984161,27,2,1,14,1575420030,0.00,44.0,57.0,0,0,0,0.0
Status,1732150984161,27,3,1,19,1575420030,25.60,198.0,53.0,1,0,0,20.6
Status,1732150984161,27,4,1,13,1575420030,28.90,244.0,52.0,1,0,0,23.9
Status,1732150984161,27,5,1,30,1575420030,27.60,126.0,43.0,1,0,0,22.6
Status,1732150984161,27,6,1,15,1575420030,26.30,283.0,31.0,1,0,0,21.3
Status,1732150984161,27,7,1,2,1575420030,0.00,53.0,19.0,0,0,0,0.0
Status,1732150984161,27,8,1,7,1575420030,26.50,128.0,10.0,1,0,0,21.5
Status,1732150984161,27,9,1,24,1575420030,0.00,312.0,10.0,0,0,0,0.0
Status,1732150984161,27,10,1,21,1575420030,0.00,38.0,8.0,0,0,0,0.0
Status,1732150984161,27,11,1,6,1575420030,0.00,165.0,6.0,0,0,0,0.0
Status,1732150984161,27,12,3,20,1602000000,0.00,124.0,47.0,0,0,0,0.0
Status,1732150984161,27,13,3,9,1602000000,0.00,72.0,37.0,0,0,0,0.0
Status,1732150984161,27,14,3,8,1602000000,0.00,254.0,28.0,0,0,0,0.0
Status,1732150984161,27,15,3,19,1602000000,0.00,39.0,28.0,0,0,0,0.0
Status,1732150984161,27,16,3,11,1602000000,26.90,304.0,23.0,0,0,0,21.9
Status,1732150984161,27,17,6,21,1575420030,0.00,329.0,67.0,0,0,0,0.0
Status,1732150984161,27,18,6,19,1575420030,0.00,251.0,50.0,0,0,0,0.0
Status,1732150984161,27,19,6,27,1575420030,0.00,59.0,38.0,0,0,0,0.0
Status,1732150984161,27,20,6,29,1575420030,0.00,193.0,31.0,0,0,0,0.0
Status,1732150984161,27,21,6,13,1575420030,0.00,124.0,24.0,0,0,0,0.0
Status,1732150984161,27,22,6,15,1575420030,0.00,68.0,23.0,0,0,0,0.0
Status,1732150984161,27,23,6,4,1575420030,0.00,315.0,20.0,0,0,0,0.0
Status,1732150984161,27,24,6,6,1575420030,0.00,329.0,1.0,0,0,0,0.0
Status,1732150984161,27,25,6,26,1575420030,0.00,170.0,1.0,0,0,0,0.0
Status,1732150984161,27,26,6,34,1575420030,0.00,25.0,1.0,0,0,0,0.0
Fix,GPS,37.4248766667,-122.1584266667,-0.5,0.0,6.6,0.0,1732150986000,2.3,179.9,29870089000000,86.3,0,,,
Raw,1732150986000,18352000000,,706498.4478362027,-1416186185648999936,0.0,187.13133553652108,1398.2091693979964,0.0,0,13,0.0,16431,349403930209898,396,23.945999145507812,682.6675869779083,0.14999,16,0.0,0.0,1575420030,,,,0,8.521825181113625,1,6.0,23.945999145507812,0.0,0.0,0.0,66.7128,C,29870089000000,
Raw,1732150986000,18352000000,,706498.4478362027,-1416186185648999936,0.0,187.13133553652108,1398.2091693979964,0.0,0,7,0.0,16431,349403919271033,487,21.466999053955078,1019.7897392037123,0.14999,16,0.0,0.0,1575420030,,,,0,4.689756676435049,1,6.0,21.466999053955078,0.0,0.0,0.0,66.7128,C,29870089000000,
Raw,1732150986000,18352000000,,706498.4478362027,-1416186185648999936,0.0,187.13133553652108,1398.2091693979964,0.0,0,11,0.0,17,954962,396,22.0,-58.92616224462068,0.14999,16,0.0,0.0,1602000000,,,,0,7.003919789105681,3,6.0,22.0,0.0,0.0,48.25135048369075,66.7128,C,29870089000000,
Raw,1732150986000,18352000000,,706498.4478362027,-1416186185648999936,0.0,187.13133553652108,1398.2091693979964,0.0,0,19,0.0,16431,349403929729416,396,20.55699920654297,-47.23083383845471,0.14999,16,0.0,0.0,1575420030,,,,0,3.1376595201816526,1,6.0,20.55699920654297,0.0,0.0,0.0,66.7128,C,29870089000000,
Raw,1732150986000,18352000000,,706498.4478362027,-1416186185648999936,0.0,187.13133553652108,1398.2091693979964,0.0,0,15,0.0,16431,349403925596353,487,21.333999633789062,475.73590095731197,0.14999,16,0.0,0.0,1575420030,,,,0,4.449578526974741,1,6.0,21.333999633789062,0.0,0.0,0.0,66.7128,C,29870089000000,
Raw,1732150986000,18352000000,,706498.4478362027,-1416186185648999936,0.0,187.13133553652108,1398.2091693979964,0.0,0,30,0.0,16431,349403927823953,396,22.583999633789062,863.0641304541098,0.14999,16,0.0,0.0,1575420030,,,,0,6.46857834317067,1,6.0,22.583999633789062,0.0,0.0,0.0,66.7128,C,29870089000000,
Fix,FLP,37.4249142000,-122.1584604000,2.3918658514154965,1.2824154,6.9,180.0,1732150986241,2.3,179.9,29870089000000,11.454867,0,,,
Status,1732150986000,27,0,1,17,1575420030,0.00,124.0,79.0,0,0,0,0.0
Status,1732150986000,27,1,1,22,1575420030,0.00,357.0,68.0,0,0,0,0.0
Status,1732150986000,27,2,1,14,1575420030,0.00,44.0,57.0,0,0,0,0.0
Status,1732150986000,27,3,1,19,1575420030,25.40,198.0,53.0,1,0,0,20.4
Status,1732150986000,27,4,1,13,1575420030,29.90,244.0,52.0,1,0,0,24.9
Status,1732150986000,27,5,1,30,1575420030,26.20,126.0,43.0,1,0,0,21.2
Status,1732150986000,27,6,1,15,1575420030,26.30,283.0,31.0,1,0,0,21.3
Status,1732150986000,27,7,1,2,1575420030,0.00,53.0,19.0,0,0,0,0.0
Status,1732150986000,27,8,1,7,1575420030,26.10,128.0,10.0,1,0,0,21.1
Status,1732150986000,27,9,1,24,1575420030,0.00,312.0,10.0,0,0,0,0.0
Status,1732150986000,27,10,1,21,1575420030,0.00,38.0,8.0,0,0,0,0.0
Status,1732150986000,27,11,1,6,1575420030,0.00,165.0,6.0,0,0,0,0.0
Status,1732150986000,27,12,3,20,1602000000,0.00,124.0,47.0,0,0,0,0.0
Status,1732150986000,27,13,3,9,1602000000,0.00,72.0,37.0,0,0,0,0.0
Status,1732150986000,27,14,3,8,1602000000,0.00,254.0,28.0,0,0,0,0.0
Status,1732150986000,27,15,3,19,1602000000,0.00,39.0,28.0,0,0,0,0.0
Status,1732150986000,27,16,3,11,1602000000,23.80,304.0,23.0,0,0,0,18.8
Status,1732150986000,27,17,6,21,1575420030,0.00,329.0,67.0,0,0,0,0.0
Status,1732150986000,27,18,6,19,1575420030,0.00,251.0,50.0,0,0,0,0.0
Status,1732150986000,27,19,6,27,1575420030,0.00,59.0,38.0,0,0,0,0.0
Status,1732150986000,27,20,6,29,1575420030,0.00,193.0,31.0,0,0,0,0.0
Status,1732150986000,27,21,6,13,1575420030,0.00,124.0,24.0,0,0,0,0.0
Status,1732150986000,27,22,6,15,1575420030,0.00,68.0,23.0,0,0,0,0.0
Status,1732150986000,27,23,6,4,1575420030,0.00,315.0,20.0,0,0,0,0.0
Status,1732150986000,27,24,6,6,1575420030,0.00,329.0,1.0,0,0,0,0.0
Status,1732150986000,27,25,6,26,1575420030,0.00,170.0,1.0,0,0,0,0.0
Status,1732150986000,27,26,6,34,1575420030,0.00,25.0,1.0,0,0,0,0.0
Fix,GPS,37.4248833333,-122.1583783333,-0.5,0.0,6.4,0.0,1732150987000,2.2,179.9,29871089000000,86.0,0,,,
Fix,FLP,37.4248955000,-122.1584268000,3.0002478724158,0.9762588,6.8,180.0,1732150987241,2.2,179.9,29871089000000,14.879265,0,,,
Raw,1732150987000,19352000000,,706474.9419913692,-1416186185648999936,0.0,184.75398642312706,1398.0083963233753,0.0,0,13,0.0,16431,349404930207623,316,24.851999282836914,683.3957761935923,0.14999,16,0.0,0.0,1575420030,,,,0,9.795206778501171,1,6.0,24.851999282836914,0.0,0.0,0.0,66.7128,C,29871089000000,
Raw,1732150987000,19352000000,,706474.9419913692,-1416186185648999936,0.0,184.75398642312706,1398.0083963233753,0.0,0,7,0.0,16431,349404919267638,487,21.148000717163086,1019.5150770470756,0.14999,16,0.0,0.0,1575420030,,,,0,4.118647467373993,1,6.0,21.148000717163086,0.0,0.0,0.0,66.7128,C,29871089000000,
Raw,1732150987000,19352000000,,706474.9419913692,-1416186185648999936,0.0,184.75398642312706,1398.0083963233753,0.0,0,11,0.0,17,955153,487,19.0,-57.955346659481435,0.14999,16,0.0,0.0,1602000000,,,,0,2.2408150679837813,3,6.0,19.0,0.0,0.0,48.25135048369075,66.7128,C,29871089000000,
Raw,1732150987000,19352000000,,706474.9419913692,-1416186185648999936,0.0,184.75398642312706,1398.0083963233753,0.0,0,19,0.0,16431,349404929729479,487,20.351999282836914,-46.927135171686416,0.14999,16,0.0,0.0,1575420030,,,,0,2.8497031061688034,1,6.0,20.351999282836914,0.0,0.0,0.0,66.7128,C,29871089000000,
Raw,1732150987000,19352000000,,706474.9419913692,-1416186185648999936,0.0,184.75398642312706,1398.0083963233753,0.0,0,15,0.0,16431,349404925594725,396,21.333999633789062,475.1377023901851,0.14999,16,0.0,0.0,1575420030,,,,0,4.449578526974741,1,6.0,21.333999633789062,0.0,0.0,0.0,66.7128,C,29871089000000,
Raw,1732150987000,19352000000,,706474.9419913692,-1416186185648999936,0.0,184.75398642312706,1398.0083963233753,0.0,0,30,0.0,16431,349404927821075,487,21.242000579833984,862.5014261169678,0.14999,16,0.0,0.0,1575420030,,,,0,4.285688954669309,1,6.0,21.242000579833984,0.0,0.0,0.0,66.7128,C,29871089000000,
Status,1732150987000,27,0,1,17,1575420030,0.00,124.0,79.0,0,0,0,0.0
Status,1732150987000,27,1,1,22,1575420030,0.00,357.0,68.0,0,0,0,0.0
Status,1732150987000,27,2,1,14,1575420030,0.00,44.0,57.0,0,0,0,0.0
Status,1732150987000,27,3,1,19,1575420030,26.30,198.0,53.0,1,0,0,21.3
Status,1732150987000,27,4,1,13,1575420030,28.70,244.0,52.0,1,0,0,23.7
Status,1732150987000,27,5,1,30,1575420030,26.10,126.0,43.0,1,0,0,21.1
Status,1732150987000,27,6,1,15,1575420030,28.80,283.0,31.0,1,0,0,23.8
Status,1732150987000,27,7,1,2,1575420030,0.00,53.0,19.0,0,0,0,0.0
Status,1732150987000,27,8,1,7,1575420030,27.40,128.0,10.0,1,0,0,22.4
Status,1732150987000,27,9,1,24,1575420030,0.00,312.0,10.0,0,0,0,0.0
Status,1732150987000,27,10,1,21,1575420030,0.00,38.0,8.0,0,0,0,0.0
Status,1732150987000,27,11,1,6,1575420030,0.00,165.0,6.0,0,0,0,0.0
Status,1732150987000,27,12,3,20,1602000000,0.00,124.0,47.0,0,0,0,0.0
Status,1732150987000,27,13,3,9,1602000000,0.00,72.0,37.0,0,0,0,0.0
Status,1732150987000,27,14,3,8,1602000000,23.40,254.0,28.0,1,0,0,18.4
Status,1732150987000,27,15,3,19,1602000000,0.00,39.0,28.0,0,0,0,0.0
Status,1732150987000,27,16,3,11,1602000000,25.00,304.0,23.0,0,0,0,20.0
Status,1732150987000,27,17,6,21,1575420030,0.00,329.0,67.0,0,0,0,0.0
Status,1732150987000,27,18,6,19,1575420030,0.00,251.0,50.0,0,0,0,0.0
Status,1732150987000,27,19,6,27,1575420030,0.00,59.0,38.0,0,0,0,0.0
Status,1732150987000,27,20,6,29,1575420030,0.00,193.0,31.0,0,0,0,0.0
Status,1732150987000,27,21,6,13,1575420030,28.60,124.0,24.0,1,0,0,23.6
Status,1732150987000,27,22,6,15,1575420030,0.00,68.0,23.0,0,0,0,0.0
Status,1732150987000,27,23,6,4,1575420030,0.00,315.0,20.0,0,0,0,0.0
Status,1732150987000,27,24,6,6,1575420030,0.00,329.0,1.0,0,0,0,0.0
Status,1732150987000,27,25,6,26,1575420030,0.00,170.0,1.0,0,0,0,0.0
Status,1732150987000,27,26,6,34,1575420030,0.00,25.0,1.0,0,0,0,0.0
Fix,GPS,37.4249050000,-122.1583833333,-0.5,0.0,6.2,0.0,1732150988000,2.2,179.9,29872089000000,79.3,0,,,
Raw,1732150988000,20352000000,,706450.5501169079,-1416186185648999936,0.0,164.00224925156155,1398.5485598941257,0.0,0,13,0.0,16431,349405930205344,396,23.72100067138672,683.7904404393008,0.14999,16,0.0,0.0,1575420030,,,,0,8.158779934224505,1,6.0,23.72100067138672,0.0,0.0,0.0,66.7128,C,29872089000000,
Raw,1732150988000,20352000000,,706450.5501169079,-1416186185648999936,0.0,164.00224925156155,1398.5485598941257,0.0,0,7,0.0,16431,349405919264235,396,22.43000030517578,1020.5315871937622,0.14999,16,0.0,0.0,1575420030,,,,0,6.207328886385834,1,6.0,22.43000030517578,0.0,0.0,0.0,66.7128,C,29872089000000,
Raw,1732150988000,20352000000,,706450.5501169079,-1416186185648999936,0.0,164.00224925156155,1398.5485598941257,0.0,0,13,0.0,16431,349405912255754,316,23.600000381469727,-58.72111516930988,0.14999,16,0.0,0.0,1575420030,,,,0,9.345059958544145,6,6.0,23.600000381469727,0.0,0.0,-3.931414212334064,66.7128,C,29872089000000,
Raw,1732150988000,20352000000,,706450.5501169079,-1416186185648999936,0.0,164.00224925156155,1398.5485598941257,0.0,0,8,0.0,17,571536,487,5.0,912.3052198178768,0.14999,16,0.0,0.0,1605374980,,,,0,1.594765692100852,3,6.0,18.0,0.0,0.0,20.917185330143276,66.7128,C,29872089000000,
Raw,1732150988000,20352000000,,706450.5501169079,-1416186185648999936,0.0,164.00224925156155,1398.5485598941257,0.0,0,11,0.0,17,955343,396,18.399999618530273,-58.42962952405532,0.14999,16,0.0,0.0,1602000000,,,,0,4.183274920571898,3,6.0,18.399999618530273,0.0,0.0,20.917185330143276,66.7128,C,29872089000000,
Raw,1732150988000,20352000000,,706450.5501169079,-1416186185648999936,0.0,164.00224925156155,1398.5485598941257,0.0,0,19,0.0,16431,349405929729687,396,21.288000106811523,-47.83837054723992,0.14999,16,0.0,0.0,1575420030,,,,0,4.368020278565953,1,6.0,21.288000106811523,0.0,0.0,0.0,66.7128,C,29872089000000,
Raw,1732150988000,20352000000,,706450.5501169079,-1416186185648999936,0.0,164.00224925156155,1398.5485598941257,0.0,0,15,0.0,16431,349405925593141,396,23.753999710083008,476.06347925001245,0.14999,16,0.0,0.0,1575420030,,,,0,8.211581857548675,1,6.0,23.753999710083008,0.0,0.0,0.0,66.7128,C,29872089000000,
Raw,1732150988000,20352000000,,706450.5501169079,-1416186185648999936,0.0,164.00224925156155,1398.5485598941257,0.0,0,30,0.0,16431,349405927818171,487,21.148000717163086,863.6382635616396,0.14999,16,0.0,0.0,1575420030,,,,0,4.118647467373993,1,6.0,21.148000717163086,0.0,0.0,0.0,66.7128,C,29872089000000,
Fix,FLP,37.4248970000,-122.1584093000,2.954410586367999,0.56628513,6.7,180.0,1732150988241,2.2,179.9,29872089000000,11.075208,0,,,
Fix,FLP,37.4248994000,-122.1584005000,3.0837060802471807,0.3654354,6.55,180.0,1732150988715,2.2,179.9,29872562000000,14.655184,0,,,
Fix,NLP,37.4257130000,-122.1580984000,5.400000095367432,,24.804,,1732150988714,,,29872562000000,18.794775,0,,,
Status,1732150988000,27,0,1,17,1575420030,0.00,124.0,79.0,0,0,0,0.0
Status,1732150988000,27,1,1,22,1575420030,0.00,357.0,68.0,0,0,0,0.0
Status,1732150988000,27,2,1,14,1575420030,0.00,44.0,57.0,0,0,0,0.0
Status,1732150988000,27,3,1,19,1575420030,0.00,198.0,53.0,0,0,0,0.0
Status,1732150988000,27,4,1,13,1575420030,28.60,244.0,52.0,1,0,0,23.6
Status,1732150988000,27,5,1,30,1575420030,0.00,126.0,43.0,0,0,0,0.0
Status,1732150988000,27,6,1,15,1575420030,0.00,283.0,31.0,0,0,0,0.0
Status,1732150988000,27,7,1,2,1575420030,0.00,53.0,19.0,0,0,0,0.0
Status,1732150988000,27,8,1,7,1575420030,27.90,128.0,10.0,1,0,0,22.9
Status,1732150988000,27,9,1,24,1575420030,0.00,312.0,10.0,0,0,0,0.0
Status,1732150988000,27,10,1,21,1575420030,0.00,38.0,8.0,0,0,0,0.0
Status,1732150988000,27,11,1,6,1575420030,0.00,165.0,6.0,0,0,0,0.0
Status,1732150988000,27,12,3,20,1602000000,0.00,124.0,47.0,0,0,0,0.0
Status,1732150988000,27,13,3,9,1602000000,0.00,72.0,37.0,0,0,0,0.0
Status,1732150988000,27,14,3,8,1602000000,23.40,254.0,28.0,1,0,0,18.4
Status,1732150988000,27,15,3,19,1602000000,0.00,39.0,28.0,0,0,0,0.0
Status,1732150988000,27,16,3,11,1602000000,25.30,304.0,23.0,0,0,0,20.3
Status,1732150988000,27,17,6,21,1575420030,0.00,329.0,67.0,0,0,0,0.0
Status,1732150988000,27,18,6,19,1575420030,0.00,251.0,50.0,0,0,0,0.0
Status,1732150988000,27,19,6,27,1575420030,0.00,59.0,38.0,0,0,0,0.0
Status,1732150988000,27,20,6,29,1575420030,0.00,193.0,31.0,0,0,0,0.0
Status,1732150988000,27,21,6,13,1575420030,29.50,124.0,24.0,1,0,0,24.5
Status,1732150988000,27,22,6,15,1575420030,0.00,68.0,23.0,0,0,0,0.0
Status,1732150988000,27,23,6,4,1575420030,0.00,315.0,20.0,0,0,0,0.0
Status,1732150988000,27,24,6,6,1575420030,0.00,329.0,1.0,0,0,0,0.0
Status,1732150988000,27,25,6,26,1575420030,0.00,170.0,1.0,0,0,0,0.0
Status,1732150988000,27,26,6,34,1575420030,0.00,25.0,1.0,0,0,0,0.0
Fix,GPS,37.4248983333,-122.1583933333,-0.5,0.0,6.2,0.0,1732150989000,2.2,179.9,29873089000000,38.4,0,,,
Raw,1732150989000,21352000000,,706441.794059409,-1416186185648999936,0.0,94.54422967229492,1398.2784790627932,0.0,0,13,0.0,16431,349406930203064,396,23.552000045776367,683.8400115693975,0.14999,16,0.0,0.0,1575420030,,,,0,7.944302626389043,1,6.0,23.552000045776367,0.0,0.0,0.0,66.7128,C,29873089000000,
Raw,1732150989000,21352000000,,706441.794059409,-1416186185648999936,0.0,94.54422967229492,1398.2784790627932,0.0,0,7,0.0,16431,349406919260835,396,22.922000885009766,1020.2163203813575,0.14999,16,0.0,0.0,1575420030,,,,0,6.968623722571784,1,6.0,22.922000885009766,0.0,0.0,0.0,66.7128,C,29873089000000,
Raw,1732150989000,21352000000,,706441.794059409,-1416186185648999936,0.0,94.54422967229492,1398.2784790627932,0.0,0,13,0.0,16431,349406912255930,316,24.5,-60.47245808519855,0.14999,16,0.0,0.0,1575420030,,,,0,10.510672171582655,6,6.0,24.5,0.0,0.0,-3.931414212334064,66.7128,C,29873089000000,
Raw,1732150989000,21352000000,,706441.794059409,-1416186185648999936,0.0,94.54422967229492,1398.2784790627932,0.0,0,8,0.0,17,568493,487,5.0,912.3328482909427,0.14999,16,0.0,0.0,1605374980,,,,0,1.594765692100852,3,6.0,20.0,0.0,0.0,20.917185330143276,66.7128,C,29873089000000,
Raw,1732150989000,21352000000,,706441.794059409,-1416186185648999936,0.0,94.54422967229492,1398.2784790627932,0.0,0,11,0.0,17,955532,487,18.399999618530273,-58.255194308089315,0.14999,16,0.0,0.0,1602000000,,,,0,4.606397206774936,3,6.0,18.399999618530273,0.0,0.0,20.917185330143276,66.7128,C,29873089000000,
Fix,FLP,37.4248983000,-122.1583982000,3.0837060802471807,0.26973826,6.4,180.0,1732150989241,2.2,179.9,29873089000000,14.045477,0,,,
Status,1732150989000,27,0,1,17,1575420030,0.00,124.0,79.0,0,0,0,0.0
Status,1732150989000,27,1,1,22,1575420030,0.00,357.0,68.0,0,0,0,0.0
Status,1732150989000,27,2,1,14,1575420030,0.00,44.0,57.0,0,0,0,0.0
Status,1732150989000,27,3,1,19,1575420030,0.00,198.0,53.0,0,0,0,0.0
Status,1732150989000,27,4,1,13,1575420030,25.20,244.0,52.0,1,0,0,20.2
Status,1732150989000,27,5,1,30,1575420030,0.00,126.0,43.0,0,0,0,0.0
Status,1732150989000,27,6,1,15,1575420030,0.00,283.0,31.0,0,0,0,0.0
Status,1732150989000,27,7,1,2,1575420030,0.00,53.0,19.0,0,0,0,0.0
Status,1732150989000,27,8,1,7,1575420030,28.00,128.0,10.0,1,0,0,23.0
Status,1732150989000,27,9,1,24,1575420030,0.00,312.0,10.0,0,0,0,0.0
Status,1732150989000,27,10,1,21,1575420030,0.00,38.0,8.0,0,0,0,0.0
Status,1732150989000,27,11,1,6,1575420030,0.00,165.0,6.0,0,0,0,0.0
Status,1732150989000,27,12,3,20,1602000000,0.00,124.0,47.0,0,0,0,0.0
Status,1732150989000,27,13,3,9,1602000000,0.00,72.0,37.0,0,0,0,0.0
Status,1732150989000,27,14,3,8,1602000000,22.90,254.0,28.0,1,0,0,17.9
Status,1732150989000,27,15,3,19,1602000000,0.00,39.0,28.0,0,0,0,0.0
Status,1732150989000,27,16,3,11,1602000000,24.90,304.0,23.0,0,0,0,19.9
Status,1732150989000,27,17,6,21,1575420030,0.00,329.0,67.0,0,0,0,0.0
Status,1732150989000,27,18,6,19,1575420030,0.00,251.0,50.0,0,0,0,0.0
Status,1732150989000,27,19,6,27,1575420030,0.00,59.0,38.0,0,0,0,0.0
Status,1732150989000,27,20,6,29,1575420030,0.00,193.0,31.0,0,0,0,0.0
Status,1732150989000,27,21,6,13,1575420030,29.50,124.0,24.0,1,0,0,24.5
Status,1732150989000,27,22,6,15,1575420030,0.00,68.0,23.0,0,0,0,0.0
Status,1732150989000,27,23,6,4,1575420030,0.00,315.0,20.0,0,0,0,0.0
Status,1732150989000,27,24,6,6,1575420030,0.00,329.0,1.0,0,0,0,0.0
Status,1732150989000,27,25,6,26,1575420030,0.00,170.0,1.0,0,0,0,0.0
Status,1732150989000,27,26,6,34,1575420030,0.00,25.0,1.0,0,0,0,0.0
Fix,GPS,37.4248883333,-122.1584000000,-0.5999999999999979,0.0,6.1,0.0,1732150990000,2.2,179.9,29874089000000,60.6,0,,,
Raw,1732150990000,22352000000,,706431.0053457048,-1416186185648999936,0.0,98.10154344922941,1398.4807751620651,0.0,0,13,0.0,16431,349407930200785,487,20.246000289916992,684.0194804312188,0.14999,16,0.0,0.0,1575420030,,,,0,2.652288025642919,1,6.0,20.246000289916992,0.0,0.0,0.0,66.7128,C,29874089000000,
Raw,1732150990000,22352000000,,706431.0053457048,-1416186185648999936,0.0,98.10154344922941,1398.4807751620651,0.0,0,7,0.0,16431,349407919257431,316,23.01099967956543,1020.8237177148941,0.14999,16,0.0,0.0,1575420030,,,,0,9.617937571875068,1,6.0,23.01099967956543,0.0,0.0,0.0,66.7128,C,29874089000000,
Raw,1732150990000,22352000000,,706431.0053457048,-1416186185648999936,0.0,98.10154344922941,1398.4807751620651,0.0,0,13,0.0,16431,349407912256132,396,24.5,-60.23900454374059,0.14999,16,0.0,0.0,1575420030,,,,0,10.510672171582655,6,6.0,24.5,0.0,0.0,-3.931414212334064,66.7128,C,29874089000000,
Raw,1732150990000,22352000000,,706431.0053457048,-1416186185648999936,0.0,98.10154344922941,1398.4807751620651,0.0,0,8,0.0,17,565379,487,5.0,913.3548282451444,0.14999,16,0.0,0.0,1605374980,,,,0,0.6796158808873498,3,6.0,19.0,0.0,0.0,20.917185330143276,66.7128,C,29874089000000,
Raw,1732150990000,22352000000,,706431.0053457048,-1416186185648999936,0.0,98.10154344922941,1398.4807751620651,0.0,0,11,0.0,17,955722,487,17.899999618530273,-57.5997144643323,0.14999,16,0.0,0.0,1602000000,,,,0,4.1335790102127845,3,6.0,17.899999618530273,0.0,0.0,20.917185330143276,66.7128,C,29874089000000,
Fix,FLP,37.4248931000,-122.1583989000,3.0378696181768987,0.23330231,6.283,180.0,1732150990241,2.2,179.9,29874089000000,12.156412,0,,,
Status,1732150990000,27,0,1,17,1575420030,0.00,124.0,79.0,0,0,0,0.0
Status,1732150990000,27,1,1,22,1575420030,0.00,357.0,68.0,0,0,0,0.0
Status,1732150990000,27,2,1,14,1575420030,0.00,44.0,57.0,0,0,0,0.0
Status,1732150990000,27,3,1,19,1575420030,24.40,198.0,53.0,1,0,0,19.4
Status,1732150990000,27,4,1,13,1575420030,25.20,244.0,52.0,1,0,0,20.2
Status,1732150990000,27,5,1,30,1575420030,24.00,126.0,43.0,1,0,0,19.0
Status,1732150990000,27,6,1,15,1575420030,29.40,283.0,31.0,1,0,0,24.4
Status,1732150990000,27,7,1,2,1575420030,0.00,53.0,19.0,0,0,0,0.0
Status,1732150990000,27,8,1,7,1575420030,30.70,128.0,10.0,1,0,0,25.7
Status,1732150990000,27,9,1,24,1575420030,0.00,312.0,10.0,0,0,0,0.0
Status,1732150990000,27,10,1,21,1575420030,0.00,38.0,8.0,0,0,0,0.0
Status,1732150990000,27,11,1,6,1575420030,0.00,165.0,6.0,0,0,0,0.0
Status,1732150990000,27,12,3,20,1602000000,0.00,124.0,47.0,0,0,0,0.0
Status,1732150990000,27,13,3,9,1602000000,0.00,72.0,37.0,0,0,0,0.0
Status,1732150990000,27,14,3,8,1602000000,23.70,254.0,28.0,1,0,0,18.7
Status,1732150990000,27,15,3,19,1602000000,0.00,39.0,28.0,0,0,0,0.0
Status,1732150990000,27,16,3,11,1602000000,23.10,304.0,23.0,0,0,0,18.1
Status,1732150990000,27,17,6,21,1575420030,0.00,329.0,67.0,0,0,0,0.0
Status,1732150990000,27,18,6,19,1575420030,0.00,251.0,50.0,0,0,0,0.0
Status,1732150990000,27,19,6,27,1575420030,0.00,59.0,38.0,0,0,0,0.0
Status,1732150990000,27,20,6,29,1575420030,0.00,193.0,31.0,0,0,0,0.0
Status,1732150990000,27,21,6,13,1575420030,27.70,124.0,24.0,1,0,0,22.7
Status,1732150990000,27,22,6,15,1575420030,0.00,68.0,23.0,0,0,0,0.0
Status,1732150990000,27,23,6,4,1575420030,0.00,315.0,20.0,0,0,0,0.0
Status,1732150990000,27,24,6,6,1575420030,0.00,329.0,1.0,0,0,0,0.0
Status,1732150990000,27,25,6,26,1575420030,0.00,170.0,1.0,0,0,0,0.0
Status,1732150990000,27,26,6,34,1575420030,0.00,25.0,1.0,0,0,0,0.0
Fix,GPS,37.4248900000,-122.1584066667,-0.5999999999999979,0.0,6.1,0.0,1732150991000,2.1,179.9,29875089000000,72.4,0,,,
Fix,FLP,37.4248909000,-122.1584018000,3.0837060802471807,0.16549814,6.257,180.0,1732150991242,2.1,179.9,29875089000000,14.376445,0,,,
Raw,1732150991000,23352000000,,706422.1450494261,-1416186185648999936,0.0,103.8597816958536,1400.3183312192925,0.0,0,13,0.0,16431,349408930198501,487,20.246000289916992,685.1499530728697,0.14999,16,0.0,0.0,1575420030,,,,0,2.652288025642919,1,6.0,20.246000289916992,0.0,0.0,0.0,66.7128,C,29875089000000,
Raw,1732150991000,23352000000,,706422.1450494261,-1416186185648999936,0.0,103.8597816958536,1400.3183312192925,0.0,0,7,0.0,16431,349408919254026,316,25.68899917602539,1021.3966429036024,0.14999,16,0.0,0.0,1575420030,,,,0,10.982420117133003,1,6.0,25.68899917602539,0.0,0.0,0.0,66.7128,C,29875089000000,
Raw,1732150991000,23352000000,,706422.1450494261,-1416186185648999936,0.0,103.8597816958536,1400.3183312192925,0.0,0,13,0.0,16431,349408912256308,316,22.700000762939453,-59.718437990101506,0.14999,16,0.0,0.0,1575420030,,,,0,8.158779934224505,6,6.0,22.700000762939453,0.0,0.0,-3.931414212334064,66.7128,C,29875089000000,
Raw,1732150991000,23352000000,,706422.1450494261,-1416186185648999936,0.0,103.8597816958536,1400.3183312192925,0.0,0,8,0.0,17,562290,487,5.0,914.7247628304341,0.14999,16,0.0,0.0,1605374980,,,,0,2.1008829973962575,3,6.0,19.0,0.0,0.0,-66.89709318530903,66.7128,C,29875089000000,
Raw,1732150991000,23352000000,,706422.1450494261,-1416186185648999936,0.0,103.8597816958536,1400.3183312192925,0.0,0,11,0.0,17,955913,487,18.700000762939453,-57.70835955169929,0.14999,16,0.0,0.0,1602000000,,,,0,1.1132857365643982,3,6.0,18.700000762939453,0.0,0.0,-66.89709318530903,66.7128,C,29875089000000,
Raw,1732150991000,23352000000,,706422.1450494261,-1416186185648999936,0.0,103.8597816958536,1400.3183312192925,0.0,0,30,0.0,16431,349408927809570,487,18.996000289916992,864.7711984993498,0.14999,16,0.0,0.0,1575420030,,,,0,0.3833990272870773,1,6.0,18.996000289916992,0.0,0.0,0.0,66.7128,C,29875089000000,
Raw,1732150991000,23352000000,,706422.1450494261,-1416186185648999936,0.0,103.8597816958536,1400.3183312192925,0.0,0,19,0.0,16431,349408929730208,487,19.441999435424805,-46.71788646507415,0.14999,16,0.0,0.0,1575420030,,,,0,1.2465373678900722,1,6.0,19.441999435424805,0.0,0.0,0.0,66.7128,C,29875089000000,
Raw,1732150991000,23352000000,,706422.1450494261,-1416186185648999936,0.0,103.8597816958536,1400.3183312192925,0.0,0,15,0.0,16431,349408925588360,316,24.381999969482422,477.81714508671166,0.14999,16,0.0,0.0,1575420030,,,,0,9.158259433461277,1,6.0,24.381999969482422,0.0,0.0,0.0,66.7128,C,29875089000000,
Status,1732150991000,28,0,1,17,1575420030,0.00,124.0,79.0,0,0,0,0.0
Status,1732150991000,28,1,1,22,1575420030,0.00,357.0,68.0,0,0,0,0.0
Status,1732150991000,28,2,1,14,1575420030,0.00,44.0,57.0,0,0,0,0.0
Status,1732150991000,28,3,1,19,1575420030,24.40,198.0,53.0,1,0,0,19.4
Status,1732150991000,28,4,1,13,1575420030,25.20,244.0,52.0,1,0,0,20.2
Status,1732150991000,28,5,2,133,1575420030,0.00,191.0,45.0,0,0,0,0.0
Status,1732150991000,28,6,1,30,1575420030,24.00,126.0,43.0,1,0,0,19.0
Status,1732150991000,28,7,1,15,1575420030,29.20,283.0,31.0,1,0,0,24.2
Status,1732150991000,28,8,1,2,1575420030,0.00,53.0,19.0,0,0,0,0.0
Status,1732150991000,28,9,1,7,1575420030,30.70,128.0,10.0,1,0,0,25.7
Status,1732150991000,28,10,1,24,1575420030,0.00,312.0,10.0,0,0,0,0.0
Status,1732150991000,28,11,1,21,1575420030,0.00,38.0,8.0,0,0,0,0.0
Status,1732150991000,28,12,1,6,1575420030,0.00,165.0,6.0,0,0,0,0.0
Status,1732150991000,28,13,3,20,1602000000,0.00,124.0,47.0,0,0,0,0.0
Status,1732150991000,28,14,3,9,1602000000,0.00,72.0,37.0,0,0,0,0.0
Status,1732150991000,28,15,3,8,1602000000,23.70,254.0,28.0,1,0,0,18.7
Status,1732150991000,28,16,3,19,1602000000,0.00,39.0,28.0,0,0,0,0.0
Status,1732150991000,28,17,3,11,1602000000,23.60,304.0,23.0,0,0,0,18.6
Status,1732150991000,28,18,6,21,1575420030,0.00,329.0,67.0,0,0,0,0.0
Status,1732150991000,28,19,6,19,1575420030,0.00,251.0,50.0,0,0,0,0.0
Status,1732150991000,28,20,6,27,1575420030,0.00,59.0,38.0,0,0,0,0.0
Status,1732150991000,28,21,6,29,1575420030,0.00,193.0,31.0,0,0,0,0.0
Status,1732150991000,28,22,6,13,1575420030,30.30,124.0,24.0,1,0,0,25.3
Status,1732150991000,28,23,6,15,1575420030,0.00,68.0,23.0,0,0,0,0.0
Status,1732150991000,28,24,6,4,1575420030,0.00,315.0,20.0,0,0,0,0.0
Status,1732150991000,28,25,6,6,1575420030,0.00,329.0,1.0,0,0,0,0.0
Status,1732150991000,28,26,6,26,1575420030,0.00,170.0,1.0,0,0,0,0.0
Status,1732150991000,28,27,6,34,1575420030,0.00,25.0,1.0,0,0,0,0.0
Fix,GPS,37.4248983333,-122.1584050000,-0.5999999999999979,0.0,6.0,0.0,1732150992000,2.1,179.9,29876089000000,66.8,0,,,
Raw,1732150992000,24352000000,,706399.9943087294,-1416186185648999936,0.0,99.6222691627808,1401.747412063166,0.0,0,13,0.0,16431,349409930196217,487,20.229000091552734,685.8176534306476,0.14999,16,0.0,0.0,1575420030,,,,0,2.0316033508435427,1,6.0,20.229000091552734,0.0,0.0,0.0,66.7128,C,29876089000000,
Raw,1732150992000,24352000000,,706399.9943087294,-1416186185648999936,0.0,99.6222691627808,1401.747412063166,0.0,0,7,0.0,16431,349409919250618,316,25.722999572753906,1021.9827622825145,0.14999,16,0.0,0.0,1575420030,,,,0,11.924313396786907,1,6.0,25.722999572753906,0.0,0.0,0.0,66.7128,C,29876089000000,
Raw,1732150992000,24352000000,,706399.9943087294,-1416186185648999936,0.0,99.6222691627808,1401.747412063166,0.0,0,13,0.0,16431,349409912256484,316,25.299999237060547,-59.17301618378979,0.14999,16,0.0,0.0,1575420030,,,,0,11.502243824767916,6,6.0,25.299999237060547,0.0,0.0,-45.77352798611639,66.7128,C,29876089000000,
Raw,1732150992000,24352000000,,706399.9943087294,-1416186185648999936,0.0,99.6222691627808,1401.747412063166,0.0,0,8,0.0,17,559220,487,5.0,915.4184836987038,0.14999,16,0.0,0.0,1605374980,,,,0,1.594765692100852,3,6.0,20.0,0.0,0.0,-90.23258139374038,66.7128,C,29876089000000,
Raw,1732150992000,24352000000,,706399.9943087294,-1416186185648999936,0.0,99.6222691627808,1401.747412063166,0.0,0,11,0.0,17,956103,797,18.684999465942383,-57.77414968029831,0.14999,16,0.0,0.0,1602000000,,,,0,1.9333178366446955,3,6.0,18.684999465942383,0.0,0.0,-90.23258139374038,66.7128,C,29876089000000,
Raw,1732150992000,24352000000,,706399.9943087294,-1416186185648999936,0.0,99.6222691627808,1401.747412063166,0.0,0,30,0.0,16431,349409927806683,487,18.996000289916992,865.9183497124204,0.14999,16,0.0,0.0,1575420030,,,,0,0.3833990272870773,1,6.0,18.996000289916992,0.0,0.0,0.0,66.7128,C,29876089000000,
Raw,1732150992000,24352000000,,706399.9943087294,-1416186185648999936,0.0,99.6222691627808,1401.747412063166,0.0,0,19,0.0,16431,349409929730356,487,19.381999969482422,-45.887163524813516,0.14999,16,0.0,0.0,1575420030,,,,0,1.1283601756796657,1,6.0,19.381999969482422,0.0,0.0,0.0,66.7128,C,29876089000000,
Raw,1732150992000,24352000000,,706399.9943087294,-1416186185648999936,0.0,99.6222691627808,1401.747412063166,0.0,0,15,0.0,16431,349409925586782,396,24.198999404907227,477.9970320742789,0.14999,16,0.0,0.0,1575420030,,,,0,8.870303019448428,1,6.0,24.198999404907227,0.0,0.0,0.0,66.7128,C,29876089000000,
Fix,FLP,37.4248938000,-122.1584031000,3.0837060802471807,0.06464278,6.171,,1732150992241,2.1,,29876089000000,14.529226,0,,,
Status,1732150992000,28,0,1,17,1575420030,0.00,124.0,79.0,0,0,0,0.0
Status,1732150992000,28,1,1,22,1575420030,0.00,357.0,68.0,0,0,0,0.0
Status,1732150992000,28,2,1,14,1575420030,0.00,44.0,57.0,0,0,0,0.0
Status,1732150992000,28,3,1,19,1575420030,24.80,198.0,53.0,1,0,0,19.8
Status,1732150992000,28,4,1,13,1575420030,25.30,244.0,52.0,1,0,0,20.3
Status,1732150992000,28,5,2,133,1575420030,0.00,191.0,45.0,0,0,0,0.0
Status,1732150992000,28,6,1,30,1575420030,23.70,126.0,43.0,1,0,0,18.7
Status,1732150992000,28,7,1,15,1575420030,29.30,283.0,31.0,1,0,0,24.3
Status,1732150992000,28,8,1,2,1575420030,0.00,53.0,19.0,0,0,0,0.0
Status,1732150992000,28,9,1,7,1575420030,30.50,128.0,10.0,1,0,0,25.5
Status,1732150992000,28,10,1,24,1575420030,0.00,312.0,10.0,0,0,0,0.0
Status,1732150992000,28,11,1,21,1575420030,0.00,38.0,8.0,0,0,0,0.0
Status,1732150992000,28,12,1,6,1575420030,0.00,165.0,6.0,0,0,0,0.0
Status,1732150992000,28,13,3,20,1602000000,0.00,124.0,47.0,0,0,0,0.0
Status,1732150992000,28,14,3,9,1602000000,0.00,72.0,37.0,0,0,0,0.0
Status,1732150992000,28,15,3,8,1602000000,23.70,254.0,28.0,1,0,0,18.7
Status,1732150992000,28,16,3,19,1602000000,0.00,39.0,28.0,0,0,0,0.0
Status,1732150992000,28,17,3,11,1602000000,24.30,304.0,23.0,0,0,0,19.3
Status,1732150992000,28,18,6,21,1575420030,0.00,329.0,67.0,0,0,0,0.0
Status,1732150992000,28,19,6,19,1575420030,0.00,251.0,50.0,0,0,0,0.0
Status,1732150992000,28,20,6,27,1575420030,0.00,59.0,38.0,0,0,0,0.0
Status,1732150992000,28,21,6,29,1575420030,0.00,193.0,31.0,0,0,0,0.0
Status,1732150992000,28,22,6,13,1575420030,30.30,124.0,24.0,1,0,0,25.3
Status,1732150992000,28,23,6,15,1575420030,0.00,68.0,23.0,0,0,0,0.0
Status,1732150992000,28,24,6,4,1575420030,0.00,315.0,20.0,0,0,0,0.0
Status,1732150992000,28,25,6,6,1575420030,0.00,329.0,1.0,0,0,0,0.0
Status,1732150992000,28,26,6,26,1575420030,0.00,170.0,1.0,0,0,0,0.0
Status,1732150992000,28,27,6,34,1575420030,0.00,25.0,1.0,0,0,0,0.0
Fix,GPS,37.4249100000,-122.1584083333,-0.5999999999999979,0.0,6.0,0.0,1732150993000,2.1,179.9,29877089000000,60.7,0,,,
Fix,FLP,37.4249011000,-122.1584051000,2.5587797952089995,0.04803422,6.114,,1732150993241,2.1,,29877089000000,10.986851,0,,,
Raw,1732150993000,25352000000,,94.68593562574699,-1416186185648999936,0.0,94.68593562574699,1404.3557929992749,0.0,0,13,0.0,16431,349410930193931,797,20.277000427246094,686.6351821807044,0.14999,16,0.0,0.0,1575420030,,,,0,4.202569759246154,1,6.0,20.277000427246094,0.0,0.0,0.0,66.7128,C,29877089000000,
Raw,1732150993000,25352000000,,94.68593562574699,-1416186185648999936,0.0,94.68593562574699,1404.3557929992749,0.0,0,7,0.0,16431,349410919247207,316,25.531999588012695,1022.9516990110016,0.14999,16,0.0,0.0,1575420030,,,,0,10.749748446972763,1,6.0,25.531999588012695,0.0,0.0,0.0,66.7128,C,29877089000000,
Raw,1732150993000,25352000000,,94.68593562574699,-1416186185648999936,0.0,94.68593562574699,1404.3557929992749,0.0,0,13,0.0,16431,349410912256661,316,25.2549991607666,-58.37360621605506,0.14999,16,0.0,0.0,1575420030,,,,0,10.306288867948933,6,6.0,25.2549991607666,0.0,0.0,-34.51019283267226,66.7128,C,29877089000000,
Raw,1732150993000,25352000000,,94.68593562574699,-1416186185648999936,0.0,94.68593562574699,1404.3557929992749,0.0,0,8,0.0,17,556121,487,5.0,914.6293853293549,0.14999,16,0.0,0.0,1605374980,,,,0,2.579126145504485,3,6.0,20.0,0.0,0.0,-85.52412066132378,66.7128,C,29877089000000,
Raw,1732150993000,25352000000,,94.68593562574699,-1416186185648999936,0.0,94.68593562574699,1404.3557929992749,0.0,0,11,0.0,17,956290,487,18.700000762939453,-56.44765621242063,0.14999,16,0.0,0.0,1602000000,,,,0,3.1029326800306842,3,6.0,18.700000762939453,0.0,0.0,-85.52412066132378,66.7128,C,29877089000000,
Raw,1732150993000,25352000000,,94.68593562574699,-1416186185648999936,0.0,94.68593562574699,1404.3557929992749,0.0,0,30,0.0,16431,349410927803716,797,18.66200065612793,866.4009597400154,0.14999,16,0.0,0.0,1575420030,,,,0,0.0,1,6.0,18.66200065612793,0.0,0.0,0.0,66.7128,C,29877089000000,
Raw,1732150993000,25352000000,,94.68593562574699,-1416186185648999936,0.0,94.68593562574699,1404.3557929992749,0.0,0,19,0.0,16431,349410929730505,487,19.799999237060547,-44.13112830888759,0.14999,16,0.0,0.0,1575420030,,,,0,1.8144447990793773,1,6.0,19.799999237060547,0.0,0.0,0.0,66.7128,C,29877089000000,
Raw,1732150993000,25352000000,,94.68593562574699,-1416186185648999936,0.0,94.68593562574699,1404.3557929992749,0.0,0,15,0.0,16431,349410925585170,396,24.32200050354004,478.93363374508334,0.14999,16,0.0,0.0,1575420030,,,,0,9.063330732972045,1,6.0,24.32200050354004,0.0,0.0,0.0,66.7128,C,29877089000000,
Fix,FLP,37.4249048000,-122.1584063000,2.870952378536618,0.07622752,6.066,,1732150993884,2.1,,29877732000000,12.211483,0,,,
Fix,NLP,37.4257177000,-122.1580937000,5.400000095367432,,82.5,,1732150993885,,,29877732000000,15.781088,0,,,
Status,1732150993000,28,0,1,17,1575420030,0.00,124.0,79.0,0,0,0,0.0
Status,1732150993000,28,1,1,22,1575420030,0.00,357.0,68.0,0,0,0,0.0
Status,1732150993000,28,2,1,14,1575420030,0.00,44.0,57.0,0,0,0,0.0
Status,1732150993000,28,3,1,19,1575420030,26.10,198.0,53.0,1,0,0,21.1
Status,1732150993000,28,4,1,13,1575420030,25.30,244.0,52.0,1,0,0,20.3
Status,1732150993000,28,5,2,133,1575420030,0.00,191.0,45.0,0,0,0,0.0
Status,1732150993000,28,6,1,30,1575420030,0.00,126.0,43.0,0,0,0,0.0
Status,1732150993000,28,7,1,15,1575420030,28.90,283.0,31.0,1,0,0,23.9
Status,1732150993000,28,8,1,2,1575420030,0.00,53.0,19.0,0,0,0,0.0
Status,1732150993000,28,9,1,7,1575420030,29.20,128.0,10.0,1,0,0,24.2
Status,1732150993000,28,10,1,24,1575420030,0.00,312.0,10.0,0,0,0,0.0
Status,1732150993000,28,11,1,21,1575420030,0.00,38.0,8.0,0,0,0,0.0
Status,1732150993000,28,12,1,6,1575420030,0.00,165.0,6.0,0,0,0,0.0
Status,1732150993000,28,13,3,20,1602000000,0.00,124.0,47.0,0,0,0,0.0
Status,1732150993000,28,14,3,9,1602000000,0.00,72.0,37.0,0,0,0,0.0
Status,1732150993000,28,15,3,8,1602000000,23.80,254.0,28.0,1,0,0,18.8
Status,1732150993000,28,16,3,19,1602000000,0.00,39.0,28.0,0,0,0,0.0
Status,1732150993000,28,17,3,11,1602000000,23.20,304.0,23.0,0,0,0,18.2
Status,1732150993000,28,18,6,21,1575420030,0.00,329.0,67.0,0,0,0,0.0
Status,1732150993000,28,19,6,19,1575420030,0.00,251.0,50.0,0,0,0,0.0
Status,1732150993000,28,20,6,27,1575420030,0.00,59.0,38.0,0,0,0,0.0
Status,1732150993000,28,21,6,29,1575420030,0.00,193.0,31.0,0,0,0,0.0
Status,1732150993000,28,22,6,13,1575420030,29.30,124.0,24.0,1,0,0,24.3
Status,1732150993000,28,23,6,15,1575420030,0.00,68.0,23.0,0,0,0,0.0
Status,1732150993000,28,24,6,4,1575420030,0.00,315.0,20.0,0,0,0,0.0
Status,1732150993000,28,25,6,6,1575420030,0.00,329.0,1.0,0,0,0,0.0
Status,1732150993000,28,26,6,26,1575420030,0.00,170.0,1.0,0,0,0,0.0
Status,1732150993000,28,27,6,34,1575420030,0.00,25.0,1.0,0,0,0,0.0
Fix,GPS,37.4249100000,-122.1584150000,-0.5999999999999979,0.0,6.0,0.0,1732150994000,2.0,179.9,29878089000000,61.2,0,,,
Raw,1732150994000,26352000000,,94.21215942874991,-1416186185648999936,0.0,94.21215942874991,1403.6614689163023,0.0,0,13,0.0,16431,349411930191640,487,20.32200050354004,686.6874943573575,0.14999,16,0.0,0.0,1575420030,,,,0,4.202569759246154,1,6.0,20.32200050354004,0.0,0.0,0.0,66.7128,C,29878089000000,
Raw,1732150994000,26352000000,,94.21215942874991,-1416186185648999936,0.0,94.21215942874991,1403.6614689163023,0.0,0,7,0.0,16431,349411919243793,316,24.198999404907227,1022.6554801492431,0.14999,16,0.0,0.0,1575420030,,,,0,8.870303019448428,1,6.0,24.198999404907227,0.0,0.0,0.0,66.7128,C,29878089000000,
Raw,1732150994000,26352000000,,94.21215942874991,-1416186185648999936,0.0,94.21215942874991,1403.6614689163023,0.0,0,13,0.0,16431,349411912256862,316,24.299999237060547,-58.918749271869515,0.14999,16,0.0,0.0,1575420030,,,,0,10.181309882408904,6,6.0,24.299999237060547,0.0,0.0,-34.02576161530985,66.7128,C,29878089000000,
Raw,1732150994000,26352000000,,94.21215942874991,-1416186185648999936,0.0,94.21215942874991,1403.6614689163023,0.0,0,19,0.0,16431,349411929730668,487,21.051000595092773,-44.17884110233582,0.14999,16,0.0,0.0,1575420030,,,,0,4.0339064085089,1,6.0,21.051000595092773,0.0,0.0,0.0,66.7128,C,29878089000000,
Raw,1732150994000,26352000000,,94.21215942874991,-1416186185648999936,0.0,94.21215942874991,1403.6614689163023,0.0,0,8,0.0,17,553056,487,5.0,913.7554866961403,0.14999,16,0.0,0.0,1605374980,,,,0,4.762015534005846,3,6.0,20.0,0.0,0.0,-80.03232431031451,66.7128,C,29878089000000,
Raw,1732150994000,26352000000,,94.21215942874991,-1416186185648999936,0.0,94.21215942874991,1403.6614689163023,0.0,0,11,0.0,17,956475,487,18.78499984741211,-56.15968733703202,0.14999,16,0.0,0.0,1602000000,,,,0,1.283602755014992,3,6.0,18.78499984741211,0.0,0.0,-80.03232431031451,66.7128,C,29878089000000,
Raw,1732150994000,26352000000,,94.21215942874991,-1416186185648999936,0.0,94.21215942874991,1403.6614689163023,0.0,0,15,0.0,16431,349411925583567,396,23.882999420166016,478.8875934546187,0.14999,16,0.0,0.0,1575420030,,,,0,8.419637065544018,1,6.0,23.882999420166016,0.0,0.0,0.0,66.7128,C,29878089000000,
Fix,FLP,37.4249067000,-122.1584090000,3.459383606453793,0.07413847,6.057,,1732150994241,2.0,,29878089000000,15.73809,0,,,
Status,1732150994000,28,0,1,17,1575420030,0.00,124.0,79.0,0,0,0,0.0
Status,1732150994000,28,1,1,22,1575420030,0.00,357.0,68.0,0,0,0,0.0
Status,1732150994000,28,2,1,14,1575420030,0.00,44.0,57.0,0,0,0,0.0
Status,1732150994000,28,3,1,19,1575420030,24.90,198.0,53.0,1,0,0,19.9
Status,1732150994000,28,4,1,13,1575420030,25.20,244.0,52.0,1,0,0,20.2
Status,1732150994000,28,5,2,133,1575420030,0.00,191.0,45.0,0,0,0,0.0
Status,1732150994000,28,6,1,30,1575420030,0.00,126.0,43.0,0,0,0,0.0
Status,1732150994000,28,7,1,15,1575420030,27.80,283.0,31.0,1,0,0,22.8
Status,1732150994000,28,8,1,2,1575420030,0.00,53.0,19.0,0,0,0,0.0
Status,1732150994000,28,9,1,7,1575420030,32.00,128.0,10.0,1,0,0,27.0
Status,1732150994000,28,10,1,24,1575420030,0.00,312.0,10.0,0,0,0,0.0
Status,1732150994000,28,11,1,21,1575420030,0.00,38.0,8.0,0,0,0,0.0
Status,1732150994000,28,12,1,6,1575420030,0.00,165.0,6.0,0,0,0,0.0
Status,1732150994000,28,13,3,20,1602000000,0.00,124.0,47.0,0,0,0,0.0
Status,1732150994000,28,14,3,9,1602000000,0.00,72.0,37.0,0,0,0,0.0
Status,1732150994000,28,15,3,8,1602000000,23.80,254.0,28.0,1,0,0,18.8
Status,1732150994000,28,16,3,19,1602000000,0.00,39.0,28.0,0,0,0,0.0
Status,1732150994000,28,17,3,11,1602000000,23.20,304.0,23.0,0,0,0,18.2
Status,1732150994000,28,18,6,21,1575420030,0.00,329.0,67.0,0,0,0,0.0
Status,1732150994000,28,19,6,19,1575420030,0.00,251.0,50.0,0,0,0,0.0
Status,1732150994000,28,20,6,27,1575420030,0.00,59.0,38.0,0,0,0,0.0
Status,1732150994000,28,21,6,29,1575420030,0.00,193.0,31.0,0,0,0,0.0
Status,1732150994000,28,22,6,13,1575420030,29.10,124.0,24.0,1,0,0,24.1
Status,1732150994000,28,23,6,15,1575420030,0.00,68.0,23.0,0,0,0,0.0
Status,1732150994000,28,24,6,4,1575420030,0.00,315.0,20.0,0,0,0,0.0
Status,1732150994000,28,25,6,6,1575420030,0.00,329.0,1.0,0,0,0,0.0
Status,1732150994000,28,26,6,26,1575420030,0.00,170.0,1.0,0,0,0,0.0
Status,1732150994000,28,27,6,34,1575420030,0.00,25.0,1.0,0,0,0,0.0
Fix,GPS,37.4249183333,-122.1584116667,-0.5999999999999979,0.0,6.0,0.0,1732150995000,2.0,179.9,29879089000000,58.0,0,,,
Fix,FLP,37.4249118000,-122.1584099000,3.0002478724158,0.101321645,6.028,0.0,1732150995241,2.0,179.9,29879089000000,13.824044,0,,,
Raw,1732150995000,27352000000,,91.5862125321571,-1416186185648999936,0.0,91.5862125321571,1402.6896318610275,0.0,0,13,0.0,16431,349412930189365,797,20.242000579833984,686.4957604736567,0.14999,16,0.0,0.0,1575420030,,,,0,0.0,1,6.0,20.242000579833984,0.0,0.0,0.0,66.7128,C,29879089000000,
Raw,1732150995000,27352000000,,91.5862125321571,-1416186185648999936,0.0,91.5862125321571,1402.6896318610275,0.0,0,7,0.0,16431,349412919240383,235,26.966999053955078,1022.2911532493201,0.14999,16,0.0,0.0,1575420030,,,,0,12.711498354559518,1,6.0,26.966999053955078,0.0,0.0,0.0,66.7128,C,29879089000000,
Raw,1732150995000,27352000000,,91.5862125321571,-1416186185648999936,0.0,91.5862125321571,1402.6896318610275,0.0,0,13,0.0,16431,349412912257065,316,24.100000381469727,-59.111737532808085,0.14999,16,0.0,0.0,1575420030,,,,0,9.968930362203023,6,6.0,24.100000381469727,0.0,0.0,-33.99283434675921,66.7128,C,29879089000000,
Raw,1732150995000,27352000000,,91.5862125321571,-1416186185648999936,0.0,91.5862125321571,1402.6896318610275,0.0,0,19,0.0,16431,349412929730787,487,19.85700035095215,-44.593947051176976,0.14999,16,0.0,0.0,1575420030,,,,0,1.923702713109419,1,6.0,19.85700035095215,0.0,0.0,0.0,66.7128,C,29879089000000,
Raw,1732150995000,27352000000,,91.5862125321571,-1416186185648999936,0.0,91.5862125321571,1402.6896318610275,0.0,0,8,0.0,17,549985,487,5.0,915.3366012933797,0.14999,16,0.0,0.0,1605374980,,,,0,1.594765692100852,3,6.0,20.0,0.0,0.0,-76.87420809732772,66.7128,C,29879089000000,
Raw,1732150995000,27352000000,,91.5862125321571,-1416186185648999936,0.0,91.5862125321571,1402.6896318610275,0.0,0,11,0.0,17,956662,797,18.764999389648438,-56.159093398371056,0.14999,16,0.0,0.0,1602000000,,,,0,1.283602755014992,3,6.0,18.764999389648438,0.0,0.0,-76.87420809732772,66.7128,C,29879089000000,
Raw,1732150995000,27352000000,,91.5862125321571,-1416186185648999936,0.0,91.5862125321571,1402.6896318610275,0.0,0,15,0.0,16431,349412925581970,396,22.849000930786133,478.69971561946323,0.14999,16,0.0,0.0,1575420030,,,,0,6.846285226378146,1,6.0,22.849000930786133,0.0,0.0,0.0,66.7128,C,29879089000000,
Status,1732150995000,28,0,1,17,1575420030,0.00,124.0,79.0,0,0,0,0.0
Status,1732150995000,28,1,1,22,1575420030,0.00,357.0,68.0,0,0,0,0.0
Status,1732150995000,28,2,1,14,1575420030,0.00,44.0,57.0,0,0,0,0.0
Status,1732150995000,28,3,1,19,1575420030,22.80,198.0,53.0,1,0,0,17.8
Status,1732150995000,28,4,1,13,1575420030,25.20,244.0,52.0,1,0,0,20.2
Status,1732150995000,28,5,2,133,1575420030,0.00,191.0,45.0,0,0,0,0.0
Status,1732150995000,28,6,1,30,1575420030,23.00,126.0,43.0,1,0,0,18.0
Status,1732150995000,28,7,1,15,1575420030,27.70,283.0,31.0,1,0,0,22.7
Status,1732150995000,28,8,1,2,1575420030,0.00,53.0,19.0,0,0,0,0.0
Status,1732150995000,28,9,1,7,1575420030,30.10,128.0,10.0,1,0,0,25.1
Status,1732150995000,28,10,1,24,1575420030,0.00,312.0,10.0,0,0,0,0.0
Status,1732150995000,28,11,1,21,1575420030,0.00,38.0,8.0,0,0,0,0.0
Status,1732150995000,28,12,1,6,1575420030,0.00,165.0,6.0,0,0,0,0.0
Status,1732150995000,28,13,3,20,1602000000,0.00,124.0,47.0,0,0,0,0.0
Status,1732150995000,28,14,3,9,1602000000,0.00,72.0,37.0,0,0,0,0.0
Status,1732150995000,28,15,3,8,1602000000,23.70,254.0,28.0,1,0,0,18.7
Status,1732150995000,28,16,3,19,1602000000,0.00,39.0,28.0,0,0,0,0.0
Status,1732150995000,28,17,3,11,1602000000,27.30,304.0,23.0,0,0,0,22.3
Status,1732150995000,28,18,6,21,1575420030,0.00,329.0,67.0,0,0,0,0.0
Status,1732150995000,28,19,6,19,1575420030,0.00,251.0,50.0,0,0,0,0.0
Status,1732150995000,28,20,6,27,1575420030,0.00,59.0,38.0,0,0,0,0.0
Status,1732150995000,28,21,6,29,1575420030,0.00,193.0,31.0,0,0,0,0.0
Status,1732150995000,28,22,6,13,1575420030,26.30,124.0,24.0,1,0,0,21.3
Status,1732150995000,28,23,6,15,1575420030,0.00,68.0,23.0,0,0,0,0.0
Status,1732150995000,28,24,6,4,1575420030,0.00,315.0,20.0,0,0,0,0.0
Status,1732150995000,28,25,6,6,1575420030,0.00,329.0,1.0,0,0,0,0.0
Status,1732150995000,28,26,6,26,1575420030,0.00,170.0,1.0,0,0,0,0.0
Status,1732150995000,28,27,6,34,1575420030,0.00,25.0,1.0,0,0,0,0.0
Fix,GPS,37.4249200000,-122.1584166667,-0.5999999999999979,0.0,6.0,0.0,1732150996000,2.0,179.9,29880089000000,62.6,0,,,
Raw,1732150996000,28352000000,,94.10709992130349,-1416186185648999936,0.0,94.10709992130349,1401.35166599656,0.0,0,13,0.0,16431,349413930187103,797,20.152000427246094,686.1248829370479,0.14999,16,0.0,0.0,1575420030,,,,0,0.0,1,6.0,20.152000427246094,0.0,0.0,0.0,66.7128,C,29880089000000,
Raw,1732150996000,28352000000,,94.10709992130349,-1416186185648999936,0.0,94.10709992130349,1401.35166599656,0.0,0,7,0.0,16431,349413919236975,316,25.131000518798828,1022.2646719520801,0.14999,16,0.0,0.0,1575420030,,,,0,10.223169672525778,1,6.0,25.131000518798828,0.0,0.0,0.0,66.7128,C,29880089000000,
Raw,1732150996000,28352000000,,94.10709992130349,-1416186185648999936,0.0,94.10709992130349,1401.35166599656,0.0,0,13,0.0,16431,349413912257262,487,21.299999237060547,-59.88917266967524,0.14999,16,0.0,0.0,1575420030,,,,0,6.207328886385834,6,6.0,21.299999237060547,0.0,0.0,-33.62437158645632,66.7128,C,29880089000000,
Raw,1732150996000,28352000000,,94.10709992130349,-1416186185648999936,0.0,94.10709992130349,1401.35166599656,0.0,0,19,0.0,16431,349413929730955,487,17.843000411987305,-44.548185511209596,0.14999,16,0.0,0.0,1575420030,,,,0,0.0,1,6.0,17.843000411987305,0.0,0.0,0.0,66.7128,C,29880089000000,
Raw,1732150996000,28352000000,,94.10709992130349,-1416186185648999936,0.0,94.10709992130349,1401.35166599656,0.0,0,8,0.0,17,546902,797,5.0,913.5121190571535,0.14999,16,0.0,0.0,1605374980,,,,0,0.09450473183273722,3,6.0,17.0,0.0,0.0,-67.57393110435375,66.7128,C,29880089000000,
Raw,1732150996000,28352000000,,94.10709992130349,-1416186185648999936,0.0,94.10709992130349,1401.35166599656,0.0,0,11,0.0,17,956848,396,18.70599937438965,-57.093404599655706,0.14999,16,0.0,0.0,1602000000,,,,0,7.5125073668654005,3,6.0,18.70599937438965,0.0,0.0,-67.57393110435375,66.7128,C,29880089000000,
Raw,1732150996000,28352000000,,94.10709992130349,-1416186185648999936,0.0,94.10709992130349,1401.35166599656,0.0,0,30,0.0,16431,349413927795075,797,17.996999740600586,865.5697257571766,0.14999,16,0.0,0.0,1575420030,,,,0,0.0,1,6.0,17.996999740600586,0.0,0.0,0.0,66.7128,C,29880089000000,
Raw,1732150996000,28352000000,,94.10709992130349,-1416186185648999936,0.0,94.10709992130349,1401.35166599656,0.0,0,15,0.0,16431,349413925580374,487,22.66200065612793,478.20549098781555,0.14999,16,0.0,0.0,1575420030,,,,0,6.596314316398683,1,6.0,22.66200065612793,0.0,0.0,0.0,66.7128,C,29880089000000,
Fix,FLP,37.4249158000,-122.1584125000,3.1671651120560806,0.10459042,6.014,0.0,1732150996241,2.0,179.9,29880089000000,12.206997,0,,,
Status,1732150996000,28,0,1,17,1575420030,0.00,124.0,79.0,0,0,0,0.0
Status,1732150996000,28,1,1,22,1575420030,0.00,357.0,68.0,0,0,0,0.0
Status,1732150996000,28,2,1,14,1575420030,0.00,44.0,57.0,0,0,0,0.0
Status,1732150996000,28,3,1,19,1575420030,0.00,198.0,53.0,0,0,0,0.0
Status,1732150996000,28,4,1,13,1575420030,25.20,244.0,52.0,1,0,0,20.2
Status,1732150996000,28,5,2,133,1575420030,0.00,191.0,45.0,0,0,0,0.0
Status,1732150996000,28,6,1,30,1575420030,26.60,126.0,43.0,1,0,0,21.6
Status,1732150996000,28,7,1,15,1575420030,27.70,283.0,31.0,1,0,0,22.7
Status,1732150996000,28,8,1,2,1575420030,0.00,53.0,19.0,0,0,0,0.0
Status,1732150996000,28,9,1,7,1575420030,30.00,128.0,10.0,1,0,0,25.0
Status,1732150996000,28,10,1,24,1575420030,0.00,312.0,10.0,0,0,0,0.0
Status,1732150996000,28,11,1,21,1575420030,0.00,38.0,8.0,0,0,0,0.0
Status,1732150996000,28,12,1,6,1575420030,0.00,165.0,6.0,0,0,0,0.0
Status,1732150996000,28,13,3,20,1602000000,0.00,124.0,47.0,0,0,0,0.0
Status,1732150996000,28,14,3,9,1602000000,0.00,72.0,37.0,0,0,0,0.0
Status,1732150996000,28,15,3,8,1602000000,20.70,254.0,28.0,1,0,0,15.700001
Status,1732150996000,28,16,3,19,1602000000,0.00,39.0,28.0,0,0,0,0.0
Status,1732150996000,28,17,3,11,1602000000,24.70,304.0,23.0,0,0,0,19.7
Status,1732150996000,28,18,6,21,1575420030,0.00,329.0,67.0,0,0,0,0.0
Status,1732150996000,28,19,6,19,1575420030,0.00,251.0,50.0,0,0,0,0.0
Status,1732150996000,28,20,6,27,1575420030,0.00,59.0,38.0,0,0,0,0.0
Status,1732150996000,28,21,6,29,1575420030,0.00,193.0,31.0,0,0,0,0.0
Status,1732150996000,28,22,6,13,1575420030,25.10,124.0,24.0,1,0,0,20.1
Status,1732150996000,28,23,6,15,1575420030,0.00,68.0,23.0,0,0,0,0.0
Status,1732150996000,28,24,6,4,1575420030,0.00,315.0,20.0,0,0,0,0.0
Status,1732150996000,28,25,6,6,1575420030,0.00,329.0,1.0,0,0,0,0.0
Status,1732150996000,28,26,6,26,1575420030,0.00,170.0,1.0,0,0,0,0.0
Status,1732150996000,28,27,6,34,1575420030,0.00,25.0,1.0,0,0,0,0.0
Fix,GPS,37.4249283333,-122.1584150000,-0.5999999999999979,0.0,6.0,0.0,1732150997000,2.0,179.9,29881089000000,53.7,0,,,
Raw,1732150997000,29352000000,,89.17631424901222,-1416186185648999936,0.0,89.17631424901222,1397.0432752594866,0.0,0,13,0.0,16431,349414930184799,487,20.20800018310547,684.0848009644108,0.14999,16,0.0,0.0,1575420030,,,,0,4.368020278565953,1,6.0,20.20800018310547,0.0,0.0,0.0,66.7128,C,29881089000000,
Raw,1732150997000,29352000000,,89.17631424901222,-1416186185648999936,0.0,89.17631424901222,1397.0432752594866,0.0,0,7,0.0,16431,349414919233568,316,24.990999221801758,1021.2160125813758,0.14999,16,0.0,0.0,1575420030,,,,0,10.011823731534808,1,6.0,24.990999221801758,0.0,0.0,0.0,66.7128,C,29881089000000,
Raw,1732150997000,29352000000,,89.17631424901222,-1416186185648999936,0.0,89.17631424901222,1397.0432752594866,0.0,0,13,0.0,16431,349414912257463,487,20.100000381469727,-59.562895212628625,0.14999,16,0.0,0.0,1575420030,,,,0,4.449578526974741,6,6.0,20.100000381469727,0.0,0.0,-32.42041043346062,66.7128,C,29881089000000,
Raw,1732150997000,29352000000,,89.17631424901222,-1416186185648999936,0.0,89.17631424901222,1397.0432752594866,0.0,0,8,0.0,17,543828,797,5.0,915.7861338749476,0.14999,16,0.0,0.0,1605374980,,,,0,0.0,3,6.0,16.0,0.0,0.0,-65.30146422301699,66.7128,C,29881089000000,
Raw,1732150997000,29352000000,,89.17631424901222,-1416186185648999936,0.0,89.17631424901222,1397.0432752594866,0.0,0,11,0.0,17,957040,487,15.699999809265137,-58.6160348884192,0.14999,16,0.0,0.0,1602000000,,,,0,3.7612696040396827,3,6.0,15.699999809265137,0.0,0.0,-65.30146422301699,66.7128,C,29881089000000,
Raw,1732150997000,29352000000,,89.17631424901222,-1416186185648999936,0.0,89.17631424901222,1397.0432752594866,0.0,0,30,0.0,16431,349414927792183,487,21.645999908447266,864.9812834574539,0.14999,16,0.0,0.0,1575420030,,,,0,5.0,1,6.0,21.645999908447266,0.0,0.0,0.0,66.7128,C,29881089000000,
Raw,1732150997000,29352000000,,89.17631424901222,-1416186185648999936,0.0,89.17631424901222,1397.0432752594866,0.0,0,15,0.0,16431,349414925578781,797,22.66200065612793,476.43105823907024,0.14999,16,0.0,0.0,1575420030,,,,0,6.596314316398683,1,6.0,22.66200065612793,0.0,0.0,0.0,66.7128,C,29881089000000,
Fix,FLP,37.4249218000,-122.1584135000,3.0837060802471807,0.12887509,6.0,0.0,1732150997242,2.0,179.9,29881089000000,13.250282,0,,,
Status,1732150997000,28,0,1,17,1575420030,0.00,124.0,79.0,0,0,0,0.0
Status,1732150997000,28,1,1,22,1575420030,0.00,357.0,68.0,0,0,0,0.0
Status,1732150997000,28,2,1,14,1575420030,0.00,44.0,57.0,0,0,0,0.0
Status,1732150997000,28,3,1,19,1575420030,0.00,198.0,53.0,0,0,0,0.0
Status,1732150997000,28,4,1,13,1575420030,25.30,244.0,52.0,1,0,0,20.3
Status,1732150997000,28,5,2,133,1575420030,0.00,191.0,45.0,0,0,0,0.0
Status,1732150997000,28,6,1,30,1575420030,0.00,126.0,43.0,0,0,0,0.0
Status,1732150997000,28,7,1,15,1575420030,19.70,283.0,31.0,1,0,0,14.700001
Status,1732150997000,28,8,1,2,1575420030,0.00,53.0,19.0,0,0,0,0.0
Status,1732150997000,28,9,1,7,1575420030,28.10,128.0,10.0,1,0,0,23.1
Status,1732150997000,28,10,1,24,1575420030,0.00,312.0,10.0,0,0,0,0.0
Status,1732150997000,28,11,1,21,1575420030,25.70,38.0,8.0,1,0,0,20.7
Status,1732150997000,28,12,1,6,1575420030,0.00,165.0,6.0,0,0,0,0.0
Status,1732150997000,28,13,3,20,1602000000,0.00,124.0,47.0,0,0,0,0.0
Status,1732150997000,28,14,3,9,1602000000,0.00,72.0,37.0,0,0,0,0.0
Status,1732150997000,28,15,3,8,1602000000,20.70,254.0,28.0,1,0,0,15.700001
Status,1732150997000,28,16,3,19,1602000000,0.00,39.0,28.0,0,0,0,0.0
Status,1732150997000,28,17,3,11,1602000000,28.00,304.0,23.0,0,0,0,23.0
Status,1732150997000,28,18,6,21,1575420030,0.00,329.0,67.0,0,0,0,0.0
Status,1732150997000,28,19,6,19,1575420030,0.00,251.0,50.0,0,0,0,0.0
Status,1732150997000,28,20,6,27,1575420030,0.00,59.0,38.0,0,0,0,0.0
Status,1732150997000,28,21,6,29,1575420030,0.00,193.0,31.0,0,0,0,0.0
Status,1732150997000,28,22,6,13,1575420030,0.00,124.0,24.0,0,0,0,0.0
Status,1732150997000,28,23,6,15,1575420030,0.00,68.0,23.0,0,0,0,0.0
Status,1732150997000,28,24,6,4,1575420030,0.00,315.0,20.0,0,0,0,0.0
Status,1732150997000,28,25,6,6,1575420030,0.00,329.0,1.0,0,0,0,0.0
Status,1732150997000,28,26,6,26,1575420030,0.00,170.0,1.0,0,0,0,0.0
Status,1732150997000,28,27,6,34,1575420030,0.00,25.0,1.0,0,0,0,0.0
Fix,GPS,37.4249366667,-122.1584166667,-0.5999999999999979,0.0,6.0,0.0,1732150998000,1.9,179.9,29882089000000,54.3,0,,,
Fix,FLP,37.4249290000,-122.1584147000,3.1671651120560806,0.15117985,6.0,0.0,1732150998241,1.9,179.9,29882089000000,15.284507,0,,,
Raw,1732150998000,30352000000,,102.53012647994836,-1416186185648999936,0.0,102.53012647994836,1395.0653185819406,0.0,0,13,0.0,16431,349415930182518,797,20.261999130249023,683.684561708757,0.14999,16,0.0,0.0,1575420030,,,,0,4.368020278565953,1,6.0,20.261999130249023,0.0,0.0,0.0,66.7128,C,29882089000000,
