# 
# Header Description:
# 
# Version: v3.1.0.3 Platform: 13 Manufacturer: samsung Model: SM-S135DL GNSS Hardware Model Name: MediaTek,MT6631,MTK_MNLD_default,MNL_VER_default
# 
# Raw,utcTimeMillis,TimeNanos,LeapSecond,TimeUncertaintyNanos,FullBiasNanos,BiasNanos,BiasUncertaintyNanos,DriftNanosPerSecond,DriftUncertaintyNanosPerSecond,HardwareClockDiscontinuityCount,Svid,TimeOffsetNanos,State,ReceivedSvTimeNanos,ReceivedSvTimeUncertaintyNanos,Cn0DbHz,PseudorangeRateMetersPerSecond,PseudorangeRateUncertaintyMetersPerSecond,AccumulatedDeltaRangeState,AccumulatedDeltaRangeMeters,AccumulatedDeltaRangeUncertaintyMeters,CarrierFrequencyHz,CarrierCycles,CarrierPhase,CarrierPhaseUncertainty,MultipathIndicator,SnrInDb,ConstellationType,AgcDb,BasebandCn0DbHz,FullInterSignalBiasNanos,FullInterSignalBiasUncertaintyNanos,SatelliteInterSignalBiasNanos,SatelliteInterSignalBiasUncertaintyNanos,CodeType,ChipsetElapsedRealtimeNanos,IsFullTracking
# 
# UncalAccel,utcTimeMillis,elapsedRealtimeNanos,UncalAccelXMps2,UncalAccelYMps2,UncalAccelZMps2,BiasXMps2,BiasYMps2,BiasZMps2
# 
# Accel,utcTimeMillis,elapsedRealtimeNanos,AccelXMps2,AccelYMps2,AccelZMps2
# 
# UncalGyro,utcTimeMillis,elapsedRealtimeNanos,UncalGyroXRadPerSec,UncalGyroYRadPerSec,UncalGyroZRadPerSec,DriftXRadPerSec,DriftYRadPerSec,DriftZRadPerSec
# 
# Gyro,utcTimeMillis,elapsedRealtimeNanos,GyroXRadPerSec,GyroYRadPerSec,GyroZRadPerSec
# 
# UncalMag,utcTimeMillis,elapsedRealtimeNanos,UncalMagXMicroT,UncalMagYMicroT,UncalMagZMicroT,BiasXMicroT,BiasYMicroT,BiasZMicroT
# 
# Mag,utcTimeMillis,elapsedRealtimeNanos,MagXMicroT,MagYMicroT,MagZMicroT
# 
# Pressure,utcTimeMillis,elapsedRealtimeNanos,PressureHpa
# 
# OrientationDeg,utcTimeMillis,elapsedRealtimeNanos,yawDeg,rollDeg,pitchDeg
# 
# Fix,Provider,LatitudeDegrees,LongitudeDegrees,AltitudeMeters,SpeedMps,AccuracyMeters,BearingDegrees,UnixTimeMillis,SpeedAccuracyMps,BearingAccuracyDegrees,elapsedRealtimeNanos,VerticalAccuracyMeters,MockLocation,NumberOfUsedSignals,VerticalSpeedAccuracyMps,SolutionType
# 
# Nav,Svid,Type,Status,MessageId,Sub-messageId,Data(Bytes)
# 
# Status,UnixTimeMillis,SignalCount,SignalIndex,ConstellationType,Svid,CarrierFrequencyHz,Cn0DbHz,AzimuthDegrees,ElevationDegrees,UsedInFix,HasAlmanacData,HasEphemerisData,BasebandCn0DbHz
# 
# Agc,utcTimeMillis,TimeNanos,LeapSecond,TimeUncertaintyNanos,FullBiasNanos,BiasNanos,BiasUncertaintyNanos,DriftNanosPerSecond,DriftUncertaintyNanosPerSecond,HardwareClockDiscontinuityCount,AgcDb,CarrierFrequencyHz,ConstellationType
# 
Status,,27,0,1,17,1575420030,0.00,126.0,79.0,0,0,0,0.0
Status,,27,1,1,22,1575420030,0.00,356.0,68.0,0,0,0,0.0
Status,,27,2,1,14,1575420030,0.00,43.0,58.0,0,0,0,0.0
Status,,27,3,1,19,1575420030,0.00,198.0,53.0,0,0,0,0.0
Status,,27,4,1,13,1575420030,26.10,245.0,52.0,0,0,0,21.1
Status,,27,5,1,30,1575420030,0.00,126.0,43.0,0,0,0,0.0
Status,,27,6,1,15,1575420030,18.80,283.0,31.0,0,0,0,13.799999
Status,,27,7,1,2,1575420030,0.00,54.0,19.0,0,0,0,0.0
Status,,27,8,1,7,1575420030,0.00,128.0,10.0,0,0,0,0.0
Status,,27,9,1,24,1575420030,0.00,312.0,10.0,0,0,0,0.0
Status,,27,10,1,21,1575420030,0.00,38.0,8.0,0,0,0,0.0
Status,,27,11,1,6,1575420030,0.00,165.0,6.0,0,0,0,0.0
Status,,27,12,3,20,1602000000,0.00,124.0,46.0,0,0,0,0.0
Status,,27,13,3,9,1602000000,0.00,71.0,37.0,0,0,0,0.0
Status,,27,14,3,8,1602000000,0.00,254.0,29.0,0,0,0,0.0
Status,,27,15,3,19,1602000000,0.00,40.0,29.0,0,0,0,0.0
Status,,27,16,3,11,1602000000,24.40,303.0,23.0,0,0,0,19.4
Status,,27,17,6,21,1575420030,0.00,328.0,67.0,0,0,0,0.0
Status,,27,18,6,19,1575420030,0.00,251.0,50.0,0,0,0,0.0
Status,,27,19,6,27,1575420030,0.00,59.0,38.0,0,0,0,0.0
Status,,27,20,6,29,1575420030,0.00,193.0,31.0,0,0,0,0.0
Status,,27,21,6,13,1575420030,0.00,125.0,24.0,0,0,0,0.0
Status,,27,22,6,15,1575420030,0.00,68.0,23.0,0,0,0,0.0
Status,,27,23,6,4,1575420030,0.00,315.0,20.0,0,0,0,0.0
Status,,27,24,6,6,1575420030,0.00,330.0,1.0,0,0,0,0.0
Status,,27,25,6,26,1575420030,0.00,170.0,1.0,0,0,0,0.0
Status,,27,26,6,34,1575420030,0.00,25.0,1.0,0,0,0,0.0
Status,,27,0,1,17,1575420030,0.00,126.0,79.0,0,0,0,0.0
Status,,27,1,1,22,1575420030,0.00,356.0,68.0,0,0,0,0.0
Status,,27,2,1,14,1575420030,0.00,43.0,58.0,0,0,0,0.0
Status,,27,3,1,19,1575420030,0.00,198.0,53.0,0,0,0,0.0
Status,,27,4,1,13,1575420030,26.10,245.0,52.0,1,0,0,21.1
Status,,27,5,1,30,1575420030,28.40,126.0,43.0,1,0,0,23.4
Status,,27,6,1,15,1575420030,23.20,283.0,31.0,1,0,0,18.2
Status,,27,7,1,2,1575420030,0.00,54.0,19.0,0,0,0,0.0
Status,,27,8,1,7,1575420030,25.50,128.0,10.0,1,0,0,20.5
Status,,27,9,1,24,1575420030,0.00,312.0,10.0,0,0,0,0.0
Status,,27,10,1,21,1575420030,0.00,38.0,8.0,0,0,0,0.0
Status,,27,11,1,6,1575420030,0.00,165.0,6.0,0,0,0,0.0
Status,,27,12,3,20,1602000000,0.00,124.0,46.0,0,0,0,0.0
Status,,27,13,3,9,1602000000,0.00,71.0,37.0,0,0,0,0.0
Status,,27,14,3,8,1602000000,0.00,254.0,29.0,0,0,0,0.0
Status,,27,15,3,19,1602000000,0.00,40.0,29.0,0,0,0,0.0
Status,,27,16,3,11,1602000000,24.20,303.0,23.0,0,0,0,19.2
Status,,27,17,6,21,1575420030,0.00,328.0,67.0,0,0,0,0.0
Status,,27,18,6,19,1575420030,0.00,251.0,50.0,0,0,0,0.0
Status,,27,19,6,27,1575420030,0.00,59.0,38.0,0,0,0,0.0
Status,,27,20,6,29,1575420030,0.00,193.0,31.0,0,0,0,0.0
Status,,27,21,6,13,1575420030,0.00,125.0,24.0,0,0,0,0.0
Status,,27,22,6,15,1575420030,0.00,68.0,23.0,0,0,0,0.0
Status,,27,23,6,4,1575420030,0.00,315.0,20.0,0,0,0,0.0
Status,,27,24,6,6,1575420030,0.00,330.0,1.0,0,0,0,0.0
Status,,27,25,6,26,1575420030,0.00,170.0,1.0,0,0,0,0.0
Status,,27,26,6,34,1575420030,0.00,25.0,1.0,0,0,0,0.0
Fix,GPS,37.4249116667,-122.1586183333,-0.5999999999999979,0.0,6.1,0.0,1732150947841,1.9,179.9,29831923000000,93.2,0,,,
Raw,1732150947838,14514000000,,33353073.878863223,-1416186151324000256,0.0,167.7136180707844,1398.786848597463,0.0,0,13,0.0,16431,349365767296177,797,21.14299964904785,679.1758653323567,0.14999,16,0.0,0.0,1575420030,,,,0,4.150035407581686,1,6.0,21.14299964904785,0.0,0.0,0.0,66.7128,C,29831923000000,
Raw,1732150947838,14514000000,,33353073.878863223,-1416186151324000256,0.0,167.7136180707844,1398.786848597463,0.0,0,15,0.0,16431,349365762656185,797,18.204999923706055,471.32922726290997,0.14999,16,0.0,0.0,1575420030,,,,0,0.0,1,6.0,18.204999923706055,0.0,0.0,0.0,66.7128,C,29831923000000,
Raw,1732150947838,14514000000,,33353073.878863223,-1416186151324000256,0.0,167.7136180707844,1398.786848597463,0.0,0,11,0.0,17,946974,487,19.0,-57.69899359589179,0.14999,16,0.0,0.0,1602000000,,,,0,2.9650585210726756,3,6.0,19.0,0.0,0.0,48.25135048369075,66.7128,C,29831923000000,
Raw,1732150947838,14514000000,,33353073.878863223,-1416186151324000256,0.0,167.7136180707844,1398.786848597463,0.0,0,7,0.0,16431,349365756400300,487,20.474000930786133,1019.5371912531918,0.14999,16,0.0,0.0,1575420030,,,,0,3.0249169258714654,1,6.0,20.474000930786133,0.0,0.0,0.0,66.7128,C,29831923000000,
Raw,1732150947838,14514000000,,33353073.878863223,-1416186151324000256,0.0,167.7136180707844,1398.786848597463,0.0,0,30,0.0,16431,349365764933175,396,23.445999145507812,860.8374714819711,0.14999,16,0.0,0.0,1575420030,,,,0,7.75266014473011,1,6.0,23.445999145507812,0.0,0.0,0.0,66.7128,C,29831923000000,
Fix,FLP,37.4249007000,-122.1586281000,2.5547086841971627,0.57116705,12.663,0.000000051622592,1732150948075,1.9,179.9,29831923000000,12.838802,0,,,
Fix,FLP,37.4249057000,-122.1586243000,2.471251340520153,0.54569376,11.35,0.000000033275267,1732150948410,1.9,179.9,29832258000000,12.760446,0,,,
Fix,NLP,37.4256641000,-122.1581368000,5.400000095367432,,26.034,,1732150948410,,,29832258000000,36.57047,0,,,
Status,1732150947841,27,0,1,17,1575420030,0.00,126.0,79.0,0,0,0,0.0
Status,1732150947841,27,1,1,22,1575420030,0.00,356.0,68.0,0,0,0,0.0
Status,1732150947841,27,2,1,14,1575420030,0.00,43.0,58.0,0,0,0,0.0
Status,1732150947841,27,3,1,19,1575420030,0.00,198.0,53.0,0,0,0,0.0
Status,1732150947841,27,4,1,13,1575420030,26.10,245.0,52.0,1,0,0,21.1
Status,1732150947841,27,5,1,30,1575420030,29.20,126.0,43.0,1,0,0,24.2
Status,1732150947841,27,6,1,15,1575420030,23.20,283.0,31.0,1,0,0,18.2
Status,1732150947841,27,7,1,2,1575420030,0.00,54.0,19.0,0,0,0,0.0
Status,1732150947841,27,8,1,7,1575420030,27.70,128.0,10.0,1,0,0,22.7
Status,1732150947841,27,9,1,24,1575420030,0.00,312.0,10.0,0,0,0,0.0
Status,1732150947841,27,10,1,21,1575420030,0.00,38.0,8.0,0,0,0,0.0
Status,1732150947841,27,11,1,6,1575420030,0.00,165.0,6.0,0,0,0,0.0
Status,1732150947841,27,12,3,20,1602000000,0.00,124.0,46.0,0,0,0,0.0
Status,1732150947841,27,13,3,9,1602000000,0.00,71.0,37.0,0,0,0,0.0
Status,1732150947841,27,14,3,8,1602000000,0.00,254.0,29.0,0,0,0,0.0
Status,1732150947841,27,15,3,19,1602000000,0.00,40.0,29.0,0,0,0,0.0
Status,1732150947841,27,16,3,11,1602000000,0.00,303.0,23.0,0,0,0,0.0
Status,1732150947841,27,17,6,21,1575420030,0.00,328.0,67.0,0,0,0,0.0
Status,1732150947841,27,18,6,19,1575420030,0.00,251.0,50.0,0,0,0,0.0
Status,1732150947841,27,19,6,27,1575420030,0.00,59.0,38.0,0,0,0,0.0
Status,1732150947841,27,20,6,29,1575420030,0.00,193.0,31.0,0,0,0,0.0
Status,1732150947841,27,21,6,13,1575420030,0.00,125.0,24.0,0,0,0,0.0
Status,1732150947841,27,22,6,15,1575420030,0.00,68.0,23.0,0,0,0,0.0
Status,1732150947841,27,23,6,4,1575420030,0.00,315.0,20.0,0,0,0,0.0
Status,1732150947841,27,24,6,6,1575420030,0.00,330.0,1.0,0,0,0,0.0
Status,1732150947841,27,25,6,26,1575420030,0.00,170.0,1.0,0,0,0,0.0
Status,1732150947841,27,26,6,34,1575420030,0.00,25.0,1.0,0,0,0,0.0
Fix,GPS,37.4249083333,-122.1585850000,-0.5999999999999979,0.0,6.1,0.0,1732150948838,2.0,179.9,29832923000000,93.7,0,,,
Fix,FLP,37.4249084000,-122.1586099000,2.6211134600923076,0.50739,6.2,0.0000001468484,1732150949075,2.0,179.9,29832923000000,16.396147,0,,,
Raw,1732150948842,15514000000,,33353073.878863223,-1416186151328999936,0.0,166.87195863639406,1398.7504963026554,0.0,0,13,0.0,16431,349366772293912,797,21.14299964904785,679.2228347911455,0.14999,16,0.0,0.0,1575420030,,,,0,4.150035407581686,1,6.0,21.14299964904785,0.0,0.0,0.0,66.7128,C,29832923000000,
Raw,1732150948842,15514000000,,33353073.878863223,-1416186151328999936,0.0,166.87195863639406,1398.7504963026554,0.0,0,15,0.0,16431,349366767654612,1797,18.204999923706055,471.35714877105255,0.14999,16,0.0,0.0,1575420030,,,,0,0.0,1,6.0,18.204999923706055,0.0,0.0,0.0,66.7128,C,29832923000000,
Raw,1732150948842,15514000000,,33353073.878863223,-1416186151328999936,0.0,166.87195863639406,1398.7504963026554,0.0,0,7,0.0,16431,349366761396999,396,22.684999465942383,1019.115534667665,0.14999,16,0.0,0.0,1575420030,,,,0,6.608126741538621,1,6.0,22.684999465942383,0.0,0.0,0.0,66.7128,C,29832923000000,
Raw,1732150948842,15514000000,,33353073.878863223,-1416186151328999936,0.0,166.87195863639406,1398.7504963026554,0.0,0,30,0.0,16431,349366769930218,396,24.17099952697754,860.5342838577811,0.14999,16,0.0,0.0,1575420030,,,,0,8.811381648486083,1,6.0,24.17099952697754,0.0,0.0,0.0,66.7128,C,29832923000000,
Status,1732150948838,27,0,1,17,1575420030,0.00,126.0,79.0,0,0,0,0.0
Status,1732150948838,27,1,1,22,1575420030,0.00,356.0,68.0,0,0,0,0.0
Status,1732150948838,27,2,1,14,1575420030,0.00,43.0,58.0,0,0,0,0.0
Status,1732150948838,27,3,1,19,1575420030,20.90,198.0,53.0,1,0,0,15.9
Status,1732150948838,27,4,1,13,1575420030,26.10,245.0,52.0,1,0,0,21.1
Status,1732150948838,27,5,1,30,1575420030,30.60,126.0,43.0,1,0,0,25.6
Status,1732150948838,27,6,1,15,1575420030,22.30,283.0,31.0,1,0,0,17.3
Status,1732150948838,27,7,1,2,1575420030,0.00,54.0,19.0,0,0,0,0.0
Status,1732150948838,27,8,1,7,1575420030,26.20,128.0,10.0,1,0,0,21.2
Status,1732150948838,27,9,1,24,1575420030,0.00,312.0,10.0,0,0,0,0.0
Status,1732150948838,27,10,1,21,1575420030,0.00,38.0,8.0,0,0,0,0.0
Status,1732150948838,27,11,1,6,1575420030,0.00,165.0,6.0,0,0,0,0.0
Status,1732150948838,27,12,3,20,1602000000,0.00,124.0,46.0,0,0,0,0.0
Status,1732150948838,27,13,3,9,1602000000,0.00,71.0,37.0,0,0,0,0.0
Status,1732150948838,27,14,3,8,1602000000,0.00,254.0,29.0,0,0,0,0.0
Status,1732150948838,27,15,3,19,1602000000,0.00,40.0,29.0,0,0,0,0.0
Status,1732150948838,27,16,3,11,1602000000,29.60,303.0,23.0,0,0,0,24.6
Status,1732150948838,27,17,6,21,1575420030,0.00,328.0,67.0,0,0,0,0.0
Status,1732150948838,27,18,6,19,1575420030,0.00,251.0,50.0,0,0,0,0.0
Status,1732150948838,27,19,6,27,1575420030,0.00,59.0,38.0,0,0,0,0.0
Status,1732150948838,27,20,6,29,1575420030,0.00,193.0,31.0,0,0,0,0.0
Status,1732150948838,27,21,6,13,1575420030,0.00,125.0,24.0,0,0,0,0.0
Status,1732150948838,27,22,6,15,1575420030,0.00,68.0,23.0,0,0,0,0.0
Status,1732150948838,27,23,6,4,1575420030,0.00,315.0,20.0,0,0,0,0.0
Status,1732150948838,27,24,6,6,1575420030,0.00,330.0,1.0,0,0,0,0.0
Status,1732150948838,27,25,6,26,1575420030,0.00,170.0,1.0,0,0,0,0.0
Status,1732150948838,27,26,6,34,1575420030,0.00,25.0,1.0,0,0,0,0.0
Fix,GPS,37.4249033333,-122.1585483333,-0.5999999999999979,0.0,6.0,0.0,1732150949839,2.0,179.9,29833923000000,72.9,0,,,
Fix,FLP,37.4249084000,-122.1585849000,2.6211134600923076,0.45494655,6.166,0.0000002495136,1732150950075,2.0,179.9,29833923000000,13.931257,0,,,
Raw,1732150949840,16514000000,,31930082.777466003,-1416186151326000128,0.0,149.3892880398998,1395.3006825292066,0.0,0,13,0.0,16431,349367769291601,487,21.059999465942383,678.2452567972433,0.14999,16,0.0,0.0,1575420030,,,,0,1.2921743573271307,1,6.0,21.059999465942383,0.0,0.0,0.0,66.7128,C,29833923000000,
Raw,1732150949840,16514000000,,31930082.777466003,-1416186151326000128,0.0,149.3892880398998,1395.3006825292066,0.0,0,15,0.0,16431,349367764653018,797,17.3439998626709,470.2806608090381,0.14999,16,0.0,0.0,1575420030,,,,0,0.0,1,6.0,17.3439998626709,0.0,0.0,0.0,66.7128,C,29833923000000,
Raw,1732150949840,16514000000,,31930082.777466003,-1416186151326000128,0.0,149.3892880398998,1395.3006825292066,0.0,0,11,0.0,17,947354,487,20.0,-59.45102127055505,0.14999,16,0.0,0.0,1602000000,,,,0,10.598188172788415,3,6.0,20.0,0.0,0.0,48.25135048369075,66.7128,C,29833923000000,
Raw,1732150949840,16514000000,,31930082.777466003,-1416186151326000128,0.0,149.3892880398998,1395.3006825292066,0.0,0,19,0.0,16431,349367768723175,1797,15.89799976348877,-50.57007896200336,0.14999,16,0.0,0.0,1575420030,,,,0,0.0,1,6.0,15.89799976348877,0.0,0.0,0.0,66.7128,C,29833923000000,
Raw,1732150949840,16514000000,,31930082.777466003,-1416186151326000128,0.0,149.3892880398998,1395.3006825292066,0.0,0,7,0.0,16431,349367758393612,396,21.18899917602539,1018.2611643935531,0.14999,16,0.0,0.0,1575420030,,,,0,4.230834963616486,1,6.0,21.18899917602539,0.0,0.0,0.0,66.7128,C,29833923000000,
Raw,1732150949840,16514000000,,31930082.777466003,-1416186151326000128,0.0,149.3892880398998,1395.3006825292066,0.0,0,30,0.0,16431,349367766927340,316,25.618999481201172,860.0301171250644,0.14999,16,0.0,0.0,1575420030,,,,0,10.872119551695487,1,6.0,25.618999481201172,0.0,0.0,0.0,66.7128,C,29833923000000,
Status,1732150949839,27,0,1,17,1575420030,0.00,126.0,79.0,0,0,0,0.0
Status,1732150949839,27,1,1,22,1575420030,0.00,356.0,68.0,0,0,0,0.0
Status,1732150949839,27,2,1,14,1575420030,0.00,43.0,58.0,0,0,0,0.0
Status,1732150949839,27,3,1,19,1575420030,0.00,198.0,53.0,0,0,0,0.0
Status,1732150949839,27,4,1,13,1575420030,26.00,245.0,52.0,0,0,0,21.0
Status,1732150949839,27,5,1,30,1575420030,30.50,126.0,43.0,0,0,0,25.5
Status,1732150949839,27,6,1,15,1575420030,22.30,283.0,31.0,0,0,0,17.3
Status,1732150949839,27,7,1,2,1575420030,0.00,54.0,19.0,0,0,0,0.0
Status,1732150949839,27,8,1,7,1575420030,0.00,128.0,10.0,0,0,0,0.0
Status,1732150949839,27,9,1,24,1575420030,0.00,312.0,10.0,0,0,0,0.0
Status,1732150949839,27,10,1,21,1575420030,0.00,38.0,8.0,0,0,0,0.0
Status,1732150949839,27,11,1,6,1575420030,0.00,165.0,6.0,0,0,0,0.0
Status,1732150949839,27,12,3,20,1602000000,0.00,124.0,46.0,0,0,0,0.0
Status,1732150949839,27,13,3,9,1602000000,0.00,71.0,37.0,0,0,0,0.0
Status,1732150949839,27,14,3,8,1602000000,0.00,254.0,29.0,0,0,0,0.0
Status,1732150949839,27,15,3,19,1602000000,0.00,40.0,29.0,0,0,0,0.0
Status,1732150949839,27,16,3,11,1602000000,27.00,303.0,23.0,0,0,0,22.0
Status,1732150949839,27,17,6,21,1575420030,0.00,328.0,67.0,0,0,0,0.0
Status,1732150949839,27,18,6,19,1575420030,0.00,251.0,50.0,0,0,0,0.0
Status,1732150949839,27,19,6,27,1575420030,0.00,59.0,38.0,0,0,0,0.0
Status,1732150949839,27,20,6,29,1575420030,0.00,193.0,31.0,0,0,0,0.0
Status,1732150949839,27,21,6,13,1575420030,0.00,125.0,24.0,0,0,0,0.0
Status,1732150949839,27,22,6,15,1575420030,0.00,68.0,23.0,0,0,0,0.0
Status,1732150949839,27,23,6,4,1575420030,0.00,315.0,20.0,0,0,0,0.0
Status,1732150949839,27,24,6,6,1575420030,0.00,330.0,1.0,0,0,0,0.0
Status,1732150949839,27,25,6,26,1575420030,0.00,170.0,1.0,0,0,0,0.0
Status,1732150949839,27,26,6,34,1575420030,0.00,25.0,1.0,0,0,0,0.0
Status,,27,0,1,17,1575420030,0.00,126.0,79.0,0,0,0,0.0
Status,,27,1,1,22,1575420030,0.00,356.0,68.0,0,0,0,0.0
Status,,27,2,1,14,1575420030,0.00,43.0,58.0,0,0,0,0.0
Status,,27,3,1,19,1575420030,0.00,198.0,53.0,0,0,0,0.0
Status,,27,4,1,13,1575420030,26.00,245.0,52.0,1,0,0,21.0
Status,,27,5,1,30,1575420030,30.50,126.0,43.0,1,0,0,25.5
Status,,27,6,1,15,1575420030,22.30,283.0,31.0,1,0,0,17.3
Status,,27,7,1,2,1575420030,0.00,54.0,19.0,0,0,0,0.0
Status,,27,8,1,7,1575420030,30.70,128.0,10.0,1,0,0,25.7
Status,,27,9,1,24,1575420030,0.00,312.0,10.0,0,0,0,0.0
Status,,27,10,1,21,1575420030,0.00,38.0,8.0,0,0,0,0.0
Status,,27,11,1,6,1575420030,0.00,165.0,6.0,0,0,0,0.0
Status,,27,12,3,20,1602000000,0.00,124.0,46.0,0,0,0,0.0
Status,,27,13,3,9,1602000000,0.00,71.0,37.0,0,0,0,0.0
Status,,27,14,3,8,1602000000,0.00,254.0,29.0,0,0,0,0.0
Status,,27,15,3,19,1602000000,0.00,40.0,29.0,0,0,0,0.0
Status,,27,16,3,11,1602000000,22.30,303.0,23.0,0,0,0,17.3
Status,,27,17,6,21,1575420030,0.00,328.0,67.0,0,0,0,0.0
Status,,27,18,6,19,1575420030,0.00,251.0,50.0,0,0,0,0.0
Status,,27,19,6,27,1575420030,0.00,59.0,38.0,0,0,0,0.0
Status,,27,20,6,29,1575420030,0.00,193.0,31.0,0,0,0,0.0
Status,,27,21,6,13,1575420030,0.00,125.0,24.0,0,0,0,0.0
Status,,27,22,6,15,1575420030,0.00,68.0,23.0,0,0,0,0.0
Status,,27,23,6,4,1575420030,0.00,315.0,20.0,0,0,0,0.0
Status,,27,24,6,6,1575420030,0.00,330.0,1.0,0,0,0,0.0
Status,,27,25,6,26,1575420030,0.00,170.0,1.0,0,0,0,0.0
Status,,27,26,6,34,1575420030,0.00,25.0,1.0,0,0,0,0.0
Fix,GPS,37.4249250000,-122.1585333333,-0.5999999999999979,0.0,6.1,0.0,1732150951843,2.0,179.9,29835923000000,73.4,0,,,
Raw,1732150951841,18514000000,,30015534.947180025,-1416186151327000064,0.0,149.28209718533324,1387.446398693633,0.0,0,13,0.0,16431,349369770287091,487,20.95599937438965,676.1545816093529,0.14999,16,0.0,0.0,1575420030,,,,0,2.252328878748846,1,6.0,20.95599937438965,0.0,0.0,0.0,66.7128,C,29835923000000,
Raw,1732150951841,18514000000,,30015534.947180025,-1416186151327000064,0.0,149.28209718533324,1387.446398693633,0.0,0,15,0.0,16431,349369765649884,487,17.3439998626709,468.70585987474954,0.14999,16,0.0,0.0,1575420030,,,,0,0.0,1,6.0,17.3439998626709,0.0,0.0,0.0,66.7128,C,29835923000000,
Raw,1732150951841,18514000000,,30015534.947180025,-1416186151327000064,0.0,149.28209718533324,1387.446398693633,0.0,0,11,0.0,17,947762,487,19.0,-64.40209394834551,0.14999,16,0.0,0.0,1602000000,,,,0,0.0,3,6.0,19.0,0.0,0.0,48.25135048369075,66.7128,C,29835923000000,
Raw,1732150951841,18514000000,,30015534.947180025,-1416186151327000064,0.0,149.28209718533324,1387.446398693633,0.0,0,7,0.0,16431,349369759386702,316,25.7189998626709,1016.3302596990108,0.14999,16,0.0,0.0,1575420030,,,,0,11.020599913279625,1,6.0,25.7189998626709,0.0,0.0,0.0,66.7128,C,29835923000000,
Raw,1732150951841,18514000000,,30015534.947180025,-1416186151327000064,0.0,149.28209718533324,1387.446398693633,0.0,0,30,0.0,16431,349369767921613,797,25.54199981689453,857.9825088890011,0.14999,16,0.0,0.0,1575420030,,,,0,10.79691657422935,1,6.0,25.54199981689453,0.0,0.0,0.0,66.7128,C,29835923000000,
Fix,FLP,37.4249207000,-122.1585593000,2.537656940360878,0.4480662,6.08,0.00000017475254,1732150952075,2.0,179.9,29835923000000,13.855634,0,,,
Status,1732150951843,27,0,1,17,1575420030,0.00,126.0,79.0,0,0,0,0.0
Status,1732150951843,27,1,1,22,1575420030,0.00,356.0,68.0,0,0,0,0.0
Status,1732150951843,27,2,1,14,1575420030,0.00,43.0,58.0,0,0,0,0.0
Status,1732150951843,27,3,1,19,1575420030,21.80,198.0,53.0,1,0,0,16.8
Status,1732150951843,27,4,1,13,1575420030,25.90,245.0,52.0,1,0,0,20.9
Status,1732150951843,27,5,1,30,1575420030,23.20,126.0,43.0,1,0,0,18.2
Status,1732150951843,27,6,1,15,1575420030,22.50,283.0,31.0,1,0,0,17.5
Status,1732150951843,27,7,1,2,1575420030,0.00,54.0,19.0,0,0,0,0.0
Status,1732150951843,27,8,1,7,1575420030,29.80,128.0,10.0,1,0,0,24.8
Status,1732150951843,27,9,1,24,1575420030,0.00,312.0,10.0,0,0,0,0.0
Status,1732150951843,27,10,1,21,1575420030,22.40,38.0,8.0,1,0,0,17.4
Status,1732150951843,27,11,1,6,1575420030,0.00,165.0,6.0,0,0,0,0.0
Status,1732150951843,27,12,3,20,1602000000,0.00,124.0,46.0,0,0,0,0.0
Status,1732150951843,27,13,3,9,1602000000,0.00,71.0,37.0,0,0,0,0.0
Status,1732150951843,27,14,3,8,1602000000,0.00,254.0,29.0,0,0,0,0.0
Status,1732150951843,27,15,3,19,1602000000,0.00,40.0,29.0,0,0,0,0.0
Status,1732150951843,27,16,3,11,1602000000,23.80,303.0,23.0,0,0,0,18.8
Status,1732150951843,27,17,6,21,1575420030,0.00,328.0,67.0,0,0,0,0.0
Status,1732150951843,27,18,6,19,1575420030,0.00,251.0,50.0,0,0,0,0.0
Status,1732150951843,27,19,6,27,1575420030,0.00,59.0,38.0,0,0,0,0.0
Status,1732150951843,27,20,6,29,1575420030,0.00,193.0,31.0,0,0,0,0.0
Status,1732150951843,27,21,6,13,1575420030,0.00,125.0,24.0,0,0,0,0.0
Status,1732150951843,27,22,6,15,1575420030,0.00,68.0,23.0,0,0,0,0.0
Status,1732150951843,27,23,6,4,1575420030,0.00,315.0,20.0,0,0,0,0.0
Status,1732150951843,27,24,6,6,1575420030,0.00,330.0,1.0,0,0,0,0.0
Status,1732150951843,27,25,6,26,1575420030,0.00,170.0,1.0,0,0,0,0.0
Status,1732150951843,27,26,6,34,1575420030,0.00,25.0,1.0,0,0,0,0.0
Fix,GPS,37.4249400000,-122.1585316667,-0.5999999999999979,0.0,6.2,0.0,1732150952844,2.0,179.9,29836923000000,74.2,0,,,
Raw,1732150952843,19514000000,,29748656.985893887,-1416186151329999872,0.0,148.90429523104368,1387.3842535643125,0.0,0,13,0.0,16431,349370773284833,797,20.868000030517578,676.7837679400923,0.14999,16,0.0,0.0,1575420030,,,,0,0.82881705628661,1,6.0,20.868000030517578,0.0,0.0,0.0,66.7128,C,29836923000000,
Raw,1732150952843,19514000000,,29748656.985893887,-1416186151329999872,0.0,148.90429523104368,1387.3842535643125,0.0,0,15,0.0,16431,349370768648312,487,17.465999603271484,469.0164808455332,0.14999,16,0.0,0.0,1575420030,,,,0,1.8386369015518267,1,6.0,17.465999603271484,0.0,0.0,0.0,66.7128,C,29836923000000,
Raw,1732150952843,19514000000,,29748656.985893887,-1416186151329999872,0.0,148.90429523104368,1387.3842535643125,0.0,0,19,0.0,16431,349370772723437,1797,16.812000274658203,-52.47882299201333,0.14999,16,0.0,0.0,1575420030,,,,0,0.0,1,6.0,16.812000274658203,0.0,0.0,0.0,66.7128,C,29836923000000,
Raw,1732150952843,19514000000,,29748656.985893887,-1416186151329999872,0.0,148.90429523104368,1387.3842535643125,0.0,0,11,0.0,17,947968,797,17.0,-63.44288301088971,0.14999,16,0.0,0.0,1602000000,,,,0,2.2408150679837813,3,6.0,17.0,0.0,0.0,48.25135048369075,66.7128,C,29836923000000,
Raw,1732150952843,19514000000,,29748656.985893887,-1416186151329999872,0.0,148.90429523104368,1387.3842535643125,0.0,0,21,0.0,16431,349370759886787,797,17.426000595092773,870.9663353841927,0.14999,16,0.0,0.0,1575420030,,,,0,0.0,1,6.0,17.426000595092773,0.0,0.0,0.0,66.7128,C,29836923000000,
Raw,1732150952843,19514000000,,29748656.985893887,-1416186151329999872,0.0,148.90429523104368,1387.3842535643125,0.0,0,7,0.0,16431,349370762383341,487,24.80500030517578,1016.9373782820501,0.14999,16,0.0,0.0,1575420030,,,,0,9.754963202395468,1,6.0,24.80500030517578,0.0,0.0,0.0,66.7128,C,29836923000000,
Raw,1732150952843,19514000000,,29748656.985893887,-1416186151329999872,0.0,148.90429523104368,1387.3842535643125,0.0,0,30,0.0,16431,349370770918749,797,18.204999923706055,858.3814937674172,0.14999,16,0.0,0.0,1575420030,,,,0,0.0,1,6.0,18.204999923706055,0.0,0.0,0.0,66.7128,C,29836923000000,
Fix,FLP,37.4249314000,-122.1585474000,2.471251340520153,0.4533483,6.1,0.00000010069865,1732150953076,2.0,179.9,29836923000000,15.0329895,0,,,
Fix,FLP,37.4249358000,-122.1585416000,2.471251340520153,0.43978152,6.12,0.00000006568522,1732150953591,2.0,179.9,29837439000000,13.540683,0,,,
Fix,NLP,37.4257127000,-122.1581003000,5.400000095367432,,23.433,,1732150953592,,,29837439000000,20.786402,0,,,
Status,1732150952844,27,0,1,17,1575420030,0.00,126.0,79.0,0,0,0,0.0
Status,1732150952844,27,1,1,22,1575420030,0.00,356.0,68.0,0,0,0,0.0
Status,1732150952844,27,2,1,14,1575420030,0.00,43.0,58.0,0,0,0,0.0
Status,1732150952844,27,3,1,19,1575420030,0.00,198.0,53.0,0,0,0,0.0
Status,1732150952844,27,4,1,13,1575420030,23.30,245.0,52.0,1,0,0,18.3
Status,1732150952844,27,5,1,30,1575420030,22.70,126.0,43.0,1,0,0,17.7
Status,1732150952844,27,6,1,15,1575420030,25.90,283.0,31.0,1,0,0,20.9
Status,1732150952844,27,7,1,2,1575420030,0.00,54.0,19.0,0,0,0,0.0
Status,1732150952844,27,8,1,7,1575420030,25.40,128.0,10.0,1,0,0,20.4
Status,1732150952844,27,9,1,24,1575420030,0.00,312.0,10.0,0,0,0,0.0
Status,1732150952844,27,10,1,21,1575420030,21.10,38.0,8.0,1,0,0,16.1
Status,1732150952844,27,11,1,6,1575420030,0.00,165.0,6.0,0,0,0,0.0
Status,1732150952844,27,12,3,20,1602000000,0.00,124.0,46.0,0,0,0,0.0
Status,1732150952844,27,13,3,9,1602000000,0.00,71.0,37.0,0,0,0,0.0
Status,1732150952844,27,14,3,8,1602000000,0.00,254.0,29.0,0,0,0,0.0
Status,1732150952844,27,15,3,19,1602000000,0.00,40.0,29.0,0,0,0,0.0
Status,1732150952844,27,16,3,11,1602000000,0.00,303.0,23.0,0,0,0,0.0
Status,1732150952844,27,17,6,21,1575420030,0.00,328.0,67.0,0,0,0,0.0
Status,1732150952844,27,18,6,19,1575420030,0.00,251.0,50.0,0,0,0,0.0
Status,1732150952844,27,19,6,27,1575420030,0.00,59.0,38.0,0,0,0,0.0
Status,1732150952844,27,20,6,29,1575420030,0.00,193.0,31.0,0,0,0,0.0
Status,1732150952844,27,21,6,13,1575420030,0.00,125.0,24.0,0,0,0,0.0
Status,1732150952844,27,22,6,15,1575420030,0.00,68.0,23.0,0,0,0,0.0
Status,1732150952844,27,23,6,4,1575420030,0.00,315.0,20.0,0,0,0,0.0
Status,1732150952844,27,24,6,6,1575420030,0.00,330.0,1.0,0,0,0,0.0
Status,1732150952844,27,25,6,26,1575420030,0.00,170.0,1.0,0,0,0,0.0
Status,1732150952844,27,26,6,34,1575420030,0.00,25.0,1.0,0,0,0,0.0
Fix,GPS,37.4248983333,-122.1585583333,-0.5999999999999979,0.0,6.0,0.0,1732150953845,1.9,179.9,29837923000000,70.4,0,,,
Fix,FLP,37.4249231000,-122.1585475000,2.6381668518341677,0.35824344,6.1,0.0,1732150954075,1.9,179.9,29837923000000,13.643878,0,,,
Raw,1732150953844,20514000000,,27449277.92679828,-1416186151330999808,0.0,140.94790644710105,1386.729512328129,0.0,0,13,0.0,16431,349371774282564,487,18.277000427246094,676.3674076140134,0.14999,16,0.0,0.0,1575420030,,,,0,0.0,1,6.0,18.277000427246094,0.0,0.0,0.0,66.7128,C,29837923000000,
Raw,1732150953844,20514000000,,27449277.92679828,-1416186151330999808,0.0,140.94790644710105,1386.729512328129,0.0,0,15,0.0,16431,349371769646740,487,20.91200065612793,468.86734932949736,0.14999,16,0.0,0.0,1575420030,,,,0,3.734363289115844,1,6.0,20.91200065612793,0.0,0.0,0.0,66.7128,C,29837923000000,
Raw,1732150953844,20514000000,,27449277.92679828,-1416186151330999808,0.0,140.94790644710105,1386.729512328129,0.0,0,21,0.0,16431,349371760883871,1797,16.11400032043457,873.1794284987978,0.14999,16,0.0,0.0,1575420030,,,,0,0.0,1,6.0,16.11400032043457,0.0,0.0,0.0,66.7128,C,29837923000000,
Raw,1732150953844,20514000000,,27449277.92679828,-1416186151330999808,0.0,140.94790644710105,1386.729512328129,0.0,0,7,0.0,16431,349371763379962,487,20.375,1016.8332185129061,0.14999,16,0.0,0.0,1575420030,,,,0,2.838116400788598,1,6.0,20.375,0.0,0.0,0.0,66.7128,C,29837923000000,
Raw,1732150953844,20514000000,,27449277.92679828,-1416186151330999808,0.0,140.94790644710105,1386.729512328129,0.0,0,30,0.0,16431,349371771915869,797,17.672000885009766,858.711348522512,0.14999,16,0.0,0.0,1575420030,,,,0,0.0,1,6.0,17.672000885009766,0.0,0.0,0.0,66.7128,C,29837923000000,
Status,1732150953845,27,0,1,17,1575420030,0.00,126.0,79.0,0,0,0,0.0
Status,1732150953845,27,1,1,22,1575420030,0.00,356.0,68.0,0,0,0,0.0
Status,1732150953845,27,2,1,14,1575420030,0.00,43.0,58.0,0,0,0,0.0
Status,1732150953845,27,3,1,19,1575420030,0.00,198.0,53.0,0,0,0,0.0
Status,1732150953845,27,4,1,13,1575420030,23.30,245.0,52.0,0,0,0,18.3
Status,1732150953845,27,5,1,30,1575420030,22.70,126.0,43.0,0,0,0,17.7
Status,1732150953845,27,6,1,15,1575420030,23.20,283.0,31.0,0,0,0,18.2
Status,1732150953845,27,7,1,2,1575420030,0.00,54.0,19.0,0,0,0,0.0
Status,1732150953845,27,8,1,7,1575420030,0.00,128.0,10.0,0,0,0,0.0
Status,1732150953845,27,9,1,24,1575420030,0.00,312.0,10.0,0,0,0,0.0
Status,1732150953845,27,10,1,21,1575420030,0.00,38.0,8.0,0,0,0,0.0
Status,1732150953845,27,11,1,6,1575420030,0.00,165.0,6.0,0,0,0,0.0
Status,1732150953845,27,12,3,20,1602000000,0.00,124.0,46.0,0,0,0,0.0
Status,1732150953845,27,13,3,9,1602000000,0.00,71.0,37.0,0,0,0,0.0
Status,1732150953845,27,14,3,8,1602000000,0.00,254.0,29.0,0,0,0,0.0
Status,1732150953845,27,15,3,19,1602000000,0.00,40.0,29.0,0,0,0,0.0
Status,1732150953845,27,16,3,11,1602000000,28.50,303.0,23.0,0,0,0,23.5
Status,1732150953845,27,17,6,21,1575420030,0.00,328.0,67.0,0,0,0,0.0
Status,1732150953845,27,18,6,19,1575420030,0.00,251.0,50.0,0,0,0,0.0
Status,1732150953845,27,19,6,27,1575420030,0.00,59.0,38.0,0,0,0,0.0
Status,1732150953845,27,20,6,29,1575420030,0.00,193.0,31.0,0,0,0,0.0
Status,1732150953845,27,21,6,13,1575420030,0.00,125.0,24.0,0,0,0,0.0
Status,1732150953845,27,22,6,15,1575420030,0.00,68.0,23.0,0,0,0,0.0
Status,1732150953845,27,23,6,4,1575420030,0.00,315.0,20.0,0,0,0,0.0
Status,1732150953845,27,24,6,6,1575420030,0.00,330.0,1.0,0,0,0,0.0
Status,1732150953845,27,25,6,26,1575420030,0.00,170.0,1.0,0,0,0,0.0
Status,1732150953845,27,26,6,34,1575420030,0.00,25.0,1.0,0,0,0,0.0
Status,,27,0,1,17,1575420030,0.00,126.0,79.0,0,0,0,0.0
Status,,27,1,1,22,1575420030,0.00,356.0,68.0,0,0,0,0.0
Status,,27,2,1,14,1575420030,0.00,43.0,58.0,0,0,0,0.0
Status,,27,3,1,19,1575420030,0.00,198.0,53.0,0,0,0,0.0
Status,,27,4,1,13,1575420030,23.30,245.0,52.0,0,0,0,18.3
Status,,27,5,1,30,1575420030,22.70,126.0,43.0,0,0,0,17.7
Status,,27,6,1,15,1575420030,23.30,283.0,31.0,0,0,0,18.3
Status,,27,7,1,2,1575420030,0.00,54.0,19.0,0,0,0,0.0
Status,,27,8,1,7,1575420030,0.00,128.0,10.0,0,0,0,0.0
Status,,27,9,1,24,1575420030,0.00,312.0,10.0,0,0,0,0.0
Status,,27,10,1,21,1575420030,0.00,38.0,8.0,0,0,0,0.0
Status,,27,11,1,6,1575420030,0.00,165.0,6.0,0,0,0,0.0
Status,,27,12,3,20,1602000000,0.00,124.0,46.0,0,0,0,0.0
Status,,27,13,3,9,1602000000,0.00,71.0,37.0,0,0,0,0.0
Status,,27,14,3,8,1602000000,0.00,254.0,29.0,0,0,0,0.0
Status,,27,15,3,19,1602000000,0.00,40.0,29.0,0,0,0,0.0
Status,,27,16,3,11,1602000000,33.00,303.0,23.0,0,0,0,28.0
Status,,27,17,6,21,1575420030,0.00,328.0,67.0,0,0,0,0.0
Status,,27,18,6,19,1575420030,0.00,251.0,50.0,0,0,0,0.0
Status,,27,19,6,27,1575420030,0.00,59.0,38.0,0,0,0,0.0
Status,,27,20,6,29,1575420030,0.00,193.0,31.0,0,0,0,0.0
Status,,27,21,6,13,1575420030,0.00,125.0,24.0,0,0,0,0.0
Status,,27,22,6,15,1575420030,0.00,68.0,23.0,0,0,0,0.0
Status,,27,23,6,4,1575420030,0.00,315.0,20.0,0,0,0,0.0
Status,,27,24,6,6,1575420030,0.00,330.0,1.0,0,0,0,0.0
Status,,27,25,6,26,1575420030,0.00,170.0,1.0,0,0,0,0.0
Status,,27,26,6,34,1575420030,0.00,25.0,1.0,0,0,0,0.0
Status,,27,0,1,17,1575420030,0.00,126.0,79.0,0,0,0,0.0
Status,,27,1,1,22,1575420030,0.00,356.0,68.0,0,0,0,0.0
Status,,27,2,1,14,1575420030,0.00,43.0,58.0,0,0,0,0.0
Status,,27,3,1,19,1575420030,0.00,198.0,53.0,0,0,0,0.0
Status,,27,4,1,13,1575420030,23.50,245.0,52.0,0,0,0,18.5
Status,,27,5,1,30,1575420030,18.60,126.0,43.0,0,0,0,13.6
Status,,27,6,1,15,1575420030,25.90,283.0,31.0,0,0,0,20.9
Status,,27,7,1,2,1575420030,0.00,54.0,19.0,0,0,0,0.0
Status,,27,8,1,7,1575420030,0.00,128.0,10.0,0,0,0,0.0
Status,,27,9,1,24,1575420030,0.00,312.0,10.0,0,0,0,0.0
Status,,27,10,1,21,1575420030,0.00,38.0,8.0,0,0,0,0.0
Status,,27,11,1,6,1575420030,0.00,165.0,6.0,0,0,0,0.0
Status,,27,12,3,20,1602000000,0.00,124.0,46.0,0,0,0,0.0
Status,,27,13,3,9,1602000000,0.00,71.0,37.0,0,0,0,0.0
Status,,27,14,3,8,1602000000,0.00,254.0,29.0,0,0,0,0.0
Status,,27,15,3,19,1602000000,0.00,40.0,29.0,0,0,0,0.0
Status,,27,16,3,11,1602000000,28.50,303.0,23.0,0,0,0,23.5
Status,,27,17,6,21,1575420030,0.00,328.0,67.0,0,0,0,0.0
Status,,27,18,6,19,1575420030,0.00,251.0,50.0,0,0,0,0.0
Status,,27,19,6,27,1575420030,0.00,59.0,38.0,0,0,0,0.0
Status,,27,20,6,29,1575420030,0.00,193.0,31.0,0,0,0,0.0
Status,,27,21,6,13,1575420030,0.00,125.0,24.0,0,0,0,0.0
Status,,27,22,6,15,1575420030,0.00,68.0,23.0,0,0,0,0.0
Status,,27,23,6,4,1575420030,0.00,315.0,20.0,0,0,0,0.0
Status,,27,24,6,6,1575420030,0.00,330.0,1.0,0,0,0,0.0
Status,,27,25,6,26,1575420030,0.00,170.0,1.0,0,0,0,0.0
Status,,27,26,6,34,1575420030,0.00,25.0,1.0,0,0,0,0.0
Status,,28,0,1,17,1575420030,0.00,126.0,79.0,0,0,0,0.0
Status,,28,1,1,22,1575420030,0.00,356.0,68.0,0,0,0,0.0
Status,,28,2,1,14,1575420030,0.00,43.0,58.0,0,0,0,0.0
Status,,28,3,1,19,1575420030,0.00,198.0,53.0,0,0,0,0.0
Status,,28,4,1,13,1575420030,23.60,245.0,52.0,1,0,0,18.6
Status,,28,5,2,133,1575420030,0.00,191.0,45.0,0,0,0,0.0
Status,,28,6,1,30,1575420030,18.60,126.0,43.0,1,0,0,13.6
Status,,28,7,1,15,1575420030,25.90,283.0,31.0,1,0,0,20.9
Status,,28,8,1,2,1575420030,0.00,54.0,19.0,0,0,0,0.0
Status,,28,9,1,7,1575420030,23.30,128.0,10.0,1,0,0,18.3
Status,,28,10,1,24,1575420030,0.00,312.0,10.0,0,0,0,0.0
Status,,28,11,1,21,1575420030,0.00,38.0,8.0,0,0,0,0.0
Status,,28,12,1,6,1575420030,0.00,165.0,6.0,0,0,0,0.0
Status,,28,13,3,20,1602000000,0.00,124.0,46.0,0,0,0,0.0
Status,,28,14,3,9,1602000000,0.00,71.0,37.0,0,0,0,0.0
Status,,28,15,3,8,1602000000,0.00,254.0,29.0,0,0,0,0.0
Status,,28,16,3,19,1602000000,0.00,40.0,29.0,0,0,0,0.0
Status,,28,17,3,11,1602000000,32.50,303.0,23.0,0,0,0,27.5
Status,,28,18,6,21,1575420030,0.00,328.0,67.0,0,0,0,0.0
Status,,28,19,6,19,1575420030,0.00,251.0,50.0,0,0,0,0.0
Status,,28,20,6,27,1575420030,0.00,59.0,38.0,0,0,0,0.0
Status,,28,21,6,29,1575420030,0.00,193.0,31.0,0,0,0,0.0
Status,,28,22,6,13,1575420030,0.00,125.0,24.0,0,0,0,0.0
Status,,28,23,6,15,1575420030,0.00,68.0,23.0,0,0,0,0.0
Status,,28,24,6,4,1575420030,0.00,315.0,20.0,0,0,0,0.0
Status,,28,25,6,6,1575420030,0.00,330.0,1.0,0,0,0,0.0
Status,,28,26,6,26,1575420030,0.00,170.0,1.0,0,0,0,0.0
Status,,28,27,6,34,1575420030,0.00,25.0,1.0,0,0,0,0.0
Fix,GPS,37.4249233333,-122.1585300000,-0.5999999999999979,0.0,6.0,0.0,1732150957845,2.0,179.9,29841923000000,69.2,0,,,
Fix,FLP,37.4249275000,-122.1585368000,5.400000095367432,0.3103338,6.1,0.000000068066214,1732150958075,2.0,179.9,29841923000000,16.496765,0,,,
Raw,1732150957846,24514000000,,24545784.270530246,-1416186151332999680,0.0,132.46335076010186,1377.2009488846113,0.0,0,13,0.0,16431,349375776273565,797,18.55500030517578,674.637528486414,0.14999,16,0.0,0.0,1575420030,,,,0,3.0249169258714654,1,6.0,18.55500030517578,0.0,0.0,0.0,66.7128,C,29841923000000,
Raw,1732150957846,24514000000,,24545784.270530246,-1416186151332999680,0.0,132.46335076010186,1377.2009488846113,0.0,0,15,0.0,16431,349375771640451,487,20.87700080871582,466.47121005502265,0.14999,16,0.0,0.0,1575420030,,,,0,4.068477159172898,1,6.0,20.87700080871582,0.0,0.0,0.0,66.7128,C,29841923000000,
Raw,1732150957846,24514000000,,24545784.270530246,-1416186151332999680,0.0,132.46335076010186,1377.2009488846113,0.0,0,7,0.0,16431,349375765366413,487,18.277000427246094,1013.328395593983,0.14999,16,0.0,0.0,1575420030,,,,0,0.0,1,6.0,18.277000427246094,0.0,0.0,0.0,66.7128,C,29841923000000,
Raw,1732150957846,24514000000,,24545784.270530246,-1416186151332999680,0.0,132.46335076010186,1377.2009488846113,0.0,0,11,0.0,17,948996,316,26.0,-63.0358522777726,0.14999,16,0.0,0.0,1602000000,,,,0,14.110389098470758,3,6.0,26.0,0.0,0.0,48.25135048369075,66.7128,C,29841923000000,
Raw,1732150957846,24514000000,,24545784.270530246,-1416186151332999680,0.0,132.46335076010186,1377.2009488846113,0.0,0,30,0.0,16431,349375773904445,1797,13.600000381469727,855.470223574,0.14999,16,0.0,0.0,1575420030,,,,0,0.0,1,6.0,13.600000381469727,0.0,0.0,0.0,66.7128,C,29841923000000,
Fix,FLP,37.4249261000,-122.1585340000,5.400000095367432,0.2873987,6.05,0.00000004282136,1732150958441,2.0,179.9,29842289000000,14.325052,0,,,
Fix,NLP,37.4257023000,-122.1581204000,5.400000095367432,,21.665,,1732150958441,,,29842289000000,23.83976,0,,,
Status,1732150957845,28,0,1,17,1575420030,0.00,126.0,79.0,0,0,0,0.0
Status,1732150957845,28,1,1,22,1575420030,0.00,356.0,68.0,0,0,0,0.0
Status,1732150957845,28,2,1,14,1575420030,0.00,43.0,58.0,0,0,0,0.0
Status,1732150957845,28,3,1,19,1575420030,0.00,198.0,53.0,0,0,0,0.0
Status,1732150957845,28,4,1,13,1575420030,23.50,245.0,52.0,1,0,0,18.5
Status,1732150957845,28,5,2,133,1575420030,0.00,191.0,45.0,0,0,0,0.0
Status,1732150957845,28,6,1,30,1575420030,18.60,126.0,43.0,1,0,0,13.6
Status,1732150957845,28,7,1,15,1575420030,25.90,283.0,31.0,1,0,0,20.9
Status,1732150957845,28,8,1,2,1575420030,0.00,54.0,19.0,0,0,0,0.0
Status,1732150957845,28,9,1,7,1575420030,28.90,128.0,10.0,1,0,0,23.9
Status,1732150957845,28,10,1,24,1575420030,0.00,312.0,10.0,0,0,0,0.0
Status,1732150957845,28,11,1,21,1575420030,0.00,38.0,8.0,0,0,0,0.0
Status,1732150957845,28,12,1,6,1575420030,0.00,165.0,6.0,0,0,0,0.0
Status,1732150957845,28,13,3,20,1602000000,0.00,124.0,46.0,0,0,0,0.0
Status,1732150957845,28,14,3,9,1602000000,0.00,71.0,37.0,0,0,0,0.0
Status,1732150957845,28,15,3,8,1602000000,0.00,254.0,29.0,0,0,0,0.0
Status,1732150957845,28,16,3,19,1602000000,0.00,40.0,29.0,0,0,0,0.0
Status,1732150957845,28,17,3,11,1602000000,30.10,303.0,23.0,0,0,0,25.1
Status,1732150957845,28,18,6,21,1575420030,0.00,328.0,67.0,0,0,0,0.0
Status,1732150957845,28,19,6,19,1575420030,0.00,251.0,50.0,0,0,0,0.0
Status,1732150957845,28,20,6,27,1575420030,0.00,59.0,38.0,0,0,0,0.0
Status,1732150957845,28,21,6,29,1575420030,0.00,193.0,31.0,0,0,0,0.0
Status,1732150957845,28,22,6,13,1575420030,0.00,125.0,24.0,0,0,0,0.0
Status,1732150957845,28,23,6,15,1575420030,20.00,68.0,23.0,1,0,0,15.0
Status,1732150957845,28,24,6,4,1575420030,0.00,315.0,20.0,0,0,0,0.0
Status,1732150957845,28,25,6,6,1575420030,0.00,330.0,1.0,0,0,0,0.0
Status,1732150957845,28,26,6,26,1575420030,0.00,170.0,1.0,0,0,0,0.0
Status,1732150957845,28,27,6,34,1575420030,0.00,25.0,1.0,0,0,0,0.0
Fix,GPS,37.4249266667,-122.1585233333,-0.5999999999999979,0.0,6.1,0.0,1732150958847,3.5,179.9,29842923000000,68.8,0,,,
Fix,FLP,37.4249273000,-122.1585300000,5.400000095367432,0.2814761,6.025,0.00000007130702,1732150959075,3.5,179.9,29842923000000,14.135085,0,,,
Raw,1732150958846,25514000000,,23535588.743863598,-1416186151332999680,0.0,131.5055551754707,1376.5686393868168,0.0,0,13,0.0,16431,349376776271282,797,18.466999053955078,674.6051934287315,0.14999,16,0.0,0.0,1575420030,,,,0,0.0,1,6.0,18.466999053955078,0.0,0.0,0.0,66.7128,C,29842923000000,
Raw,1732150958846,25514000000,,23535588.743863598,-1416186151332999680,0.0,131.5055551754707,1376.5686393868168,0.0,0,15,0.0,16431,349376771638897,487,20.920000076293945,467.94161892808614,0.14999,16,0.0,0.0,1575420030,,,,0,5.145984774829988,1,6.0,20.920000076293945,0.0,0.0,0.0,66.7128,C,29842923000000,
Raw,1732150958846,25514000000,,23535588.743863598,-1416186151332999680,0.0,131.5055551754707,1376.5686393868168,0.0,0,15,0.0,16431,349376757869307,797,15.0,871.580515646496,0.14999,16,0.0,0.0,1575420030,,,,0,0.0,6,6.0,15.0,0.0,0.0,-3.931414212334064,66.7128,C,29842923000000,
Raw,1732150958846,25514000000,,23535588.743863598,-1416186151332999680,0.0,131.5055551754707,1376.5686393868168,0.0,0,7,0.0,16431,349376765362974,487,23.895000457763672,1013.7510742646665,0.14999,16,0.0,0.0,1575420030,,,,0,8.42312082760338,1,6.0,23.895000457763672,0.0,0.0,0.0,66.7128,C,29842923000000,
Raw,1732150958846,25514000000,,23535588.743863598,-1416186151332999680,0.0,131.5055551754707,1376.5686393868168,0.0,0,11,0.0,17,949207,396,22.0,-63.609459961495276,0.14999,16,0.0,0.0,1602000000,,,,0,11.210908707533605,3,6.0,22.0,0.0,0.0,48.25135048369075,66.7128,C,29842923000000,
Raw,1732150958846,25514000000,,23535588.743863598,-1416186151332999680,0.0,131.5055551754707,1376.5686393868168,0.0,0,30,0.0,16431,349376773901592,1797,13.600000381469727,854.7999215449144,0.14999,16,0.0,0.0,1575420030,,,,0,0.0,1,6.0,13.600000381469727,0.0,0.0,0.0,66.7128,C,29842923000000,
Status,1732150958847,27,0,1,17,1575420030,0.00,126.0,79.0,0,0,0,0.0
Status,1732150958847,27,1,1,22,1575420030,0.00,356.0,68.0,0,0,0,0.0
Status,1732150958847,27,2,1,14,1575420030,0.00,43.0,58.0,0,0,0,0.0
Status,1732150958847,27,3,1,19,1575420030,0.00,198.0,53.0,0,0,0,0.0
Status,1732150958847,27,4,1,13,1575420030,23.40,245.0,52.0,0,0,0,18.4
Status,1732150958847,27,5,1,30,1575420030,17.50,126.0,43.0,0,0,0,12.5
Status,1732150958847,27,6,1,15,1575420030,26.00,283.0,31.0,0,0,0,21.0
Status,1732150958847,27,7,1,2,1575420030,0.00,54.0,19.0,0,0,0,0.0
Status,1732150958847,27,8,1,7,1575420030,0.00,128.0,10.0,0,0,0,0.0
Status,1732150958847,27,9,1,24,1575420030,0.00,312.0,10.0,0,0,0,0.0
Status,1732150958847,27,10,1,21,1575420030,0.00,38.0,8.0,0,0,0,0.0
Status,1732150958847,27,11,1,6,1575420030,0.00,165.0,6.0,0,0,0,0.0
Status,1732150958847,27,12,3,20,1602000000,0.00,124.0,46.0,0,0,0,0.0
Status,1732150958847,27,13,3,9,1602000000,0.00,71.0,37.0,0,0,0,0.0
Status,1732150958847,27,14,3,8,1602000000,0.00,254.0,29.0,0,0,0,0.0
Status,1732150958847,27,15,3,19,1602000000,0.00,40.0,29.0,0,0,0,0.0
Status,1732150958847,27,16,3,11,1602000000,36.70,303.0,23.0,0,0,0,31.7
Status,1732150958847,27,17,6,21,1575420030,0.00,328.0,67.0,0,0,0,0.0
Status,1732150958847,27,18,6,19,1575420030,0.00,251.0,50.0,0,0,0,0.0
Status,1732150958847,27,19,6,27,1575420030,0.00,59.0,38.0,0,0,0,0.0
Status,1732150958847,27,20,6,29,1575420030,0.00,193.0,31.0,0,0,0,0.0
Status,1732150958847,27,21,6,13,1575420030,0.00,125.0,24.0,0,0,0,0.0
Status,1732150958847,27,22,6,15,1575420030,0.00,68.0,23.0,0,0,0,0.0
Status,1732150958847,27,23,6,4,1575420030,0.00,315.0,20.0,0,0,0,0.0
Status,1732150958847,27,24,6,6,1575420030,0.00,330.0,1.0,0,0,0,0.0
Status,1732150958847,27,25,6,26,1575420030,0.00,170.0,1.0,0,0,0,0.0
Status,1732150958847,27,26,6,34,1575420030,0.00,25.0,1.0,0,0,0,0.0
Status,,27,0,1,17,1575420030,0.00,126.0,79.0,0,0,0,0.0
Status,,27,1,1,22,1575420030,0.00,356.0,68.0,0,0,0,0.0
Status,,27,2,1,14,1575420030,0.00,43.0,58.0,0,0,0,0.0
Status,,27,3,1,19,1575420030,0.00,198.0,53.0,0,0,0,0.0
Status,,27,4,1,13,1575420030,23.30,245.0,52.0,1,0,0,18.3
Status,,27,5,1,30,1575420030,17.50,126.0,43.0,1,0,0,12.5
Status,,27,6,1,15,1575420030,26.00,283.0,31.0,1,0,0,21.0
Status,,27,7,1,2,1575420030,0.00,54.0,19.0,0,0,0,0.0
Status,,27,8,1,7,1575420030,27.30,128.0,10.0,1,0,0,22.3
Status,,27,9,1,24,1575420030,0.00,312.0,10.0,0,0,0,0.0
Status,,27,10,1,21,1575420030,0.00,38.0,8.0,0,0,0,0.0
Status,,27,11,1,6,1575420030,0.00,165.0,6.0,0,0,0,0.0
Status,,27,12,3,20,1602000000,0.00,124.0,46.0,0,0,0,0.0
Status,,27,13,3,9,1602000000,0.00,71.0,37.0,0,0,0,0.0
Status,,27,14,3,8,1602000000,0.00,254.0,29.0,0,0,0,0.0
Status,,27,15,3,19,1602000000,0.00,40.0,29.0,0,0,0,0.0
Status,,27,16,3,11,1602000000,28.70,303.0,23.0,0,0,0,23.7
Status,,27,17,6,21,1575420030,0.00,328.0,67.0,0,0,0,0.0
Status,,27,18,6,19,1575420030,0.00,251.0,50.0,0,0,0,0.0
Status,,27,19,6,27,1575420030,0.00,59.0,38.0,0,0,0,0.0
Status,,27,20,6,29,1575420030,0.00,193.0,31.0,0,0,0,0.0
Status,,27,21,6,13,1575420030,0.00,125.0,24.0,0,0,0,0.0
Status,,27,22,6,15,1575420030,0.00,68.0,23.0,0,0,0,0.0
Status,,27,23,6,4,1575420030,0.00,315.0,20.0,0,0,0,0.0
Status,,27,24,6,6,1575420030,0.00,330.0,1.0,0,0,0,0.0
Status,,27,25,6,26,1575420030,0.00,170.0,1.0,0,0,0,0.0
Status,,27,26,6,34,1575420030,0.00,25.0,1.0,0,0,0,0.0
Fix,GPS,37.4250116667,-122.1585016667,-0.5999999999999979,0.0,7.3,0.0,1732150960832,2.7,179.9,29844923000000,66.2,0,,,
Raw,1732150960834,27514000000,,999118.9054529184,-1416186151320000000,0.0,125.88142001719847,1382.067033864016,0.0,0,13,0.0,16431,349378763266778,797,18.30500030517578,675.6793584699353,0.14999,16,0.0,0.0,1575420030,,,,0,0.0,1,6.0,18.30500030517578,0.0,0.0,0.0,66.7128,C,29844923000000,
Raw,1732150960834,27514000000,,999118.9054529184,-1416186151320000000,0.0,125.88142001719847,1382.067033864016,0.0,0,15,0.0,16431,349378758635773,487,21.02199935913086,468.6956854815994,0.14999,16,0.0,0.0,1575420030,,,,0,5.841226900014227,1,6.0,21.02199935913086,0.0,0.0,0.0,66.7128,C,29844923000000,
Raw,1732150960834,27514000000,,999118.9054529184,-1416186151320000000,0.0,125.88142001719847,1382.067033864016,0.0,0,11,0.0,17,949634,396,22.0,-60.21290750980312,0.14999,16,0.0,0.0,1602000000,,,,0,9.425973230706706,3,6.0,22.0,0.0,0.0,48.25135048369075,66.7128,C,29844923000000,
Raw,1732150960834,27514000000,,999118.9054529184,-1416186151320000000,0.0,125.88142001719847,1382.067033864016,0.0,0,30,0.0,16431,349378760895872,1797,12.5,855.3808375812109,0.14999,16,0.0,0.0,1575420030,,,,0,0.0,1,6.0,12.5,0.0,0.0,0.0,66.7128,C,29844923000000,
Raw,1732150960834,27514000000,,999118.9054529184,-1416186151320000000,0.0,125.88142001719847,1382.067033864016,0.0,0,7,0.0,16431,349378752356214,487,22.349000930786133,1015.9922282626629,0.14999,16,0.0,0.0,1575420030,,,,0,6.104455821173645,1,6.0,22.349000930786133,0.0,0.0,0.0,66.7128,C,29844923000000,
Fix,FLP,37.4249661000,-122.1585186000,5.400000095367432,0.39771074,6.35,0.00000008936921,1732150961075,2.7,179.9,29844923000000,16.653824,0,,,
Status,1732150960832,27,0,1,17,1575420030,0.00,126.0,79.0,0,0,0,0.0
Status,1732150960832,27,1,1,22,1575420030,0.00,356.0,68.0,0,0,0,0.0
Status,1732150960832,27,2,1,14,1575420030,0.00,43.0,58.0,0,0,0,0.0
Status,1732150960832,27,3,1,19,1575420030,29.60,198.0,53.0,1,0,0,24.6
Status,1732150960832,27,4,1,13,1575420030,27.90,245.0,52.0,1,0,0,22.9
Status,1732150960832,27,5,1,30,1575420030,17.70,126.0,43.0,1,0,0,12.700001
Status,1732150960832,27,6,1,15,1575420030,30.00,283.0,31.0,1,0,0,25.0
Status,1732150960832,27,7,1,2,1575420030,0.00,54.0,19.0,0,0,0,0.0
Status,1732150960832,27,8,1,7,1575420030,27.30,128.0,10.0,1,0,0,22.3
Status,1732150960832,27,9,1,24,1575420030,0.00,312.0,10.0,0,0,0,0.0
Status,1732150960832,27,10,1,21,1575420030,0.00,38.0,8.0,0,0,0,0.0
Status,1732150960832,27,11,1,6,1575420030,0.00,165.0,6.0,0,0,0,0.0
Status,1732150960832,27,12,3,20,1602000000,0.00,124.0,46.0,0,0,0,0.0
Status,1732150960832,27,13,3,9,1602000000,0.00,71.0,37.0,0,0,0,0.0
Status,1732150960832,27,14,3,8,1602000000,29.00,254.0,29.0,1,0,0,24.0
Status,1732150960832,27,15,3,19,1602000000,0.00,40.0,29.0,0,0,0,0.0
Status,1732150960832,27,16,3,11,1602000000,25.80,303.0,23.0,0,0,0,20.8
Status,1732150960832,27,17,6,21,1575420030,0.00,328.0,67.0,0,0,0,0.0
Status,1732150960832,27,18,6,19,1575420030,0.00,251.0,50.0,0,0,0,0.0
Status,1732150960832,27,19,6,27,1575420030,0.00,59.0,38.0,0,0,0,0.0
Status,1732150960832,27,20,6,29,1575420030,0.00,193.0,31.0,0,0,0,0.0
Status,1732150960832,27,21,6,13,1575420030,0.00,125.0,24.0,0,0,0,0.0
Status,1732150960832,27,22,6,15,1575420030,0.00,68.0,23.0,0,0,0,0.0
Status,1732150960832,27,23,6,4,1575420030,0.00,315.0,20.0,0,0,0,0.0
Status,1732150960832,27,24,6,6,1575420030,0.00,330.0,1.0,0,0,0,0.0
Status,1732150960832,27,25,6,26,1575420030,0.00,170.0,1.0,0,0,0,0.0
Status,1732150960832,27,26,6,34,1575420030,0.00,25.0,1.0,0,0,0,0.0
Fix,GPS,37.4250283333,-122.1585050000,-0.5999999999999979,0.0,7.1,0.0,1732150962000,2.6,179.9,29846090000000,37.2,0,,,
Raw,1732150962001,28681000000,,706765.403351141,-1416186151320000000,0.0,90.4646849530892,1385.6733192939075,0.0,0,13,0.0,16431,349379930264171,396,22.864999771118164,677.3235218196263,0.14999,16,0.0,0.0,1575420030,,,,0,6.908706548841014,1,6.0,22.864999771118164,0.0,0.0,0.0,66.7128,C,29846090000000,
Raw,1732150962001,28681000000,,706765.403351141,-1416186151320000000,0.0,90.4646849530892,1385.6733192939075,0.0,0,15,0.0,16431,349379925633984,396,25.04800033569336,470.4819651264784,0.14999,16,0.0,0.0,1575420030,,,,0,10.089077072452522,1,6.0,25.04800033569336,0.0,0.0,0.0,66.7128,C,29846090000000,
Raw,1732150962001,28681000000,,706765.403351141,-1416186151320000000,0.0,90.4646849530892,1385.6733192939075,0.0,0,19,0.0,16431,349379929725145,487,24.63599967956543,-52.47979861875375,0.14999,16,0.0,0.0,1575420030,,,,0,9.495663659108114,1,6.0,24.63599967956543,0.0,0.0,0.0,66.7128,C,29846090000000,
Raw,1732150962001,28681000000,,706765.403351141,-1416186151320000000,0.0,90.4646849530892,1385.6733192939075,0.0,0,11,0.0,17,949877,396,24.0,-61.66175234183924,0.14999,16,0.0,0.0,1602000000,,,,0,5.481187683863213,3,6.0,24.0,0.0,0.0,53.630883302895974,66.7128,C,29846090000000,
Raw,1732150962001,28681000000,,706765.403351141,-1416186151320000000,0.0,90.4646849530892,1385.6733192939075,0.0,0,8,0.0,17,649945,316,5.0,907.4040381156734,0.14999,16,0.0,0.0,1605374980,,,,0,9.877289788681534,3,6.0,24.0,0.0,0.0,53.630883302895974,66.7128,C,29846090000000,
Raw,1732150962001,28681000000,,706765.403351141,-1416186151320000000,0.0,90.4646849530892,1385.6733192939075,0.0,0,30,0.0,16431,349379927892549,1797,12.699999809265137,856.2763700120853,0.14999,16,0.0,0.0,1575420030,,,,0,0.0,1,6.0,12.699999809265137,0.0,0.0,0.0,66.7128,C,29846090000000,
Raw,1732150962001,28681000000,,706765.403351141,-1416186151320000000,0.0,90.4646849530892,1385.6733192939075,0.0,0,7,0.0,16431,349379919352259,487,22.349000930786133,1016.8754956716576,0.14999,16,0.0,0.0,1575420030,,,,0,6.104455821173645,1,6.0,22.349000930786133,0.0,0.0,0.0,66.7128,C,29846090000000,
Fix,FLP,37.4249950000,-122.1585131000,5.400000095367432,0.47664416,6.5,0.00000003792468,1732150962242,2.6,179.9,29846090000000,16.157465,0,,,
Status,1732150962000,27,0,1,17,1575420030,0.00,126.0,79.0,0,0,0,0.0
Status,1732150962000,27,1,1,22,1575420030,0.00,356.0,68.0,0,0,0,0.0
Status,1732150962000,27,2,1,14,1575420030,0.00,43.0,58.0,0,0,0,0.0
Status,1732150962000,27,3,1,19,1575420030,29.60,198.0,53.0,1,0,0,24.6
Status,1732150962000,27,4,1,13,1575420030,27.90,245.0,52.0,1,0,0,22.9
Status,1732150962000,27,5,1,30,1575420030,0.00,126.0,43.0,0,0,0,0.0
Status,1732150962000,27,6,1,15,1575420030,29.20,283.0,31.0,1,0,0,24.2
Status,1732150962000,27,7,1,2,1575420030,0.00,54.0,19.0,0,0,0,0.0
Status,1732150962000,27,8,1,7,1575420030,27.30,128.0,10.0,1,0,0,22.3
Status,1732150962000,27,9,1,24,1575420030,0.00,312.0,10.0,0,0,0,0.0
Status,1732150962000,27,10,1,21,1575420030,0.00,38.0,8.0,0,0,0,0.0
Status,1732150962000,27,11,1,6,1575420030,0.00,165.0,6.0,0,0,0,0.0
Status,1732150962000,27,12,3,20,1602000000,0.00,124.0,46.0,0,0,0,0.0
Status,1732150962000,27,13,3,9,1602000000,0.00,71.0,37.0,0,0,0,0.0
Status,1732150962000,27,14,3,8,1602000000,24.50,254.0,29.0,1,0,0,19.5
Status,1732150962000,27,15,3,19,1602000000,0.00,40.0,29.0,0,0,0,0.0
Status,1732150962000,27,16,3,11,1602000000,25.50,303.0,23.0,0,0,0,20.5
Status,1732150962000,27,17,6,21,1575420030,0.00,328.0,67.0,0,0,0,0.0
Status,1732150962000,27,18,6,19,1575420030,0.00,251.0,50.0,0,0,0,0.0
Status,1732150962000,27,19,6,27,1575420030,0.00,59.0,38.0,0,0,0,0.0
Status,1732150962000,27,20,6,29,1575420030,0.00,193.0,31.0,0,0,0,0.0
Status,1732150962000,27,21,6,13,1575420030,0.00,125.0,24.0,0,0,0,0.0
Status,1732150962000,27,22,6,15,1575420030,0.00,68.0,23.0,0,0,0,0.0
Status,1732150962000,27,23,6,4,1575420030,0.00,315.0,20.0,0,0,0,0.0
Status,1732150962000,27,24,6,6,1575420030,0.00,330.0,1.0,0,0,0,0.0
Status,1732150962000,27,25,6,26,1575420030,0.00,170.0,1.0,0,0,0,0.0
Status,1732150962000,27,26,6,34,1575420030,0.00,25.0,1.0,0,0,0,0.0
Fix,GPS,37.4250416667,-122.1585250000,-0.5999999999999979,0.0,6.9,0.0,1732150963000,2.5,179.9,29847090000000,40.8,0,,,
Raw,1732150963001,29681000000,,706738.5618653556,-1416186151320000000,0.0,102.74401829735534,1387.0613621717223,0.0,0,13,0.0,16431,349380930261925,316,22.945999145507812,677.820394580998,0.14999,16,0.0,0.0,1575420030,,,,0,9.318394452482014,1,6.0,22.945999145507812,0.0,0.0,0.0,66.7128,C,29847090000000,
Raw,1732150963001,29681000000,,706738.5618653556,-1416186151320000000,0.0,102.74401829735534,1387.0613621717223,0.0,0,15,0.0,16431,349380925632409,396,24.17099952697754,470.37422805928617,0.14999,16,0.0,0.0,1575420030,,,,0,8.811381648486083,1,6.0,24.17099952697754,0.0,0.0,0.0,66.7128,C,29847090000000,
Raw,1732150963001,29681000000,,706738.5618653556,-1416186151320000000,0.0,102.74401829735534,1387.0613621717223,0.0,0,19,0.0,16431,349380929725319,797,24.63599967956543,-52.1978889491882,0.14999,16,0.0,0.0,1575420030,,,,0,9.495663659108114,1,6.0,24.63599967956543,0.0,0.0,0.0,66.7128,C,29847090000000,
Raw,1732150963001,29681000000,,706738.5618653556,-1416186151320000000,0.0,102.74401829735534,1387.0613621717223,0.0,0,11,0.0,17,950072,396,19.5,-60.94135043368001,0.14999,16,0.0,0.0,1602000000,,,,0,4.944851309096222,3,6.0,19.5,0.0,0.0,53.630883302895974,66.7128,C,29847090000000,
Raw,1732150963001,29681000000,,706738.5618653556,-1416186151320000000,0.0,102.74401829735534,1387.0613621717223,0.0,0,8,0.0,17,646926,487,5.0,908.9337254561166,0.14999,16,0.0,0.0,1605374980,,,,0,3.416375079047504,3,6.0,20.0,0.0,0.0,53.630883302895974,66.7128,C,29847090000000,
Raw,1732150963001,29681000000,,706738.5618653556,-1416186151320000000,0.0,102.74401829735534,1387.0613621717223,0.0,0,7,0.0,16431,349380919348867,487,22.349000930786133,1017.1994037494775,0.14999,16,0.0,0.0,1575420030,,,,0,6.104455821173645,1,6.0,22.349000930786133,0.0,0.0,0.0,66.7128,C,29847090000000,
Fix,FLP,37.4250168000,-122.1585178000,5.400000095367432,0.52628255,6.68,0.0,1732150963243,2.5,179.9,29847090000000,16.014679,0,,,
Fix,FLP,37.4250262000,-122.1585202000,5.400000095367432,0.53857,6.86,0.0,1732150963606,2.5,179.9,29847453000000,13.009286,0,,,
Fix,NLP,37.4257214000,-122.1580914000,5.400000095367432,,32.099,,1732150963606,,,29847453000000,4.4507875,0,,,
Status,1732150963000,28,0,1,17,1575420030,0.00,126.0,79.0,0,0,0,0.0
Status,1732150963000,28,1,1,22,1575420030,0.00,356.0,68.0,0,0,0,0.0
Status,1732150963000,28,2,1,14,1575420030,0.00,43.0,58.0,0,0,0,0.0
Status,1732150963000,28,3,1,19,1575420030,29.60,198.0,53.0,1,0,0,24.6
Status,1732150963000,28,4,1,13,1575420030,34.00,245.0,52.0,1,0,0,29.0
Status,1732150963000,28,5,2,135,1575420030,0.00,197.0,45.0,0,0,0,0.0
Status,1732150963000,28,6,1,30,1575420030,0.00,126.0,43.0,0,0,0,0.0
Status,1732150963000,28,7,1,15,1575420030,31.90,283.0,31.0,1,0,0,26.9
Status,1732150963000,28,8,1,2,1575420030,0.00,54.0,19.0,0,0,0,0.0
Status,1732150963000,28,9,1,7,1575420030,25.50,128.0,10.0,1,0,0,20.5
Status,1732150963000,28,10,1,24,1575420030,0.00,312.0,10.0,0,0,0,0.0
Status,1732150963000,28,11,1,21,1575420030,0.00,38.0,8.0,0,0,0,0.0
Status,1732150963000,28,12,1,6,1575420030,0.00,165.0,6.0,0,0,0,0.0
Status,1732150963000,28,13,3,20,1602000000,0.00,124.0,46.0,0,0,0,0.0
Status,1732150963000,28,14,3,9,1602000000,0.00,71.0,37.0,0,0,0,0.0
Status,1732150963000,28,15,3,8,1602000000,28.10,254.0,29.0,1,0,0,23.1
Status,1732150963000,28,16,3,19,1602000000,0.00,40.0,29.0,0,0,0,0.0
Status,1732150963000,28,17,3,11,1602000000,24.60,303.0,23.0,0,0,0,19.6
Status,1732150963000,28,18,6,21,1575420030,0.00,328.0,67.0,0,0,0,0.0
Status,1732150963000,28,19,6,19,1575420030,0.00,251.0,50.0,0,0,0,0.0
Status,1732150963000,28,20,6,27,1575420030,0.00,59.0,38.0,0,0,0,0.0
Status,1732150963000,28,21,6,29,1575420030,0.00,193.0,31.0,0,0,0,0.0
Status,1732150963000,28,22,6,13,1575420030,0.00,125.0,24.0,0,0,0,0.0
Status,1732150963000,28,23,6,15,1575420030,0.00,68.0,23.0,0,0,0,0.0
Status,1732150963000,28,24,6,4,1575420030,0.00,315.0,20.0,0,0,0,0.0
Status,1732150963000,28,25,6,6,1575420030,0.00,330.0,1.0,0,0,0,0.0
Status,1732150963000,28,26,6,26,1575420030,0.00,170.0,1.0,0,0,0,0.0
Status,1732150963000,28,27,6,34,1575420030,0.00,25.0,1.0,0,0,0,0.0
Fix,GPS,37.4250483333,-122.1585300000,-0.5999999999999979,0.0,6.8,0.0,1732150964000,2.5,179.9,29848090000000,40.8,0,,,
Fix,FLP,37.4250356000,-122.1585234000,5.400000095367432,0.5457944,7.0,0.0,1732150964242,2.5,179.9,29848090000000,11.723875,0,,,
Raw,1732150964001,30681000000,,706724.4375106995,-1416186151320000000,0.0,102.20581815725873,1387.0079194492525,0.0,0,13,0.0,16431,349381930259653,235,29.010000228881836,677.9963790616035,0.14999,16,0.0,0.0,1575420030,,,,0,15.31657915425572,1,6.0,29.010000228881836,0.0,0.0,0.0,66.7128,C,29848090000000,
Raw,1732150964001,30681000000,,706724.4375106995,-1416186151320000000,0.0,102.20581815725873,1387.0079194492525,0.0,0,15,0.0,16431,349381925630838,396,26.90999984741211,470.09691777292545,0.14999,16,0.0,0.0,1575420030,,,,0,12.628726654818244,1,6.0,26.90999984741211,0.0,0.0,0.0,66.7128,C,29848090000000,
Raw,1732150964001,30681000000,,706724.4375106995,-1416186151320000000,0.0,102.20581815725873,1387.0079194492525,0.0,0,19,0.0,16431,349381929725493,1797,24.63599967956543,-52.12968799419113,0.14999,16,0.0,0.0,1575420030,,,,0,9.495663659108114,1,6.0,24.63599967956543,0.0,0.0,0.0,66.7128,C,29848090000000,
Raw,1732150964001,30681000000,,706724.4375106995,-1416186151320000000,0.0,102.20581815725873,1387.0079194492525,0.0,0,11,0.0,17,950277,487,23.100000381469727,-60.980276259767756,0.14999,16,0.0,0.0,1602000000,,,,0,3.63353363081167,3,6.0,23.100000381469727,0.0,0.0,53.630883302895974,66.7128,C,29848090000000,
Raw,1732150964001,30681000000,,706724.4375106995,-1416186151320000000,0.0,102.20581815725873,1387.0079194492525,0.0,0,8,0.0,17,643885,396,5.0,907.2940713218861,0.14999,16,0.0,0.0,1605374980,,,,0,8.59869196274883,3,6.0,23.0,0.0,0.0,53.630883302895974,66.7128,C,29848090000000,
Raw,1732150964001,30681000000,,706724.4375106995,-1416186151320000000,0.0,102.20581815725873,1387.0079194492525,0.0,0,7,0.0,16431,349381919345493,797,20.474000930786133,1017.2485567538283,0.14999,16,0.0,0.0,1575420030,,,,0,3.0249169258714654,1,6.0,20.474000930786133,0.0,0.0,0.0,66.7128,C,29848090000000,
Status,1732150964000,28,0,1,17,1575420030,0.00,126.0,79.0,0,0,0,0.0
Status,1732150964000,28,1,1,22,1575420030,0.00,356.0,68.0,0,0,0,0.0
Status,1732150964000,28,2,1,14,1575420030,0.00,43.0,58.0,0,0,0,0.0
Status,1732150964000,28,3,1,19,1575420030,0.00,198.0,53.0,0,0,0,0.0
Status,1732150964000,28,4,1,13,1575420030,36.40,245.0,52.0,1,0,0,31.400002
Status,1732150964000,28,5,2,135,1575420030,0.00,197.0,45.0,0,0,0,0.0
Status,1732150964000,28,6,1,30,1575420030,0.00,126.0,43.0,0,0,0,0.0
Status,1732150964000,28,7,1,15,1575420030,31.90,283.0,31.0,1,0,0,26.9
Status,1732150964000,28,8,1,2,1575420030,0.00,54.0,19.0,0,0,0,0.0
Status,1732150964000,28,9,1,7,1575420030,25.50,128.0,10.0,1,0,0,20.5
Status,1732150964000,28,10,1,24,1575420030,0.00,312.0,10.0,0,0,0,0.0
Status,1732150964000,28,11,1,21,1575420030,0.00,38.0,8.0,0,0,0,0.0
Status,1732150964000,28,12,1,6,1575420030,0.00,165.0,6.0,0,0,0,0.0
Status,1732150964000,28,13,3,20,1602000000,0.00,124.0,46.0,0,0,0,0.0
Status,1732150964000,28,14,3,9,1602000000,0.00,71.0,37.0,0,0,0,0.0
Status,1732150964000,28,15,3,8,1602000000,24.70,254.0,29.0,1,0,0,19.7
Status,1732150964000,28,16,3,19,1602000000,0.00,40.0,29.0,0,0,0,0.0
Status,1732150964000,28,17,3,11,1602000000,24.90,303.0,23.0,0,0,0,19.9
Status,1732150964000,28,18,6,21,1575420030,0.00,328.0,67.0,0,0,0,0.0
Status,1732150964000,28,19,6,19,1575420030,0.00,251.0,50.0,0,0,0,0.0
Status,1732150964000,28,20,6,27,1575420030,0.00,59.0,38.0,0,0,0,0.0
Status,1732150964000,28,21,6,29,1575420030,0.00,193.0,31.0,0,0,0,0.0
Status,1732150964000,28,22,6,13,1575420030,0.00,125.0,24.0,0,0,0,0.0
Status,1732150964000,28,23,6,15,1575420030,0.00,68.0,23.0,0,0,0,0.0
Status,1732150964000,28,24,6,4,1575420030,0.00,315.0,20.0,0,0,0,0.0
Status,1732150964000,28,25,6,6,1575420030,0.00,330.0,1.0,0,0,0,0.0
Status,1732150964000,28,26,6,26,1575420030,0.00,170.0,1.0,0,0,0,0.0
Status,1732150964000,28,27,6,34,1575420030,0.00,25.0,1.0,0,0,0,0.0
Fix,GPS,37.4250616667,-122.1585233333,-0.5999999999999979,0.0,6.7,0.0,1732150965000,2.4,179.9,29849090000000,40.6,0,,,
Raw,1732150965001,31681000000,,706710.5216336029,-1416186151320000000,0.0,102.12258109943026,1388.9287662318604,0.0,0,13,0.0,16431,349382930257385,74,31.420000076293945,678.8167417750492,0.14999,16,0.0,0.0,1575420030,,,,0,18.242345584645232,1,6.0,31.420000076293945,0.0,0.0,0.0,66.7128,C,29849090000000,
Raw,1732150965001,31681000000,,706710.5216336029,-1416186151320000000,0.0,102.12258109943026,1388.9287662318604,0.0,0,15,0.0,16431,349382925629268,797,26.90999984741211,470.4511167381146,0.14999,16,0.0,0.0,1575420030,,,,0,12.628726654818244,1,6.0,26.90999984741211,0.0,0.0,0.0,66.7128,C,29849090000000,
