# 
# Header Description:
# 
# Version: v3.1.0.3 Platform: 13 Manufacturer: samsung Model: SM-S135DL GNSS Hardware Model Name: MediaTek,MT6631,MTK_MNLD_default,MNL_VER_default
# 
# Raw,utcTimeMillis,TimeNanos,LeapSecond,TimeUncertaintyNanos,FullBiasNanos,BiasNanos,BiasUncertaintyNanos,DriftNanosPerSecond,DriftUncertaintyNanosPerSecond,HardwareClockDiscontinuityCount,Svid,TimeOffsetNanos,State,ReceivedSvTimeNanos,ReceivedSvTimeUncertaintyNanos,Cn0DbHz,PseudorangeRateMetersPerSecond,PseudorangeRateUncertaintyMetersPerSecond,AccumulatedDeltaRangeState,AccumulatedDeltaRangeMeters,AccumulatedDeltaRangeUncertaintyMeters,CarrierFrequencyHz,CarrierCycles,CarrierPhase,CarrierPhaseUncertainty,MultipathIndicator,SnrInDb,ConstellationType,AgcDb,BasebandCn0DbHz,FullInterSignalBiasNanos,FullInterSignalBiasUncertaintyNanos,SatelliteInterSignalBiasNanos,SatelliteInterSignalBiasUncertaintyNanos,CodeType,ChipsetElapsedRealtimeNanos,IsFullTracking
# 
# UncalAccel,utcTimeMillis,elapsedRealtimeNanos,UncalAccelXMps2,UncalAccelYMps2,UncalAccelZMps2,BiasXMps2,BiasYMps2,BiasZMps2
# 
# Accel,utcTimeMillis,elapsedRealtimeNanos,AccelXMps2,AccelYMps2,AccelZMps2
# 
# UncalGyro,utcTimeMillis,elapsedRealtimeNanos,UncalGyroXRadPerSec,UncalGyroYRadPerSec,UncalGyroZRadPerSec,DriftXRadPerSec,DriftYRadPerSec,DriftZRadPerSec
# 
# Gyro,utcTimeMillis,elapsedRealtimeNanos,GyroXRadPerSec,GyroYRadPerSec,GyroZRadPerSec
# 
# UncalMag,utcTimeMillis,elapsedRealtimeNanos,UncalMagXMicroT,UncalMagYMicroT,UncalMagZMicroT,BiasXMicroT,BiasYMicroT,BiasZMicroT
# 
# Mag,utcTimeMillis,elapsedRealtimeNanos,MagXMicroT,MagYMicroT,MagZMicroT
# 
# Pressure,utcTimeMillis,elapsedRealtimeNanos,PressureHpa
# 
# OrientationDeg,utcTimeMillis,elapsedRealtimeNanos,yawDeg,rollDeg,pitchDeg
# 
# Fix,Provider,LatitudeDegrees,LongitudeDegrees,AltitudeMeters,SpeedMps,AccuracyMeters,BearingDegrees,UnixTimeMillis,SpeedAccuracyMps,BearingAccuracyDegrees,elapsedRealtimeNanos,VerticalAccuracyMeters,MockLocation,NumberOfUsedSignals,VerticalSpeedAccuracyMps,SolutionType
# 
# Nav,Svid,Type,Status,MessageId,Sub-messageId,Data(Bytes)
# 
# Status,UnixTimeMillis,SignalCount,SignalIndex,ConstellationType,Svid,CarrierFrequencyHz,Cn0DbHz,AzimuthDegrees,ElevationDegrees,UsedInFix,HasAlmanacData,HasEphemerisData,BasebandCn0DbHz
# 
# Agc,utcTimeMillis,TimeNanos,LeapSecond,TimeUncertaintyNanos,FullBiasNanos,BiasNanos,BiasUncertaintyNanos,DriftNanosPerSecond,DriftUncertaintyNanosPerSecond,HardwareClockDiscontinuityCount,AgcDb,CarrierFrequencyHz,ConstellationType
# 
Fix,FLP,37.4249328000,-122.1584777000,5.400000095367432,2.008899,9.173,180.0,1732151569249,2.1,179.9,30453097000000,17.269085,0,,,
Status,,26,0,1,17,1575420030,0.00,98.0,80.0,0,0,0,0.0
Status,,26,1,1,22,1575420030,0.00,8.0,67.0,0,0,0,0.0
Status,,26,2,1,19,1575420030,0.00,199.0,58.0,0,0,0,0.0
Status,,26,3,1,14,1575420030,0.00,49.0,54.0,0,0,0,0.0
Status,,26,4,1,13,1575420030,30.00,238.0,49.0,1,0,0,25.0
Status,,26,5,1,30,1575420030,25.00,129.0,39.0,1,0,0,20.0
Status,,26,6,1,15,1575420030,26.00,278.0,30.0,1,0,0,21.0
Status,,26,7,1,2,1575420030,22.80,50.0,18.0,1,0,0,17.8
Status,,26,8,1,24,1575420030,0.00,313.0,14.0,0,0,0,0.0
Status,,26,9,1,6,1575420030,0.00,163.0,10.0,0,0,0,0.0
Status,,26,10,1,21,1575420030,0.00,35.0,6.0,0,0,0,0.0
Status,,26,11,1,7,1575420030,27.30,130.0,6.0,1,0,0,22.3
Status,,26,12,3,20,1602000000,0.00,118.0,51.0,0,0,0,0.0
Status,,26,13,3,9,1602000000,0.00,77.0,35.0,0,0,0,0.0
Status,,26,14,3,11,1602000000,22.80,308.0,26.0,0,0,0,17.8
Status,,26,15,3,8,1602000000,0.00,249.0,25.0,0,0,0,0.0
Status,,26,16,3,19,1602000000,0.00,35.0,25.0,0,0,0,0.0
Status,,26,17,6,21,1575420030,0.00,338.0,68.0,0,0,0,0.0
Status,,26,18,6,19,1575420030,0.00,246.0,47.0,0,0,0,0.0
Status,,26,19,6,27,1575420030,0.00,63.0,35.0,0,0,0,0.0
Status,,26,20,6,13,1575420030,0.00,122.0,27.0,0,0,0,0.0
Status,,26,21,6,29,1575420030,0.00,192.0,27.0,0,0,0,0.0
Status,,26,22,6,15,1575420030,0.00,64.0,23.0,0,0,0,0.0
Status,,26,23,6,4,1575420030,0.00,313.0,22.0,0,0,0,0.0
Status,,26,24,6,26,1575420030,0.00,168.0,4.0,0,0,0,0.0
Status,,26,25,6,6,1575420030,0.00,328.0,3.0,0,0,0,0.0
Fix,GPS,37.4248533333,-122.1585066667,23.500000000000004,0.0,5.8,0.0,1732151570000,2.0,179.9,30454097000000,68.9,0,,,
Raw,1732151570001,19725000000,,706001.0203792385,-1416186768276000000,0.0,120.4442835292384,1258.7620911472118,0.0,0,15,0.0,16431,349987925613784,487,20.993000030517578,506.6502138137121,0.14999,16,0.0,0.0,1575420030,,,,0,5.0376828774910285,1,6.0,20.993000030517578,0.0,0.0,0.0,66.7128,C,30454097000000,
Raw,1732151570001,19725000000,,706001.0203792385,-1416186768276000000,0.0,120.4442835292384,1258.7620911472118,0.0,0,7,0.0,16431,349987918275994,487,22.309999465942383,1002.1300589505948,0.14999,16,0.0,0.0,1575420030,,,,0,8.963575780370393,1,6.0,22.309999465942383,0.0,0.0,0.0,66.7128,C,30454097000000,
Raw,1732151570001,19725000000,,706001.0203792385,-1416186768276000000,0.0,120.4442835292384,1258.7620911472118,0.0,0,2,0.0,16431,349987919650205,797,17.799999237060547,682.0818392663258,0.14999,16,0.0,0.0,1575420030,,,,0,0.0,1,6.0,17.799999237060547,0.0,0.0,0.0,66.7128,C,30454097000000,
Raw,1732151570001,19725000000,,706001.0203792385,-1416186768276000000,0.0,120.4442835292384,1258.7620911472118,0.0,0,13,0.0,16431,349987929828146,316,24.968000411987305,708.5626254637543,0.14999,16,0.0,0.0,1575420030,,,,0,12.267333701277524,1,6.0,24.968000411987305,0.0,0.0,0.0,66.7128,C,30454097000000,
Raw,1732151570001,19725000000,,706001.0203792385,-1416186768276000000,0.0,120.4442835292384,1258.7620911472118,0.0,0,11,0.0,17,80230,487,18.0,-95.81039271669476,0.14999,16,0.0,0.0,1602000000,,,,0,0.581330366688503,3,6.0,18.0,0.0,0.0,108.67631620913818,66.7128,C,30454097000000,
Raw,1732151570001,19725000000,,706001.0203792385,-1416186768276000000,0.0,120.4442835292384,1258.7620911472118,0.0,0,30,0.0,16431,349987927115438,487,19.976999282836914,864.4961646753834,0.14999,16,0.0,0.0,1575420030,,,,0,2.2197727025998084,1,6.0,19.976999282836914,0.0,0.0,0.0,66.7128,C,30454097000000,
Fix,FLP,37.4248870000,-122.1584905000,5.400000095367432,1.6548016,8.498,180.0,1732151570249,2.0,179.9,30454097000000,17.716972,0,,,
Fix,NLP,37.4259478000,-122.1652030000,,,400.0,,1732151570396,,,30454243000000,,0,,,
Status,1732151570000,26,0,1,17,1575420030,0.00,98.0,80.0,0,0,0,0.0
Status,1732151570000,26,1,1,22,1575420030,0.00,8.0,67.0,0,0,0,0.0
Status,1732151570000,26,2,1,19,1575420030,0.00,199.0,58.0,0,0,0,0.0
Status,1732151570000,26,3,1,14,1575420030,0.00,49.0,54.0,0,0,0,0.0
Status,1732151570000,26,4,1,13,1575420030,25.90,238.0,49.0,1,0,0,20.9
Status,1732151570000,26,5,1,30,1575420030,24.10,129.0,39.0,1,0,0,19.1
Status,1732151570000,26,6,1,15,1575420030,26.00,278.0,30.0,1,0,0,21.0
Status,1732151570000,26,7,1,2,1575420030,22.80,50.0,18.0,1,0,0,17.8
Status,1732151570000,26,8,1,24,1575420030,0.00,313.0,14.0,0,0,0,0.0
Status,1732151570000,26,9,1,6,1575420030,0.00,163.0,10.0,0,0,0,0.0
Status,1732151570000,26,10,1,21,1575420030,0.00,35.0,6.0,0,0,0,0.0
Status,1732151570000,26,11,1,7,1575420030,27.20,130.0,6.0,1,0,0,22.2
Status,1732151570000,26,12,3,20,1602000000,0.00,118.0,51.0,0,0,0,0.0
Status,1732151570000,26,13,3,9,1602000000,0.00,77.0,35.0,0,0,0,0.0
Status,1732151570000,26,14,3,11,1602000000,22.80,308.0,26.0,0,0,0,17.8
Status,1732151570000,26,15,3,8,1602000000,0.00,249.0,25.0,0,0,0,0.0
Status,1732151570000,26,16,3,19,1602000000,0.00,35.0,25.0,0,0,0,0.0
Status,1732151570000,26,17,6,21,1575420030,0.00,338.0,68.0,0,0,0,0.0
Status,1732151570000,26,18,6,19,1575420030,0.00,246.0,47.0,0,0,0,0.0
Status,1732151570000,26,19,6,27,1575420030,0.00,63.0,35.0,0,0,0,0.0
Status,1732151570000,26,20,6,13,1575420030,0.00,122.0,27.0,0,0,0,0.0
Status,1732151570000,26,21,6,29,1575420030,0.00,192.0,27.0,0,0,0,0.0
Status,1732151570000,26,22,6,15,1575420030,0.00,64.0,23.0,0,0,0,0.0
Status,1732151570000,26,23,6,4,1575420030,0.00,313.0,22.0,0,0,0,0.0
Status,1732151570000,26,24,6,26,1575420030,0.00,168.0,4.0,0,0,0,0.0
Status,1732151570000,26,25,6,6,1575420030,0.00,328.0,3.0,0,0,0,0.0
Fix,GPS,37.4248083333,-122.1585116667,23.500000000000004,0.0,5.6,0.0,1732151571000,1.9,179.9,30455097000000,69.1,0,,,
Fix,FLP,37.4248426000,-122.1585003000,5.400000095367432,1.4306751,7.204,180.0,1732151571249,1.9,179.9,30455097000000,17.815031,0,,,
Raw,1732151571001,20725000000,,706000.4991853398,-1416186768276000000,0.0,118.77785001943327,1257.096355345186,0.0,0,15,0.0,16431,349988925612095,487,21.027000427246094,506.22874306185014,0.14999,16,0.0,0.0,1575420030,,,,0,5.0376828774910285,1,6.0,21.027000427246094,0.0,0.0,0.0,66.7128,C,30455097000000,
Raw,1732151571001,20725000000,,706000.4991853398,-1416186768276000000,0.0,118.77785001943327,1257.096355345186,0.0,0,7,0.0,16431,349988918272648,487,22.226999282836914,1000.972036468131,0.14999,16,0.0,0.0,1575420030,,,,0,3.3861106246026926,1,6.0,22.226999282836914,0.0,0.0,0.0,66.7128,C,30455097000000,
Raw,1732151571001,20725000000,,706000.4991853398,-1416186768276000000,0.0,118.77785001943327,1257.096355345186,0.0,0,2,0.0,16431,349988919647930,797,17.799999237060547,681.7666653707536,0.14999,16,0.0,0.0,1575420030,,,,0,0.0,1,6.0,17.799999237060547,0.0,0.0,0.0,66.7128,C,30455097000000,
Raw,1732151571001,20725000000,,706000.4991853398,-1416186768276000000,0.0,118.77785001943327,1257.096355345186,0.0,0,13,0.0,16431,349988929825783,487,20.90999984741211,707.9414764390194,0.14999,16,0.0,0.0,1575420030,,,,0,3.8293644280579193,1,6.0,20.90999984741211,0.0,0.0,0.0,66.7128,C,30455097000000,
Raw,1732151571001,20725000000,,706000.4991853398,-1416186768276000000,0.0,118.77785001943327,1257.096355345186,0.0,0,11,0.0,17,80552,487,19.0,-96.40730107096293,0.14999,16,0.0,0.0,1602000000,,,,0,0.581330366688503,3,6.0,19.0,0.0,0.0,108.67631620913818,66.7128,C,30455097000000,
Raw,1732151571001,20725000000,,706000.4991853398,-1416186768276000000,0.0,118.77785001943327,1257.096355345186,0.0,0,30,0.0,16431,349988927112585,487,19.08300018310547,864.2198300157631,0.14999,16,0.0,0.0,1575420030,,,,0,0.6257392847300434,1,6.0,19.08300018310547,0.0,0.0,0.0,66.7128,C,30455097000000,
Status,1732151571000,26,0,1,17,1575420030,0.00,98.0,80.0,0,0,0,0.0
Status,1732151571000,26,1,1,22,1575420030,0.00,8.0,67.0,0,0,0,0.0
Status,1732151571000,26,2,1,19,1575420030,0.00,199.0,58.0,0,0,0,0.0
Status,1732151571000,26,3,1,14,1575420030,0.00,49.0,54.0,0,0,0,0.0
Status,1732151571000,26,4,1,13,1575420030,25.90,238.0,49.0,1,0,0,20.9
Status,1732151571000,26,5,1,30,1575420030,26.40,129.0,39.0,1,0,0,21.4
Status,1732151571000,26,6,1,15,1575420030,23.50,278.0,30.0,1,0,0,18.5
Status,1732151571000,26,7,1,2,1575420030,18.80,50.0,18.0,1,0,0,13.799999
Status,1732151571000,26,8,1,24,1575420030,0.00,313.0,14.0,0,0,0,0.0
Status,1732151571000,26,9,1,6,1575420030,0.00,163.0,10.0,0,0,0,0.0
Status,1732151571000,26,10,1,21,1575420030,0.00,35.0,6.0,0,0,0,0.0
Status,1732151571000,26,11,1,7,1575420030,27.20,130.0,6.0,1,0,0,22.2
Status,1732151571000,26,12,3,20,1602000000,0.00,118.0,51.0,0,0,0,0.0
Status,1732151571000,26,13,3,9,1602000000,0.00,77.0,35.0,0,0,0,0.0
Status,1732151571000,26,14,3,11,1602000000,22.00,308.0,26.0,0,0,0,17.0
Status,1732151571000,26,15,3,8,1602000000,0.00,249.0,25.0,0,0,0,0.0
Status,1732151571000,26,16,3,19,1602000000,0.00,35.0,25.0,0,0,0,0.0
Status,1732151571000,26,17,6,21,1575420030,0.00,338.0,68.0,0,0,0,0.0
Status,1732151571000,26,18,6,19,1575420030,0.00,246.0,47.0,0,0,0,0.0
Status,1732151571000,26,19,6,27,1575420030,0.00,63.0,35.0,0,0,0,0.0
Status,1732151571000,26,20,6,13,1575420030,0.00,122.0,27.0,0,0,0,0.0
Status,1732151571000,26,21,6,29,1575420030,0.00,192.0,27.0,0,0,0,0.0
Status,1732151571000,26,22,6,15,1575420030,0.00,64.0,23.0,0,0,0,0.0
Status,1732151571000,26,23,6,4,1575420030,0.00,313.0,22.0,0,0,0,0.0
Status,1732151571000,26,24,6,26,1575420030,0.00,168.0,4.0,0,0,0,0.0
Status,1732151571000,26,25,6,6,1575420030,0.00,328.0,3.0,0,0,0,0.0
Fix,GPS,37.4247433333,-122.1585400000,23.500000000000004,0.0,5.4,0.0,1732151572000,1.8,151.1,30456097000000,70.1,0,,,
Fix,FLP,37.4247894000,-122.1585175000,5.400000095367432,1.3567461,6.954,180.0,1732151572250,1.8,151.1,30456097000000,14.579683,0,,,
Raw,1732151572001,21725000000,,706000.0822302208,-1416186768276000000,0.0,118.0238493928669,1253.2438483998958,0.0,0,15,0.0,16431,349989925610410,797,18.475000381469727,504.362322649008,0.14999,16,0.0,0.0,1575420030,,,,0,0.0,1,6.0,18.475000381469727,0.0,0.0,0.0,66.7128,C,30456097000000,
Raw,1732151572001,21725000000,,706000.0822302208,-1416186768276000000,0.0,118.0238493928669,1253.2438483998958,0.0,0,7,0.0,16431,349989918269307,487,22.179000854492188,999.9261646023994,0.14999,16,0.0,0.0,1575420030,,,,0,4.414212477960249,1,6.0,22.179000854492188,0.0,0.0,0.0,66.7128,C,30456097000000,
Raw,1732151572001,21725000000,,706000.0822302208,-1416186768276000000,0.0,118.0238493928669,1253.2438483998958,0.0,0,2,0.0,16431,349989919645643,797,13.800000190734863,681.032622394627,0.14999,16,0.0,0.0,1575420030,,,,0,0.0,1,6.0,13.800000190734863,0.0,0.0,0.0,66.7128,C,30456097000000,
Raw,1732151572001,21725000000,,706000.0822302208,-1416186768276000000,0.0,118.0238493928669,1253.2438483998958,0.0,0,13,0.0,16431,349989929823423,487,20.860000610351562,706.181352882467,0.14999,16,0.0,0.0,1575420030,,,,0,2.115122163926268,1,6.0,20.860000610351562,0.0,0.0,0.0,66.7128,C,30456097000000,
Raw,1732151572001,21725000000,,706000.0822302208,-1416186768276000000,0.0,118.0238493928669,1253.2438483998958,0.0,0,11,0.0,17,80881,487,20.0,-98.40946829707038,0.14999,16,0.0,0.0,1602000000,,,,0,0.0,3,6.0,20.0,0.0,0.0,108.67631620913818,66.7128,C,30456097000000,
Raw,1732151572001,21725000000,,706000.0822302208,-1416186768276000000,0.0,118.0238493928669,1253.2438483998958,0.0,0,30,0.0,16431,349989927109689,797,21.420000076293945,863.2534949585839,0.14999,16,0.0,0.0,1575420030,,,,0,4.653288753350356,1,6.0,21.420000076293945,0.0,0.0,0.0,66.7128,C,30456097000000,
Status,1732151572000,27,0,1,17,1575420030,0.00,98.0,80.0,0,0,0,0.0
Status,1732151572000,27,1,1,22,1575420030,0.00,8.0,67.0,0,0,0,0.0
Status,1732151572000,27,2,1,19,1575420030,0.00,199.0,58.0,0,0,0,0.0
Status,1732151572000,27,3,1,14,1575420030,0.00,49.0,54.0,0,0,0,0.0
Status,1732151572000,27,4,1,13,1575420030,25.80,238.0,49.0,1,0,0,20.8
Status,1732151572000,27,5,2,133,1575420030,0.00,191.0,45.0,0,0,0,0.0
Status,1732151572000,27,6,1,30,1575420030,26.40,129.0,39.0,1,0,0,21.4
Status,1732151572000,27,7,1,15,1575420030,23.50,278.0,30.0,1,0,0,18.5
Status,1732151572000,27,8,1,2,1575420030,18.80,50.0,18.0,1,0,0,13.799999
Status,1732151572000,27,9,1,24,1575420030,0.00,313.0,14.0,0,0,0,0.0
Status,1732151572000,27,10,1,6,1575420030,0.00,163.0,10.0,0,0,0,0.0
Status,1732151572000,27,11,1,21,1575420030,0.00,35.0,6.0,0,0,0,0.0
Status,1732151572000,27,12,1,7,1575420030,32.10,130.0,6.0,1,0,0,27.099998
Status,1732151572000,27,13,3,20,1602000000,0.00,118.0,51.0,0,0,0,0.0
Status,1732151572000,27,14,3,9,1602000000,0.00,77.0,35.0,0,0,0,0.0
Status,1732151572000,27,15,3,11,1602000000,25.40,308.0,26.0,0,0,0,20.4
Status,1732151572000,27,16,3,8,1602000000,0.00,249.0,25.0,0,0,0,0.0
Status,1732151572000,27,17,3,19,1602000000,0.00,35.0,25.0,0,0,0,0.0
Status,1732151572000,27,18,6,21,1575420030,0.00,338.0,68.0,0,0,0,0.0
Status,1732151572000,27,19,6,19,1575420030,0.00,246.0,47.0,0,0,0,0.0
Status,1732151572000,27,20,6,27,1575420030,0.00,63.0,35.0,0,0,0,0.0
Status,1732151572000,27,21,6,13,1575420030,0.00,122.0,27.0,0,0,0,0.0
Status,1732151572000,27,22,6,29,1575420030,0.00,192.0,27.0,0,0,0,0.0
Status,1732151572000,27,23,6,15,1575420030,0.00,64.0,23.0,0,0,0,0.0
Status,1732151572000,27,24,6,4,1575420030,0.00,313.0,22.0,0,0,0,0.0
Status,1732151572000,27,25,6,26,1575420030,0.00,168.0,4.0,0,0,0,0.0
Status,1732151572000,27,26,6,6,1575420030,0.00,328.0,3.0,0,0,0,0.0
Fix,GPS,37.4246916667,-122.1585600000,23.500000000000004,0.0,5.2,0.0,1732151573000,1.7,125.1,30457097000000,55.3,0,,,
Fix,FLP,37.4247363000,-122.1585364000,5.400000095367432,1.2515855,6.737,180.0,1732151573249,1.7,125.1,30457097000000,20.842955,0,,,
Raw,1732151573001,22725000000,,705999.561036322,-1416186768276000000,0.0,128.4480454793196,1248.4191867062814,0.0,0,15,0.0,16431,349990925608730,797,18.475000381469727,503.0689203417066,0.14999,16,0.0,0.0,1575420030,,,,0,0.0,1,6.0,18.475000381469727,0.0,0.0,0.0,66.7128,C,30457097000000,
Raw,1732151573001,22725000000,,705999.561036322,-1416186768276000000,0.0,128.4480454793196,1248.4191867062814,0.0,0,7,0.0,16431,349990918265973,316,27.082000732421875,998.9969962781886,0.14999,16,0.0,0.0,1575420030,,,,0,12.867688607549567,1,6.0,27.082000732421875,0.0,0.0,0.0,66.7128,C,30457097000000,
Raw,1732151573001,22725000000,,705999.561036322,-1416186768276000000,0.0,128.4480454793196,1248.4191867062814,0.0,0,2,0.0,16431,349990919643374,797,13.800000190734863,679.575361253351,0.14999,16,0.0,0.0,1575420030,,,,0,0.0,1,6.0,13.800000190734863,0.0,0.0,0.0,66.7128,C,30457097000000,
Raw,1732151573001,22725000000,,705999.561036322,-1416186768276000000,0.0,128.4480454793196,1248.4191867062814,0.0,0,13,0.0,16431,349990929821071,797,20.812999725341797,705.1624733565536,0.14999,16,0.0,0.0,1575420030,,,,0,2.115122163926268,1,6.0,20.812999725341797,0.0,0.0,0.0,66.7128,C,30457097000000,
Raw,1732151573001,22725000000,,705999.561036322,-1416186768276000000,0.0,128.4480454793196,1248.4191867062814,0.0,0,11,0.0,17,81235,487,19.0,-102.95456105629773,0.14999,16,0.0,0.0,1602000000,,,,0,4.833492224317378,3,6.0,19.0,0.0,0.0,108.67631620913818,66.7128,C,30457097000000,
Raw,1732151573001,22725000000,,705999.561036322,-1416186768276000000,0.0,128.4480454793196,1248.4191867062814,0.0,0,30,0.0,16431,349990927106812,487,21.420000076293945,862.1241837773382,0.14999,16,0.0,0.0,1575420030,,,,0,4.653288753350356,1,6.0,21.420000076293945,0.0,0.0,0.0,66.7128,C,30457097000000,
Status,1732151573000,27,0,1,17,1575420030,0.00,98.0,80.0,0,0,0,0.0
Status,1732151573000,27,1,1,22,1575420030,0.00,8.0,67.0,0,0,0,0.0
Status,1732151573000,27,2,1,19,1575420030,0.00,199.0,58.0,0,0,0,0.0
Status,1732151573000,27,3,1,14,1575420030,0.00,49.0,54.0,0,0,0,0.0
Status,1732151573000,27,4,1,13,1575420030,25.70,238.0,49.0,1,0,0,20.7
Status,1732151573000,27,5,2,133,1575420030,0.00,191.0,45.0,0,0,0,0.0
Status,1732151573000,27,6,1,30,1575420030,22.30,129.0,39.0,1,0,0,17.3
Status,1732151573000,27,7,1,15,1575420030,23.40,278.0,30.0,1,0,0,18.4
Status,1732151573000,27,8,1,2,1575420030,18.80,50.0,18.0,1,0,0,13.799999
Status,1732151573000,27,9,1,24,1575420030,0.00,313.0,14.0,0,0,0,0.0
Status,1732151573000,27,10,1,6,1575420030,0.00,163.0,10.0,0,0,0,0.0
Status,1732151573000,27,11,1,21,1575420030,0.00,35.0,6.0,0,0,0,0.0
Status,1732151573000,27,12,1,7,1575420030,29.30,130.0,6.0,1,0,0,24.3
Status,1732151573000,27,13,3,20,1602000000,0.00,118.0,51.0,0,0,0,0.0
Status,1732151573000,27,14,3,9,1602000000,0.00,77.0,35.0,0,0,0,0.0
Status,1732151573000,27,15,3,11,1602000000,23.10,308.0,26.0,0,0,0,18.1
Status,1732151573000,27,16,3,8,1602000000,0.00,249.0,25.0,0,0,0,0.0
Status,1732151573000,27,17,3,19,1602000000,0.00,35.0,25.0,0,0,0,0.0
Status,1732151573000,27,18,6,21,1575420030,0.00,338.0,68.0,0,0,0,0.0
Status,1732151573000,27,19,6,19,1575420030,0.00,246.0,47.0,0,0,0,0.0
Status,1732151573000,27,20,6,27,1575420030,0.00,63.0,35.0,0,0,0,0.0
Status,1732151573000,27,21,6,13,1575420030,0.00,122.0,27.0,0,0,0,0.0
Status,1732151573000,27,22,6,29,1575420030,0.00,192.0,27.0,0,0,0,0.0
Status,1732151573000,27,23,6,15,1575420030,0.00,64.0,23.0,0,0,0,0.0
Status,1732151573000,27,24,6,4,1575420030,0.00,313.0,22.0,0,0,0,0.0
Status,1732151573000,27,25,6,26,1575420030,0.00,168.0,4.0,0,0,0,0.0
Status,1732151573000,27,26,6,6,1575420030,0.00,328.0,3.0,0,0,0,0.0
Fix,GPS,37.4246550000,-122.1585750000,23.500000000000004,0.0,5.0,0.0,1732151574000,1.7,118.2,30458097000000,56.0,0,,,
Raw,1732151574001,23725000000,,705999.2483199828,-1416186768276000000,0.0,130.2216062213892,1243.589201160197,0.0,0,15,0.0,16431,349991925607066,797,18.363000869750977,501.4915641945264,0.14999,16,0.0,0.0,1575420030,,,,0,0.0,1,6.0,18.363000869750977,0.0,0.0,0.0,66.7128,C,30458097000000,
Raw,1732151574001,23725000000,,705999.2483199828,-1416186768276000000,0.0,130.2216062213892,1243.589201160197,0.0,0,7,0.0,16431,349991918262646,396,24.268999099731445,997.4305114004017,0.14999,16,0.0,0.0,1575420030,,,,0,9.011300568777635,1,6.0,24.268999099731445,0.0,0.0,0.0,66.7128,C,30458097000000,
Raw,1732151574001,23725000000,,705999.2483199828,-1416186768276000000,0.0,130.2216062213892,1243.589201160197,0.0,0,2,0.0,16431,349991919641110,797,13.800000190734863,678.0724779473563,0.14999,16,0.0,0.0,1575420030,,,,0,0.0,1,6.0,13.800000190734863,0.0,0.0,0.0,66.7128,C,30458097000000,
Raw,1732151574001,23725000000,,705999.2483199828,-1416186768276000000,0.0,130.2216062213892,1243.589201160197,0.0,0,13,0.0,16431,349991929818727,487,20.719999313354492,704.4907311165655,0.14999,16,0.0,0.0,1575420030,,,,0,0.37211864954826535,1,6.0,20.719999313354492,0.0,0.0,0.0,66.7128,C,30458097000000,
Raw,1732151574001,23725000000,,705999.2483199828,-1416186768276000000,0.0,130.2216062213892,1243.589201160197,0.0,0,11,0.0,17,81579,487,20.0,-101.39775645073419,0.14999,16,0.0,0.0,1602000000,,,,0,1.1132857365643982,3,6.0,20.0,0.0,0.0,108.67631620913818,66.7128,C,30458097000000,
Raw,1732151574001,23725000000,,705999.2483199828,-1416186768276000000,0.0,130.2216062213892,1243.589201160197,0.0,0,30,0.0,16431,349991927103923,797,17.29800033569336,860.9560333601404,0.14999,16,0.0,0.0,1575420030,,,,0,0.0,1,6.0,17.29800033569336,0.0,0.0,0.0,66.7128,C,30458097000000,
Fix,FLP,37.4246909000,-122.1585541000,5.400000095367432,1.1151581,6.489,180.0,1732151574249,1.7,118.2,30458097000000,20.24074,0,,,
Status,1732151574000,27,0,1,17,1575420030,0.00,98.0,80.0,0,0,0,0.0
Status,1732151574000,27,1,1,22,1575420030,0.00,8.0,67.0,0,0,0,0.0
Status,1732151574000,27,2,1,19,1575420030,0.00,199.0,58.0,0,0,0,0.0
Status,1732151574000,27,3,1,14,1575420030,0.00,49.0,54.0,0,0,0,0.0
Status,1732151574000,27,4,1,13,1575420030,25.60,238.0,49.0,1,0,0,20.6
Status,1732151574000,27,5,2,133,1575420030,0.00,191.0,45.0,0,0,0,0.0
Status,1732151574000,27,6,1,30,1575420030,22.30,129.0,39.0,1,0,0,17.3
Status,1732151574000,27,7,1,15,1575420030,23.40,278.0,30.0,1,0,0,18.4
Status,1732151574000,27,8,1,2,1575420030,26.30,50.0,18.0,1,0,0,21.3
Status,1732151574000,27,9,1,24,1575420030,0.00,313.0,14.0,0,0,0,0.0
Status,1732151574000,27,10,1,6,1575420030,0.00,163.0,10.0,0,0,0,0.0
Status,1732151574000,27,11,1,21,1575420030,0.00,35.0,6.0,0,0,0,0.0
Status,1732151574000,27,12,1,7,1575420030,31.80,130.0,6.0,1,0,0,26.8
Status,1732151574000,27,13,3,20,1602000000,0.00,118.0,51.0,0,0,0,0.0
Status,1732151574000,27,14,3,9,1602000000,0.00,77.0,35.0,0,0,0,0.0
Status,1732151574000,27,15,3,11,1602000000,22.90,308.0,26.0,0,0,0,17.9
Status,1732151574000,27,16,3,8,1602000000,0.00,249.0,25.0,0,0,0,0.0
Status,1732151574000,27,17,3,19,1602000000,0.00,35.0,25.0,0,0,0,0.0
Status,1732151574000,27,18,6,21,1575420030,0.00,338.0,68.0,0,0,0,0.0
Status,1732151574000,27,19,6,19,1575420030,0.00,246.0,47.0,0,0,0,0.0
Status,1732151574000,27,20,6,27,1575420030,0.00,63.0,35.0,0,0,0,0.0
Status,1732151574000,27,21,6,13,1575420030,0.00,122.0,27.0,0,0,0,0.0
Status,1732151574000,27,22,6,29,1575420030,0.00,192.0,27.0,0,0,0,0.0
Status,1732151574000,27,23,6,15,1575420030,0.00,64.0,23.0,0,0,0,0.0
Status,1732151574000,27,24,6,4,1575420030,0.00,313.0,22.0,0,0,0,0.0
Status,1732151574000,27,25,6,26,1575420030,0.00,168.0,4.0,0,0,0,0.0
Status,1732151574000,27,26,6,6,1575420030,0.00,328.0,3.0,0,0,0,0.0
Fix,GPS,37.4246516667,-122.1585766667,23.500000000000004,0.0,5.0,0.0,1732151575000,1.7,128.7,30459097000000,57.0,0,,,
Raw,1732151575001,24725000000,,705998.9877230334,-1416186768276000000,0.0,132.86308968415315,1240.6339261980613,0.0,0,15,0.0,16431,349992925605403,797,18.364999771118164,501.27358130566654,0.14999,16,0.0,0.0,1575420030,,,,0,0.0,1,6.0,18.364999771118164,0.0,0.0,0.0,66.7128,C,30459097000000,
Raw,1732151575001,24725000000,,705998.9877230334,-1416186768276000000,0.0,132.86308968415315,1240.6339261980613,0.0,0,7,0.0,16431,349992918259316,316,26.799999237060547,997.2522969158181,0.14999,16,0.0,0.0,1575420030,,,,0,12.49337332518099,1,6.0,26.799999237060547,0.0,0.0,0.0,66.7128,C,30459097000000,
Raw,1732151575001,24725000000,,705998.9877230334,-1416186768276000000,0.0,132.86308968415315,1240.6339261980613,0.0,0,2,0.0,16431,349992919638824,487,21.285999298095703,677.4775779277804,0.14999,16,0.0,0.0,1575420030,,,,0,4.414212477960249,1,6.0,21.285999298095703,0.0,0.0,0.0,66.7128,C,30459097000000,
Raw,1732151575001,24725000000,,705998.9877230334,-1416186768276000000,0.0,132.86308968415315,1240.6339261980613,0.0,0,13,0.0,16431,349992929816377,797,20.631000518798828,703.9166909258681,0.14999,16,0.0,0.0,1575420030,,,,0,0.37211864954826535,1,6.0,20.631000518798828,0.0,0.0,0.0,66.7128,C,30459097000000,
Raw,1732151575001,24725000000,,705998.9877230334,-1416186768276000000,0.0,132.86308968415315,1240.6339261980613,0.0,0,11,0.0,17,81912,797,17.0,-102.37903449382425,0.14999,16,0.0,0.0,1602000000,,,,0,0.7622929462364452,3,6.0,17.0,0.0,0.0,108.67631620913818,66.7128,C,30459097000000,
Raw,1732151575001,24725000000,,705998.9877230334,-1416186768276000000,0.0,132.86308968415315,1240.6339261980613,0.0,0,30,0.0,16431,349992927101050,797,17.29800033569336,860.7448334000472,0.14999,16,0.0,0.0,1575420030,,,,0,0.0,1,6.0,17.29800033569336,0.0,0.0,0.0,66.7128,C,30459097000000,
Fix,FLP,37.4246678000,-122.1585643000,5.400000095367432,0.8293797,6.332,180.0,1732151575250,1.7,128.7,30459097000000,13.384705,0,,,
Fix,FLP,37.4246618000,-122.1585685000,5.400000095367432,0.6272448,5.2,180.0,1732151575433,1.7,128.7,30459281000000,12.531731,0,,,
Fix,NLP,37.4257123000,-122.1581028000,5.400000095367432,,17.284,,1732151575433,,,30459281000000,9.9448,0,,,
Status,1732151575000,27,0,1,17,1575420030,0.00,98.0,80.0,0,0,0,0.0
Status,1732151575000,27,1,1,22,1575420030,0.00,8.0,67.0,0,0,0,0.0
Status,1732151575000,27,2,1,19,1575420030,0.00,199.0,58.0,0,0,0,0.0
Status,1732151575000,27,3,1,14,1575420030,0.00,49.0,54.0,0,0,0,0.0
Status,1732151575000,27,4,1,13,1575420030,25.50,238.0,49.0,1,0,0,20.5
Status,1732151575000,27,5,2,133,1575420030,0.00,191.0,45.0,0,0,0,0.0
Status,1732151575000,27,6,1,30,1575420030,23.10,129.0,39.0,1,0,0,18.1
Status,1732151575000,27,7,1,15,1575420030,23.40,278.0,30.0,1,0,0,18.4
Status,1732151575000,27,8,1,2,1575420030,26.30,50.0,18.0,1,0,0,21.3
Status,1732151575000,27,9,1,24,1575420030,0.00,313.0,14.0,0,0,0,0.0
Status,1732151575000,27,10,1,6,1575420030,0.00,163.0,10.0,0,0,0,0.0
Status,1732151575000,27,11,1,21,1575420030,0.00,35.0,6.0,0,0,0,0.0
Status,1732151575000,27,12,1,7,1575420030,28.30,130.0,6.0,1,0,0,23.3
Status,1732151575000,27,13,3,20,1602000000,0.00,118.0,51.0,0,0,0,0.0
Status,1732151575000,27,14,3,9,1602000000,0.00,77.0,35.0,0,0,0,0.0
Status,1732151575000,27,15,3,11,1602000000,29.50,308.0,26.0,0,0,0,24.5
Status,1732151575000,27,16,3,8,1602000000,0.00,249.0,25.0,0,0,0,0.0
Status,1732151575000,27,17,3,19,1602000000,0.00,35.0,25.0,0,0,0,0.0
Status,1732151575000,27,18,6,21,1575420030,0.00,338.0,68.0,0,0,0,0.0
Status,1732151575000,27,19,6,19,1575420030,0.00,246.0,47.0,0,0,0,0.0
Status,1732151575000,27,20,6,27,1575420030,0.00,63.0,35.0,0,0,0,0.0
Status,1732151575000,27,21,6,13,1575420030,0.00,122.0,27.0,0,0,0,0.0
Status,1732151575000,27,22,6,29,1575420030,0.00,192.0,27.0,0,0,0,0.0
Status,1732151575000,27,23,6,15,1575420030,0.00,64.0,23.0,0,0,0,0.0
Status,1732151575000,27,24,6,4,1575420030,0.00,313.0,22.0,0,0,0,0.0
Status,1732151575000,27,25,6,26,1575420030,0.00,168.0,4.0,0,0,0,0.0
Status,1732151575000,27,26,6,6,1575420030,0.00,328.0,3.0,0,0,0,0.0
Fix,GPS,37.4246566667,-122.1585883333,23.500000000000004,0.0,5.0,0.0,1732151576000,1.7,132.8,30460097000000,58.0,0,,,
Raw,1732151576001,25725000000,,705998.727126084,-1416186768276000000,0.0,135.9272033752615,1239.635354664311,0.0,0,15,0.0,16431,349993925603731,797,18.367000579833984,501.10967601327576,0.14999,16,0.0,0.0,1575420030,,,,0,0.0,1,6.0,18.367000579833984,0.0,0.0,0.0,66.7128,C,30460097000000,
Raw,1732151576001,25725000000,,705998.727126084,-1416186768276000000,0.0,135.9272033752615,1239.635354664311,0.0,0,7,0.0,16431,349993918255989,396,23.26300048828125,997.5421045161394,0.14999,16,0.0,0.0,1575420030,,,,0,7.508210789191873,1,6.0,23.26300048828125,0.0,0.0,0.0,66.7128,C,30460097000000,
Raw,1732151576001,25725000000,,705998.727126084,-1416186768276000000,0.0,135.9272033752615,1239.635354664311,0.0,0,2,0.0,16431,349993919636564,797,21.285999298095703,677.6729355679457,0.14999,16,0.0,0.0,1575420030,,,,0,4.414212477960249,1,6.0,21.285999298095703,0.0,0.0,0.0,66.7128,C,30460097000000,
Raw,1732151576001,25725000000,,705998.727126084,-1416186768276000000,0.0,135.9272033752615,1239.635354664311,0.0,0,13,0.0,16431,349993929814030,1797,20.547000885009766,703.2326836640003,0.14999,16,0.0,0.0,1575420030,,,,0,0.37211864954826535,1,6.0,20.547000885009766,0.0,0.0,0.0,66.7128,C,30460097000000,
Raw,1732151576001,25725000000,,705998.727126084,-1416186768276000000,0.0,135.9272033752615,1239.635354664311,0.0,0,11,0.0,17,82255,316,24.0,-101.18188259126866,0.14999,16,0.0,0.0,1602000000,,,,0,10.423298580474807,3,6.0,24.0,0.0,0.0,108.67631620913818,66.7128,C,30460097000000,
Raw,1732151576001,25725000000,,705998.727126084,-1416186768276000000,0.0,135.9272033752615,1239.635354664311,0.0,0,30,0.0,16431,349993927098149,797,18.108999252319336,861.0028634436806,0.14999,16,0.0,0.0,1575420030,,,,0,0.0,1,6.0,18.108999252319336,0.0,0.0,0.0,66.7128,C,30460097000000,
Fix,FLP,37.4246577000,-122.1585762000,5.400000095367432,0.4190651,5.171,180.0,1732151576249,1.7,132.8,30460097000000,12.289796,0,,,
Status,1732151576000,27,0,1,17,1575420030,0.00,98.0,80.0,0,0,0,0.0
Status,1732151576000,27,1,1,22,1575420030,0.00,8.0,67.0,0,0,0,0.0
Status,1732151576000,27,2,1,19,1575420030,0.00,199.0,58.0,0,0,0,0.0
Status,1732151576000,27,3,1,14,1575420030,0.00,49.0,54.0,0,0,0,0.0
Status,1732151576000,27,4,1,13,1575420030,17.20,238.0,49.0,1,0,0,12.200001
Status,1732151576000,27,5,2,133,1575420030,0.00,191.0,45.0,0,0,0,0.0
Status,1732151576000,27,6,1,30,1575420030,0.00,129.0,39.0,0,0,0,0.0
Status,1732151576000,27,7,1,15,1575420030,23.40,278.0,30.0,1,0,0,18.4
Status,1732151576000,27,8,1,2,1575420030,26.30,50.0,18.0,1,0,0,21.3
Status,1732151576000,27,9,1,24,1575420030,0.00,313.0,14.0,0,0,0,0.0
Status,1732151576000,27,10,1,6,1575420030,0.00,163.0,10.0,0,0,0,0.0
Status,1732151576000,27,11,1,21,1575420030,0.00,35.0,6.0,0,0,0,0.0
Status,1732151576000,27,12,1,7,1575420030,28.60,130.0,6.0,1,0,0,23.6
Status,1732151576000,27,13,3,20,1602000000,0.00,118.0,51.0,0,0,0,0.0
Status,1732151576000,27,14,3,9,1602000000,0.00,77.0,35.0,0,0,0,0.0
Status,1732151576000,27,15,3,11,1602000000,27.70,308.0,26.0,0,0,0,22.7
Status,1732151576000,27,16,3,8,1602000000,0.00,249.0,25.0,0,0,0,0.0
Status,1732151576000,27,17,3,19,1602000000,0.00,35.0,25.0,0,0,0,0.0
Status,1732151576000,27,18,6,21,1575420030,0.00,338.0,68.0,0,0,0,0.0
Status,1732151576000,27,19,6,19,1575420030,0.00,246.0,47.0,0,0,0,0.0
Status,1732151576000,27,20,6,27,1575420030,0.00,63.0,35.0,0,0,0,0.0
Status,1732151576000,27,21,6,13,1575420030,0.00,122.0,27.0,0,0,0,0.0
Status,1732151576000,27,22,6,29,1575420030,0.00,192.0,27.0,0,0,0,0.0
Status,1732151576000,27,23,6,15,1575420030,0.00,64.0,23.0,0,0,0,0.0
Status,1732151576000,27,24,6,4,1575420030,0.00,313.0,22.0,0,0,0,0.0
Status,1732151576000,27,25,6,26,1575420030,0.00,168.0,4.0,0,0,0,0.0
Status,1732151576000,27,26,6,6,1575420030,0.00,328.0,3.0,0,0,0,0.0
Fix,GPS,37.4246583333,-122.1586033333,23.500000000000004,0.0,5.0,0.0,1732151577000,1.8,134.3,30461097000000,59.2,0,,,
Raw,1732151577001,26725000000,,705998.6750066942,-1416186768276000000,0.0,139.3710022408014,1239.1070188156514,0.0,0,15,0.0,16431,349994925602060,797,18.368000030517578,501.41193446914156,0.14999,16,0.0,0.0,1575420030,,,,0,0.0,1,6.0,18.368000030517578,0.0,0.0,0.0,66.7128,C,30461097000000,
Raw,1732151577001,26725000000,,705998.6750066942,-1416186768276000000,0.0,139.3710022408014,1239.1070188156514,0.0,0,7,0.0,16431,349994918252664,487,23.634000778198242,997.3453066650716,0.14999,16,0.0,0.0,1575420030,,,,0,8.056398332853863,1,6.0,23.634000778198242,0.0,0.0,0.0,66.7128,C,30461097000000,
Raw,1732151577001,26725000000,,705998.6750066942,-1416186768276000000,0.0,139.3710022408014,1239.1070188156514,0.0,0,2,0.0,16431,349994919634303,797,21.285999298095703,677.8815803151473,0.14999,16,0.0,0.0,1575420030,,,,0,4.414212477960249,1,6.0,21.285999298095703,0.0,0.0,0.0,66.7128,C,30461097000000,
Raw,1732151577001,26725000000,,705998.6750066942,-1416186768276000000,0.0,139.3710022408014,1239.1070188156514,0.0,0,13,0.0,16431,349994929811701,797,12.199999809265137,702.607260464974,0.14999,16,0.0,0.0,1575420030,,,,0,0.0,1,6.0,12.199999809265137,0.0,0.0,0.0,66.7128,C,30461097000000,
Raw,1732151577001,26725000000,,705998.6750066942,-1416186768276000000,0.0,139.3710022408014,1239.1070188156514,0.0,0,11,0.0,17,82589,396,21.0,-101.01219888459036,0.14999,16,0.0,0.0,1602000000,,,,0,8.147375404774003,3,6.0,21.0,0.0,0.0,108.67631620913818,66.7128,C,30461097000000,
Fix,FLP,37.4246566000,-122.1585879000,5.400000095367432,0.25614744,5.085,180.0,1732151577249,1.8,134.3,30461097000000,12.248675,0,,,
Status,1732151577000,27,0,1,17,1575420030,0.00,98.0,80.0,0,0,0,0.0
Status,1732151577000,27,1,1,22,1575420030,0.00,8.0,67.0,0,0,0,0.0
Status,1732151577000,27,2,1,19,1575420030,0.00,199.0,58.0,0,0,0,0.0
Status,1732151577000,27,3,1,14,1575420030,0.00,49.0,54.0,0,0,0,0.0
Status,1732151577000,27,4,1,13,1575420030,17.20,238.0,49.0,1,0,0,12.200001
Status,1732151577000,27,5,2,133,1575420030,0.00,191.0,45.0,0,0,0,0.0
Status,1732151577000,27,6,1,30,1575420030,0.00,129.0,39.0,0,0,0,0.0
Status,1732151577000,27,7,1,15,1575420030,23.30,278.0,30.0,1,0,0,18.3
Status,1732151577000,27,8,1,2,1575420030,19.10,50.0,18.0,1,0,0,14.1
Status,1732151577000,27,9,1,24,1575420030,0.00,313.0,14.0,0,0,0,0.0
Status,1732151577000,27,10,1,6,1575420030,0.00,163.0,10.0,0,0,0,0.0
Status,1732151577000,27,11,1,21,1575420030,0.00,35.0,6.0,0,0,0,0.0
Status,1732151577000,27,12,1,7,1575420030,26.10,130.0,6.0,1,0,0,21.1
Status,1732151577000,27,13,3,20,1602000000,0.00,118.0,51.0,0,0,0,0.0
Status,1732151577000,27,14,3,9,1602000000,0.00,77.0,35.0,0,0,0,0.0
Status,1732151577000,27,15,3,11,1602000000,26.40,308.0,26.0,0,0,0,21.4
Status,1732151577000,27,16,3,8,1602000000,0.00,249.0,25.0,0,0,0,0.0
Status,1732151577000,27,17,3,19,1602000000,0.00,35.0,25.0,0,0,0,0.0
Status,1732151577000,27,18,6,21,1575420030,0.00,338.0,68.0,0,0,0,0.0
Status,1732151577000,27,19,6,19,1575420030,0.00,246.0,47.0,0,0,0,0.0
Status,1732151577000,27,20,6,27,1575420030,0.00,63.0,35.0,0,0,0,0.0
Status,1732151577000,27,21,6,13,1575420030,0.00,122.0,27.0,0,0,0,0.0
Status,1732151577000,27,22,6,29,1575420030,0.00,192.0,27.0,0,0,0,0.0
Status,1732151577000,27,23,6,15,1575420030,0.00,64.0,23.0,0,0,0,0.0
Status,1732151577000,27,24,6,4,1575420030,0.00,313.0,22.0,0,0,0,0.0
Status,1732151577000,27,25,6,26,1575420030,0.00,168.0,4.0,0,0,0,0.0
Status,1732151577000,27,26,6,6,1575420030,0.00,328.0,3.0,0,0,0,0.0
Fix,GPS,37.4246583333,-122.1586166667,23.500000000000004,0.0,5.1,0.0,1732151578000,1.8,134.0,30462097000000,60.5,0,,,
Raw,1732151578001,27725000000,,705998.5707679144,-1416186768276000000,0.0,143.05438997156367,1239.2435659087284,0.0,0,15,0.0,16431,349995925600378,797,18.29599952697754,501.52362050171166,0.14999,16,0.0,0.0,1575420030,,,,0,0.0,1,6.0,18.29599952697754,0.0,0.0,0.0,66.7128,C,30462097000000,
Raw,1732151578001,27725000000,,705998.5707679144,-1416186768276000000,0.0,143.05438997156367,1239.2435659087284,0.0,0,7,0.0,16431,349995918249337,487,21.099000930786133,997.3393599877966,0.14999,16,0.0,0.0,1575420030,,,,0,4.084850188786498,1,6.0,21.099000930786133,0.0,0.0,0.0,66.7128,C,30462097000000,
Raw,1732151578001,27725000000,,705998.5707679144,-1416186768276000000,0.0,143.05438997156367,1239.2435659087284,0.0,0,2,0.0,16431,349995919632045,797,14.100000381469727,678.0202586875357,0.14999,16,0.0,0.0,1575420030,,,,0,0.0,1,6.0,14.100000381469727,0.0,0.0,0.0,66.7128,C,30462097000000,
Raw,1732151578001,27725000000,,705998.5707679144,-1416186768276000000,0.0,143.05438997156367,1239.2435659087284,0.0,0,13,0.0,16431,349995929809355,797,12.199999809265137,703.4498303013684,0.14999,16,0.0,0.0,1575420030,,,,0,0.0,1,6.0,12.199999809265137,0.0,0.0,0.0,66.7128,C,30462097000000,
Raw,1732151578001,27725000000,,705998.5707679144,-1416186768276000000,0.0,143.05438997156367,1239.2435659087284,0.0,0,11,0.0,17,82928,396,22.0,-100.6523634312252,0.14999,16,0.0,0.0,1602000000,,,,0,6.370292828971824,3,6.0,22.0,0.0,0.0,108.67631620913818,66.7128,C,30462097000000,
Fix,FLP,37.4246566000,-122.1586004000,5.400000095367432,0.1450766,5.042,180.0,1732151578249,1.8,134.0,30462097000000,10.615207,0,,,
Status,1732151578000,27,0,1,17,1575420030,0.00,98.0,80.0,0,0,0,0.0
Status,1732151578000,27,1,1,22,1575420030,0.00,8.0,67.0,0,0,0,0.0
Status,1732151578000,27,2,1,19,1575420030,0.00,199.0,58.0,0,0,0,0.0
Status,1732151578000,27,3,1,14,1575420030,0.00,49.0,54.0,0,0,0,0.0
Status,1732151578000,27,4,1,13,1575420030,21.60,238.0,49.0,1,0,0,16.6
Status,1732151578000,27,5,2,133,1575420030,0.00,191.0,45.0,0,0,0,0.0
Status,1732151578000,27,6,1,30,1575420030,0.00,129.0,39.0,0,0,0,0.0
Status,1732151578000,27,7,1,15,1575420030,23.30,278.0,30.0,1,0,0,18.3
Status,1732151578000,27,8,1,2,1575420030,19.10,50.0,18.0,1,0,0,14.1
Status,1732151578000,27,9,1,24,1575420030,0.00,313.0,14.0,0,0,0,0.0
Status,1732151578000,27,10,1,6,1575420030,0.00,163.0,10.0,0,0,0,0.0
Status,1732151578000,27,11,1,21,1575420030,0.00,35.0,6.0,0,0,0,0.0
Status,1732151578000,27,12,1,7,1575420030,26.10,130.0,6.0,1,0,0,21.1
Status,1732151578000,27,13,3,20,1602000000,0.00,118.0,51.0,0,0,0,0.0
Status,1732151578000,27,14,3,9,1602000000,0.00,77.0,35.0,0,0,0,0.0
Status,1732151578000,27,15,3,11,1602000000,27.70,308.0,26.0,0,0,0,22.7
Status,1732151578000,27,16,3,8,1602000000,0.00,249.0,25.0,0,0,0,0.0
Status,1732151578000,27,17,3,19,1602000000,0.00,35.0,25.0,0,0,0,0.0
Status,1732151578000,27,18,6,21,1575420030,0.00,338.0,68.0,0,0,0,0.0
Status,1732151578000,27,19,6,19,1575420030,0.00,246.0,47.0,0,0,0,0.0
Status,1732151578000,27,20,6,27,1575420030,0.00,63.0,35.0,0,0,0,0.0
Status,1732151578000,27,21,6,13,1575420030,0.00,122.0,27.0,0,0,0,0.0
Status,1732151578000,27,22,6,29,1575420030,0.00,192.0,27.0,0,0,0,0.0
Status,1732151578000,27,23,6,15,1575420030,0.00,64.0,23.0,0,0,0,0.0
Status,1732151578000,27,24,6,4,1575420030,0.00,313.0,22.0,0,0,0,0.0
Status,1732151578000,27,25,6,26,1575420030,0.00,168.0,4.0,0,0,0,0.0
Status,1732151578000,27,26,6,6,1575420030,0.00,328.0,3.0,0,0,0,0.0
Fix,GPS,37.4246616667,-122.1586300000,23.500000000000004,0.0,5.1,0.0,1732151579000,1.9,142.0,30463097000000,61.8,0,,,
Fix,FLP,37.4246587000,-122.1586134000,5.400000095367432,0.06232044,5.028,,1732151579250,1.9,,30463097000000,10.910182,0,,,
Raw,1732151579001,28725000000,,705998.4665291347,-1416186768276000000,0.0,146.898843922305,1241.9303373154078,0.0,0,15,0.0,16431,349996925598712,487,18.340999603271484,503.1734517781803,0.14999,16,0.0,0.0,1575420030,,,,0,0.8721640289493777,1,6.0,18.340999603271484,0.0,0.0,0.0,66.7128,C,30463097000000,
Raw,1732151579001,28725000000,,705998.4665291347,-1416186768276000000,0.0,146.898843922305,1241.9303373154078,0.0,0,7,0.0,16431,349996918246008,797,21.099000930786133,998.9190390557874,0.14999,16,0.0,0.0,1575420030,,,,0,4.084850188786498,1,6.0,21.099000930786133,0.0,0.0,0.0,66.7128,C,30463097000000,
Raw,1732151579001,28725000000,,705998.4665291347,-1416186768276000000,0.0,146.898843922305,1241.9303373154078,0.0,0,2,0.0,16431,349996919629784,797,14.100000381469727,677.9089443222953,0.14999,16,0.0,0.0,1575420030,,,,0,0.0,1,6.0,14.100000381469727,0.0,0.0,0.0,66.7128,C,30463097000000,
Raw,1732151579001,28725000000,,705998.4665291347,-1416186768276000000,0.0,146.898843922305,1241.9303373154078,0.0,0,13,0.0,16431,349996929807014,797,16.64699935913086,704.6862281319794,0.14999,16,0.0,0.0,1575420030,,,,0,0.0,1,6.0,16.64699935913086,0.0,0.0,0.0,66.7128,C,30463097000000,
Raw,1732151579001,28725000000,,705998.4665291347,-1416186768276000000,0.0,146.898843922305,1241.9303373154078,0.0,0,11,0.0,17,83263,396,23.0,-99.83249964114924,0.14999,16,0.0,0.0,1602000000,,,,0,8.147375404774003,3,6.0,23.0,0.0,0.0,108.67631620913818,66.7128,C,30463097000000,
Status,1732151579000,27,0,1,17,1575420030,0.00,98.0,80.0,0,0,0,0.0
Status,1732151579000,27,1,1,22,1575420030,0.00,8.0,67.0,0,0,0,0.0
Status,1732151579000,27,2,1,19,1575420030,0.00,199.0,58.0,0,0,0,0.0
Status,1732151579000,27,3,1,14,1575420030,0.00,49.0,54.0,0,0,0,0.0
Status,1732151579000,27,4,1,13,1575420030,26.10,238.0,49.0,1,0,0,21.1
Status,1732151579000,27,5,2,133,1575420030,0.00,191.0,45.0,0,0,0,0.0
Status,1732151579000,27,6,1,30,1575420030,0.00,129.0,39.0,0,0,0,0.0
Status,1732151579000,27,7,1,15,1575420030,23.40,278.0,30.0,1,0,0,18.4
Status,1732151579000,27,8,1,2,1575420030,16.60,50.0,18.0,1,0,0,11.6
Status,1732151579000,27,9,1,24,1575420030,0.00,313.0,14.0,0,0,0,0.0
Status,1732151579000,27,10,1,6,1575420030,0.00,163.0,10.0,0,0,0,0.0
Status,1732151579000,27,11,1,21,1575420030,0.00,35.0,6.0,0,0,0,0.0
Status,1732151579000,27,12,1,7,1575420030,26.10,130.0,6.0,1,0,0,21.1
Status,1732151579000,27,13,3,20,1602000000,0.00,118.0,51.0,0,0,0,0.0
Status,1732151579000,27,14,3,9,1602000000,0.00,77.0,35.0,0,0,0,0.0
Status,1732151579000,27,15,3,11,1602000000,25.50,308.0,26.0,0,0,0,20.5
Status,1732151579000,27,16,3,8,1602000000,0.00,249.0,25.0,0,0,0,0.0
Status,1732151579000,27,17,3,19,1602000000,0.00,35.0,25.0,0,0,0,0.0
Status,1732151579000,27,18,6,21,1575420030,0.00,338.0,68.0,0,0,0,0.0
Status,1732151579000,27,19,6,19,1575420030,0.00,246.0,47.0,0,0,0,0.0
Status,1732151579000,27,20,6,27,1575420030,0.00,63.0,35.0,0,0,0,0.0
Status,1732151579000,27,21,6,13,1575420030,0.00,122.0,27.0,0,0,0,0.0
Status,1732151579000,27,22,6,29,1575420030,0.00,192.0,27.0,0,0,0,0.0
Status,1732151579000,27,23,6,15,1575420030,0.00,64.0,23.0,0,0,0,0.0
Status,1732151579000,27,24,6,4,1575420030,25.60,313.0,22.0,1,0,0,20.6
Status,1732151579000,27,25,6,26,1575420030,0.00,168.0,4.0,0,0,0,0.0
Status,1732151579000,27,26,6,6,1575420030,0.00,328.0,3.0,0,0,0,0.0
Fix,GPS,37.4246750000,-122.1586433333,23.500000000000004,0.0,5.1,0.0,1732151580000,1.9,157.0,30464097000000,93.9,0,,,
Raw,1732151580001,29725000000,,705998.1538127954,-1416186768276000000,0.0,161.58045359792524,1245.6776091067736,0.0,0,15,0.0,16431,349997925597032,316,18.384000778198242,504.43256777431833,0.14999,16,0.0,0.0,1575420030,,,,0,0.8721640289493777,1,6.0,18.384000778198242,0.0,0.0,0.0,66.7128,C,30464097000000,
Raw,1732151580001,29725000000,,705998.1538127954,-1416186768276000000,0.0,161.58045359792524,1245.6776091067736,0.0,0,7,0.0,16431,349997918242675,487,21.099000930786133,998.8033575994231,0.14999,16,0.0,0.0,1575420030,,,,0,4.084850188786498,1,6.0,21.099000930786133,0.0,0.0,0.0,66.7128,C,30464097000000,
Raw,1732151580001,29725000000,,705998.1538127954,-1416186768276000000,0.0,161.58045359792524,1245.6776091067736,0.0,0,2,0.0,16431,349997919627520,1797,11.600000381469727,679.4146615916789,0.14999,16,0.0,0.0,1575420030,,,,0,0.0,1,6.0,11.600000381469727,0.0,0.0,0.0,66.7128,C,30464097000000,
Raw,1732151580001,29725000000,,705998.1538127954,-1416186768276000000,0.0,161.58045359792524,1245.6776091067736,0.0,0,4,0.0,16431,349997911754161,487,20.600000381469727,85.91248284267859,0.14999,16,0.0,0.0,1575420030,,,,0,5.186800525082869,6,6.0,20.600000381469727,0.0,0.0,-9.008436167958047,66.7128,C,30464097000000,
Raw,1732151580001,29725000000,,705998.1538127954,-1416186768276000000,0.0,161.58045359792524,1245.6776091067736,0.0,0,13,0.0,16431,349997929804646,396,21.099000930786133,705.7898478090608,0.14999,16,0.0,0.0,1575420030,,,,0,4.084850188786498,1,6.0,21.099000930786133,0.0,0.0,0.0,66.7128,C,30464097000000,
Raw,1732151580001,29725000000,,705998.1538127954,-1416186768276000000,0.0,161.58045359792524,1245.6776091067736,0.0,0,11,0.0,17,83592,487,19.0,-98.50262529166301,0.14999,16,0.0,0.0,1602000000,,,,0,4.944851309096222,3,6.0,19.0,0.0,0.0,108.67631620913818,66.7128,C,30464097000000,
Fix,FLP,37.4246666000,-122.1586266000,5.400000095367432,0.05192837,5.042,,1732151580249,1.9,,30464097000000,10.894388,0,,,
Fix,FLP,37.4246700000,-122.1586326000,7.353527690497847,0.07062321,5.066,,1732151580584,1.9,,30464432000000,11.061517,0,,,
Fix,NLP,37.4257229000,-122.1580887000,5.400000095367432,,19.117,,1732151580584,,,30464432000000,11.125416,0,,,
Status,1732151580000,27,0,1,17,1575420030,0.00,98.0,80.0,0,0,0,0.0
Status,1732151580000,27,1,1,22,1575420030,0.00,8.0,67.0,0,0,0,0.0
Status,1732151580000,27,2,1,19,1575420030,0.00,199.0,58.0,0,0,0,0.0
Status,1732151580000,27,3,1,14,1575420030,0.00,49.0,54.0,0,0,0,0.0
Status,1732151580000,27,4,1,13,1575420030,27.50,238.0,49.0,1,0,0,22.5
Status,1732151580000,27,5,2,133,1575420030,0.00,191.0,45.0,0,0,0,0.0
Status,1732151580000,27,6,1,30,1575420030,19.30,129.0,39.0,1,0,0,14.299999
Status,1732151580000,27,7,1,15,1575420030,29.20,278.0,30.0,1,0,0,24.2
Status,1732151580000,27,8,1,2,1575420030,16.60,50.0,18.0,1,0,0,11.6
Status,1732151580000,27,9,1,24,1575420030,0.00,313.0,14.0,0,0,0,0.0
Status,1732151580000,27,10,1,6,1575420030,0.00,163.0,10.0,0,0,0,0.0
Status,1732151580000,27,11,1,21,1575420030,0.00,35.0,6.0,0,0,0,0.0
Status,1732151580000,27,12,1,7,1575420030,26.00,130.0,6.0,1,0,0,21.0
Status,1732151580000,27,13,3,20,1602000000,0.00,118.0,51.0,0,0,0,0.0
Status,1732151580000,27,14,3,9,1602000000,0.00,77.0,35.0,0,0,0,0.0
Status,1732151580000,27,15,3,11,1602000000,26.10,308.0,26.0,0,0,0,21.1
Status,1732151580000,27,16,3,8,1602000000,0.00,249.0,25.0,0,0,0,0.0
Status,1732151580000,27,17,3,19,1602000000,0.00,35.0,25.0,0,0,0,0.0
Status,1732151580000,27,18,6,21,1575420030,0.00,338.0,68.0,0,0,0,0.0
Status,1732151580000,27,19,6,19,1575420030,0.00,246.0,47.0,0,0,0,0.0
Status,1732151580000,27,20,6,27,1575420030,0.00,63.0,35.0,0,0,0,0.0
Status,1732151580000,27,21,6,13,1575420030,0.00,122.0,27.0,0,0,0,0.0
Status,1732151580000,27,22,6,29,1575420030,0.00,192.0,27.0,0,0,0,0.0
Status,1732151580000,27,23,6,15,1575420030,0.00,64.0,23.0,0,0,0,0.0
Status,1732151580000,27,24,6,4,1575420030,24.70,313.0,22.0,1,0,0,19.7
Status,1732151580000,27,25,6,26,1575420030,0.00,168.0,4.0,0,0,0,0.0
Status,1732151580000,27,26,6,6,1575420030,0.00,328.0,3.0,0,0,0,0.0
Fix,GPS,37.4246683333,-122.1586233333,23.500000000000004,0.0,5.2,0.0,1732151581000,1.8,172.8,30465097000000,90.0,0,,,
Raw,1732151581001,30725000000,,705997.893215846,-1416186768276000000,0.0,159.34729806999513,1247.857423022211,0.0,0,15,0.0,16431,349998925595210,316,24.238000869750977,504.80869511195885,0.14999,16,0.0,0.0,1575420030,,,,0,8.963575780370393,1,6.0,24.238000869750977,0.0,0.0,0.0,66.7128,C,30465097000000,
Raw,1732151581001,30725000000,,705997.893215846,-1416186768276000000,0.0,159.34729806999513,1247.857423022211,0.0,0,7,0.0,16431,349998918239342,487,21.016000747680664,999.545205589473,0.14999,16,0.0,0.0,1575420030,,,,0,1.3449822255115311,1,6.0,21.016000747680664,0.0,0.0,0.0,66.7128,C,30465097000000,
Raw,1732151581001,30725000000,,705997.893215846,-1416186768276000000,0.0,159.34729806999513,1247.857423022211,0.0,0,2,0.0,16431,349998919625253,797,11.600000381469727,679.8881193112804,0.14999,16,0.0,0.0,1575420030,,,,0,0.0,1,6.0,11.600000381469727,0.0,0.0,0.0,66.7128,C,30465097000000,
Raw,1732151581001,30725000000,,705997.893215846,-1416186768276000000,0.0,159.34729806999513,1247.857423022211,0.0,0,4,0.0,16431,349998911753864,487,19.700000762939453,88.55538599485558,0.14999,16,0.0,0.0,1575420030,,,,0,3.742504807842275,6,6.0,19.700000762939453,0.0,0.0,-10.928489617524741,66.7128,C,30465097000000,
Raw,1732151581001,30725000000,,705997.893215846,-1416186768276000000,0.0,159.34729806999513,1247.857423022211,0.0,0,13,0.0,16431,349998929802239,487,22.457000732421875,706.6579697743709,0.14999,16,0.0,0.0,1575420030,,,,0,6.295668506939647,1,6.0,22.457000732421875,0.0,0.0,0.0,66.7128,C,30465097000000,
Raw,1732151581001,30725000000,,705997.893215846,-1416186768276000000,0.0,159.34729806999513,1247.857423022211,0.0,0,11,0.0,17,83927,396,21.0,-98.26980133656538,0.14999,16,0.0,0.0,1602000000,,,,0,5.887619234637436,3,6.0,21.0,0.0,0.0,108.67631620913818,66.7128,C,30465097000000,
Raw,1732151581001,30725000000,,705997.893215846,-1416186768276000000,0.0,159.34729806999513,1247.857423022211,0.0,0,30,0.0,16431,349998927083787,1797,14.300000190734863,862.2284364633146,0.14999,16,0.0,0.0,1575420030,,,,0,0.0,1,6.0,14.300000190734863,0.0,0.0,0.0,66.7128,C,30465097000000,
Fix,FLP,37.4246695000,-122.1586292000,5.400000095367432,0.03954679,5.085,,1732151581249,1.8,,30465097000000,13.292568,0,,,
Status,1732151581000,27,0,1,17,1575420030,0.00,98.0,80.0,0,0,0,0.0
Status,1732151581000,27,1,1,22,1575420030,0.00,8.0,67.0,0,0,0,0.0
Status,1732151581000,27,2,1,19,1575420030,0.00,199.0,58.0,0,0,0,0.0
Status,1732151581000,27,3,1,14,1575420030,0.00,49.0,54.0,0,0,0,0.0
Status,1732151581000,27,4,1,13,1575420030,23.60,238.0,49.0,1,0,0,18.6
Status,1732151581000,27,5,2,133,1575420030,0.00,191.0,45.0,0,0,0,0.0
Status,1732151581000,27,6,1,30,1575420030,19.30,129.0,39.0,1,0,0,14.299999
Status,1732151581000,27,7,1,15,1575420030,29.20,278.0,30.0,1,0,0,24.2
Status,1732151581000,27,8,1,2,1575420030,16.60,50.0,18.0,1,0,0,11.6
Status,1732151581000,27,9,1,24,1575420030,0.00,313.0,14.0,0,0,0,0.0
Status,1732151581000,27,10,1,6,1575420030,0.00,163.0,10.0,0,0,0,0.0
Status,1732151581000,27,11,1,21,1575420030,0.00,35.0,6.0,0,0,0,0.0
Status,1732151581000,27,12,1,7,1575420030,26.10,130.0,6.0,1,0,0,21.1
Status,1732151581000,27,13,3,20,1602000000,0.00,118.0,51.0,0,0,0,0.0
Status,1732151581000,27,14,3,9,1602000000,0.00,77.0,35.0,0,0,0,0.0
Status,1732151581000,27,15,3,11,1602000000,25.90,308.0,26.0,0,0,0,20.9
Status,1732151581000,27,16,3,8,1602000000,0.00,249.0,25.0,0,0,0,0.0
Status,1732151581000,27,17,3,19,1602000000,0.00,35.0,25.0,0,0,0,0.0
Status,1732151581000,27,18,6,21,1575420030,0.00,338.0,68.0,0,0,0,0.0
Status,1732151581000,27,19,6,19,1575420030,0.00,246.0,47.0,0,0,0,0.0
Status,1732151581000,27,20,6,27,1575420030,0.00,63.0,35.0,0,0,0,0.0
Status,1732151581000,27,21,6,13,1575420030,0.00,122.0,27.0,0,0,0,0.0
Status,1732151581000,27,22,6,29,1575420030,0.00,192.0,27.0,0,0,0,0.0
Status,1732151581000,27,23,6,15,1575420030,0.00,64.0,23.0,0,0,0,0.0
Status,1732151581000,27,24,6,4,1575420030,24.70,313.0,22.0,1,0,0,19.7
Status,1732151581000,27,25,6,26,1575420030,0.00,168.0,4.0,0,0,0,0.0
Status,1732151581000,27,26,6,6,1575420030,0.00,328.0,3.0,0,0,0,0.0
Fix,GPS,37.4246766667,-122.1586183333,23.500000000000004,0.0,5.2,0.0,1732151582000,1.8,179.9,30466097000000,90.4,0,,,
Raw,1732151582001,31725000000,,705997.6847382865,-1416186768276000000,0.0,159.54478169569228,1251.320975015921,0.0,0,15,0.0,16431,349999925593552,396,24.191999435424805,505.67333269605314,0.14999,16,0.0,0.0,1575420030,,,,0,7.620651060184892,1,6.0,24.191999435424805,0.0,0.0,0.0,66.7128,C,30466097000000,
Raw,1732151582001,31725000000,,705997.6847382865,-1416186768276000000,0.0,159.54478169569228,1251.320975015921,0.0,0,7,0.0,16431,349999918235970,396,21.139999389648438,1000.5068948050312,0.14999,16,0.0,0.0,1575420030,,,,0,7.8955439277455834,1,6.0,21.139999389648438,0.0,0.0,0.0,66.7128,C,30466097000000,
Raw,1732151582001,31725000000,,705997.6847382865,-1416186768276000000,0.0,159.54478169569228,1251.320975015921,0.0,0,2,0.0,16431,349999919622984,797,11.600000381469727,680.7690173410484,0.14999,16,0.0,0.0,1575420030,,,,0,0.0,1,6.0,11.600000381469727,0.0,0.0,0.0,66.7128,C,30466097000000,
Raw,1732151582001,31725000000,,705997.6847382865,-1416186768276000000,0.0,159.54478169569228,1251.320975015921,0.0,0,4,0.0,16431,349999911753568,487,19.700000762939453,88.28553228429666,0.14999,16,0.0,0.0,1575420030,,,,0,3.742504807842275,6,6.0,19.700000762939453,0.0,0.0,-12.770087158654855,66.7128,C,30466097000000,
Raw,1732151582001,31725000000,,705997.6847382865,-1416186768276000000,0.0,159.54478169569228,1251.320975015921,0.0,0,13,0.0,16431,349999929799871,797,18.617000579833984,707.6717853329172,0.14999,16,0.0,0.0,1575420030,,,,0,0.0,1,6.0,18.617000579833984,0.0,0.0,0.0,66.7128,C,30466097000000,
Raw,1732151582001,31725000000,,705997.6847382865,-1416186768276000000,0.0,159.54478169569228,1251.320975015921,0.0,0,11,0.0,17,84259,487,20.0,-98.43765753967148,0.14999,16,0.0,0.0,1602000000,,,,0,5.584592353185018,3,6.0,20.0,0.0,0.0,108.67631620913818,66.7128,C,30466097000000,
Raw,1732151582001,31725000000,,705997.6847382865,-1416186768276000000,0.0,159.54478169569228,1251.320975015921,0.0,0,30,0.0,16431,349999927080910,1797,14.300000190734863,863.7232824633048,0.14999,16,0.0,0.0,1575420030,,,,0,0.0,1,6.0,14.300000190734863,0.0,0.0,0.0,66.7128,C,30466097000000,
Fix,FLP,37.4246729000,-122.1586247000,5.400000095367432,0.058503382,5.114,,1732151582249,1.8,,30466097000000,14.025451,0,,,
Status,1732151582000,26,0,1,17,1575420030,0.00,98.0,80.0,0,0,0,0.0
Status,1732151582000,26,1,1,22,1575420030,0.00,8.0,67.0,0,0,0,0.0
Status,1732151582000,26,2,1,19,1575420030,0.00,199.0,58.0,0,0,0,0.0
Status,1732151582000,26,3,1,14,1575420030,0.00,49.0,54.0,0,0,0,0.0
Status,1732151582000,26,4,1,13,1575420030,23.70,238.0,49.0,1,0,0,18.7
Status,1732151582000,26,5,1,30,1575420030,0.00,129.0,39.0,0,0,0,0.0
Status,1732151582000,26,6,1,15,1575420030,29.10,278.0,30.0,1,0,0,24.1
Status,1732151582000,26,7,1,2,1575420030,17.80,50.0,18.0,1,0,0,12.799999
Status,1732151582000,26,8,1,24,1575420030,0.00,313.0,14.0,0,0,0,0.0
Status,1732151582000,26,9,1,6,1575420030,0.00,163.0,10.0,0,0,0,0.0
Status,1732151582000,26,10,1,21,1575420030,0.00,35.0,6.0,0,0,0,0.0
Status,1732151582000,26,11,1,7,1575420030,29.70,130.0,6.0,1,0,0,24.7
Status,1732151582000,26,12,3,20,1602000000,0.00,118.0,51.0,0,0,0,0.0
Status,1732151582000,26,13,3,9,1602000000,0.00,77.0,35.0,0,0,0,0.0
Status,1732151582000,26,14,3,11,1602000000,28.90,308.0,26.0,0,0,0,23.9
Status,1732151582000,26,15,3,8,1602000000,0.00,249.0,25.0,0,0,0,0.0
Status,1732151582000,26,16,3,19,1602000000,0.00,35.0,25.0,0,0,0,0.0
Status,1732151582000,26,17,6,21,1575420030,0.00,338.0,68.0,0,0,0,0.0
Status,1732151582000,26,18,6,19,1575420030,0.00,246.0,47.0,0,0,0,0.0
Status,1732151582000,26,19,6,27,1575420030,0.00,63.0,35.0,0,0,0,0.0
Status,1732151582000,26,20,6,13,1575420030,0.00,122.0,27.0,0,0,0,0.0
Status,1732151582000,26,21,6,29,1575420030,0.00,192.0,27.0,0,0,0,0.0
Status,1732151582000,26,22,6,15,1575420030,0.00,64.0,23.0,0,0,0,0.0
Status,1732151582000,26,23,6,4,1575420030,25.20,313.0,22.0,1,0,0,20.2
Status,1732151582000,26,24,6,26,1575420030,0.00,168.0,4.0,0,0,0,0.0
Status,1732151582000,26,25,6,6,1575420030,0.00,328.0,3.0,0,0,0,0.0
Fix,GPS,37.4247133333,-122.1586083333,23.500000000000004,0.0,5.2,0.0,1732151583000,1.8,179.9,30467097000000,54.2,0,,,
Fix,FLP,37.4246927000,-122.1586177000,5.400000095367432,0.2349068,5.142,0.0000000020898534,1732151583249,1.8,179.9,30467097000000,13.682857,0,,,
Raw,1732151583001,32725000000,,705995.5478433017,-1416186768276000000,0.0,129.0091814593208,1251.3632950904491,0.0,0,15,0.0,16431,350000925591865,396,24.139999389648438,505.73637676685087,0.14999,16,0.0,0.0,1575420030,,,,0,7.33677319152501,1,6.0,24.139999389648438,0.0,0.0,0.0,66.7128,C,30467097000000,
Raw,1732151583001,32725000000,,705995.5478433017,-1416186768276000000,0.0,129.0091814593208,1251.3632950904491,0.0,0,7,0.0,16431,350000918232640,396,24.683000564575195,1000.5894978690535,0.14999,16,0.0,0.0,1575420030,,,,0,9.608978427565479,1,6.0,24.683000564575195,0.0,0.0,0.0,66.7128,C,30467097000000,
Raw,1732151583001,32725000000,,705995.5478433017,-1416186768276000000,0.0,129.0091814593208,1251.3632950904491,0.0,0,2,0.0,16431,350000919620713,1797,12.800000190734863,680.6328477231353,0.14999,16,0.0,0.0,1575420030,,,,0,0.0,1,6.0,12.800000190734863,0.0,0.0,0.0,66.7128,C,30467097000000,
Raw,1732151583001,32725000000,,705995.5478433017,-1416186768276000000,0.0,129.0091814593208,1251.3632950904491,0.0,0,4,0.0,16431,350000911753263,487,20.200000762939453,87.82835823957686,0.14999,16,0.0,0.0,1575420030,,,,0,4.5743255764505095,6,6.0,20.200000762939453,0.0,0.0,-12.770087158654855,66.7128,C,30467097000000,
Raw,1732151583001,32725000000,,705995.5478433017,-1416186768276000000,0.0,129.0091814593208,1251.3632950904491,0.0,0,13,0.0,16431,350000929797502,487,18.679000854492188,708.0335105615325,0.14999,16,0.0,0.0,1575420030,,,,0,2.009195367727299,1,6.0,18.679000854492188,0.0,0.0,0.0,66.7128,C,30467097000000,
Raw,1732151583001,32725000000,,705995.5478433017,-1416186768276000000,0.0,129.0091814593208,1251.3632950904491,0.0,0,11,0.0,17,84592,316,24.0,-98.58810677125243,0.14999,16,0.0,0.0,1602000000,,,,0,9.686244078399662,3,6.0,24.0,0.0,0.0,108.67631620913818,66.7128,C,30467097000000,
Status,1732151583000,26,0,1,17,1575420030,0.00,98.0,80.0,0,0,0,0.0
Status,1732151583000,26,1,1,22,1575420030,0.00,8.0,67.0,0,0,0,0.0
Status,1732151583000,26,2,1,19,1575420030,0.00,199.0,58.0,0,0,0,0.0
Status,1732151583000,26,3,1,14,1575420030,0.00,49.0,54.0,0,0,0,0.0
Status,1732151583000,26,4,1,13,1575420030,27.40,238.0,49.0,1,0,0,22.4
Status,1732151583000,26,5,1,30,1575420030,0.00,129.0,39.0,0,0,0,0.0
Status,1732151583000,26,6,1,15,1575420030,25.70,278.0,30.0,1,0,0,20.7
Status,1732151583000,26,7,1,2,1575420030,17.80,50.0,18.0,1,0,0,12.799999
Status,1732151583000,26,8,1,24,1575420030,0.00,313.0,14.0,0,0,0,0.0
Status,1732151583000,26,9,1,6,1575420030,0.00,163.0,10.0,0,0,0,0.0
Status,1732151583000,26,10,1,21,1575420030,0.00,35.0,6.0,0,0,0,0.0
Status,1732151583000,26,11,1,7,1575420030,28.90,130.0,6.0,1,0,0,23.9
Status,1732151583000,26,12,3,20,1602000000,0.00,118.0,51.0,0,0,0,0.0
Status,1732151583000,26,13,3,9,1602000000,0.00,77.0,35.0,0,0,0,0.0
Status,1732151583000,26,14,3,11,1602000000,27.30,308.0,26.0,0,0,0,22.3
Status,1732151583000,26,15,3,8,1602000000,29.60,249.0,25.0,1,0,0,24.6
Status,1732151583000,26,16,3,19,1602000000,0.00,35.0,25.0,0,0,0,0.0
Status,1732151583000,26,17,6,21,1575420030,0.00,338.0,68.0,0,0,0,0.0
Status,1732151583000,26,18,6,19,1575420030,0.00,246.0,47.0,0,0,0,0.0
Status,1732151583000,26,19,6,27,1575420030,0.00,63.0,35.0,0,0,0,0.0
Status,1732151583000,26,20,6,13,1575420030,0.00,122.0,27.0,0,0,0,0.0
Status,1732151583000,26,21,6,29,1575420030,0.00,192.0,27.0,0,0,0,0.0
Status,1732151583000,26,22,6,15,1575420030,0.00,64.0,23.0,0,0,0,0.0
Status,1732151583000,26,23,6,4,1575420030,27.00,313.0,22.0,1,0,0,22.0
Status,1732151583000,26,24,6,26,1575420030,0.00,168.0,4.0,0,0,0,0.0
Status,1732151583000,26,25,6,6,1575420030,0.00,328.0,3.0,0,0,0,0.0
Fix,GPS,37.4247583333,-122.1585983333,23.500000000000004,0.0,5.2,0.0,1732151584000,1.8,179.9,30468097000000,50.7,0,,,
Raw,1732151584001,33725000000,,705990.2316655344,-1416186768276000000,0.0,119.10313812557516,1252.2125069606734,0.0,0,15,0.0,16431,350001925590184,487,20.665000915527344,506.22474763805604,0.14999,16,0.0,0.0,1575420030,,,,0,3.3861106246026926,1,6.0,20.665000915527344,0.0,0.0,0.0,66.7128,C,30468097000000,
Raw,1732151584001,33725000000,,705990.2316655344,-1416186768276000000,0.0,119.10313812557516,1252.2125069606734,0.0,0,7,0.0,16431,350001918229306,396,23.924999237060547,1000.7019272362829,0.14999,16,0.0,0.0,1575420030,,,,0,8.521825181113625,1,6.0,23.924999237060547,0.0,0.0,0.0,66.7128,C,30468097000000,
Raw,1732151584001,33725000000,,705990.2316655344,-1416186768276000000,0.0,119.10313812557516,1252.2125069606734,0.0,0,2,0.0,16431,350001919618442,797,12.800000190734863,681.0813572732319,0.14999,16,0.0,0.0,1575420030,,,,0,0.0,1,6.0,12.800000190734863,0.0,0.0,0.0,66.7128,C,30468097000000,
Raw,1732151584001,33725000000,,705990.2316655344,-1416186768276000000,0.0,119.10313812557516,1252.2125069606734,0.0,0,4,0.0,16431,350001911752965,396,22.0,88.29015489670961,0.14999,16,0.0,0.0,1575420030,,,,0,7.161883599211402,6,6.0,22.0,0.0,0.0,-12.770087158654855,66.7128,C,30468097000000,
Raw,1732151584001,33725000000,,705990.2316655344,-1416186768276000000,0.0,119.10313812557516,1252.2125069606734,0.0,0,13,0.0,16431,350001929795135,487,22.381000518798828,707.9672608600163,0.14999,16,0.0,0.0,1575420030,,,,0,6.1645582494433,1,6.0,22.381000518798828,0.0,0.0,0.0,66.7128,C,30468097000000,
