# 
# Header Description:
# 
# Version: v3.1.0.3 Platform: 13 Manufacturer: samsung Model: SM-S135DL GNSS Hardware Model Name: MediaTek,MT6631,MTK_MNLD_default,MNL_VER_default
# 
# Raw,utcTimeMillis,TimeNanos,LeapSecond,TimeUncertaintyNanos,FullBiasNanos,BiasNanos,BiasUncertaintyNanos,DriftNanosPerSecond,DriftUncertaintyNanosPerSecond,HardwareClockDiscontinuityCount,Svid,TimeOffsetNanos,State,ReceivedSvTimeNanos,ReceivedSvTimeUncertaintyNanos,Cn0DbHz,PseudorangeRateMetersPerSecond,PseudorangeRateUncertaintyMetersPerSecond,AccumulatedDeltaRangeState,AccumulatedDeltaRangeMeters,AccumulatedDeltaRangeUncertaintyMeters,CarrierFrequencyHz,CarrierCycles,CarrierPhase,CarrierPhaseUncertainty,MultipathIndicator,SnrInDb,ConstellationType,AgcDb,BasebandCn0DbHz,FullInterSignalBiasNanos,FullInterSignalBiasUncertaintyNanos,SatelliteInterSignalBiasNanos,SatelliteInterSignalBiasUncertaintyNanos,CodeType,ChipsetElapsedRealtimeNanos,IsFullTracking
# 
# UncalAccel,utcTimeMillis,elapsedRealtimeNanos,UncalAccelXMps2,UncalAccelYMps2,UncalAccelZMps2,BiasXMps2,BiasYMps2,BiasZMps2
# 
# Accel,utcTimeMillis,elapsedRealtimeNanos,AccelXMps2,AccelYMps2,AccelZMps2
# 
# UncalGyro,utcTimeMillis,elapsedRealtimeNanos,UncalGyroXRadPerSec,UncalGyroYRadPerSec,UncalGyroZRadPerSec,DriftXRadPerSec,DriftYRadPerSec,DriftZRadPerSec
# 
# Gyro,utcTimeMillis,elapsedRealtimeNanos,GyroXRadPerSec,GyroYRadPerSec,GyroZRadPerSec
# 
# UncalMag,utcTimeMillis,elapsedRealtimeNanos,UncalMagXMicroT,UncalMagYMicroT,UncalMagZMicroT,BiasXMicroT,BiasYMicroT,BiasZMicroT
# 
# Mag,utcTimeMillis,elapsedRealtimeNanos,MagXMicroT,MagYMicroT,MagZMicroT
# 
# Pressure,utcTimeMillis,elapsedRealtimeNanos,PressureHpa
# 
# OrientationDeg,utcTimeMillis,elapsedRealtimeNanos,yawDeg,rollDeg,pitchDeg
# 
# Fix,Provider,LatitudeDegrees,LongitudeDegrees,AltitudeMeters,SpeedMps,AccuracyMeters,BearingDegrees,UnixTimeMillis,SpeedAccuracyMps,BearingAccuracyDegrees,elapsedRealtimeNanos,VerticalAccuracyMeters,MockLocation,NumberOfUsedSignals,VerticalSpeedAccuracyMps,SolutionType
# 
# Nav,Svid,Type,Status,MessageId,Sub-messageId,Data(Bytes)
# 
# Status,UnixTimeMillis,SignalCount,SignalIndex,ConstellationType,Svid,CarrierFrequencyHz,Cn0DbHz,AzimuthDegrees,ElevationDegrees,UsedInFix,HasAlmanacData,HasEphemerisData,BasebandCn0DbHz
# 
# Agc,utcTimeMillis,TimeNanos,LeapSecond,TimeUncertaintyNanos,FullBiasNanos,BiasNanos,BiasUncertaintyNanos,DriftNanosPerSecond,DriftUncertaintyNanosPerSecond,HardwareClockDiscontinuityCount,AgcDb,CarrierFrequencyHz,ConstellationType
# 
Fix,FLP,37.4253468000,-122.1584288000,3.1154163938645394,0.81668967,4.857,0.000000001651344,1732153368245,3.3,173.9,32252093000000,9.682089,0,,,
Status,,26,0,1,19,1575420030,0.00,205.0,73.0,0,0,0,0.0
Status,,26,1,1,17,1575420030,0.00,52.0,70.0,0,0,0,0.0
Status,,26,2,1,22,1575420030,0.00,35.0,61.0,0,0,0,0.0
Status,,26,3,1,14,1575420030,0.00,65.0,45.0,0,0,0,0.0
Status,,26,4,2,138,1575420030,0.00,156.0,43.0,0,0,0,0.0
Status,,26,5,1,13,1575420030,25.70,223.0,39.0,1,0,0,20.7
Status,,26,6,1,15,1575420030,25.20,263.0,27.0,1,0,0,20.2
Status,,26,7,1,30,1575420030,29.60,138.0,26.0,1,0,0,24.6
Status,,26,8,1,24,1575420030,17.80,313.0,26.0,1,0,0,12.799999
Status,,26,9,1,6,1575420030,29.90,157.0,21.0,1,0,0,24.9
Status,,26,10,1,2,1575420030,0.00,40.0,12.0,0,0,0,0.0
Status,,26,11,1,12,1575420030,24.10,274.0,6.0,0,0,0,19.1
Status,,26,12,3,20,1602000000,0.00,90.0,59.0,0,0,0,0.0
Status,,26,13,3,11,1602000000,0.00,321.0,36.0,0,0,0,0.0
Status,,26,14,3,9,1602000000,0.00,93.0,26.0,0,0,0,0.0
Status,,26,15,3,19,1602000000,0.00,26.0,14.0,0,0,0,0.0
Status,,26,16,3,8,1602000000,0.00,238.0,13.0,0,0,0,0.0
Status,,26,17,6,21,1575420030,0.00,6.0,67.0,0,0,0,0.0
Status,,26,18,6,19,1575420030,0.00,234.0,39.0,0,0,0,0.0
Status,,26,19,6,13,1575420030,0.00,112.0,35.0,0,0,0,0.0
Status,,26,20,6,27,1575420030,0.00,72.0,28.0,0,0,0,0.0
Status,,26,21,6,4,1575420030,19.20,303.0,26.0,1,0,0,14.200001
Status,,26,22,6,15,1575420030,0.00,53.0,23.0,0,0,0,0.0
Status,,26,23,6,29,1575420030,0.00,189.0,16.0,0,0,0,0.0
Status,,26,24,6,26,1575420030,0.00,164.0,14.0,0,0,0,0.0
Status,,26,25,6,6,1575420030,0.00,322.0,10.0,0,0,0,0.0
Fix,GPS,37.4253600000,-122.1583883333,24.500000000000004,0.0,4.8,0.0,1732153369000,3.4,179.9,32253093000000,60.1,0,,,
Raw,1732153369000,33676000000,,704924.4943813763,-1416188553324999936,0.0,122.47735964154596,1216.1921044794726,0.0,0,30,0.0,16431,351786923807421,396,24.60300064086914,966.8921865063934,0.14999,16,0.0,0.0,1575420030,,,,0,9.459217999714479,1,6.0,24.60300064086914,0.0,0.0,0.0,66.7128,C,32253093000000,
Raw,1732153369000,33676000000,,704924.4943813763,-1416188553324999936,0.0,122.47735964154596,1216.1921044794726,0.0,0,15,0.0,16431,351786924204707,487,20.176000595092773,689.9313603524259,0.14999,16,0.0,0.0,1575420030,,,,0,3.5050073750290016,1,6.0,20.176000595092773,0.0,0.0,0.0,66.7128,C,32253093000000,
Raw,1732153369000,33676000000,,704924.4943813763,-1416188553324999936,0.0,122.47735964154596,1216.1921044794726,0.0,0,13,0.0,16431,351786927279583,487,20.719999313354492,865.7799965489454,0.14999,16,0.0,0.0,1575420030,,,,0,3.5050073750290016,1,6.0,20.719999313354492,0.0,0.0,0.0,66.7128,C,32253093000000,
Raw,1732153369000,33676000000,,704924.4943813763,-1416188553324999936,0.0,122.47735964154596,1216.1921044794726,0.0,0,6,0.0,16431,351786922339099,396,24.93000030517578,-279.5589201637094,0.14999,16,0.0,0.0,1575420030,,,,0,7.470890632333893,1,6.0,24.93000030517578,0.0,0.0,0.0,66.7128,C,32253093000000,
Raw,1732153369000,33676000000,,704924.4943813763,-1416188553324999936,0.0,122.47735964154596,1216.1921044794726,0.0,0,4,0.0,16431,351786913027311,1797,14.199999809265137,224.6081145327576,0.14999,16,0.0,0.0,1575420030,,,,0,0.0,6,6.0,14.199999809265137,0.0,0.0,5.70278172384266,66.7128,C,32253093000000,
Raw,1732153369000,33676000000,,704924.4943813763,-1416188553324999936,0.0,122.47735964154596,1216.1921044794726,0.0,0,12,0.0,16431,351786916508642,797,19.08099937438965,-179.92814972396684,0.14999,16,0.0,0.0,1575420030,,,,0,1.4223168152029726,1,6.0,19.08099937438965,0.0,0.0,0.0,66.7128,C,32253093000000,
Raw,1732153369000,33676000000,,704924.4943813763,-1416188553324999936,0.0,122.47735964154596,1216.1921044794726,0.0,0,24,0.0,16431,351786924368567,1797,12.800000190734863,-213.2459887430192,0.14999,16,0.0,0.0,1575420030,,,,0,0.0,1,6.0,12.800000190734863,0.0,0.0,0.0,66.7128,C,32253093000000,
Fix,FLP,37.4253567000,-122.1584107000,2.346713524718056,0.7430069,4.842,0.0000000015959261,1732153369245,3.4,179.9,32253093000000,8.894275,0,,,
Status,1732153369000,26,0,1,19,1575420030,0.00,205.0,73.0,0,0,0,0.0
Status,1732153369000,26,1,1,17,1575420030,0.00,52.0,70.0,0,0,0,0.0
Status,1732153369000,26,2,1,22,1575420030,0.00,35.0,61.0,0,0,0,0.0
Status,1732153369000,26,3,1,14,1575420030,0.00,65.0,45.0,0,0,0,0.0
Status,1732153369000,26,4,2,138,1575420030,0.00,156.0,43.0,0,0,0,0.0
Status,1732153369000,26,5,1,13,1575420030,32.50,223.0,39.0,1,0,0,27.5
Status,1732153369000,26,6,1,15,1575420030,25.10,263.0,27.0,1,0,0,20.1
Status,1732153369000,26,7,1,30,1575420030,31.50,138.0,26.0,1,0,0,26.5
Status,1732153369000,26,8,1,24,1575420030,17.80,313.0,26.0,1,0,0,12.799999
Status,1732153369000,26,9,1,6,1575420030,29.90,157.0,21.0,1,0,0,24.9
Status,1732153369000,26,10,1,2,1575420030,0.00,40.0,12.0,0,0,0,0.0
Status,1732153369000,26,11,1,12,1575420030,24.10,274.0,6.0,0,0,0,19.1
Status,1732153369000,26,12,3,20,1602000000,0.00,90.0,59.0,0,0,0,0.0
Status,1732153369000,26,13,3,11,1602000000,0.00,321.0,36.0,0,0,0,0.0
Status,1732153369000,26,14,3,9,1602000000,0.00,93.0,26.0,0,0,0,0.0
Status,1732153369000,26,15,3,19,1602000000,0.00,26.0,14.0,0,0,0,0.0
Status,1732153369000,26,16,3,8,1602000000,0.00,238.0,13.0,0,0,0,0.0
Status,1732153369000,26,17,6,21,1575420030,0.00,6.0,67.0,0,0,0,0.0
Status,1732153369000,26,18,6,19,1575420030,0.00,234.0,39.0,0,0,0,0.0
Status,1732153369000,26,19,6,13,1575420030,0.00,112.0,35.0,0,0,0,0.0
Status,1732153369000,26,20,6,27,1575420030,0.00,72.0,28.0,0,0,0,0.0
Status,1732153369000,26,21,6,4,1575420030,19.20,303.0,26.0,1,0,0,14.200001
Status,1732153369000,26,22,6,15,1575420030,0.00,53.0,23.0,0,0,0,0.0
Status,1732153369000,26,23,6,29,1575420030,17.00,189.0,16.0,1,0,0,12.0
Status,1732153369000,26,24,6,26,1575420030,0.00,164.0,14.0,0,0,0,0.0
Status,1732153369000,26,25,6,6,1575420030,0.00,322.0,10.0,0,0,0,0.0
Fix,GPS,37.4253700000,-122.1583766667,24.500000000000004,0.0,4.8,0.0,1732153370000,3.2,179.9,32254093000000,60.1,0,,,
Raw,1732153370000,34676000000,,704888.6883605324,-1416188553324999936,0.0,122.08122173979315,1213.8860248273245,0.0,0,30,0.0,16431,351787923804213,316,26.503999710083008,966.1863902473228,0.14999,16,0.0,0.0,1575420030,,,,0,12.117573273426524,1,6.0,26.503999710083008,0.0,0.0,0.0,66.7128,C,32254093000000,
Raw,1732153370000,34676000000,,704888.6883605324,-1416188553324999936,0.0,122.08122173979315,1213.8860248273245,0.0,0,15,0.0,16431,351787924202404,487,20.086000442504883,689.2121376110706,0.14999,16,0.0,0.0,1575420030,,,,0,0.0,1,6.0,20.086000442504883,0.0,0.0,0.0,66.7128,C,32254093000000,
Raw,1732153370000,34676000000,,704888.6883605324,-1416188553324999936,0.0,122.08122173979315,1213.8860248273245,0.0,0,13,0.0,16431,351787927276692,487,27.464000701904297,864.7782601786138,0.14999,16,0.0,0.0,1575420030,,,,0,13.364892342165444,1,6.0,27.464000701904297,0.0,0.0,0.0,66.7128,C,32254093000000,
Raw,1732153370000,34676000000,,704888.6883605324,-1416188553324999936,0.0,122.08122173979315,1213.8860248273245,0.0,0,6,0.0,16431,351787922340029,487,24.902999877929688,-279.9942819820183,0.14999,16,0.0,0.0,1575420030,,,,0,9.18846705115859,1,6.0,24.902999877929688,0.0,0.0,0.0,66.7128,C,32254093000000,
Raw,1732153370000,34676000000,,704888.6883605324,-1416188553324999936,0.0,122.08122173979315,1213.8860248273245,0.0,0,4,0.0,16431,351787913026562,487,14.199999809265137,223.67469526346358,0.14999,16,0.0,0.0,1575420030,,,,0,0.0,6,6.0,14.199999809265137,0.0,0.0,1.1875970532477975,66.7128,C,32254093000000,
Raw,1732153370000,34676000000,,704888.6883605324,-1416188553324999936,0.0,122.08122173979315,1213.8860248273245,0.0,0,12,0.0,16431,351787916509242,487,19.08300018310547,-180.6959215102622,0.14999,16,0.0,0.0,1575420030,,,,0,0.7224036010983799,1,6.0,19.08300018310547,0.0,0.0,0.0,66.7128,C,32254093000000,
Raw,1732153370000,34676000000,,704888.6883605324,-1416188553324999936,0.0,122.08122173979315,1213.8860248273245,0.0,0,29,0.0,16431,351787909995537,1797,12.0,937.6656614525059,0.14999,16,0.0,0.0,1575420030,,,,0,0.0,6,6.0,12.0,0.0,0.0,1.1875970532477975,66.7128,C,32254093000000,
Raw,1732153370000,34676000000,,704888.6883605324,-1416188553324999936,0.0,122.08122173979315,1213.8860248273245,0.0,0,24,0.0,16431,351787924369279,487,12.800000190734863,-214.29636707512327,0.14999,16,0.0,0.0,1575420030,,,,0,0.0,1,6.0,12.800000190734863,0.0,0.0,0.0,66.7128,C,32254093000000,
Fix,FLP,37.4253663000,-122.1583955000,3.117543003778416,0.67528385,4.828,0.0000000015742474,1732153370245,3.2,179.9,32254093000000,14.042465,0,,,
Fix,FLP,37.4253683000,-122.1583889000,2.471001112635074,0.5821377,4.814,0.0000000011869321,1732153370494,3.2,179.9,32254342000000,14.8024025,0,,,
Fix,NLP,37.4256882000,-122.1581322000,5.400000095367432,,24.426,,1732153370494,,,32254342000000,20.762314,0,,,
Status,1732153370000,26,0,1,19,1575420030,0.00,205.0,73.0,0,0,0,0.0
Status,1732153370000,26,1,1,17,1575420030,0.00,52.0,70.0,0,0,0,0.0
Status,1732153370000,26,2,1,22,1575420030,0.00,35.0,61.0,0,0,0,0.0
Status,1732153370000,26,3,1,14,1575420030,0.00,65.0,45.0,0,0,0,0.0
Status,1732153370000,26,4,2,138,1575420030,0.00,156.0,43.0,0,0,0,0.0
Status,1732153370000,26,5,1,13,1575420030,23.70,223.0,39.0,1,0,0,18.7
Status,1732153370000,26,6,1,15,1575420030,21.90,263.0,27.0,1,0,0,16.9
Status,1732153370000,26,7,1,30,1575420030,27.40,138.0,26.0,1,0,0,22.4
Status,1732153370000,26,8,1,24,1575420030,21.20,313.0,26.0,1,0,0,16.2
Status,1732153370000,26,9,1,6,1575420030,25.80,157.0,21.0,1,0,0,20.8
Status,1732153370000,26,10,1,2,1575420030,0.00,40.0,12.0,0,0,0,0.0
Status,1732153370000,26,11,1,12,1575420030,24.10,274.0,6.0,0,0,0,19.1
Status,1732153370000,26,12,3,20,1602000000,0.00,90.0,59.0,0,0,0,0.0
Status,1732153370000,26,13,3,11,1602000000,0.00,321.0,36.0,0,0,0,0.0
Status,1732153370000,26,14,3,9,1602000000,0.00,93.0,26.0,0,0,0,0.0
Status,1732153370000,26,15,3,19,1602000000,0.00,26.0,14.0,0,0,0,0.0
Status,1732153370000,26,16,3,8,1602000000,0.00,238.0,13.0,0,0,0,0.0
Status,1732153370000,26,17,6,21,1575420030,0.00,6.0,67.0,0,0,0,0.0
Status,1732153370000,26,18,6,19,1575420030,0.00,234.0,39.0,0,0,0,0.0
Status,1732153370000,26,19,6,13,1575420030,0.00,112.0,35.0,0,0,0,0.0
Status,1732153370000,26,20,6,27,1575420030,0.00,72.0,28.0,0,0,0,0.0
Status,1732153370000,26,21,6,4,1575420030,19.20,303.0,26.0,1,0,0,14.200001
Status,1732153370000,26,22,6,15,1575420030,0.00,53.0,23.0,0,0,0,0.0
Status,1732153370000,26,23,6,29,1575420030,17.00,189.0,16.0,1,0,0,12.0
Status,1732153370000,26,24,6,26,1575420030,0.00,164.0,14.0,0,0,0,0.0
Status,1732153370000,26,25,6,6,1575420030,0.00,322.0,10.0,0,0,0,0.0
Fix,GPS,37.4253783333,-122.1583700000,24.500000000000004,0.0,4.9,0.0,1732153371000,3.3,179.9,32255093000000,60.1,0,,,
Raw,1732153371000,35676000000,,704851.422996772,-1416188553324999936,0.0,122.03513374415687,1208.9155131821717,0.0,0,30,0.0,16431,351788923800992,396,22.39699935913086,965.0426769570519,0.14999,16,0.0,0.0,1575420030,,,,0,6.210728451845302,1,6.0,22.39699935913086,0.0,0.0,0.0,66.7128,C,32255093000000,
Raw,1732153371000,35676000000,,704851.422996772,-1416188553324999936,0.0,122.03513374415687,1208.9155131821717,0.0,0,15,0.0,16431,351788924200105,797,16.85300064086914,687.5540367365165,0.14999,16,0.0,0.0,1575420030,,,,0,0.0,1,6.0,16.85300064086914,0.0,0.0,0.0,66.7128,C,32255093000000,
Raw,1732153371000,35676000000,,704851.422996772,-1416188553324999936,0.0,122.03513374415687,1208.9155131821717,0.0,0,13,0.0,16431,351788927273814,487,18.735000610351562,861.8992321260467,0.14999,16,0.0,0.0,1575420030,,,,0,0.0,1,6.0,18.735000610351562,0.0,0.0,0.0,66.7128,C,32255093000000,
Raw,1732153371000,35676000000,,704851.422996772,-1416188553324999936,0.0,122.03513374415687,1208.9155131821717,0.0,0,6,0.0,16431,351788922340965,396,20.768999099731445,-281.18041180628956,0.14999,16,0.0,0.0,1575420030,,,,0,3.592744379991276,1,6.0,20.768999099731445,0.0,0.0,0.0,66.7128,C,32255093000000,
Raw,1732153371000,35676000000,,704851.422996772,-1416188553324999936,0.0,122.03513374415687,1208.9155131821717,0.0,0,4,0.0,16431,351788913025819,797,14.199999809265137,221.97162264201768,0.14999,16,0.0,0.0,1575420030,,,,0,0.0,6,6.0,14.199999809265137,0.0,0.0,-3.6344474881937305,66.7128,C,32255093000000,
Raw,1732153371000,35676000000,,704851.422996772,-1416188553324999936,0.0,122.03513374415687,1208.9155131821717,0.0,0,12,0.0,16431,351788916509849,487,19.083999633789062,-183.39650278616458,0.14999,16,0.0,0.0,1575420030,,,,0,0.7224036010983799,1,6.0,19.083999633789062,0.0,0.0,0.0,66.7128,C,32255093000000,
Raw,1732153371000,35676000000,,704851.422996772,-1416188553324999936,0.0,122.03513374415687,1208.9155131821717,0.0,0,29,0.0,16431,351788909992412,797,12.0,936.4248500723548,0.14999,16,0.0,0.0,1575420030,,,,0,0.0,6,6.0,12.0,0.0,0.0,-3.6344474881937305,66.7128,C,32255093000000,
Raw,1732153371000,35676000000,,704851.422996772,-1416188553324999936,0.0,122.03513374415687,1208.9155131821717,0.0,0,24,0.0,16431,351788924370003,797,16.1560001373291,-216.29589085040863,0.14999,16,0.0,0.0,1575420030,,,,0,0.0,1,6.0,16.1560001373291,0.0,0.0,0.0,66.7128,C,32255093000000,
Fix,FLP,37.4253745000,-122.1583816000,2.1446455511689013,0.5454445,4.814,0.0000000012078475,1732153371245,3.3,179.9,32255093000000,9.450125,0,,,
Status,1732153371000,26,0,1,19,1575420030,0.00,205.0,73.0,0,0,0,0.0
Status,1732153371000,26,1,1,17,1575420030,0.00,52.0,70.0,0,0,0,0.0
Status,1732153371000,26,2,1,22,1575420030,0.00,35.0,61.0,0,0,0,0.0
Status,1732153371000,26,3,1,14,1575420030,0.00,65.0,45.0,0,0,0,0.0
Status,1732153371000,26,4,2,138,1575420030,0.00,156.0,43.0,0,0,0,0.0
Status,1732153371000,26,5,1,13,1575420030,23.70,223.0,39.0,1,0,0,18.7
Status,1732153371000,26,6,1,15,1575420030,25.00,263.0,27.0,1,0,0,20.0
Status,1732153371000,26,7,1,30,1575420030,25.40,138.0,26.0,1,0,0,20.4
Status,1732153371000,26,8,1,24,1575420030,0.00,313.0,26.0,0,0,0,0.0
Status,1732153371000,26,9,1,6,1575420030,25.90,157.0,21.0,1,0,0,20.9
Status,1732153371000,26,10,1,2,1575420030,0.00,40.0,12.0,0,0,0,0.0
Status,1732153371000,26,11,1,12,1575420030,26.10,274.0,6.0,0,0,0,21.1
Status,1732153371000,26,12,3,20,1602000000,0.00,90.0,59.0,0,0,0,0.0
Status,1732153371000,26,13,3,11,1602000000,0.00,321.0,36.0,0,0,0,0.0
Status,1732153371000,26,14,3,9,1602000000,0.00,93.0,26.0,0,0,0,0.0
Status,1732153371000,26,15,3,19,1602000000,0.00,26.0,14.0,0,0,0,0.0
Status,1732153371000,26,16,3,8,1602000000,0.00,238.0,13.0,0,0,0,0.0
Status,1732153371000,26,17,6,21,1575420030,0.00,6.0,67.0,0,0,0,0.0
Status,1732153371000,26,18,6,19,1575420030,0.00,234.0,39.0,0,0,0,0.0
Status,1732153371000,26,19,6,13,1575420030,0.00,112.0,35.0,0,0,0,0.0
Status,1732153371000,26,20,6,27,1575420030,0.00,72.0,28.0,0,0,0,0.0
Status,1732153371000,26,21,6,4,1575420030,19.20,303.0,26.0,1,0,0,14.200001
Status,1732153371000,26,22,6,15,1575420030,0.00,53.0,23.0,0,0,0,0.0
Status,1732153371000,26,23,6,29,1575420030,17.00,189.0,16.0,1,0,0,12.0
Status,1732153371000,26,24,6,26,1575420030,0.00,164.0,14.0,0,0,0,0.0
Status,1732153371000,26,25,6,6,1575420030,0.00,322.0,10.0,0,0,0,0.0
Fix,GPS,37.4253800000,-122.1583683333,24.500000000000004,0.0,4.9,0.0,1732153372000,3.4,179.9,32256093000000,60.1,0,,,
Fix,FLP,37.4253793000,-122.1583759000,2.415476987693661,0.46293002,4.828,0.0000000009325386,1732153372245,3.4,179.9,32256093000000,12.572108,0,,,
Raw,1732153372000,36676000000,,704826.0929732929,-1416188553324999936,0.0,122.58696814359205,1201.8846044508066,0.0,0,30,0.0,16431,351789923797775,797,20.420000076293945,962.8006867075637,0.14999,16,0.0,0.0,1575420030,,,,0,2.959117419857419,1,6.0,20.420000076293945,0.0,0.0,0.0,66.7128,C,32256093000000,
Raw,1732153372000,36676000000,,704826.0929732929,-1416188553324999936,0.0,122.58696814359205,1201.8846044508066,0.0,0,15,0.0,16431,351789924197816,487,20.049999237060547,684.9389389464415,0.14999,16,0.0,0.0,1575420030,,,,0,2.3766049143730514,1,6.0,20.049999237060547,0.0,0.0,0.0,66.7128,C,32256093000000,
Raw,1732153372000,36676000000,,704826.0929732929,-1416188553324999936,0.0,122.58696814359205,1201.8846044508066,0.0,0,13,0.0,16431,351789927270941,797,18.735000610351562,860.6352844546228,0.14999,16,0.0,0.0,1575420030,,,,0,0.0,1,6.0,18.735000610351562,0.0,0.0,0.0,66.7128,C,32256093000000,
Raw,1732153372000,36676000000,,704826.0929732929,-1416188553324999936,0.0,122.58696814359205,1201.8846044508066,0.0,0,6,0.0,16431,351789922341906,487,20.85700035095215,-283.445631263883,0.14999,16,0.0,0.0,1575420030,,,,0,6.402336728402396,1,6.0,20.85700035095215,0.0,0.0,0.0,66.7128,C,32256093000000,
Raw,1732153372000,36676000000,,704826.0929732929,-1416188553324999936,0.0,122.58696814359205,1201.8846044508066,0.0,0,4,0.0,16431,351789913025081,797,14.199999809265137,219.93558255159084,0.14999,16,0.0,0.0,1575420030,,,,0,0.0,6,6.0,14.199999809265137,0.0,0.0,-7.409414937937102,66.7128,C,32256093000000,
Raw,1732153372000,36676000000,,704826.0929732929,-1416188553324999936,0.0,122.58696814359205,1201.8846044508066,0.0,0,12,0.0,17,510471,487,21.143999099731445,-185.19388599251786,0.14999,16,0.0,0.0,1575420030,,,,0,4.183274920571898,1,6.0,21.143999099731445,0.0,0.0,0.0,66.7128,C,32256093000000,
Raw,1732153372000,36676000000,,704826.0929732929,-1416188553324999936,0.0,122.58696814359205,1201.8846044508066,0.0,0,29,0.0,16431,351789909989291,797,12.0,934.4433057041429,0.14999,16,0.0,0.0,1575420030,,,,0,0.0,6,6.0,12.0,0.0,0.0,-7.409414937937102,66.7128,C,32256093000000,
Status,1732153372000,26,0,1,19,1575420030,0.00,205.0,73.0,0,0,0,0.0
Status,1732153372000,26,1,1,17,1575420030,0.00,52.0,70.0,0,0,0,0.0
Status,1732153372000,26,2,1,22,1575420030,0.00,35.0,61.0,0,0,0,0.0
Status,1732153372000,26,3,1,14,1575420030,0.00,65.0,45.0,0,0,0,0.0
Status,1732153372000,26,4,2,138,1575420030,0.00,156.0,43.0,0,0,0,0.0
Status,1732153372000,26,5,1,13,1575420030,23.70,223.0,39.0,1,0,0,18.7
Status,1732153372000,26,6,1,15,1575420030,25.10,263.0,27.0,1,0,0,20.1
Status,1732153372000,26,7,1,30,1575420030,25.40,138.0,26.0,1,0,0,20.4
Status,1732153372000,26,8,1,24,1575420030,0.00,313.0,26.0,0,0,0,0.0
Status,1732153372000,26,9,1,6,1575420030,25.90,157.0,21.0,1,0,0,20.9
Status,1732153372000,26,10,1,2,1575420030,0.00,40.0,12.0,0,0,0,0.0
Status,1732153372000,26,11,1,12,1575420030,0.00,274.0,6.0,0,0,0,0.0
Status,1732153372000,26,12,3,20,1602000000,0.00,90.0,59.0,0,0,0,0.0
Status,1732153372000,26,13,3,11,1602000000,0.00,321.0,36.0,0,0,0,0.0
Status,1732153372000,26,14,3,9,1602000000,0.00,93.0,26.0,0,0,0,0.0
Status,1732153372000,26,15,3,19,1602000000,0.00,26.0,14.0,0,0,0,0.0
Status,1732153372000,26,16,3,8,1602000000,0.00,238.0,13.0,0,0,0,0.0
Status,1732153372000,26,17,6,21,1575420030,0.00,6.0,67.0,0,0,0,0.0
Status,1732153372000,26,18,6,19,1575420030,0.00,234.0,39.0,0,0,0,0.0
Status,1732153372000,26,19,6,13,1575420030,0.00,112.0,35.0,0,0,0,0.0
Status,1732153372000,26,20,6,27,1575420030,0.00,72.0,28.0,0,0,0,0.0
Status,1732153372000,26,21,6,4,1575420030,19.20,303.0,26.0,1,0,0,14.200001
Status,1732153372000,26,22,6,15,1575420030,0.00,53.0,23.0,0,0,0,0.0
Status,1732153372000,26,23,6,29,1575420030,17.00,189.0,16.0,1,0,0,12.0
Status,1732153372000,26,24,6,26,1575420030,0.00,164.0,14.0,0,0,0,0.0
Status,1732153372000,26,25,6,6,1575420030,0.00,322.0,10.0,0,0,0,0.0
Fix,GPS,37.4253866667,-122.1583633333,24.500000000000004,0.0,5.0,0.0,1732153373000,3.5,179.9,32257093000000,60.2,0,,,
Raw,1732153373000,37676000000,,704805.4015755126,-1416188553324999936,0.0,123.34208852267527,1197.7368120400372,0.0,0,30,0.0,16431,351790923794564,797,20.420000076293945,961.9622052117959,0.14999,16,0.0,0.0,1575420030,,,,0,2.959117419857419,1,6.0,20.420000076293945,0.0,0.0,0.0,66.7128,C,32257093000000,
Raw,1732153373000,37676000000,,704805.4015755126,-1416188553324999936,0.0,123.34208852267527,1197.7368120400372,0.0,0,15,0.0,16431,351790924195532,487,20.06800079345703,684.5757270485075,0.14999,16,0.0,0.0,1575420030,,,,0,2.959117419857419,1,6.0,20.06800079345703,0.0,0.0,0.0,66.7128,C,32257093000000,
Raw,1732153373000,37676000000,,704805.4015755126,-1416188553324999936,0.0,123.34208852267527,1197.7368120400372,0.0,0,13,0.0,16431,351790927268070,797,18.735000610351562,859.9512307343389,0.14999,16,0.0,0.0,1575420030,,,,0,0.0,1,6.0,18.735000610351562,0.0,0.0,0.0,66.7128,C,32257093000000,
Raw,1732153373000,37676000000,,704805.4015755126,-1416188553324999936,0.0,123.34208852267527,1197.7368120400372,0.0,0,6,0.0,16431,351790922342854,797,20.888999938964844,-283.9455238223084,0.14999,16,0.0,0.0,1575420030,,,,0,4.7361999956595975,1,6.0,20.888999938964844,0.0,0.0,0.0,66.7128,C,32257093000000,
Raw,1732153373000,37676000000,,704805.4015755126,-1416188553324999936,0.0,123.34208852267527,1197.7368120400372,0.0,0,4,0.0,16431,351790913024349,797,14.199999809265137,218.61295790049303,0.14999,16,0.0,0.0,1575420030,,,,0,0.0,6,6.0,14.199999809265137,0.0,0.0,-11.019259361317184,66.7128,C,32257093000000,
Raw,1732153373000,37676000000,,704805.4015755126,-1416188553324999936,0.0,123.34208852267527,1197.7368120400372,0.0,0,29,0.0,16431,351790909986174,797,12.0,933.6026871212295,0.14999,16,0.0,0.0,1575420030,,,,0,0.0,6,6.0,12.0,0.0,0.0,-11.019259361317184,66.7128,C,32257093000000,
Fix,FLP,37.4253849000,-122.1583703000,2.4989458280982264,0.42476842,4.857,0.0000000009381873,1732153373245,3.5,179.9,32257093000000,10.480693,0,,,
Status,1732153373000,26,0,1,19,1575420030,0.00,205.0,73.0,0,0,0,0.0
Status,1732153373000,26,1,1,17,1575420030,0.00,52.0,70.0,0,0,0,0.0
Status,1732153373000,26,2,1,22,1575420030,0.00,35.0,61.0,0,0,0,0.0
Status,1732153373000,26,3,1,14,1575420030,0.00,65.0,45.0,0,0,0,0.0
Status,1732153373000,26,4,2,138,1575420030,0.00,156.0,43.0,0,0,0,0.0
Status,1732153373000,26,5,1,13,1575420030,23.50,223.0,39.0,1,0,0,18.5
Status,1732153373000,26,6,1,15,1575420030,25.10,263.0,27.0,1,0,0,20.1
Status,1732153373000,26,7,1,30,1575420030,25.40,138.0,26.0,1,0,0,20.4
Status,1732153373000,26,8,1,24,1575420030,0.00,313.0,26.0,0,0,0,0.0
Status,1732153373000,26,9,1,6,1575420030,25.90,157.0,21.0,1,0,0,20.9
Status,1732153373000,26,10,1,2,1575420030,0.00,40.0,12.0,0,0,0,0.0
Status,1732153373000,26,11,1,12,1575420030,0.00,274.0,6.0,0,0,0,0.0
Status,1732153373000,26,12,3,20,1602000000,0.00,90.0,59.0,0,0,0,0.0
Status,1732153373000,26,13,3,11,1602000000,0.00,321.0,36.0,0,0,0,0.0
Status,1732153373000,26,14,3,9,1602000000,0.00,93.0,26.0,0,0,0,0.0
Status,1732153373000,26,15,3,19,1602000000,0.00,26.0,14.0,0,0,0,0.0
Status,1732153373000,26,16,3,8,1602000000,0.00,238.0,13.0,0,0,0,0.0
Status,1732153373000,26,17,6,21,1575420030,0.00,6.0,67.0,0,0,0,0.0
Status,1732153373000,26,18,6,19,1575420030,0.00,234.0,39.0,0,0,0,0.0
Status,1732153373000,26,19,6,13,1575420030,0.00,112.0,35.0,0,0,0,0.0
Status,1732153373000,26,20,6,27,1575420030,0.00,72.0,28.0,0,0,0,0.0
Status,1732153373000,26,21,6,4,1575420030,18.10,303.0,26.0,1,0,0,13.1
Status,1732153373000,26,22,6,15,1575420030,0.00,53.0,23.0,0,0,0,0.0
Status,1732153373000,26,23,6,29,1575420030,17.10,189.0,16.0,1,0,0,12.1
Status,1732153373000,26,24,6,26,1575420030,0.00,164.0,14.0,0,0,0,0.0
Status,1732153373000,26,25,6,6,1575420030,0.00,322.0,10.0,0,0,0,0.0
Fix,GPS,37.4254000000,-122.1583566667,24.500000000000004,0.0,5.0,0.0,1732153374000,3.4,160.1,32258093000000,59.9,0,,,
Raw,1732153374000,38676000000,,704779.9673132538,-1416188553324999936,0.0,122.3362072021221,1193.5076826365714,0.0,0,30,0.0,16431,351791923791354,797,20.420000076293945,961.4950193783827,0.14999,16,0.0,0.0,1575420030,,,,0,2.959117419857419,1,6.0,20.420000076293945,0.0,0.0,0.0,66.7128,C,32258093000000,
Raw,1732153374000,38676000000,,704779.9673132538,-1416188553324999936,0.0,122.3362072021221,1193.5076826365714,0.0,0,15,0.0,16431,351791924193249,487,20.084999084472656,683.1552609728703,0.14999,16,0.0,0.0,1575420030,,,,0,2.959117419857419,1,6.0,20.084999084472656,0.0,0.0,0.0,66.7128,C,32258093000000,
Raw,1732153374000,38676000000,,704779.9673132538,-1416188553324999936,0.0,122.3362072021221,1193.5076826365714,0.0,0,13,0.0,16431,351791927265195,797,18.458999633789062,859.1170234128624,0.14999,16,0.0,0.0,1575420030,,,,0,0.0,1,6.0,18.458999633789062,0.0,0.0,0.0,66.7128,C,32258093000000,
Raw,1732153374000,38676000000,,704779.9673132538,-1416188553324999936,0.0,122.3362072021221,1193.5076826365714,0.0,0,6,0.0,16431,351791922343802,797,20.91900062561035,-285.06828436686845,0.14999,16,0.0,0.0,1575420030,,,,0,4.7361999956595975,1,6.0,20.91900062561035,0.0,0.0,0.0,66.7128,C,32258093000000,
Raw,1732153374000,38676000000,,704779.9673132538,-1416188553324999936,0.0,122.3362072021221,1193.5076826365714,0.0,0,4,0.0,16431,351791913023599,487,13.100000381469727,218.3096773594706,0.14999,16,0.0,0.0,1575420030,,,,0,0.0,6,6.0,13.100000381469727,0.0,0.0,-19.31228340657552,66.7128,C,32258093000000,
Raw,1732153374000,38676000000,,704779.9673132538,-1416188553324999936,0.0,122.3362072021221,1193.5076826365714,0.0,0,29,0.0,16431,351791909983052,1797,12.069999694824219,932.6927525813298,0.14999,16,0.0,0.0,1575420030,,,,0,0.0,6,6.0,12.069999694824219,0.0,0.0,-19.31228340657552,66.7128,C,32258093000000,
Fix,FLP,37.4253946000,-122.1583643000,2.7493572945049007,0.47878957,4.885,0.00000000070654116,1732153374245,3.4,160.1,32258093000000,10.529966,0,,,
Status,1732153374000,26,0,1,19,1575420030,0.00,205.0,73.0,0,0,0,0.0
Status,1732153374000,26,1,1,17,1575420030,0.00,52.0,70.0,0,0,0,0.0
Status,1732153374000,26,2,1,22,1575420030,0.00,35.0,61.0,0,0,0,0.0
Status,1732153374000,26,3,1,14,1575420030,0.00,65.0,45.0,0,0,0,0.0
Status,1732153374000,26,4,2,138,1575420030,0.00,156.0,43.0,0,0,0,0.0
Status,1732153374000,26,5,1,13,1575420030,23.40,223.0,39.0,1,0,0,18.4
Status,1732153374000,26,6,1,15,1575420030,25.10,263.0,27.0,1,0,0,20.1
Status,1732153374000,26,7,1,30,1575420030,20.90,138.0,26.0,1,0,0,15.9
Status,1732153374000,26,8,1,24,1575420030,0.00,313.0,26.0,0,0,0,0.0
Status,1732153374000,26,9,1,6,1575420030,22.00,157.0,21.0,1,0,0,17.0
Status,1732153374000,26,10,1,2,1575420030,0.00,40.0,12.0,0,0,0,0.0
Status,1732153374000,26,11,1,12,1575420030,0.00,274.0,6.0,0,0,0,0.0
Status,1732153374000,26,12,3,20,1602000000,0.00,90.0,59.0,0,0,0,0.0
Status,1732153374000,26,13,3,11,1602000000,0.00,321.0,36.0,0,0,0,0.0
Status,1732153374000,26,14,3,9,1602000000,0.00,93.0,26.0,0,0,0,0.0
Status,1732153374000,26,15,3,19,1602000000,0.00,26.0,14.0,0,0,0,0.0
Status,1732153374000,26,16,3,8,1602000000,0.00,238.0,13.0,0,0,0,0.0
Status,1732153374000,26,17,6,21,1575420030,0.00,6.0,67.0,0,0,0,0.0
Status,1732153374000,26,18,6,19,1575420030,0.00,234.0,39.0,0,0,0,0.0
Status,1732153374000,26,19,6,13,1575420030,0.00,112.0,35.0,0,0,0,0.0
Status,1732153374000,26,20,6,27,1575420030,0.00,72.0,28.0,0,0,0,0.0
Status,1732153374000,26,21,6,4,1575420030,18.10,303.0,26.0,1,0,0,13.1
Status,1732153374000,26,22,6,15,1575420030,0.00,53.0,23.0,0,0,0,0.0
Status,1732153374000,26,23,6,29,1575420030,17.10,189.0,16.0,1,0,0,12.1
Status,1732153374000,26,24,6,26,1575420030,0.00,164.0,14.0,0,0,0,0.0
Status,1732153374000,26,25,6,6,1575420030,0.00,322.0,10.0,0,0,0,0.0
Fix,GPS,37.4254083333,-122.1583516667,24.500000000000004,0.0,5.0,0.0,1732153375000,3.3,169.3,32259093000000,59.4,0,,,
Raw,1732153375000,39676000000,,704732.2259521285,-1416188553324999936,0.0,122.2610819878105,1184.92980921839,0.0,0,30,0.0,16431,351792923788151,797,15.937000274658203,959.2300786712866,0.14999,16,0.0,0.0,1575420030,,,,0,0.0,1,6.0,15.937000274658203,0.0,0.0,0.0,66.7128,C,32259093000000,
Raw,1732153375000,39676000000,,704732.2259521285,-1416188553324999936,0.0,122.2610819878105,1184.92980921839,0.0,0,15,0.0,16431,351792924190975,487,20.059999465942383,680.4137498322865,0.14999,16,0.0,0.0,1575420030,,,,0,1.5336758999818172,1,6.0,20.059999465942383,0.0,0.0,0.0,66.7128,C,32259093000000,
Raw,1732153375000,39676000000,,704732.2259521285,-1416188553324999936,0.0,122.2610819878105,1184.92980921839,0.0,0,13,0.0,16431,351792927262314,797,18.36400032043457,856.7052741105409,0.14999,16,0.0,0.0,1575420030,,,,0,0.0,1,6.0,18.36400032043457,0.0,0.0,0.0,66.7128,C,32259093000000,
Raw,1732153375000,39676000000,,704732.2259521285,-1416188553324999936,0.0,122.2610819878105,1184.92980921839,0.0,0,6,0.0,16431,351792922344743,797,17.0310001373291,-288.03288882209534,0.14999,16,0.0,0.0,1575420030,,,,0,0.0,1,6.0,17.0310001373291,0.0,0.0,0.0,66.7128,C,32259093000000,
Raw,1732153375000,39676000000,,704732.2259521285,-1416188553324999936,0.0,122.2610819878105,1184.92980921839,0.0,0,4,0.0,16431,351792913022872,396,13.100000381469727,216.83838577649908,0.14999,16,0.0,0.0,1575420030,,,,0,0.0,6,6.0,13.100000381469727,0.0,0.0,-25.518262692598032,66.7128,C,32259093000000,
Raw,1732153375000,39676000000,,704732.2259521285,-1416188553324999936,0.0,122.2610819878105,1184.92980921839,0.0,0,29,0.0,16431,351792909979944,1797,12.13599967956543,930.0170265581,0.14999,16,0.0,0.0,1575420030,,,,0,0.0,6,6.0,12.13599967956543,0.0,0.0,-25.518262692598032,66.7128,C,32259093000000,
Fix,FLP,37.4254036000,-122.1583586000,3.1662172244175038,0.49766642,4.914,0.00000000055244964,1732153375245,3.3,169.3,32259093000000,9.315521,0,,,
Fix,FLP,37.4254063000,-122.1583561000,3.249693478072483,0.4427917,4.966,0.0000000004358632,1732153375643,3.3,169.3,32259491000000,9.2482605,0,,,
Fix,NLP,37.4257003000,-122.1581156000,5.400000095367432,,20.416,,1732153375643,,,32259491000000,14.955883,0,,,
Status,1732153375000,26,0,1,19,1575420030,0.00,205.0,73.0,0,0,0,0.0
Status,1732153375000,26,1,1,17,1575420030,0.00,52.0,70.0,0,0,0,0.0
Status,1732153375000,26,2,1,22,1575420030,0.00,35.0,61.0,0,0,0,0.0
Status,1732153375000,26,3,1,14,1575420030,0.00,65.0,45.0,0,0,0,0.0
Status,1732153375000,26,4,2,138,1575420030,0.00,156.0,43.0,0,0,0,0.0
Status,1732153375000,26,5,1,13,1575420030,23.40,223.0,39.0,1,0,0,18.4
Status,1732153375000,26,6,1,15,1575420030,28.30,263.0,27.0,1,0,0,23.3
Status,1732153375000,26,7,1,30,1575420030,20.90,138.0,26.0,1,0,0,15.9
Status,1732153375000,26,8,1,24,1575420030,24.40,313.0,26.0,1,0,0,19.4
Status,1732153375000,26,9,1,6,1575420030,22.00,157.0,21.0,1,0,0,17.0
Status,1732153375000,26,10,1,2,1575420030,0.00,40.0,12.0,0,0,0,0.0
Status,1732153375000,26,11,1,12,1575420030,21.20,274.0,6.0,0,0,0,16.2
Status,1732153375000,26,12,3,20,1602000000,0.00,90.0,59.0,0,0,0,0.0
Status,1732153375000,26,13,3,11,1602000000,0.00,321.0,36.0,0,0,0,0.0
Status,1732153375000,26,14,3,9,1602000000,0.00,93.0,26.0,0,0,0,0.0
Status,1732153375000,26,15,3,19,1602000000,0.00,26.0,14.0,0,0,0,0.0
Status,1732153375000,26,16,3,8,1602000000,0.00,238.0,13.0,0,0,0,0.0
Status,1732153375000,26,17,6,21,1575420030,0.00,6.0,67.0,0,0,0,0.0
Status,1732153375000,26,18,6,19,1575420030,0.00,234.0,39.0,0,0,0,0.0
Status,1732153375000,26,19,6,13,1575420030,0.00,112.0,35.0,0,0,0,0.0
Status,1732153375000,26,20,6,27,1575420030,0.00,72.0,28.0,0,0,0,0.0
Status,1732153375000,26,21,6,4,1575420030,24.20,303.0,26.0,1,0,0,19.2
Status,1732153375000,26,22,6,15,1575420030,0.00,53.0,23.0,0,0,0,0.0
Status,1732153375000,26,23,6,29,1575420030,17.20,189.0,16.0,1,0,0,12.200001
Status,1732153375000,26,24,6,26,1575420030,0.00,164.0,14.0,0,0,0,0.0
Status,1732153375000,26,25,6,6,1575420030,0.00,322.0,10.0,0,0,0,0.0
Fix,GPS,37.4254016667,-122.1583516667,24.500000000000004,0.0,4.9,0.0,1732153376000,3.0,179.9,32260093000000,59.4,0,,,
Raw,1732153376000,40676000000,,704678.9078162867,-1416188553324999936,0.0,122.92887439504065,1179.0602062719383,0.0,0,30,0.0,16431,351793923784954,487,15.937000274658203,957.4073291696823,0.14999,16,0.0,0.0,1575420030,,,,0,0.0,1,6.0,15.937000274658203,0.0,0.0,0.0,66.7128,C,32260093000000,
Raw,1732153376000,40676000000,,704678.9078162867,-1416188553324999936,0.0,122.92887439504065,1179.0602062719383,0.0,0,15,0.0,16431,351793924188710,396,23.29800033569336,679.3200722562742,0.14999,16,0.0,0.0,1575420030,,,,0,7.581893927589154,1,6.0,23.29800033569336,0.0,0.0,0.0,66.7128,C,32260093000000,
Raw,1732153376000,40676000000,,704678.9078162867,-1416188553324999936,0.0,122.92887439504065,1179.0602062719383,0.0,0,13,0.0,16431,351793927259451,487,18.42300033569336,855.0828532996366,0.14999,16,0.0,0.0,1575420030,,,,0,1.4223168152029726,1,6.0,18.42300033569336,0.0,0.0,0.0,66.7128,C,32260093000000,
Raw,1732153376000,40676000000,,704678.9078162867,-1416188553324999936,0.0,122.92887439504065,1179.0602062719383,0.0,0,6,0.0,16431,351793922345706,797,17.0310001373291,-290.0095085981889,0.14999,16,0.0,0.0,1575420030,,,,0,0.0,1,6.0,17.0310001373291,0.0,0.0,0.0,66.7128,C,32260093000000,
Raw,1732153376000,40676000000,,704678.9078162867,-1416188553324999936,0.0,122.92887439504065,1179.0602062719383,0.0,0,4,0.0,16431,351793913022140,316,19.200000762939453,216.0964448696168,0.14999,16,0.0,0.0,1575420030,,,,0,2.959117419857419,6,6.0,19.200000762939453,0.0,0.0,-31.20815125290986,66.7128,C,32260093000000,
Raw,1732153376000,40676000000,,704678.9078162867,-1416188553324999936,0.0,122.92887439504065,1179.0602062719383,0.0,0,12,0.0,16431,351793916512946,797,16.1560001373291,-191.9210182013876,0.14999,16,0.0,0.0,1575420030,,,,0,0.0,1,6.0,16.1560001373291,0.0,0.0,0.0,66.7128,C,32260093000000,
Raw,1732153376000,40676000000,,704678.9078162867,-1416188553324999936,0.0,122.92887439504065,1179.0602062719383,0.0,0,29,0.0,16431,351793909976845,1797,12.199000358581543,927.890903598641,0.14999,16,0.0,0.0,1575420030,,,,0,0.0,6,6.0,12.199000358581543,0.0,0.0,-31.20815125290986,66.7128,C,32260093000000,
Raw,1732153376000,40676000000,,704678.9078162867,-1416188553324999936,0.0,122.92887439504065,1179.0602062719383,0.0,0,24,0.0,16431,351793924373680,487,19.42799949645996,-223.70949261720529,0.14999,16,0.0,0.0,1575420030,,,,0,1.3095114681491191,1,6.0,19.42799949645996,0.0,0.0,0.0,66.7128,C,32260093000000,
Fix,FLP,37.4254053000,-122.1583544000,3.499618165984607,0.2990072,4.957,0.0000000004578472,1732153376245,3.0,179.9,32260093000000,9.005001,0,,,
Status,1732153376000,26,0,1,19,1575420030,0.00,205.0,73.0,0,0,0,0.0
Status,1732153376000,26,1,1,17,1575420030,0.00,52.0,70.0,0,0,0,0.0
Status,1732153376000,26,2,1,22,1575420030,0.00,35.0,61.0,0,0,0,0.0
Status,1732153376000,26,3,1,14,1575420030,0.00,65.0,45.0,0,0,0,0.0
Status,1732153376000,26,4,1,13,1575420030,23.40,223.0,39.0,1,0,0,18.4
Status,1732153376000,26,5,1,15,1575420030,29.80,263.0,27.0,1,0,0,24.8
Status,1732153376000,26,6,1,30,1575420030,21.00,138.0,26.0,1,0,0,16.0
Status,1732153376000,26,7,1,24,1575420030,0.00,313.0,26.0,0,0,0,0.0
Status,1732153376000,26,8,2,131,1575420030,0.00,3.0,23.0,0,0,0,0.0
Status,1732153376000,26,9,1,6,1575420030,22.10,157.0,21.0,1,0,0,17.1
Status,1732153376000,26,10,1,2,1575420030,0.00,40.0,12.0,0,0,0,0.0
Status,1732153376000,26,11,1,12,1575420030,21.20,274.0,6.0,0,0,0,16.2
Status,1732153376000,26,12,3,20,1602000000,0.00,90.0,59.0,0,0,0,0.0
Status,1732153376000,26,13,3,11,1602000000,0.00,321.0,36.0,0,0,0,0.0
Status,1732153376000,26,14,3,9,1602000000,0.00,93.0,26.0,0,0,0,0.0
Status,1732153376000,26,15,3,19,1602000000,0.00,26.0,14.0,0,0,0,0.0
Status,1732153376000,26,16,3,8,1602000000,0.00,238.0,13.0,0,0,0,0.0
Status,1732153376000,26,17,6,21,1575420030,0.00,6.0,67.0,0,0,0,0.0
Status,1732153376000,26,18,6,19,1575420030,0.00,234.0,39.0,0,0,0,0.0
Status,1732153376000,26,19,6,13,1575420030,0.00,112.0,35.0,0,0,0,0.0
Status,1732153376000,26,20,6,27,1575420030,0.00,72.0,28.0,0,0,0,0.0
Status,1732153376000,26,21,6,4,1575420030,30.40,303.0,26.0,1,0,0,25.4
Status,1732153376000,26,22,6,15,1575420030,0.00,53.0,23.0,0,0,0,0.0
Status,1732153376000,26,23,6,29,1575420030,17.30,189.0,16.0,1,0,0,12.299999
Status,1732153376000,26,24,6,26,1575420030,0.00,164.0,14.0,0,0,0,0.0
Status,1732153376000,26,25,6,6,1575420030,0.00,322.0,10.0,0,0,0,0.0
Fix,GPS,37.4253866667,-122.1583583333,24.400000000000002,0.0,4.9,0.0,1732153377000,3.1,147.5,32261093000000,59.3,0,,,
Raw,1732153377000,41676000000,,704618.1366076928,-1416188553324999936,0.0,121.18820638315323,1178.465719831441,0.0,0,30,0.0,16431,351794923781769,487,16.033000946044922,956.876123638731,0.14999,16,0.0,0.0,1575420030,,,,0,0.0,1,6.0,16.033000946044922,0.0,0.0,0.0,66.7128,C,32261093000000,
Raw,1732153377000,41676000000,,704618.1366076928,-1416188553324999936,0.0,121.18820638315323,1178.465719831441,0.0,0,15,0.0,16431,351794924186444,487,24.802000045776367,680.1519566569401,0.14999,16,0.0,0.0,1575420030,,,,0,9.764783316090515,1,6.0,24.802000045776367,0.0,0.0,0.0,66.7128,C,32261093000000,
Raw,1732153377000,41676000000,,704618.1366076928,-1416188553324999936,0.0,121.18820638315323,1178.465719831441,0.0,0,13,0.0,16431,351794927256599,797,18.430999755859375,854.7371097661977,0.14999,16,0.0,0.0,1575420030,,,,0,0.0,1,6.0,18.430999755859375,0.0,0.0,0.0,66.7128,C,32261093000000,
Raw,1732153377000,41676000000,,704618.1366076928,-1416188553324999936,0.0,121.18820638315323,1178.465719831441,0.0,0,6,0.0,16431,351794922346654,797,17.083999633789062,-290.26326446753086,0.14999,16,0.0,0.0,1575420030,,,,0,0.0,1,6.0,17.083999633789062,0.0,0.0,0.0,66.7128,C,32261093000000,
Raw,1732153377000,41676000000,,704618.1366076928,-1416188553324999936,0.0,121.18820638315323,1178.465719831441,0.0,0,4,0.0,16431,351794913021416,235,25.399999618530273,216.79673580636634,0.14999,16,0.0,0.0,1575420030,,,,0,11.577693764264941,6,6.0,25.399999618530273,0.0,0.0,-36.552867478062836,66.7128,C,32261093000000,
Raw,1732153377000,41676000000,,704618.1366076928,-1416188553324999936,0.0,121.18820638315323,1178.465719831441,0.0,0,12,0.0,16431,351794916513585,797,16.1560001373291,-190.86018672563617,0.14999,16,0.0,0.0,1575420030,,,,0,0.0,1,6.0,16.1560001373291,0.0,0.0,0.0,66.7128,C,32261093000000,
Raw,1732153377000,41676000000,,704618.1366076928,-1416188553324999936,0.0,121.18820638315323,1178.465719831441,0.0,0,29,0.0,16431,351794909973751,1797,12.258999824523926,927.6527577571458,0.14999,16,0.0,0.0,1575420030,,,,0,0.0,6,6.0,12.258999824523926,0.0,0.0,-36.552867478062836,66.7128,C,32261093000000,
Fix,FLP,37.4253967000,-122.1583561000,3.7500592773873085,0.03324691,4.957,,1732153377245,3.1,,32261093000000,8.816478,0,,,
Status,1732153377000,26,0,1,19,1575420030,0.00,205.0,73.0,0,0,0,0.0
Status,1732153377000,26,1,1,17,1575420030,0.00,52.0,70.0,0,0,0,0.0
Status,1732153377000,26,2,1,22,1575420030,0.00,35.0,61.0,0,0,0,0.0
Status,1732153377000,26,3,1,14,1575420030,0.00,65.0,45.0,0,0,0,0.0
Status,1732153377000,26,4,1,13,1575420030,23.40,223.0,39.0,1,0,0,18.4
Status,1732153377000,26,5,1,15,1575420030,28.90,263.0,27.0,1,0,0,23.9
Status,1732153377000,26,6,1,30,1575420030,21.10,138.0,26.0,1,0,0,16.1
Status,1732153377000,26,7,1,24,1575420030,0.00,313.0,26.0,0,0,0,0.0
Status,1732153377000,26,8,2,131,1575420030,0.00,3.0,23.0,0,0,0,0.0
Status,1732153377000,26,9,1,6,1575420030,25.00,157.0,21.0,1,0,0,20.0
Status,1732153377000,26,10,1,2,1575420030,0.00,40.0,12.0,0,0,0,0.0
Status,1732153377000,26,11,1,12,1575420030,21.20,274.0,6.0,0,0,0,16.2
Status,1732153377000,26,12,3,20,1602000000,0.00,90.0,59.0,0,0,0,0.0
Status,1732153377000,26,13,3,11,1602000000,0.00,321.0,36.0,0,0,0,0.0
Status,1732153377000,26,14,3,9,1602000000,0.00,93.0,26.0,0,0,0,0.0
Status,1732153377000,26,15,3,19,1602000000,0.00,26.0,14.0,0,0,0,0.0
Status,1732153377000,26,16,3,8,1602000000,0.00,238.0,13.0,0,0,0,0.0
Status,1732153377000,26,17,6,21,1575420030,0.00,6.0,67.0,0,0,0,0.0
Status,1732153377000,26,18,6,19,1575420030,0.00,234.0,39.0,0,0,0,0.0
Status,1732153377000,26,19,6,13,1575420030,0.00,112.0,35.0,0,0,0,0.0
Status,1732153377000,26,20,6,27,1575420030,0.00,72.0,28.0,0,0,0,0.0
Status,1732153377000,26,21,6,4,1575420030,23.70,303.0,26.0,1,0,0,18.7
Status,1732153377000,26,22,6,15,1575420030,0.00,53.0,23.0,0,0,0,0.0
Status,1732153377000,26,23,6,29,1575420030,17.30,189.0,16.0,1,0,0,12.299999
Status,1732153377000,26,24,6,26,1575420030,0.00,164.0,14.0,0,0,0,0.0
Status,1732153377000,26,25,6,6,1575420030,0.00,322.0,10.0,0,0,0,0.0
Fix,GPS,37.4253750000,-122.1583550000,24.400000000000002,0.0,4.9,0.0,1732153378000,3.2,135.4,32262093000000,59.2,0,,,
Raw,1732153378000,42676000000,,704561.6913084585,-1416188553324999936,0.0,120.68802056855728,1180.2343394155605,0.0,0,30,0.0,16431,351795923778553,797,16.086999893188477,957.4195012747294,0.14999,16,0.0,0.0,1575420030,,,,0,0.0,1,6.0,16.086999893188477,0.0,0.0,0.0,66.7128,C,32262093000000,
Raw,1732153378000,42676000000,,704561.6913084585,-1416188553324999936,0.0,120.68802056855728,1180.2343394155605,0.0,0,15,0.0,16431,351795924184174,396,23.854000091552734,681.4981357250566,0.14999,16,0.0,0.0,1575420030,,,,0,8.372064753262627,1,6.0,23.854000091552734,0.0,0.0,0.0,66.7128,C,32262093000000,
Raw,1732153378000,42676000000,,704561.6913084585,-1416188553324999936,0.0,120.68802056855728,1180.2343394155605,0.0,0,13,0.0,16431,351795927253747,797,18.43899917602539,855.2741690575915,0.14999,16,0.0,0.0,1575420030,,,,0,0.0,1,6.0,18.43899917602539,0.0,0.0,0.0,66.7128,C,32262093000000,
Raw,1732153378000,42676000000,,704561.6913084585,-1416188553324999936,0.0,120.68802056855728,1180.2343394155605,0.0,0,6,0.0,16431,351795922347638,487,19.996000289916992,-288.77966140426355,0.14999,16,0.0,0.0,1575420030,,,,0,2.2756050596402195,1,6.0,19.996000289916992,0.0,0.0,0.0,66.7128,C,32262093000000,
Raw,1732153378000,42676000000,,704561.6913084585,-1416188553324999936,0.0,120.68802056855728,1180.2343394155605,0.0,0,4,0.0,16431,351795913020683,487,18.700000762939453,216.52922824582606,0.14999,16,0.0,0.0,1575420030,,,,0,2.0700122747488092,6,6.0,18.700000762939453,0.0,0.0,-43.615148460302436,66.7128,C,32262093000000,
Raw,1732153378000,42676000000,,704561.6913084585,-1416188553324999936,0.0,120.68802056855728,1180.2343394155605,0.0,0,12,0.0,16431,351795916514223,487,16.190000534057617,-189.05091016473298,0.14999,16,0.0,0.0,1575420030,,,,0,0.0,1,6.0,16.190000534057617,0.0,0.0,0.0,66.7128,C,32262093000000,
Raw,1732153378000,42676000000,,704561.6913084585,-1416188553324999936,0.0,120.68802056855728,1180.2343394155605,0.0,0,29,0.0,16431,351795909970793,1837,12.300999641418457,928.4216445454302,0.14999,16,0.0,0.0,1575420030,,,,0,0.0,6,6.0,12.300999641418457,0.0,0.0,-43.615148460302436,66.7128,C,32262093000000,
Fix,FLP,37.4253851000,-122.1583556000,5.400000095367432,0.19951971,4.957,180.0,1732153378245,3.2,135.4,32262093000000,9.655584,0,,,
Status,1732153378000,26,0,1,19,1575420030,0.00,205.0,73.0,0,0,0,0.0
Status,1732153378000,26,1,1,17,1575420030,0.00,52.0,70.0,0,0,0,0.0
Status,1732153378000,26,2,1,22,1575420030,0.00,35.0,61.0,0,0,0,0.0
Status,1732153378000,26,3,1,14,1575420030,0.00,65.0,45.0,0,0,0,0.0
Status,1732153378000,26,4,1,13,1575420030,23.40,223.0,39.0,1,0,0,18.4
Status,1732153378000,26,5,1,15,1575420030,31.90,263.0,27.0,1,0,0,26.9
Status,1732153378000,26,6,1,30,1575420030,21.10,138.0,26.0,1,0,0,16.1
Status,1732153378000,26,7,1,24,1575420030,22.90,313.0,26.0,1,0,0,17.9
Status,1732153378000,26,8,2,131,1575420030,0.00,3.0,23.0,0,0,0,0.0
Status,1732153378000,26,9,1,6,1575420030,25.00,157.0,21.0,1,0,0,20.0
Status,1732153378000,26,10,1,2,1575420030,0.00,40.0,12.0,0,0,0,0.0
Status,1732153378000,26,11,1,12,1575420030,21.20,274.0,6.0,0,0,0,16.2
Status,1732153378000,26,12,3,20,1602000000,0.00,90.0,59.0,0,0,0,0.0
Status,1732153378000,26,13,3,11,1602000000,0.00,321.0,36.0,0,0,0,0.0
Status,1732153378000,26,14,3,9,1602000000,0.00,93.0,26.0,0,0,0,0.0
Status,1732153378000,26,15,3,19,1602000000,0.00,26.0,14.0,0,0,0,0.0
Status,1732153378000,26,16,3,8,1602000000,0.00,238.0,13.0,0,0,0,0.0
Status,1732153378000,26,17,6,21,1575420030,0.00,6.0,67.0,0,0,0,0.0
Status,1732153378000,26,18,6,19,1575420030,0.00,234.0,39.0,0,0,0,0.0
Status,1732153378000,26,19,6,13,1575420030,0.00,112.0,35.0,0,0,0,0.0
Status,1732153378000,26,20,6,27,1575420030,0.00,72.0,28.0,0,0,0,0.0
Status,1732153378000,26,21,6,4,1575420030,23.70,303.0,26.0,1,0,0,18.7
Status,1732153378000,26,22,6,15,1575420030,0.00,53.0,23.0,0,0,0,0.0
Status,1732153378000,26,23,6,29,1575420030,17.30,189.0,16.0,1,0,0,12.299999
Status,1732153378000,26,24,6,26,1575420030,0.00,164.0,14.0,0,0,0,0.0
Status,1732153378000,26,25,6,6,1575420030,0.00,322.0,10.0,0,0,0,0.0
Fix,GPS,37.4253600000,-122.1583550000,24.400000000000002,0.0,4.9,0.0,1732153379000,3.1,105.6,32263093000000,59.2,0,,,
Raw,1732153379000,43676000000,,704510.6664257711,-1416188553324999936,0.0,120.6639204405244,1182.3740920128903,0.0,0,30,0.0,16431,351796923775359,797,16.13800048828125,957.9652018315385,0.14999,16,0.0,0.0,1575420030,,,,0,0.0,1,6.0,16.13800048828125,0.0,0.0,0.0,66.7128,C,32263093000000,
Raw,1732153379000,43676000000,,704510.6664257711,-1416188553324999936,0.0,120.6639204405244,1182.3740920128903,0.0,0,15,0.0,16431,351796924181894,316,26.860000610351562,682.2152678376825,0.14999,16,0.0,0.0,1575420030,,,,0,12.563919009525609,1,6.0,26.860000610351562,0.0,0.0,0.0,66.7128,C,32263093000000,
Raw,1732153379000,43676000000,,704510.6664257711,-1416188553324999936,0.0,120.6639204405244,1182.3740920128903,0.0,0,13,0.0,16431,351796927250892,797,18.445999145507812,856.667549876578,0.14999,16,0.0,0.0,1575420030,,,,0,0.0,1,6.0,18.445999145507812,0.0,0.0,0.0,66.7128,C,32263093000000,
Raw,1732153379000,43676000000,,704510.6664257711,-1416188553324999936,0.0,120.6639204405244,1182.3740920128903,0.0,0,6,0.0,16431,351796922348600,797,19.996000289916992,-288.22815354542826,0.14999,16,0.0,0.0,1575420030,,,,0,2.2756050596402195,1,6.0,19.996000289916992,0.0,0.0,0.0,66.7128,C,32263093000000,
Raw,1732153379000,43676000000,,704510.6664257711,-1416188553324999936,0.0,120.6639204405244,1182.3740920128903,0.0,0,4,0.0,16431,351796913019962,396,18.725000381469727,217.22673167760297,0.14999,16,0.0,0.0,1575420030,,,,0,2.959117419857419,6,6.0,18.725000381469727,0.0,0.0,-49.88787257820857,66.7128,C,32263093000000,
Raw,1732153379000,43676000000,,704510.6664257711,-1416188553324999936,0.0,120.6639204405244,1182.3740920128903,0.0,0,12,0.0,16431,351796916514853,396,16.222999572753906,-188.03365668338702,0.14999,16,0.0,0.0,1575420030,,,,0,0.0,1,6.0,16.222999572753906,0.0,0.0,0.0,66.7128,C,32263093000000,
Raw,1732153379000,43676000000,,704510.6664257711,-1416188553324999936,0.0,120.6639204405244,1182.3740920128903,0.0,0,29,0.0,16431,351796909967695,1837,12.34000015258789,928.8412569606438,0.14999,16,0.0,0.0,1575420030,,,,0,0.0,6,6.0,12.34000015258789,0.0,0.0,-49.88787257820857,66.7128,C,32263093000000,
Raw,1732153379000,43676000000,,704510.6664257711,-1416188553324999936,0.0,120.6639204405244,1182.3740920128903,0.0,0,24,0.0,16431,351796924375846,797,17.945999145507812,-220.6094154203085,0.14999,16,0.0,0.0,1575420030,,,,0,0.0,1,6.0,17.945999145507812,0.0,0.0,0.0,66.7128,C,32263093000000,
Fix,FLP,37.4253708000,-122.1583553000,5.400000095367432,0.4029324,4.942,180.0,1732153379245,3.1,105.6,32263093000000,9.859172,0,,,
Status,1732153379000,26,0,1,19,1575420030,0.00,205.0,73.0,0,0,0,0.0
Status,1732153379000,26,1,1,17,1575420030,0.00,52.0,70.0,0,0,0,0.0
Status,1732153379000,26,2,1,22,1575420030,0.00,35.0,61.0,0,0,0,0.0
Status,1732153379000,26,3,1,14,1575420030,0.00,65.0,45.0,0,0,0,0.0
Status,1732153379000,26,4,1,13,1575420030,26.40,223.0,39.0,1,0,0,21.4
Status,1732153379000,26,5,1,15,1575420030,29.50,263.0,27.0,1,0,0,24.5
Status,1732153379000,26,6,1,30,1575420030,21.20,138.0,26.0,1,0,0,16.2
Status,1732153379000,26,7,1,24,1575420030,27.80,313.0,26.0,1,0,0,22.8
Status,1732153379000,26,8,2,131,1575420030,0.00,3.0,23.0,0,0,0,0.0
Status,1732153379000,26,9,1,6,1575420030,25.00,157.0,21.0,1,0,0,20.0
Status,1732153379000,26,10,1,2,1575420030,0.00,40.0,12.0,0,0,0,0.0
Status,1732153379000,26,11,1,12,1575420030,26.30,274.0,6.0,0,0,0,21.3
Status,1732153379000,26,12,3,20,1602000000,0.00,90.0,59.0,0,0,0,0.0
Status,1732153379000,26,13,3,11,1602000000,0.00,321.0,36.0,0,0,0,0.0
Status,1732153379000,26,14,3,9,1602000000,0.00,93.0,26.0,0,0,0,0.0
Status,1732153379000,26,15,3,19,1602000000,0.00,26.0,14.0,0,0,0,0.0
Status,1732153379000,26,16,3,8,1602000000,0.00,238.0,13.0,0,0,0,0.0
Status,1732153379000,26,17,6,21,1575420030,0.00,6.0,67.0,0,0,0,0.0
Status,1732153379000,26,18,6,19,1575420030,0.00,234.0,39.0,0,0,0,0.0
Status,1732153379000,26,19,6,13,1575420030,0.00,112.0,35.0,0,0,0,0.0
Status,1732153379000,26,20,6,27,1575420030,0.00,72.0,28.0,0,0,0,0.0
Status,1732153379000,26,21,6,4,1575420030,29.80,303.0,26.0,1,0,0,24.8
Status,1732153379000,26,22,6,15,1575420030,0.00,53.0,23.0,0,0,0,0.0
Status,1732153379000,26,23,6,29,1575420030,17.40,189.0,16.0,1,0,0,12.4
Status,1732153379000,26,24,6,26,1575420030,0.00,164.0,14.0,0,0,0,0.0
Status,1732153379000,26,25,6,6,1575420030,0.00,322.0,10.0,0,0,0,0.0
Fix,GPS,37.4253550000,-122.1583533333,24.3,0.0,4.8,0.0,1732153380000,3.0,100.7,32264093000000,58.5,0,,,
Raw,1732153380000,44676000000,,704450.6770080253,-1416188553324999936,0.0,118.49624498590856,1188.5536990416238,0.0,0,30,0.0,16431,351797923772158,797,16.187000274658203,960.894869557775,0.14999,16,0.0,0.0,1575420030,,,,0,0.0,1,6.0,16.187000274658203,0.0,0.0,0.0,66.7128,C,32264093000000,
Raw,1732153380000,44676000000,,704450.6770080253,-1416188553324999936,0.0,118.49624498590856,1188.5536990416238,0.0,0,15,0.0,16431,351797924179616,396,24.45800018310547,684.1584375541045,0.14999,16,0.0,0.0,1575420030,,,,0,9.279658331169598,1,6.0,24.45800018310547,0.0,0.0,0.0,66.7128,C,32264093000000,
Raw,1732153380000,44676000000,,704450.6770080253,-1416188553324999936,0.0,118.49624498590856,1188.5536990416238,0.0,0,13,0.0,16431,351797927247984,487,21.3700008392334,858.6467713239794,0.14999,16,0.0,0.0,1575420030,,,,0,4.581780112760356,1,6.0,21.3700008392334,0.0,0.0,0.0,66.7128,C,32264093000000,
Raw,1732153380000,44676000000,,704450.6770080253,-1416188553324999936,0.0,118.49624498590856,1188.5536990416238,0.0,0,6,0.0,16431,351797922349558,487,19.996000289916992,-285.6927319391543,0.14999,16,0.0,0.0,1575420030,,,,0,2.2756050596402195,1,6.0,19.996000289916992,0.0,0.0,0.0,66.7128,C,32264093000000,
Raw,1732153380000,44676000000,,704450.6770080253,-1416188553324999936,0.0,118.49624498590856,1188.5536990416238,0.0,0,4,0.0,16431,351797913019228,316,24.799999237060547,218.91447302169942,0.14999,16,0.0,0.0,1575420030,,,,0,10.851936562542368,6,6.0,24.799999237060547,0.0,0.0,-49.88787257820857,66.7128,C,32264093000000,
Raw,1732153380000,44676000000,,704450.6770080253,-1416188553324999936,0.0,118.49624498590856,1188.5536990416238,0.0,0,12,0.0,17,515464,396,21.2810001373291,-184.69213509744407,0.14999,16,0.0,0.0,1575420030,,,,0,4.42456514859951,1,6.0,21.2810001373291,0.0,0.0,0.0,66.7128,C,32264093000000,
Raw,1732153380000,44676000000,,704450.6770080253,-1416188553324999936,0.0,118.49624498590856,1188.5536990416238,0.0,0,29,0.0,16431,351797909964595,1837,12.378000259399414,930.3052545722703,0.14999,16,0.0,0.0,1575420030,,,,0,0.0,6,6.0,12.378000259399414,0.0,0.0,-49.88787257820857,66.7128,C,32264093000000,
Raw,1732153380000,44676000000,,704450.6770080253,-1416188553324999936,0.0,118.49624498590856,1188.5536990416238,0.0,0,24,0.0,16431,351797924376593,396,22.808000564575195,-220.9383410070791,0.14999,16,0.0,0.0,1575420030,,,,0,6.833639706928101,1,6.0,22.808000564575195,0.0,0.0,0.0,66.7128,C,32264093000000,
Fix,FLP,37.4253609000,-122.1583544000,5.400000095367432,0.44547758,4.914,180.0,1732153380245,3.0,100.7,32264093000000,10.005716,0,,,
Fix,FLP,37.4253582000,-122.1583540000,5.400000095367432,0.40230182,4.885,180.0,1732153380527,3.0,100.7,32264375000000,9.758518,0,,,
Fix,NLP,37.4257037000,-122.1581164000,5.400000095367432,,20.923,,1732153380527,,,32264375000000,15.931636,0,,,
Status,1732153380000,26,0,1,19,1575420030,0.00,205.0,73.0,0,0,0,0.0
Status,1732153380000,26,1,1,17,1575420030,0.00,52.0,70.0,0,0,0,0.0
Status,1732153380000,26,2,1,22,1575420030,0.00,35.0,61.0,0,0,0,0.0
Status,1732153380000,26,3,1,14,1575420030,0.00,65.0,45.0,0,0,0,0.0
Status,1732153380000,26,4,1,13,1575420030,26.30,223.0,39.0,1,0,0,21.3
Status,1732153380000,26,5,1,15,1575420030,27.40,263.0,27.0,1,0,0,22.4
Status,1732153380000,26,6,1,30,1575420030,21.90,138.0,26.0,1,0,0,16.9
Status,1732153380000,26,7,1,24,1575420030,0.00,313.0,26.0,0,0,0,0.0
Status,1732153380000,26,8,2,131,1575420030,0.00,3.0,23.0,0,0,0,0.0
Status,1732153380000,26,9,1,6,1575420030,25.00,157.0,21.0,1,0,0,20.0
Status,1732153380000,26,10,1,2,1575420030,0.00,40.0,12.0,0,0,0,0.0
Status,1732153380000,26,11,1,12,1575420030,34.50,274.0,6.0,0,0,0,29.5
Status,1732153380000,26,12,3,20,1602000000,0.00,90.0,59.0,0,0,0,0.0
Status,1732153380000,26,13,3,11,1602000000,0.00,321.0,36.0,0,0,0,0.0
Status,1732153380000,26,14,3,9,1602000000,0.00,93.0,26.0,0,0,0,0.0
Status,1732153380000,26,15,3,19,1602000000,0.00,26.0,14.0,0,0,0,0.0
Status,1732153380000,26,16,3,8,1602000000,0.00,238.0,13.0,0,0,0,0.0
Status,1732153380000,26,17,6,21,1575420030,0.00,6.0,67.0,0,0,0,0.0
Status,1732153380000,26,18,6,19,1575420030,0.00,234.0,39.0,0,0,0,0.0
Status,1732153380000,26,19,6,13,1575420030,0.00,112.0,35.0,0,0,0,0.0
Status,1732153380000,26,20,6,27,1575420030,0.00,72.0,28.0,0,0,0,0.0
Status,1732153380000,26,21,6,4,1575420030,32.30,303.0,26.0,1,0,0,27.3
Status,1732153380000,26,22,6,15,1575420030,0.00,53.0,23.0,0,0,0,0.0
Status,1732153380000,26,23,6,29,1575420030,17.40,189.0,16.0,1,0,0,12.4
Status,1732153380000,26,24,6,26,1575420030,0.00,164.0,14.0,0,0,0,0.0
Status,1732153380000,26,25,6,6,1575420030,0.00,322.0,10.0,0,0,0,0.0
Fix,GPS,37.4253550000,-122.1583533333,24.3,0.0,4.9,0.0,1732153381000,3.2,96.1,32265093000000,58.6,0,,,
Raw,1732153381000,45676000000,,704421.2295527462,-1416188553324999936,0.0,118.8549729740306,1190.874605761168,0.0,0,30,0.0,16431,351798923768944,797,16.94300079345703,960.8396769593169,0.14999,16,0.0,0.0,1575420030,,,,0,0.0,1,6.0,16.94300079345703,0.0,0.0,0.0,66.7128,C,32265093000000,
Raw,1732153381000,45676000000,,704421.2295527462,-1416188553324999936,0.0,118.8549729740306,1190.874605761168,0.0,0,15,0.0,16431,351798924177332,487,22.434999465942383,684.9820523566849,0.14999,16,0.0,0.0,1575420030,,,,0,6.275068669285258,1,6.0,22.434999465942383,0.0,0.0,0.0,66.7128,C,32265093000000,
Raw,1732153381000,45676000000,,704421.2295527462,-1416188553324999936,0.0,118.8549729740306,1190.874605761168,0.0,0,13,0.0,16431,351798927245153,487,21.32200050354004,859.5085749446848,0.14999,16,0.0,0.0,1575420030,,,,0,2.959117419857419,1,6.0,21.32200050354004,0.0,0.0,0.0,66.7128,C,32265093000000,
Raw,1732153381000,45676000000,,704421.2295527462,-1416188553324999936,0.0,118.8549729740306,1190.874605761168,0.0,0,6,0.0,16431,351798922350483,487,19.996000289916992,-284.57392035997213,0.14999,16,0.0,0.0,1575420030,,,,0,2.2756050596402195,1,6.0,19.996000289916992,0.0,0.0,0.0,66.7128,C,32265093000000,
Raw,1732153381000,45676000000,,704421.2295527462,-1416188553324999936,0.0,118.8549729740306,1190.874605761168,0.0,0,4,0.0,16431,351798913018497,235,27.299999237060547,219.08432499136515,0.14999,16,0.0,0.0,1575420030,,,,0,13.887302623160982,6,6.0,27.299999237060547,0.0,0.0,-49.88787257820857,66.7128,C,32265093000000,
Raw,1732153381000,45676000000,,704421.2295527462,-1416188553324999936,0.0,118.8549729740306,1190.874605761168,0.0,0,12,0.0,17,516056,235,29.523000717163086,-186.95721517978885,0.14999,16,0.0,0.0,1575420030,,,,0,15.965793042848075,1,6.0,29.523000717163086,0.0,0.0,0.0,66.7128,C,32265093000000,
Raw,1732153381000,45676000000,,704421.2295527462,-1416188553324999936,0.0,118.8549729740306,1190.874605761168,0.0,0,29,0.0,16431,351798909961490,1837,12.413999557495117,931.0878001349206,0.14999,16,0.0,0.0,1575420030,,,,0,0.0,6,6.0,12.413999557495117,0.0,0.0,-49.88787257820857,66.7128,C,32265093000000,
Fix,FLP,37.4253556000,-122.1583537000,5.400000095367432,0.3417646,4.871,180.0,1732153381245,3.2,96.1,32265093000000,9.493142,0,,,
Status,1732153381000,26,0,1,19,1575420030,0.00,205.0,73.0,0,0,0,0.0
Status,1732153381000,26,1,1,17,1575420030,0.00,52.0,70.0,0,0,0,0.0
Status,1732153381000,26,2,1,22,1575420030,0.00,35.0,61.0,0,0,0,0.0
Status,1732153381000,26,3,1,14,1575420030,0.00,65.0,45.0,0,0,0,0.0
Status,1732153381000,26,4,1,13,1575420030,22.60,223.0,39.0,1,0,0,17.6
Status,1732153381000,26,5,1,15,1575420030,26.00,263.0,27.0,1,0,0,21.0
Status,1732153381000,26,6,1,30,1575420030,21.90,138.0,26.0,1,0,0,16.9
Status,1732153381000,26,7,1,24,1575420030,36.50,313.0,26.0,1,0,0,31.5
Status,1732153381000,26,8,2,131,1575420030,0.00,3.0,23.0,0,0,0,0.0
Status,1732153381000,26,9,1,6,1575420030,25.00,157.0,21.0,1,0,0,20.0
Status,1732153381000,26,10,1,2,1575420030,0.00,40.0,12.0,0,0,0,0.0
Status,1732153381000,26,11,1,12,1575420030,29.10,274.0,6.0,0,0,0,24.1
Status,1732153381000,26,12,3,20,1602000000,0.00,90.0,59.0,0,0,0,0.0
Status,1732153381000,26,13,3,11,1602000000,0.00,321.0,36.0,0,0,0,0.0
Status,1732153381000,26,14,3,9,1602000000,0.00,93.0,26.0,0,0,0,0.0
Status,1732153381000,26,15,3,19,1602000000,0.00,26.0,14.0,0,0,0,0.0
Status,1732153381000,26,16,3,8,1602000000,0.00,238.0,13.0,0,0,0,0.0
Status,1732153381000,26,17,6,21,1575420030,0.00,6.0,67.0,0,0,0,0.0
Status,1732153381000,26,18,6,19,1575420030,0.00,234.0,39.0,0,0,0,0.0
Status,1732153381000,26,19,6,13,1575420030,0.00,112.0,35.0,0,0,0,0.0
Status,1732153381000,26,20,6,27,1575420030,0.00,72.0,28.0,0,0,0,0.0
Status,1732153381000,26,21,6,4,1575420030,27.20,303.0,26.0,1,0,0,22.2
Status,1732153381000,26,22,6,15,1575420030,0.00,53.0,23.0,0,0,0,0.0
Status,1732153381000,26,23,6,29,1575420030,17.40,189.0,16.0,1,0,0,12.4
Status,1732153381000,26,24,6,26,1575420030,0.00,164.0,14.0,0,0,0,0.0
Status,1732153381000,26,25,6,6,1575420030,0.00,322.0,10.0,0,0,0,0.0
Fix,GPS,37.4253716667,-122.1583366667,24.2,0.0,4.9,0.0,1732153382000,3.3,102.5,32266093000000,58.5,0,,,
Raw,1732153382000,46676000000,,704391.7820974669,-1416188553324999936,0.0,118.68034247924531,1192.6827586079953,0.0,0,30,0.0,16431,351799923765736,797,16.94300079345703,961.7517485863622,0.14999,16,0.0,0.0,1575420030,,,,0,0.0,1,6.0,16.94300079345703,0.0,0.0,0.0,66.7128,C,32266093000000,
Raw,1732153382000,46676000000,,704391.7820974669,-1416188553324999936,0.0,118.68034247924531,1192.6827586079953,0.0,0,15,0.0,16431,351799924175051,487,21.049999237060547,685.6314480984757,0.14999,16,0.0,0.0,1575420030,,,,0,4.018608574018224,1,6.0,21.049999237060547,0.0,0.0,0.0,66.7128,C,32266093000000,
