# 
# Header Description:
# 
# Version: v3.1.0.3 Platform: 13 Manufacturer: samsung Model: SM-S135DL GNSS Hardware Model Name: MediaTek,MT6631,MTK_MNLD_default,MNL_VER_default
# 
# Raw,utcTimeMillis,TimeNanos,LeapSecond,TimeUncertaintyNanos,FullBiasNanos,BiasNanos,BiasUncertaintyNanos,DriftNanosPerSecond,DriftUncertaintyNanosPerSecond,HardwareClockDiscontinuityCount,Svid,TimeOffsetNanos,State,ReceivedSvTimeNanos,ReceivedSvTimeUncertaintyNanos,Cn0DbHz,PseudorangeRateMetersPerSecond,PseudorangeRateUncertaintyMetersPerSecond,AccumulatedDeltaRangeState,AccumulatedDeltaRangeMeters,AccumulatedDeltaRangeUncertaintyMeters,CarrierFrequencyHz,CarrierCycles,CarrierPhase,CarrierPhaseUncertainty,MultipathIndicator,SnrInDb,ConstellationType,AgcDb,BasebandCn0DbHz,FullInterSignalBiasNanos,FullInterSignalBiasUncertaintyNanos,SatelliteInterSignalBiasNanos,SatelliteInterSignalBiasUncertaintyNanos,CodeType,ChipsetElapsedRealtimeNanos,IsFullTracking
# 
# UncalAccel,utcTimeMillis,elapsedRealtimeNanos,UncalAccelXMps2,UncalAccelYMps2,UncalAccelZMps2,BiasXMps2,BiasYMps2,BiasZMps2
# 
# Accel,utcTimeMillis,elapsedRealtimeNanos,AccelXMps2,AccelYMps2,AccelZMps2
# 
# UncalGyro,utcTimeMillis,elapsedRealtimeNanos,UncalGyroXRadPerSec,UncalGyroYRadPerSec,UncalGyroZRadPerSec,DriftXRadPerSec,DriftYRadPerSec,DriftZRadPerSec
# 
# Gyro,utcTimeMillis,elapsedRealtimeNanos,GyroXRadPerSec,GyroYRadPerSec,GyroZRadPerSec
# 
# UncalMag,utcTimeMillis,elapsedRealtimeNanos,UncalMagXMicroT,UncalMagYMicroT,UncalMagZMicroT,BiasXMicroT,BiasYMicroT,BiasZMicroT
# 
# Mag,utcTimeMillis,elapsedRealtimeNanos,MagXMicroT,MagYMicroT,MagZMicroT
# 
# Pressure,utcTimeMillis,elapsedRealtimeNanos,PressureHpa
# 
# OrientationDeg,utcTimeMillis,elapsedRealtimeNanos,yawDeg,rollDeg,pitchDeg
# 
# Fix,Provider,LatitudeDegrees,LongitudeDegrees,AltitudeMeters,SpeedMps,AccuracyMeters,BearingDegrees,UnixTimeMillis,SpeedAccuracyMps,BearingAccuracyDegrees,elapsedRealtimeNanos,VerticalAccuracyMeters,MockLocation,NumberOfUsedSignals,VerticalSpeedAccuracyMps,SolutionType
# 
# Nav,Svid,Type,Status,MessageId,Sub-messageId,Data(Bytes)
# 
# Status,UnixTimeMillis,SignalCount,SignalIndex,ConstellationType,Svid,CarrierFrequencyHz,Cn0DbHz,AzimuthDegrees,ElevationDegrees,UsedInFix,HasAlmanacData,HasEphemerisData,BasebandCn0DbHz
# 
# Agc,utcTimeMillis,TimeNanos,LeapSecond,TimeUncertaintyNanos,FullBiasNanos,BiasNanos,BiasUncertaintyNanos,DriftNanosPerSecond,DriftUncertaintyNanosPerSecond,HardwareClockDiscontinuityCount,AgcDb,CarrierFrequencyHz,ConstellationType
# 
Fix,FLP,37.4254606000,-122.1582158000,3.0350568672142533,0.083514914,13.029,,1732151366242,2.2,,30250089000000,14.314561,0,,,
Status,,28,0,1,17,1575420030,0.00,107.0,80.0,0,0,0,0.0
Status,,28,1,1,22,1575420030,0.00,4.0,68.0,0,0,0,0.0
Status,,28,2,1,19,1575420030,0.00,199.0,56.0,0,0,0,0.0
Status,,28,3,1,14,1575420030,0.00,47.0,55.0,0,0,0,0.0
Status,,28,4,1,13,1575420030,23.00,240.0,50.0,1,0,0,18.0
Status,,28,5,2,133,1575420030,0.00,191.0,45.0,0,0,0,0.0
Status,,28,6,1,30,1575420030,28.90,128.0,40.0,1,0,0,23.9
Status,,28,7,1,15,1575420030,19.70,280.0,30.0,1,0,0,14.700001
Status,,28,8,1,2,1575420030,0.00,51.0,18.0,0,0,0,0.0
Status,,28,9,1,24,1575420030,0.00,313.0,13.0,0,0,0,0.0
Status,,28,10,1,6,1575420030,0.00,164.0,8.0,0,0,0,0.0
Status,,28,11,1,21,1575420030,0.00,36.0,7.0,0,0,0,0.0
Status,,28,12,1,7,1575420030,25.70,130.0,7.0,1,0,0,20.7
Status,,28,13,3,20,1602000000,0.00,120.0,49.0,0,0,0,0.0
Status,,28,14,3,9,1602000000,0.00,75.0,36.0,0,0,0,0.0
Status,,28,15,3,8,1602000000,24.30,251.0,26.0,1,0,0,19.3
Status,,28,16,3,19,1602000000,0.00,37.0,26.0,0,0,0,0.0
Status,,28,17,3,11,1602000000,23.70,306.0,25.0,0,0,0,18.7
Status,,28,18,3,17,1602000000,25.30,0.0,0.0,0,0,0,20.3
Status,,28,19,6,21,1575420030,0.00,335.0,68.0,0,0,0,0.0
Status,,28,20,6,19,1575420030,0.00,247.0,48.0,0,0,0,0.0
Status,,28,21,6,27,1575420030,0.00,61.0,36.0,0,0,0,0.0
Status,,28,22,6,29,1575420030,0.00,192.0,28.0,0,0,0,0.0
Status,,28,23,6,13,1575420030,0.00,123.0,26.0,0,0,0,0.0
Status,,28,24,6,15,1575420030,0.00,65.0,23.0,0,0,0,0.0
Status,,28,25,6,4,1575420030,0.00,314.0,21.0,0,0,0,0.0
Status,,28,26,6,26,1575420030,0.00,169.0,3.0,0,0,0,0.0
Status,,28,27,6,6,1575420030,0.00,329.0,2.0,0,0,0,0.0
Fix,GPS,37.4254700000,-122.1582100000,23.7,0.0,6.0,0.0,1732151367000,2.2,179.9,30251089000000,52.2,0,,,
Fix,FLP,37.4254651000,-122.1582130000,2.868156668109104,0.06260651,6.066,,1732151367241,2.2,,30251089000000,12.570197,0,,,
Raw,1732151367001,17434000000,,975904.1995312637,-1416186567567000064,0.0,166.3273135570954,1377.602236157588,0.0,0,7,0.0,16431,349784918962324,487,20.719999313354492,1029.733512775751,0.14999,16,0.0,0.0,1575420030,,,,0,3.5050073750290016,1,6.0,20.719999313354492,0.0,0.0,0.0,66.7128,C,30251089000000,
Raw,1732151367001,17434000000,,975904.1995312637,-1416186567567000064,0.0,166.3273135570954,1377.602236157588,0.0,0,13,0.0,16431,349784930310973,797,18.020000457763672,720.5825791978259,0.14999,16,0.0,0.0,1575420030,,,,0,0.0,1,6.0,18.020000457763672,0.0,0.0,0.0,66.7128,C,30251089000000,
Raw,1732151367001,17434000000,,975904.1995312637,-1416186567567000064,0.0,166.3273135570954,1377.602236157588,0.0,0,15,0.0,16431,349784925959105,797,14.699999809265137,517.4425968162526,0.14999,16,0.0,0.0,1575420030,,,,0,0.0,1,6.0,14.699999809265137,0.0,0.0,0.0,66.7128,C,30251089000000,
Raw,1732151367001,17434000000,,975904.1995312637,-1416186567567000064,0.0,166.3273135570954,1377.602236157588,0.0,0,30,0.0,16431,349784927706621,316,23.916000366210938,885.4382249506077,0.14999,16,0.0,0.0,1575420030,,,,0,8.472191390980742,1,6.0,23.916000366210938,0.0,0.0,0.0,66.7128,C,30251089000000,
Raw,1732151367001,17434000000,,975904.1995312637,-1416186567567000064,0.0,166.3273135570954,1377.602236157588,0.0,0,8,0.0,17,389284,487,5.0,946.9085601783219,0.14999,16,0.0,0.0,1605374980,,,,0,3.03240583822336,3,6.0,19.0,0.0,0.0,108.67631620913818,66.7128,C,30251089000000,
Raw,1732151367001,17434000000,,975904.1995312637,-1416186567567000064,0.0,166.3273135570954,1377.602236157588,0.0,0,11,0.0,17,25403,797,19.299999237060547,-62.24330966610097,0.14999,16,0.0,0.0,1602000000,,,,0,2.0556973736109563,3,6.0,19.299999237060547,0.0,0.0,108.67631620913818,66.7128,C,30251089000000,
Fix,NLP,37.4256401000,-122.1580289000,5.400000095367432,,87.6,,1732151367303,,,30251151000000,71.73421,0,,,
Status,1732151367000,28,0,1,17,1575420030,0.00,107.0,80.0,0,0,0,0.0
Status,1732151367000,28,1,1,22,1575420030,0.00,4.0,68.0,0,0,0,0.0
Status,1732151367000,28,2,1,19,1575420030,0.00,199.0,56.0,0,0,0,0.0
Status,1732151367000,28,3,1,14,1575420030,0.00,47.0,55.0,0,0,0,0.0
Status,1732151367000,28,4,1,13,1575420030,24.20,240.0,50.0,1,0,0,19.2
Status,1732151367000,28,5,2,133,1575420030,0.00,191.0,45.0,0,0,0,0.0
Status,1732151367000,28,6,1,30,1575420030,29.90,128.0,40.0,1,0,0,24.9
Status,1732151367000,28,7,1,15,1575420030,19.70,280.0,30.0,1,0,0,14.700001
Status,1732151367000,28,8,1,2,1575420030,0.00,51.0,18.0,0,0,0,0.0
Status,1732151367000,28,9,1,24,1575420030,0.00,313.0,13.0,0,0,0,0.0
Status,1732151367000,28,10,1,6,1575420030,0.00,164.0,8.0,0,0,0,0.0
Status,1732151367000,28,11,1,21,1575420030,0.00,36.0,7.0,0,0,0,0.0
Status,1732151367000,28,12,1,7,1575420030,31.50,130.0,7.0,1,0,0,26.5
Status,1732151367000,28,13,3,20,1602000000,0.00,120.0,49.0,0,0,0,0.0
Status,1732151367000,28,14,3,9,1602000000,0.00,75.0,36.0,0,0,0,0.0
Status,1732151367000,28,15,3,8,1602000000,23.70,251.0,26.0,1,0,0,18.7
Status,1732151367000,28,16,3,19,1602000000,0.00,37.0,26.0,0,0,0,0.0
Status,1732151367000,28,17,3,11,1602000000,21.30,306.0,25.0,0,0,0,16.3
Status,1732151367000,28,18,3,17,1602000000,30.20,0.0,0.0,0,0,0,25.2
Status,1732151367000,28,19,6,21,1575420030,0.00,335.0,68.0,0,0,0,0.0
Status,1732151367000,28,20,6,19,1575420030,0.00,247.0,48.0,0,0,0,0.0
Status,1732151367000,28,21,6,27,1575420030,0.00,61.0,36.0,0,0,0,0.0
Status,1732151367000,28,22,6,29,1575420030,0.00,192.0,28.0,0,0,0,0.0
Status,1732151367000,28,23,6,13,1575420030,0.00,123.0,26.0,0,0,0,0.0
Status,1732151367000,28,24,6,15,1575420030,0.00,65.0,23.0,0,0,0,0.0
Status,1732151367000,28,25,6,4,1575420030,0.00,314.0,21.0,0,0,0,0.0
Status,1732151367000,28,26,6,26,1575420030,0.00,169.0,3.0,0,0,0,0.0
Status,1732151367000,28,27,6,6,1575420030,0.00,329.0,2.0,0,0,0,0.0
Fix,GPS,37.4254666667,-122.1582033333,23.7,0.0,6.0,0.0,1732151368000,2.2,179.9,30252089000000,53.0,0,,,
Raw,1732151368001,18434000000,,698360.5784205552,-1416186567567000064,0.0,168.12008823439714,1376.87275586334,0.0,0,7,0.0,16431,349785918958894,316,26.549999237060547,1029.0201902532544,0.14999,16,0.0,0.0,1575420030,,,,0,12.150227032328587,1,6.0,26.549999237060547,0.0,0.0,0.0,66.7128,C,30252089000000,
Raw,1732151368001,18434000000,,698360.5784205552,-1416186567567000064,0.0,168.12008823439714,1376.87275586334,0.0,0,13,0.0,16431,349785930308568,487,19.24799919128418,720.2923070133425,0.14999,16,0.0,0.0,1575420030,,,,0,0.9620295467606645,1,6.0,19.24799919128418,0.0,0.0,0.0,66.7128,C,30252089000000,
Raw,1732151368001,18434000000,,698360.5784205552,-1416186567567000064,0.0,168.12008823439714,1376.87275586334,0.0,0,15,0.0,16431,349785925957378,797,14.699999809265137,516.9382907082872,0.14999,16,0.0,0.0,1575420030,,,,0,0.0,1,6.0,14.699999809265137,0.0,0.0,0.0,66.7128,C,30252089000000,
Raw,1732151368001,18434000000,,698360.5784205552,-1416186567567000064,0.0,168.12008823439714,1376.87275586334,0.0,0,30,0.0,16431,349785927703695,316,24.91200065612793,884.8481101479015,0.14999,16,0.0,0.0,1575420030,,,,0,9.934683884925164,1,6.0,24.91200065612793,0.0,0.0,0.0,66.7128,C,30252089000000,
Raw,1732151368001,18434000000,,698360.5784205552,-1416186567567000064,0.0,168.12008823439714,1376.87275586334,0.0,0,8,0.0,17,386149,487,5.0,945.167054544373,0.14999,16,0.0,0.0,1605374980,,,,0,2.1008829973962575,3,6.0,18.0,0.0,0.0,108.67631620913818,66.7128,C,30252089000000,
Raw,1732151368001,18434000000,,698360.5784205552,-1416186567567000064,0.0,168.12008823439714,1376.87275586334,0.0,0,11,0.0,17,25610,797,18.700000762939453,-62.093545748359595,0.14999,16,0.0,0.0,1602000000,,,,0,0.0,3,6.0,18.700000762939453,0.0,0.0,108.67631620913818,66.7128,C,30252089000000,
Fix,FLP,37.4254665000,-122.1582086000,2.700724124287852,0.051926117,6.0,,1732151368241,2.2,,30252089000000,21.211401,0,,,
Status,1732151368000,28,0,1,17,1575420030,0.00,107.0,80.0,0,0,0,0.0
Status,1732151368000,28,1,1,22,1575420030,0.00,4.0,68.0,0,0,0,0.0
Status,1732151368000,28,2,1,19,1575420030,0.00,199.0,56.0,0,0,0,0.0
Status,1732151368000,28,3,1,14,1575420030,0.00,47.0,55.0,0,0,0,0.0
Status,1732151368000,28,4,1,13,1575420030,27.40,240.0,50.0,1,0,0,22.4
Status,1732151368000,28,5,2,133,1575420030,0.00,191.0,45.0,0,0,0,0.0
Status,1732151368000,28,6,1,30,1575420030,29.80,128.0,40.0,1,0,0,24.8
Status,1732151368000,28,7,1,15,1575420030,24.70,280.0,30.0,1,0,0,19.7
Status,1732151368000,28,8,1,2,1575420030,19.70,51.0,18.0,1,0,0,14.700001
Status,1732151368000,28,9,1,24,1575420030,0.00,313.0,13.0,0,0,0,0.0
Status,1732151368000,28,10,1,6,1575420030,0.00,164.0,8.0,0,0,0,0.0
Status,1732151368000,28,11,1,21,1575420030,0.00,36.0,7.0,0,0,0,0.0
Status,1732151368000,28,12,1,7,1575420030,28.40,130.0,7.0,1,0,0,23.4
Status,1732151368000,28,13,3,20,1602000000,0.00,120.0,49.0,0,0,0,0.0
Status,1732151368000,28,14,3,9,1602000000,0.00,75.0,36.0,0,0,0,0.0
Status,1732151368000,28,15,3,8,1602000000,20.60,251.0,26.0,1,0,0,15.6
Status,1732151368000,28,16,3,19,1602000000,0.00,37.0,26.0,0,0,0,0.0
Status,1732151368000,28,17,3,11,1602000000,20.20,306.0,25.0,0,0,0,15.200001
Status,1732151368000,28,18,3,17,1602000000,25.20,0.0,0.0,0,0,0,20.2
Status,1732151368000,28,19,6,21,1575420030,0.00,335.0,68.0,0,0,0,0.0
Status,1732151368000,28,20,6,19,1575420030,0.00,247.0,48.0,0,0,0,0.0
Status,1732151368000,28,21,6,27,1575420030,0.00,61.0,36.0,0,0,0,0.0
Status,1732151368000,28,22,6,29,1575420030,0.00,192.0,28.0,0,0,0,0.0
Status,1732151368000,28,23,6,13,1575420030,0.00,123.0,26.0,0,0,0,0.0
Status,1732151368000,28,24,6,15,1575420030,0.00,65.0,23.0,0,0,0,0.0
Status,1732151368000,28,25,6,4,1575420030,0.00,314.0,21.0,0,0,0,0.0
Status,1732151368000,28,26,6,26,1575420030,0.00,169.0,3.0,0,0,0,0.0
Status,1732151368000,28,27,6,6,1575420030,0.00,329.0,2.0,0,0,0,0.0
Fix,GPS,37.4253250000,-122.1582800000,23.7,0.0,5.8,0.0,1732151369000,2.1,113.6,30253089000000,41.7,0,,,
Raw,1732151369001,19434000000,,698326.5965783569,-1416186567567000064,0.0,101.03445522896126,1371.0163834251111,0.0,0,7,0.0,16431,349786918955473,487,23.364999771118164,1026.839896780494,0.14999,16,0.0,0.0,1575420030,,,,0,7.691496512940766,1,6.0,23.364999771118164,0.0,0.0,0.0,66.7128,C,30253089000000,
Raw,1732151369001,19434000000,,698326.5965783569,-1416186567567000064,0.0,101.03445522896126,1371.0163834251111,0.0,0,13,0.0,16431,349786930306171,396,22.39699935913086,718.9930509455985,0.14999,16,0.0,0.0,1575420030,,,,0,6.210728451845302,1,6.0,22.39699935913086,0.0,0.0,0.0,66.7128,C,30253089000000,
Raw,1732151369001,19434000000,,698326.5965783569,-1416186567567000064,0.0,101.03445522896126,1371.0163834251111,0.0,0,15,0.0,16431,349786925955646,487,19.72100067138672,515.383002308807,0.14999,16,0.0,0.0,1575420030,,,,0,1.752200372434137,1,6.0,19.72100067138672,0.0,0.0,0.0,66.7128,C,30253089000000,
Raw,1732151369001,19434000000,,698326.5965783569,-1416186567567000064,0.0,101.03445522896126,1371.0163834251111,0.0,0,30,0.0,16431,349786927700748,396,24.829999923706055,883.3160974149428,0.14999,16,0.0,0.0,1575420030,,,,0,9.807571036301544,1,6.0,24.829999923706055,0.0,0.0,0.0,66.7128,C,30253089000000,
Raw,1732151369001,19434000000,,698326.5965783569,-1416186567567000064,0.0,101.03445522896126,1371.0163834251111,0.0,0,2,0.0,16431,349786920110991,797,14.699999809265137,694.822409494239,0.14999,16,0.0,0.0,1575420030,,,,0,0.0,1,6.0,14.699999809265137,0.0,0.0,0.0,66.7128,C,30253089000000,
Raw,1732151369001,19434000000,,698326.5965783569,-1416186567567000064,0.0,101.03445522896126,1371.0163834251111,0.0,0,8,0.0,17,383045,797,5.0,942.2547581706,0.14999,16,0.0,0.0,1605374980,,,,0,0.0,3,6.0,17.0,0.0,0.0,105.33416210011757,66.7128,C,30253089000000,
Raw,1732151369001,19434000000,,698326.5965783569,-1416186567567000064,0.0,101.03445522896126,1371.0163834251111,0.0,0,11,0.0,17,25822,487,15.600000381469727,-64.86550316666484,0.14999,16,0.0,0.0,1602000000,,,,0,0.0,3,6.0,15.600000381469727,0.0,0.0,105.33416210011757,66.7128,C,30253089000000,
Fix,FLP,37.4254039000,-122.1582389000,2.5129030568229336,0.26707512,5.96,180.0,1732151369241,2.1,113.6,30253089000000,18.747982,0,,,
Status,1732151369000,27,0,1,17,1575420030,0.00,107.0,80.0,0,0,0,0.0
Status,1732151369000,27,1,1,22,1575420030,0.00,4.0,68.0,0,0,0,0.0
Status,1732151369000,27,2,1,19,1575420030,0.00,199.0,56.0,0,0,0,0.0
Status,1732151369000,27,3,1,14,1575420030,0.00,47.0,55.0,0,0,0,0.0
Status,1732151369000,27,4,1,13,1575420030,27.40,240.0,50.0,1,0,0,22.4
Status,1732151369000,27,5,2,133,1575420030,0.00,191.0,45.0,0,0,0,0.0
Status,1732151369000,27,6,1,30,1575420030,29.70,128.0,40.0,1,0,0,24.7
Status,1732151369000,27,7,1,15,1575420030,24.10,280.0,30.0,1,0,0,19.1
Status,1732151369000,27,8,1,2,1575420030,19.70,51.0,18.0,1,0,0,14.700001
Status,1732151369000,27,9,1,24,1575420030,0.00,313.0,13.0,0,0,0,0.0
Status,1732151369000,27,10,1,6,1575420030,0.00,164.0,8.0,0,0,0,0.0
Status,1732151369000,27,11,1,21,1575420030,0.00,36.0,7.0,0,0,0,0.0
Status,1732151369000,27,12,1,7,1575420030,30.00,130.0,7.0,1,0,0,25.0
Status,1732151369000,27,13,3,20,1602000000,0.00,120.0,49.0,0,0,0,0.0
Status,1732151369000,27,14,3,9,1602000000,0.00,75.0,36.0,0,0,0,0.0
Status,1732151369000,27,15,3,8,1602000000,19.40,251.0,26.0,1,0,0,14.4
Status,1732151369000,27,16,3,19,1602000000,0.00,37.0,26.0,0,0,0,0.0
Status,1732151369000,27,17,3,11,1602000000,24.40,306.0,25.0,0,0,0,19.4
Status,1732151369000,27,18,6,21,1575420030,0.00,335.0,68.0,0,0,0,0.0
Status,1732151369000,27,19,6,19,1575420030,0.00,247.0,48.0,0,0,0,0.0
Status,1732151369000,27,20,6,27,1575420030,0.00,61.0,36.0,0,0,0,0.0
Status,1732151369000,27,21,6,29,1575420030,0.00,192.0,28.0,0,0,0,0.0
Status,1732151369000,27,22,6,13,1575420030,0.00,123.0,26.0,0,0,0,0.0
Status,1732151369000,27,23,6,15,1575420030,0.00,65.0,23.0,0,0,0,0.0
Status,1732151369000,27,24,6,4,1575420030,0.00,314.0,21.0,0,0,0,0.0
Status,1732151369000,27,25,6,26,1575420030,0.00,169.0,3.0,0,0,0,0.0
Status,1732151369000,27,26,6,6,1575420030,0.00,329.0,2.0,0,0,0,0.0
Fix,GPS,37.4252200000,-122.1583283333,23.7,0.0,5.7,0.0,1732151370000,2.0,78.5,30254089000000,42.2,0,,,
Raw,1732151370001,20434000000,,698308.3026725109,-1416186567567000064,0.0,100.02480746812418,1363.6834375623293,0.0,0,7,0.0,16431,349787918952049,316,24.993000030517578,1025.8728183886553,0.14999,16,0.0,0.0,1575420030,,,,0,10.018403951272294,1,6.0,24.993000030517578,0.0,0.0,0.0,66.7128,C,30254089000000,
Raw,1732151370001,20434000000,,698308.3026725109,-1416186567567000064,0.0,100.02480746812418,1363.6834375623293,0.0,0,13,0.0,16431,349787930303768,487,22.367000579833984,717.5089368397529,0.14999,16,0.0,0.0,1575420030,,,,0,5.25602370329451,1,6.0,22.367000579833984,0.0,0.0,0.0,66.7128,C,30254089000000,
Raw,1732151370001,20434000000,,698308.3026725109,-1416186567567000064,0.0,100.02480746812418,1363.6834375623293,0.0,0,15,0.0,16431,349787925953932,487,19.05699920654297,513.1740439932446,0.14999,16,0.0,0.0,1575420030,,,,0,0.6000651049047407,1,6.0,19.05699920654297,0.0,0.0,0.0,66.7128,C,30254089000000,
Raw,1732151370001,20434000000,,698308.3026725109,-1416186567567000064,0.0,100.02480746812418,1363.6834375623293,0.0,0,30,0.0,16431,349787927697803,487,24.70800018310547,880.8500846824874,0.14999,16,0.0,0.0,1575420030,,,,0,6.210728451845302,1,6.0,24.70800018310547,0.0,0.0,0.0,66.7128,C,30254089000000,
Raw,1732151370001,20434000000,,698308.3026725109,-1416186567567000064,0.0,100.02480746812418,1363.6834375623293,0.0,0,2,0.0,16431,349787920108674,797,14.699999809265137,693.3701658619137,0.14999,16,0.0,0.0,1575420030,,,,0,0.0,1,6.0,14.699999809265137,0.0,0.0,0.0,66.7128,C,30254089000000,
Raw,1732151370001,20434000000,,698308.3026725109,-1416186567567000064,0.0,100.02480746812418,1363.6834375623293,0.0,0,8,0.0,17,379887,797,5.0,942.7135914262694,0.14999,16,0.0,0.0,1605374980,,,,0,0.0,3,6.0,16.0,0.0,0.0,104.4310633931895,66.7128,C,30254089000000,
Raw,1732151370001,20434000000,,698308.3026725109,-1416186567567000064,0.0,100.02480746812418,1363.6834375623293,0.0,0,11,0.0,17,26049,487,14.399999618530273,-66.88507736429743,0.14999,16,0.0,0.0,1602000000,,,,0,3.329078970998501,3,6.0,14.399999618530273,0.0,0.0,104.4310633931895,66.7128,C,30254089000000,
Fix,FLP,37.4253192000,-122.1582779000,2.4304143889883063,0.54073524,5.916,180.0,1732151370241,2.0,78.5,30254089000000,15.238788,0,,,
Status,1732151370000,27,0,1,17,1575420030,0.00,107.0,80.0,0,0,0,0.0
Status,1732151370000,27,1,1,22,1575420030,0.00,4.0,68.0,0,0,0,0.0
Status,1732151370000,27,2,1,19,1575420030,23.20,199.0,56.0,1,0,0,18.2
Status,1732151370000,27,3,1,14,1575420030,0.00,47.0,55.0,0,0,0,0.0
Status,1732151370000,27,4,1,13,1575420030,27.30,240.0,50.0,1,0,0,22.3
Status,1732151370000,27,5,2,133,1575420030,0.00,191.0,45.0,0,0,0,0.0
Status,1732151370000,27,6,1,30,1575420030,24.20,128.0,40.0,1,0,0,19.2
Status,1732151370000,27,7,1,15,1575420030,25.90,280.0,30.0,1,0,0,20.9
Status,1732151370000,27,8,1,2,1575420030,19.70,51.0,18.0,1,0,0,14.700001
Status,1732151370000,27,9,1,24,1575420030,0.00,313.0,13.0,0,0,0,0.0
Status,1732151370000,27,10,1,6,1575420030,0.00,164.0,8.0,0,0,0,0.0
Status,1732151370000,27,11,1,21,1575420030,0.00,36.0,7.0,0,0,0,0.0
Status,1732151370000,27,12,1,7,1575420030,25.50,130.0,7.0,1,0,0,20.5
Status,1732151370000,27,13,3,20,1602000000,0.00,120.0,49.0,0,0,0,0.0
Status,1732151370000,27,14,3,9,1602000000,0.00,75.0,36.0,0,0,0,0.0
Status,1732151370000,27,15,3,8,1602000000,19.40,251.0,26.0,1,0,0,14.4
Status,1732151370000,27,16,3,19,1602000000,0.00,37.0,26.0,0,0,0,0.0
Status,1732151370000,27,17,3,11,1602000000,29.00,306.0,25.0,0,0,0,24.0
Status,1732151370000,27,18,6,21,1575420030,0.00,335.0,68.0,0,0,0,0.0
Status,1732151370000,27,19,6,19,1575420030,0.00,247.0,48.0,0,0,0,0.0
Status,1732151370000,27,20,6,27,1575420030,0.00,61.0,36.0,0,0,0,0.0
Status,1732151370000,27,21,6,29,1575420030,0.00,192.0,28.0,0,0,0,0.0
Status,1732151370000,27,22,6,13,1575420030,0.00,123.0,26.0,0,0,0,0.0
Status,1732151370000,27,23,6,15,1575420030,0.00,65.0,23.0,0,0,0,0.0
Status,1732151370000,27,24,6,4,1575420030,0.00,314.0,21.0,0,0,0,0.0
Status,1732151370000,27,25,6,26,1575420030,0.00,169.0,3.0,0,0,0,0.0
Status,1732151370000,27,26,6,6,1575420030,0.00,329.0,2.0,0,0,0,0.0
Fix,GPS,37.4251216667,-122.1583816667,23.7,0.0,5.7,0.0,1732151371000,2.0,58.3,30255089000000,41.4,0,,,
Raw,1732151371001,21434000000,,996684.3045130909,-1416186567567000064,0.0,98.25199746921929,1359.532526772372,0.0,0,7,0.0,16431,349788918948627,487,20.51799964904785,1025.767264867025,0.14999,16,0.0,0.0,1575420030,,,,0,3.1449189352620266,1,6.0,20.51799964904785,0.0,0.0,0.0,66.7128,C,30255089000000,
Raw,1732151371001,21434000000,,996684.3045130909,-1416186567567000064,0.0,98.25199746921929,1359.532526772372,0.0,0,13,0.0,16431,349788930301377,797,22.33799934387207,715.4405152332273,0.14999,16,0.0,0.0,1575420030,,,,0,5.25602370329451,1,6.0,22.33799934387207,0.0,0.0,0.0,66.7128,C,30255089000000,
Raw,1732151371001,21434000000,,996684.3045130909,-1416186567567000064,0.0,98.25199746921929,1359.532526772372,0.0,0,15,0.0,16431,349788925952207,487,20.910999298095703,512.4526377063273,0.14999,16,0.0,0.0,1575420030,,,,0,3.765603610061402,1,6.0,20.910999298095703,0.0,0.0,0.0,66.7128,C,30255089000000,
Raw,1732151371001,21434000000,,996684.3045130909,-1416186567567000064,0.0,98.25199746921929,1359.532526772372,0.0,0,30,0.0,16431,349788927694868,797,19.18600082397461,880.1405717501201,0.14999,16,0.0,0.0,1575420030,,,,0,0.843042896496641,1,6.0,19.18600082397461,0.0,0.0,0.0,66.7128,C,30255089000000,
Raw,1732151371001,21434000000,,996684.3045130909,-1416186567567000064,0.0,98.25199746921929,1359.532526772372,0.0,0,2,0.0,16431,349788920106362,797,14.699999809265137,692.9449784367549,0.14999,16,0.0,0.0,1575420030,,,,0,0.0,1,6.0,14.699999809265137,0.0,0.0,0.0,66.7128,C,30255089000000,
Raw,1732151371001,21434000000,,996684.3045130909,-1416186567567000064,0.0,98.25199746921929,1359.532526772372,0.0,0,8,0.0,17,376746,797,5.0,939.3863208580306,0.14999,16,0.0,0.0,1605374980,,,,0,0.0,3,6.0,17.0,0.0,0.0,104.3447623296718,66.7128,C,30255089000000,
Raw,1732151371001,21434000000,,996684.3045130909,-1416186567567000064,0.0,98.25199746921929,1359.532526772372,0.0,0,11,0.0,17,26276,316,14.399999618530273,-66.93049082806648,0.14999,16,0.0,0.0,1602000000,,,,0,9.8135121375168,3,6.0,14.399999618530273,0.0,0.0,104.3447623296718,66.7128,C,30255089000000,
Raw,1732151371001,21434000000,,996684.3045130909,-1416186567567000064,0.0,98.25199746921929,1359.532526772372,0.0,0,19,0.0,16431,349788930767157,797,18.173999786376953,-25.57600854172828,0.14999,16,0.0,0.0,1575420030,,,,0,0.0,1,6.0,18.173999786376953,0.0,0.0,0.0,66.7128,C,30255089000000,
Fix,FLP,37.4252273000,-122.1583232000,2.4304143889883063,0.8154919,5.885,180.0,1732151371241,2.0,58.3,30255089000000,15.24879,0,,,
Fix,FLP,37.4251769000,-122.1583482000,3.0218700909126683,0.9283565,5.842,180.0,1732151372173,2.0,58.3,30256021000000,29.721489,0,,,
Fix,NLP,37.4256770000,-122.1580155000,5.400000095367432,,25.629,,1732151372173,,,30256021000000,41.132576,0,,,
Status,1732151371000,28,0,1,17,1575420030,0.00,107.0,80.0,0,0,0,0.0
Status,1732151371000,28,1,1,22,1575420030,0.00,4.0,68.0,0,0,0,0.0
Status,1732151371000,28,2,1,19,1575420030,23.20,199.0,56.0,1,0,0,18.2
Status,1732151371000,28,3,1,14,1575420030,0.00,47.0,55.0,0,0,0,0.0
Status,1732151371000,28,4,1,13,1575420030,27.30,240.0,50.0,1,0,0,22.3
Status,1732151371000,28,5,2,133,1575420030,0.00,191.0,45.0,0,0,0,0.0
Status,1732151371000,28,6,1,30,1575420030,24.20,128.0,40.0,1,0,0,19.2
Status,1732151371000,28,7,1,15,1575420030,25.90,280.0,30.0,1,0,0,20.9
Status,1732151371000,28,8,1,2,1575420030,19.70,51.0,18.0,1,0,0,14.700001
Status,1732151371000,28,9,1,24,1575420030,0.00,313.0,13.0,0,0,0,0.0
Status,1732151371000,28,10,1,6,1575420030,0.00,164.0,8.0,0,0,0,0.0
Status,1732151371000,28,11,1,21,1575420030,0.00,36.0,7.0,0,0,0,0.0
Status,1732151371000,28,12,1,7,1575420030,31.50,130.0,7.0,1,0,0,26.5
Status,1732151371000,28,13,3,20,1602000000,0.00,120.0,49.0,0,0,0,0.0
Status,1732151371000,28,14,3,9,1602000000,0.00,75.0,36.0,0,0,0,0.0
Status,1732151371000,28,15,3,8,1602000000,19.50,251.0,26.0,1,0,0,14.5
Status,1732151371000,28,16,3,19,1602000000,0.00,37.0,26.0,0,0,0,0.0
Status,1732151371000,28,17,3,11,1602000000,24.50,306.0,25.0,0,0,0,19.5
Status,1732151371000,28,18,3,17,1602000000,23.30,0.0,0.0,0,0,0,18.3
Status,1732151371000,28,19,6,21,1575420030,0.00,335.0,68.0,0,0,0,0.0
Status,1732151371000,28,20,6,19,1575420030,0.00,247.0,48.0,0,0,0,0.0
Status,1732151371000,28,21,6,27,1575420030,0.00,61.0,36.0,0,0,0,0.0
Status,1732151371000,28,22,6,29,1575420030,0.00,192.0,28.0,0,0,0,0.0
Status,1732151371000,28,23,6,13,1575420030,0.00,123.0,26.0,0,0,0,0.0
Status,1732151371000,28,24,6,15,1575420030,0.00,65.0,23.0,0,0,0,0.0
Status,1732151371000,28,25,6,4,1575420030,0.00,314.0,21.0,0,0,0,0.0
Status,1732151371000,28,26,6,26,1575420030,0.00,169.0,3.0,0,0,0,0.0
Status,1732151371000,28,27,6,6,1575420030,0.00,329.0,2.0,0,0,0,0.0
Fix,GPS,37.4249916667,-122.1584450000,23.7,0.0,5.5,0.0,1732151372000,1.8,46.1,30256089000000,42.1,0,,,
Raw,1732151372001,22434000000,,705861.8094888831,-1416186567567000064,0.0,97.58387422601825,1359.2227302908707,0.0,0,7,0.0,16431,349789918945205,316,26.503999710083008,1025.316246562453,0.14999,16,0.0,0.0,1575420030,,,,0,12.117573273426524,1,6.0,26.503999710083008,0.0,0.0,0.0,66.7128,C,30256089000000,
Raw,1732151372001,22434000000,,705861.8094888831,-1416186567567000064,0.0,97.58387422601825,1359.2227302908707,0.0,0,13,0.0,16431,349789930298989,797,22.31100082397461,715.9949964307001,0.14999,16,0.0,0.0,1575420030,,,,0,5.25602370329451,1,6.0,22.31100082397461,0.0,0.0,0.0,66.7128,C,30256089000000,
Raw,1732151372001,22434000000,,705861.8094888831,-1416186567567000064,0.0,97.58387422601825,1359.2227302908707,0.0,0,15,0.0,16431,349789925950497,797,20.910999298095703,512.6539420237676,0.14999,16,0.0,0.0,1575420030,,,,0,3.765603610061402,1,6.0,20.910999298095703,0.0,0.0,0.0,66.7128,C,30256089000000,
Raw,1732151372001,22434000000,,705861.8094888831,-1416186567567000064,0.0,97.58387422601825,1359.2227302908707,0.0,0,30,0.0,16431,349789927691931,797,19.18600082397461,880.1903751722978,0.14999,16,0.0,0.0,1575420030,,,,0,0.843042896496641,1,6.0,19.18600082397461,0.0,0.0,0.0,66.7128,C,30256089000000,
Raw,1732151372001,22434000000,,705861.8094888831,-1416186567567000064,0.0,97.58387422601825,1359.2227302908707,0.0,0,2,0.0,16431,349789920104081,797,14.710000038146973,692.6924304862345,0.14999,16,0.0,0.0,1575420030,,,,0,0.0,1,6.0,14.710000038146973,0.0,0.0,0.0,66.7128,C,30256089000000,
Raw,1732151372001,22434000000,,705861.8094888831,-1416186567567000064,0.0,97.58387422601825,1359.2227302908707,0.0,0,8,0.0,17,373608,487,5.0,941.4107675874369,0.14999,16,0.0,0.0,1605374980,,,,0,0.0,3,6.0,18.0,0.0,0.0,104.64301944312312,66.7128,C,30256089000000,
Raw,1732151372001,22434000000,,705861.8094888831,-1416186567567000064,0.0,97.58387422601825,1359.2227302908707,0.0,0,11,0.0,17,26502,487,14.505000114440918,-67.4518775972137,0.14999,16,0.0,0.0,1602000000,,,,0,3.503891080253264,3,6.0,14.505000114440918,0.0,0.0,104.64301944312312,66.7128,C,30256089000000,
Raw,1732151372001,22434000000,,705861.8094888831,-1416186567567000064,0.0,97.58387422601825,1359.2227302908707,0.0,0,19,0.0,16431,349789930767240,797,18.173999786376953,-25.12559419656711,0.14999,16,0.0,0.0,1575420030,,,,0,0.0,1,6.0,18.173999786376953,0.0,0.0,0.0,66.7128,C,30256089000000,
Status,1732151372000,28,0,1,17,1575420030,0.00,107.0,80.0,0,0,0,0.0
Status,1732151372000,28,1,1,22,1575420030,0.00,4.0,68.0,0,0,0,0.0
Status,1732151372000,28,2,1,19,1575420030,16.60,199.0,56.0,1,0,0,11.6
Status,1732151372000,28,3,1,14,1575420030,0.00,47.0,55.0,0,0,0,0.0
Status,1732151372000,28,4,1,13,1575420030,18.40,240.0,50.0,1,0,0,13.4
Status,1732151372000,28,5,2,133,1575420030,0.00,191.0,45.0,0,0,0,0.0
Status,1732151372000,28,6,1,30,1575420030,24.20,128.0,40.0,1,0,0,19.2
Status,1732151372000,28,7,1,15,1575420030,25.90,280.0,30.0,1,0,0,20.9
Status,1732151372000,28,8,1,2,1575420030,19.70,51.0,18.0,1,0,0,14.700001
Status,1732151372000,28,9,1,24,1575420030,0.00,313.0,13.0,0,0,0,0.0
Status,1732151372000,28,10,1,6,1575420030,0.00,164.0,8.0,0,0,0,0.0
Status,1732151372000,28,11,1,21,1575420030,0.00,36.0,7.0,0,0,0,0.0
Status,1732151372000,28,12,1,7,1575420030,30.40,130.0,7.0,1,0,0,25.4
Status,1732151372000,28,13,3,20,1602000000,0.00,120.0,49.0,0,0,0,0.0
Status,1732151372000,28,14,3,9,1602000000,0.00,75.0,36.0,0,0,0,0.0
Status,1732151372000,28,15,3,8,1602000000,19.60,251.0,26.0,1,0,0,14.6
Status,1732151372000,28,16,3,19,1602000000,0.00,37.0,26.0,0,0,0,0.0
Status,1732151372000,28,17,3,11,1602000000,24.80,306.0,25.0,0,0,0,19.8
Status,1732151372000,28,18,3,17,1602000000,25.10,0.0,0.0,0,0,0,20.1
Status,1732151372000,28,19,6,21,1575420030,0.00,335.0,68.0,0,0,0,0.0
Status,1732151372000,28,20,6,19,1575420030,0.00,247.0,48.0,0,0,0,0.0
Status,1732151372000,28,21,6,27,1575420030,0.00,61.0,36.0,0,0,0,0.0
Status,1732151372000,28,22,6,29,1575420030,0.00,192.0,28.0,0,0,0,0.0
Status,1732151372000,28,23,6,13,1575420030,0.00,123.0,26.0,0,0,0,0.0
Status,1732151372000,28,24,6,15,1575420030,0.00,65.0,23.0,0,0,0,0.0
Status,1732151372000,28,25,6,4,1575420030,0.00,314.0,21.0,0,0,0,0.0
Status,1732151372000,28,26,6,26,1575420030,0.00,169.0,3.0,0,0,0,0.0
Status,1732151372000,28,27,6,6,1575420030,0.00,329.0,2.0,0,0,0,0.0
Fix,GPS,37.4249166667,-122.1584800000,23.7,0.0,5.3,0.0,1732151373000,1.7,50.1,30257089000000,42.3,0,,,
Raw,1732151373001,23434000000,,705803.4878916134,-1416186567567000064,0.0,96.93850868027593,1358.5965498750625,0.0,0,7,0.0,16431,349790918941786,316,25.39299964904785,1024.7100571477379,0.14999,16,0.0,0.0,1575420030,,,,0,10.582883071415775,1,6.0,25.39299964904785,0.0,0.0,0.0,66.7128,C,30257089000000,
Raw,1732151373001,23434000000,,705803.4878916134,-1416186567567000064,0.0,96.93850868027593,1358.5965498750625,0.0,0,13,0.0,16431,349790930296626,797,13.399999618530273,715.6837715005056,0.14999,16,0.0,0.0,1575420030,,,,0,0.0,1,6.0,13.399999618530273,0.0,0.0,0.0,66.7128,C,30257089000000,
Raw,1732151373001,23434000000,,705803.4878916134,-1416186567567000064,0.0,96.93850868027593,1358.5965498750625,0.0,0,15,0.0,16431,349790925948787,487,20.910999298095703,512.2004614231365,0.14999,16,0.0,0.0,1575420030,,,,0,3.765603610061402,1,6.0,20.910999298095703,0.0,0.0,0.0,66.7128,C,30257089000000,
Raw,1732151373001,23434000000,,705803.4878916134,-1416186567567000064,0.0,96.93850868027593,1358.5965498750625,0.0,0,30,0.0,16431,349790927688995,797,19.18600082397461,880.3739788331618,0.14999,16,0.0,0.0,1575420030,,,,0,0.843042896496641,1,6.0,19.18600082397461,0.0,0.0,0.0,66.7128,C,30257089000000,
Raw,1732151373001,23434000000,,705803.4878916134,-1416186567567000064,0.0,96.93850868027593,1358.5965498750625,0.0,0,2,0.0,16431,349790920101773,797,14.718999862670898,691.5531307455034,0.14999,16,0.0,0.0,1575420030,,,,0,0.0,1,6.0,14.718999862670898,0.0,0.0,0.0,66.7128,C,30257089000000,
Raw,1732151373001,23434000000,,705803.4878916134,-1416186567567000064,0.0,96.93850868027593,1358.5965498750625,0.0,0,8,0.0,17,370476,487,5.0,943.2672550845414,0.14999,16,0.0,0.0,1605374980,,,,0,0.0,3,6.0,20.0,0.0,0.0,104.20984186598156,66.7128,C,30257089000000,
Raw,1732151373001,23434000000,,705803.4878916134,-1416186567567000064,0.0,96.93850868027593,1358.5965498750625,0.0,0,11,0.0,17,26726,487,14.604000091552734,-67.18803176897805,0.14999,16,0.0,0.0,1602000000,,,,0,3.8871542659934493,3,6.0,14.604000091552734,0.0,0.0,104.20984186598156,66.7128,C,30257089000000,
Raw,1732151373001,23434000000,,705803.4878916134,-1416186567567000064,0.0,96.93850868027593,1358.5965498750625,0.0,0,19,0.0,16431,349790930767271,1797,11.600000381469727,-25.149984865077645,0.14999,16,0.0,0.0,1575420030,,,,0,0.0,1,6.0,11.600000381469727,0.0,0.0,0.0,66.7128,C,30257089000000,
Fix,FLP,37.4250230000,-122.1584225000,2.3545105505050774,1.2829577,5.671,180.0,1732151373241,1.7,50.1,30257089000000,14.495704,0,,,
Status,1732151373000,28,0,1,17,1575420030,0.00,107.0,80.0,0,0,0,0.0
Status,1732151373000,28,1,1,22,1575420030,0.00,4.0,68.0,0,0,0,0.0
Status,1732151373000,28,2,1,19,1575420030,16.60,199.0,56.0,1,0,0,11.6
Status,1732151373000,28,3,1,14,1575420030,0.00,47.0,55.0,0,0,0,0.0
Status,1732151373000,28,4,1,13,1575420030,18.40,240.0,50.0,1,0,0,13.4
Status,1732151373000,28,5,2,133,1575420030,0.00,191.0,45.0,0,0,0,0.0
Status,1732151373000,28,6,1,30,1575420030,19.50,128.0,40.0,1,0,0,14.5
Status,1732151373000,28,7,1,15,1575420030,25.90,280.0,30.0,1,0,0,20.9
Status,1732151373000,28,8,1,2,1575420030,17.00,51.0,18.0,1,0,0,12.0
Status,1732151373000,28,9,1,24,1575420030,0.00,313.0,13.0,0,0,0,0.0
Status,1732151373000,28,10,1,6,1575420030,0.00,164.0,8.0,0,0,0,0.0
Status,1732151373000,28,11,1,21,1575420030,0.00,36.0,7.0,0,0,0,0.0
Status,1732151373000,28,12,1,7,1575420030,29.00,130.0,7.0,1,0,0,24.0
Status,1732151373000,28,13,3,20,1602000000,0.00,120.0,49.0,0,0,0,0.0
Status,1732151373000,28,14,3,9,1602000000,0.00,75.0,36.0,0,0,0,0.0
Status,1732151373000,28,15,3,8,1602000000,24.40,251.0,26.0,1,0,0,19.4
Status,1732151373000,28,16,3,19,1602000000,0.00,37.0,26.0,0,0,0,0.0
Status,1732151373000,28,17,3,11,1602000000,28.90,306.0,25.0,0,0,0,23.9
Status,1732151373000,28,18,3,17,1602000000,24.70,0.0,0.0,0,0,0,19.7
Status,1732151373000,28,19,6,21,1575420030,0.00,335.0,68.0,0,0,0,0.0
Status,1732151373000,28,20,6,19,1575420030,0.00,247.0,48.0,0,0,0,0.0
Status,1732151373000,28,21,6,27,1575420030,0.00,61.0,36.0,0,0,0,0.0
Status,1732151373000,28,22,6,29,1575420030,0.00,192.0,28.0,0,0,0,0.0
Status,1732151373000,28,23,6,13,1575420030,0.00,123.0,26.0,0,0,0,0.0
Status,1732151373000,28,24,6,15,1575420030,0.00,65.0,23.0,0,0,0,0.0
Status,1732151373000,28,25,6,4,1575420030,0.00,314.0,21.0,0,0,0,0.0
Status,1732151373000,28,26,6,26,1575420030,0.00,169.0,3.0,0,0,0,0.0
Status,1732151373000,28,27,6,6,1575420030,0.00,329.0,2.0,0,0,0,0.0
Fix,GPS,37.4249150000,-122.1584816667,23.7,0.0,5.3,0.0,1732151374000,1.7,54.9,30258089000000,42.5,0,,,
Raw,1732151374001,24434000000,,705745.0620555638,-1416186567567000064,0.0,97.26668523893284,1356.5003127690316,0.0,0,7,0.0,16431,349791918938371,396,24.006999969482422,1024.4166257909521,0.14999,16,0.0,0.0,1575420030,,,,0,8.620249912899025,1,6.0,24.006999969482422,0.0,0.0,0.0,66.7128,C,30258089000000,
Raw,1732151374001,24434000000,,705745.0620555638,-1416186567567000064,0.0,97.26668523893284,1356.5003127690316,0.0,0,13,0.0,16431,349791930294241,1797,13.399999618530273,714.4726935067293,0.14999,16,0.0,0.0,1575420030,,,,0,0.0,1,6.0,13.399999618530273,0.0,0.0,0.0,66.7128,C,30258089000000,
Raw,1732151374001,24434000000,,705745.0620555638,-1416186567567000064,0.0,97.26668523893284,1356.5003127690316,0.0,0,15,0.0,16431,349791925947078,487,20.900999069213867,511.94489367556235,0.14999,16,0.0,0.0,1575420030,,,,0,3.5050073750290016,1,6.0,20.900999069213867,0.0,0.0,0.0,66.7128,C,30258089000000,
Raw,1732151374001,24434000000,,705745.0620555638,-1416186567567000064,0.0,97.26668523893284,1356.5003127690316,0.0,0,30,0.0,16431,349791927686047,797,14.5,880.3251045793083,0.14999,16,0.0,0.0,1575420030,,,,0,0.0,1,6.0,14.5,0.0,0.0,0.0,66.7128,C,30258089000000,
Raw,1732151374001,24434000000,,705745.0620555638,-1416186567567000064,0.0,97.26668523893284,1356.5003127690316,0.0,0,2,0.0,16431,349791920099467,1797,12.0,691.1973057357469,0.14999,16,0.0,0.0,1575420030,,,,0,0.0,1,6.0,12.0,0.0,0.0,0.0,66.7128,C,30258089000000,
Raw,1732151374001,24434000000,,705745.0620555638,-1416186567567000064,0.0,97.26668523893284,1356.5003127690316,0.0,0,8,0.0,17,367331,487,5.0,941.3566048382581,0.14999,16,0.0,0.0,1605374980,,,,0,3.2238821121618733,3,6.0,19.0,0.0,0.0,103.83127041401715,66.7128,C,30258089000000,
Raw,1732151374001,24434000000,,705745.0620555638,-1416186567567000064,0.0,97.26668523893284,1356.5003127690316,0.0,0,11,0.0,17,26956,316,19.399999618530273,-67.28333608026801,0.14999,16,0.0,0.0,1602000000,,,,0,9.750111201726668,3,6.0,19.399999618530273,0.0,0.0,103.83127041401715,66.7128,C,30258089000000,
Raw,1732151374001,24434000000,,705745.0620555638,-1416186567567000064,0.0,97.26668523893284,1356.5003127690316,0.0,0,19,0.0,16431,349791930767356,797,11.600000381469727,-26.09197571216252,0.14999,16,0.0,0.0,1575420030,,,,0,0.0,1,6.0,11.600000381469727,0.0,0.0,0.0,66.7128,C,30258089000000,
Fix,FLP,37.4249674000,-122.1584491000,2.62731909233497,1.3517102,5.571,180.0,1732151374242,1.7,54.9,30258089000000,16.18806,0,,,
Status,1732151374000,28,0,1,17,1575420030,0.00,107.0,80.0,0,0,0,0.0
Status,1732151374000,28,1,1,22,1575420030,0.00,4.0,68.0,0,0,0,0.0
Status,1732151374000,28,2,1,19,1575420030,16.60,199.0,56.0,1,0,0,11.6
Status,1732151374000,28,3,1,14,1575420030,0.00,47.0,55.0,0,0,0,0.0
Status,1732151374000,28,4,1,13,1575420030,21.00,240.0,50.0,1,0,0,16.0
Status,1732151374000,28,5,2,133,1575420030,0.00,191.0,45.0,0,0,0,0.0
Status,1732151374000,28,6,1,30,1575420030,19.50,128.0,40.0,1,0,0,14.5
Status,1732151374000,28,7,1,15,1575420030,25.90,280.0,30.0,1,0,0,20.9
Status,1732151374000,28,8,1,2,1575420030,17.00,51.0,18.0,1,0,0,12.0
Status,1732151374000,28,9,1,24,1575420030,0.00,313.0,13.0,0,0,0,0.0
Status,1732151374000,28,10,1,6,1575420030,0.00,164.0,8.0,0,0,0,0.0
Status,1732151374000,28,11,1,21,1575420030,0.00,36.0,7.0,0,0,0,0.0
Status,1732151374000,28,12,1,7,1575420030,26.10,130.0,7.0,1,0,0,21.1
Status,1732151374000,28,13,3,20,1602000000,0.00,120.0,49.0,0,0,0,0.0
Status,1732151374000,28,14,3,9,1602000000,0.00,75.0,36.0,0,0,0,0.0
Status,1732151374000,28,15,3,8,1602000000,21.60,251.0,26.0,1,0,0,16.6
Status,1732151374000,28,16,3,19,1602000000,0.00,37.0,26.0,0,0,0,0.0
Status,1732151374000,28,17,3,11,1602000000,25.90,306.0,25.0,0,0,0,20.9
Status,1732151374000,28,18,3,17,1602000000,26.50,0.0,0.0,0,0,0,21.5
Status,1732151374000,28,19,6,21,1575420030,0.00,335.0,68.0,0,0,0,0.0
Status,1732151374000,28,20,6,19,1575420030,0.00,247.0,48.0,0,0,0,0.0
Status,1732151374000,28,21,6,27,1575420030,0.00,61.0,36.0,0,0,0,0.0
Status,1732151374000,28,22,6,29,1575420030,0.00,192.0,28.0,0,0,0,0.0
Status,1732151374000,28,23,6,13,1575420030,0.00,123.0,26.0,0,0,0,0.0
Status,1732151374000,28,24,6,15,1575420030,0.00,65.0,23.0,0,0,0,0.0
Status,1732151374000,28,25,6,4,1575420030,0.00,314.0,21.0,0,0,0,0.0
Status,1732151374000,28,26,6,26,1575420030,0.00,169.0,3.0,0,0,0,0.0
Status,1732151374000,28,27,6,6,1575420030,0.00,329.0,2.0,0,0,0,0.0
Fix,GPS,37.4249016667,-122.1584816667,23.7,0.0,5.3,0.0,1732151375000,1.7,52.8,30259089000000,43.1,0,,,
Raw,1732151375001,25434000000,,705702.532633426,-1416186567567000064,0.0,98.18912591029084,1359.1621113477165,0.0,0,7,0.0,16431,349792918934951,487,21.143999099731445,1025.980230246934,0.14999,16,0.0,0.0,1575420030,,,,0,4.183274920571898,1,6.0,21.143999099731445,0.0,0.0,0.0,66.7128,C,30259089000000,
Raw,1732151375001,25434000000,,705702.532633426,-1416186567567000064,0.0,98.18912591029084,1359.1621113477165,0.0,0,13,0.0,16431,349792930291890,797,16.045000076293945,716.3461755988355,0.14999,16,0.0,0.0,1575420030,,,,0,0.0,1,6.0,16.045000076293945,0.0,0.0,0.0,66.7128,C,30259089000000,
Raw,1732151375001,25434000000,,705702.532633426,-1416186567567000064,0.0,98.18912591029084,1359.1621113477165,0.0,0,15,0.0,16431,349792925945338,487,20.922000885009766,513.767271509837,0.14999,16,0.0,0.0,1575420030,,,,0,4.5035283254993566,1,6.0,20.922000885009766,0.0,0.0,0.0,66.7128,C,30259089000000,
Raw,1732151375001,25434000000,,705702.532633426,-1416186567567000064,0.0,98.18912591029084,1359.1621113477165,0.0,0,30,0.0,16431,349792927683111,797,14.5,880.7733353789076,0.14999,16,0.0,0.0,1575420030,,,,0,0.0,1,6.0,14.5,0.0,0.0,0.0,66.7128,C,30259089000000,
Raw,1732151375001,25434000000,,705702.532633426,-1416186567567000064,0.0,98.18912591029084,1359.1621113477165,0.0,0,2,0.0,16431,349792920097161,1797,12.0,692.469244254759,0.14999,16,0.0,0.0,1575420030,,,,0,0.0,1,6.0,12.0,0.0,0.0,0.0,66.7128,C,30259089000000,
Raw,1732151375001,25434000000,,705702.532633426,-1416186567567000064,0.0,98.18912591029084,1359.1621113477165,0.0,0,8,0.0,17,364182,487,5.0,940.6553157743962,0.14999,16,0.0,0.0,1605374980,,,,0,0.0,3,6.0,18.0,0.0,0.0,104.43192593933512,66.7128,C,30259089000000,
Raw,1732151375001,25434000000,,705702.532633426,-1416186567567000064,0.0,98.18912591029084,1359.1621113477165,0.0,0,11,0.0,17,27181,396,16.600000381469727,-66.53744049727666,0.14999,16,0.0,0.0,1602000000,,,,0,5.584592353185018,3,6.0,16.600000381469727,0.0,0.0,104.43192593933512,66.7128,C,30259089000000,
Raw,1732151375001,25434000000,,705702.532633426,-1416186567567000064,0.0,98.18912591029084,1359.1621113477165,0.0,0,19,0.0,16431,349792930767445,797,11.600000381469727,-25.785907666167493,0.14999,16,0.0,0.0,1575420030,,,,0,0.0,1,6.0,11.600000381469727,0.0,0.0,0.0,66.7128,C,30259089000000,
Fix,FLP,37.4249307000,-122.1584639000,2.877169174130427,1.3561673,5.5,180.0,1732151375241,1.7,52.8,30259089000000,16.26955,0,,,
Status,1732151375000,28,0,1,17,1575420030,0.00,107.0,80.0,0,0,0,0.0
Status,1732151375000,28,1,1,22,1575420030,0.00,4.0,68.0,0,0,0,0.0
Status,1732151375000,28,2,1,19,1575420030,16.60,199.0,56.0,1,0,0,11.6
Status,1732151375000,28,3,1,14,1575420030,0.00,47.0,55.0,0,0,0,0.0
Status,1732151375000,28,4,1,13,1575420030,21.00,240.0,50.0,1,0,0,16.0
Status,1732151375000,28,5,2,135,1575420030,0.00,197.0,45.0,0,0,0,0.0
Status,1732151375000,28,6,1,30,1575420030,19.50,128.0,40.0,1,0,0,14.5
Status,1732151375000,28,7,1,15,1575420030,25.90,280.0,30.0,1,0,0,20.9
Status,1732151375000,28,8,1,2,1575420030,17.00,51.0,18.0,1,0,0,12.0
Status,1732151375000,28,9,1,24,1575420030,0.00,313.0,13.0,0,0,0,0.0
Status,1732151375000,28,10,1,6,1575420030,0.00,164.0,8.0,0,0,0,0.0
Status,1732151375000,28,11,1,21,1575420030,0.00,36.0,7.0,0,0,0,0.0
Status,1732151375000,28,12,1,7,1575420030,24.70,130.0,7.0,1,0,0,19.7
Status,1732151375000,28,13,3,20,1602000000,0.00,120.0,49.0,0,0,0,0.0
Status,1732151375000,28,14,3,9,1602000000,0.00,75.0,36.0,0,0,0,0.0
Status,1732151375000,28,15,3,8,1602000000,21.60,251.0,26.0,1,0,0,16.6
Status,1732151375000,28,16,3,19,1602000000,0.00,37.0,26.0,0,0,0,0.0
Status,1732151375000,28,17,3,11,1602000000,32.20,306.0,25.0,0,0,0,27.2
Status,1732151375000,28,18,3,17,1602000000,30.60,0.0,0.0,0,0,0,25.6
Status,1732151375000,28,19,6,21,1575420030,0.00,335.0,68.0,0,0,0,0.0
Status,1732151375000,28,20,6,19,1575420030,0.00,247.0,48.0,0,0,0,0.0
Status,1732151375000,28,21,6,27,1575420030,0.00,61.0,36.0,0,0,0,0.0
Status,1732151375000,28,22,6,29,1575420030,0.00,192.0,28.0,0,0,0,0.0
Status,1732151375000,28,23,6,13,1575420030,0.00,123.0,26.0,0,0,0,0.0
Status,1732151375000,28,24,6,15,1575420030,0.00,65.0,23.0,0,0,0,0.0
Status,1732151375000,28,25,6,4,1575420030,0.00,314.0,21.0,0,0,0,0.0
Status,1732151375000,28,26,6,26,1575420030,0.00,169.0,3.0,0,0,0,0.0
Status,1732151375000,28,27,6,6,1575420030,0.00,329.0,2.0,0,0,0,0.0
Fix,GPS,37.4248966667,-122.1584750000,23.7,0.0,5.2,0.0,1732151376000,1.7,58.3,30260089000000,43.7,0,,,
Fix,FLP,37.4249086000,-122.1584691000,3.2639305643472776,1.3166786,5.428,180.0,1732151376241,1.7,58.3,30260089000000,13.266679,0,,,
Raw,1732151376001,26434000000,,705660.2638082376,-1416186567567000064,0.0,99.38287116446467,1360.9109106350209,0.0,0,7,0.0,16431,349793918931526,487,19.72100067138672,1026.534293318661,0.14999,16,0.0,0.0,1575420030,,,,0,1.752200372434137,1,6.0,19.72100067138672,0.0,0.0,0.0,66.7128,C,30260089000000,
Raw,1732151376001,26434000000,,705660.2638082376,-1416186567567000064,0.0,99.38287116446467,1360.9109106350209,0.0,0,13,0.0,16431,349793930289499,797,16.045000076293945,717.2826378943913,0.14999,16,0.0,0.0,1575420030,,,,0,0.0,1,6.0,16.045000076293945,0.0,0.0,0.0,66.7128,C,30260089000000,
Raw,1732151376001,26434000000,,705660.2638082376,-1416186567567000064,0.0,99.38287116446467,1360.9109106350209,0.0,0,15,0.0,16431,349793925943627,797,20.875,513.532935258471,0.14999,16,0.0,0.0,1575420030,,,,0,2.2756050596402195,1,6.0,20.875,0.0,0.0,0.0,66.7128,C,30260089000000,
Raw,1732151376001,26434000000,,705660.2638082376,-1416186567567000064,0.0,99.38287116446467,1360.9109106350209,0.0,0,30,0.0,16431,349793927680177,797,14.479999542236328,881.1364543600091,0.14999,16,0.0,0.0,1575420030,,,,0,0.0,1,6.0,14.479999542236328,0.0,0.0,0.0,66.7128,C,30260089000000,
Raw,1732151376001,26434000000,,705660.2638082376,-1416186567567000064,0.0,99.38287116446467,1360.9109106350209,0.0,0,2,0.0,16431,349793920094850,1797,12.0,692.9994741589699,0.14999,16,0.0,0.0,1575420030,,,,0,0.0,1,6.0,12.0,0.0,0.0,0.0,66.7128,C,30260089000000,
Raw,1732151376001,26434000000,,705660.2638082376,-1416186567567000064,0.0,99.38287116446467,1360.9109106350209,0.0,0,8,0.0,17,361038,487,5.0,944.316407596412,0.14999,16,0.0,0.0,1605374980,,,,0,0.0,3,6.0,20.0,0.0,0.0,104.2643631007307,66.7128,C,30260089000000,
Raw,1732151376001,26434000000,,705660.2638082376,-1416186567567000064,0.0,99.38287116446467,1360.9109106350209,0.0,0,11,0.0,17,27402,235,16.600000381469727,-65.99448918597756,0.14999,16,0.0,0.0,1602000000,,,,0,13.747082556963495,3,6.0,16.600000381469727,0.0,0.0,104.2643631007307,66.7128,C,30260089000000,
Raw,1732151376001,26434000000,,705660.2638082376,-1416186567567000064,0.0,99.38287116446467,1360.9109106350209,0.0,0,19,0.0,16431,349793930767516,797,11.595000267028809,-25.36369357964612,0.14999,16,0.0,0.0,1575420030,,,,0,0.0,1,6.0,11.595000267028809,0.0,0.0,0.0,66.7128,C,30260089000000,
Status,1732151376000,28,0,1,17,1575420030,0.00,107.0,80.0,0,0,0,0.0
Status,1732151376000,28,1,1,22,1575420030,0.00,4.0,68.0,0,0,0,0.0
Status,1732151376000,28,2,1,19,1575420030,16.60,199.0,56.0,1,0,0,11.6
Status,1732151376000,28,3,1,14,1575420030,0.00,47.0,55.0,0,0,0,0.0
Status,1732151376000,28,4,1,13,1575420030,21.00,240.0,50.0,1,0,0,16.0
Status,1732151376000,28,5,2,135,1575420030,0.00,197.0,45.0,0,0,0,0.0
Status,1732151376000,28,6,1,30,1575420030,19.50,128.0,40.0,1,0,0,14.5
Status,1732151376000,28,7,1,15,1575420030,25.90,280.0,30.0,1,0,0,20.9
Status,1732151376000,28,8,1,2,1575420030,17.90,51.0,18.0,1,0,0,12.9
Status,1732151376000,28,9,1,24,1575420030,0.00,313.0,13.0,0,0,0,0.0
Status,1732151376000,28,10,1,6,1575420030,0.00,164.0,8.0,0,0,0,0.0
Status,1732151376000,28,11,1,21,1575420030,0.00,36.0,7.0,0,0,0,0.0
Status,1732151376000,28,12,1,7,1575420030,24.70,130.0,7.0,1,0,0,19.7
Status,1732151376000,28,13,3,20,1602000000,0.00,120.0,49.0,0,0,0,0.0
Status,1732151376000,28,14,3,9,1602000000,0.00,75.0,36.0,0,0,0,0.0
Status,1732151376000,28,15,3,8,1602000000,21.70,251.0,26.0,1,0,0,16.7
Status,1732151376000,28,16,3,19,1602000000,0.00,37.0,26.0,0,0,0,0.0
Status,1732151376000,28,17,3,11,1602000000,28.50,306.0,25.0,0,0,0,23.5
Status,1732151376000,28,18,3,17,1602000000,28.00,0.0,0.0,0,0,0,23.0
Status,1732151376000,28,19,6,21,1575420030,0.00,335.0,68.0,0,0,0,0.0
Status,1732151376000,28,20,6,19,1575420030,0.00,247.0,48.0,0,0,0,0.0
Status,1732151376000,28,21,6,27,1575420030,0.00,61.0,36.0,0,0,0,0.0
Status,1732151376000,28,22,6,29,1575420030,0.00,192.0,28.0,0,0,0,0.0
Status,1732151376000,28,23,6,13,1575420030,0.00,123.0,26.0,0,0,0,0.0
Status,1732151376000,28,24,6,15,1575420030,0.00,65.0,23.0,0,0,0,0.0
Status,1732151376000,28,25,6,4,1575420030,0.00,314.0,21.0,0,0,0,0.0
Status,1732151376000,28,26,6,26,1575420030,0.00,169.0,3.0,0,0,0,0.0
Status,1732151376000,28,27,6,6,1575420030,0.00,329.0,2.0,0,0,0,0.0
Fix,GPS,37.4248933333,-122.1584750000,23.7,0.0,5.3,0.0,1732151377000,1.7,60.4,30261089000000,44.4,0,,,
Raw,1732151377001,27434000000,,705627.1679956672,-1416186567567000064,0.0,100.66972765775185,1362.6893528923263,0.0,0,7,0.0,16431,349794918928101,797,19.72100067138672,1026.7391749341496,0.14999,16,0.0,0.0,1575420030,,,,0,1.752200372434137,1,6.0,19.72100067138672,0.0,0.0,0.0,66.7128,C,30261089000000,
Raw,1732151377001,27434000000,,705627.1679956672,-1416186567567000064,0.0,100.66972765775185,1362.6893528923263,0.0,0,13,0.0,16431,349794930287105,797,16.045000076293945,717.9460640778778,0.14999,16,0.0,0.0,1575420030,,,,0,0.0,1,6.0,16.045000076293945,0.0,0.0,0.0,66.7128,C,30261089000000,
Raw,1732151377001,27434000000,,705627.1679956672,-1416186567567000064,0.0,100.66972765775185,1362.6893528923263,0.0,0,15,0.0,16431,349794925941938,487,20.86400032043457,514.7076827707707,0.14999,16,0.0,0.0,1575420030,,,,0,3.416375079047504,1,6.0,20.86400032043457,0.0,0.0,0.0,66.7128,C,30261089000000,
Raw,1732151377001,27434000000,,705627.1679956672,-1416186567567000064,0.0,100.66972765775185,1362.6893528923263,0.0,0,30,0.0,16431,349794927677237,797,14.461000442504883,882.017305931361,0.14999,16,0.0,0.0,1575420030,,,,0,0.0,1,6.0,14.461000442504883,0.0,0.0,0.0,66.7128,C,30261089000000,
Raw,1732151377001,27434000000,,705627.1679956672,-1416186567567000064,0.0,100.66972765775185,1362.6893528923263,0.0,0,2,0.0,16431,349794920092533,797,12.899999618530273,693.2072826546796,0.14999,16,0.0,0.0,1575420030,,,,0,0.0,1,6.0,12.899999618530273,0.0,0.0,0.0,66.7128,C,30261089000000,
Raw,1732151377001,27434000000,,705627.1679956672,-1416186567567000064,0.0,100.66972765775185,1362.6893528923263,0.0,0,8,0.0,17,357899,487,5.0,943.4422354139591,0.14999,16,0.0,0.0,1605374980,,,,0,0.7007430172095139,3,6.0,20.0,0.0,0.0,104.75346008586526,66.7128,C,30261089000000,
Raw,1732151377001,27434000000,,705627.1679956672,-1416186567567000064,0.0,100.66972765775185,1362.6893528923263,0.0,0,11,0.0,17,27619,316,16.665000915527344,-66.17568616516067,0.14999,16,0.0,0.0,1602000000,,,,0,9.149994466146108,3,6.0,16.665000915527344,0.0,0.0,104.75346008586526,66.7128,C,30261089000000,
Raw,1732151377001,27434000000,,705627.1679956672,-1416186567567000064,0.0,100.66972765775185,1362.6893528923263,0.0,0,19,0.0,16431,349794930767600,797,11.59000015258789,-24.622681841088035,0.14999,16,0.0,0.0,1575420030,,,,0,0.0,1,6.0,11.59000015258789,0.0,0.0,0.0,66.7128,C,30261089000000,
Fix,FLP,37.4248958000,-122.1584718000,3.597767173957754,1.2538421,5.316,180.0,1732151377241,1.7,60.4,30261089000000,13.954018,0,,,
Fix,FLP,37.4248928000,-122.1584730000,3.597767173957754,1.1903312,5.283,180.0,1732151377598,1.7,60.4,30261446000000,15.426113,0,,,
Fix,NLP,37.4257192000,-122.1580926000,5.400000095367432,,17.667,,1732151377598,,,30261446000000,8.734664,0,,,
Status,1732151377000,28,0,1,17,1575420030,0.00,107.0,80.0,0,0,0,0.0
Status,1732151377000,28,1,1,22,1575420030,0.00,4.0,68.0,0,0,0,0.0
Status,1732151377000,28,2,1,19,1575420030,19.30,199.0,56.0,1,0,0,14.299999
Status,1732151377000,28,3,1,14,1575420030,0.00,47.0,55.0,0,0,0,0.0
Status,1732151377000,28,4,1,13,1575420030,22.20,240.0,50.0,1,0,0,17.2
Status,1732151377000,28,5,2,135,1575420030,0.00,197.0,45.0,0,0,0,0.0
Status,1732151377000,28,6,1,30,1575420030,22.50,128.0,40.0,1,0,0,17.5
Status,1732151377000,28,7,1,15,1575420030,25.90,280.0,30.0,1,0,0,20.9
Status,1732151377000,28,8,1,2,1575420030,17.90,51.0,18.0,1,0,0,12.9
Status,1732151377000,28,9,1,24,1575420030,0.00,313.0,13.0,0,0,0,0.0
Status,1732151377000,28,10,1,6,1575420030,0.00,164.0,8.0,0,0,0,0.0
Status,1732151377000,28,11,1,21,1575420030,0.00,36.0,7.0,0,0,0,0.0
Status,1732151377000,28,12,1,7,1575420030,23.50,130.0,7.0,1,0,0,18.5
Status,1732151377000,28,13,3,20,1602000000,0.00,120.0,49.0,0,0,0,0.0
Status,1732151377000,28,14,3,9,1602000000,0.00,75.0,36.0,0,0,0,0.0
Status,1732151377000,28,15,3,8,1602000000,21.80,251.0,26.0,1,0,0,16.8
Status,1732151377000,28,16,3,19,1602000000,0.00,37.0,26.0,0,0,0,0.0
Status,1732151377000,28,17,3,11,1602000000,29.00,306.0,25.0,0,0,0,24.0
Status,1732151377000,28,18,3,17,1602000000,26.00,0.0,0.0,0,0,0,21.0
Status,1732151377000,28,19,6,21,1575420030,0.00,335.0,68.0,0,0,0,0.0
Status,1732151377000,28,20,6,19,1575420030,0.00,247.0,48.0,0,0,0,0.0
Status,1732151377000,28,21,6,27,1575420030,0.00,61.0,36.0,0,0,0,0.0
Status,1732151377000,28,22,6,29,1575420030,0.00,192.0,28.0,0,0,0,0.0
Status,1732151377000,28,23,6,13,1575420030,0.00,123.0,26.0,0,0,0,0.0
Status,1732151377000,28,24,6,15,1575420030,0.00,65.0,23.0,0,0,0,0.0
Status,1732151377000,28,25,6,4,1575420030,0.00,314.0,21.0,0,0,0,0.0
Status,1732151377000,28,26,6,26,1575420030,0.00,169.0,3.0,0,0,0,0.0
Status,1732151377000,28,27,6,6,1575420030,0.00,329.0,2.0,0,0,0,0.0
Fix,GPS,37.4248916667,-122.1584783333,23.7,0.0,5.3,0.0,1732151378000,1.7,61.8,30262089000000,44.9,0,,,
Raw,1732151378001,28434000000,,705589.6941543473,-1416186567567000064,0.0,100.76941108067139,1366.3760957143331,0.0,0,7,0.0,16431,349795918924671,797,18.458999633789062,1028.3624319965456,0.14999,16,0.0,0.0,1575420030,,,,0,0.0,1,6.0,18.458999633789062,0.0,0.0,0.0,66.7128,C,30262089000000,
Raw,1732151378001,28434000000,,705589.6941543473,-1416186567567000064,0.0,100.76941108067139,1366.3760957143331,0.0,0,13,0.0,16431,349795930284677,797,17.214000701904297,719.5734559393168,0.14999,16,0.0,0.0,1575420030,,,,0,0.0,1,6.0,17.214000701904297,0.0,0.0,0.0,66.7128,C,30262089000000,
Raw,1732151378001,28434000000,,705589.6941543473,-1416186567567000064,0.0,100.76941108067139,1366.3760957143331,0.0,0,15,0.0,16431,349795925940219,396,20.854000091552734,515.6202654403943,0.14999,16,0.0,0.0,1575420030,,,,0,3.416375079047504,1,6.0,20.854000091552734,0.0,0.0,0.0,66.7128,C,30262089000000,
Raw,1732151378001,28434000000,,705589.6941543473,-1416186567567000064,0.0,100.76941108067139,1366.3760957143331,0.0,0,30,0.0,16431,349795927674290,797,17.54800033569336,883.2386047767036,0.14999,16,0.0,0.0,1575420030,,,,0,0.0,1,6.0,17.54800033569336,0.0,0.0,0.0,66.7128,C,30262089000000,
Raw,1732151378001,28434000000,,705589.6941543473,-1416186567567000064,0.0,100.76941108067139,1366.3760957143331,0.0,0,2,0.0,16431,349795920090218,1797,12.899999618530273,694.8480545399872,0.14999,16,0.0,0.0,1575420030,,,,0,0.0,1,6.0,12.899999618530273,0.0,0.0,0.0,66.7128,C,30262089000000,
Raw,1732151378001,28434000000,,705589.6941543473,-1416186567567000064,0.0,100.76941108067139,1366.3760957143331,0.0,0,8,0.0,17,354743,797,5.0,944.049241173695,0.14999,16,0.0,0.0,1605374980,,,,0,2.7745117539796524,3,6.0,17.0,0.0,0.0,106.00474216381726,66.7128,C,30262089000000,
Raw,1732151378001,28434000000,,705589.6941543473,-1416186567567000064,0.0,100.76941108067139,1366.3760957143331,0.0,0,11,0.0,17,27832,316,16.785999298095703,-64.95824897295373,0.14999,16,0.0,0.0,1602000000,,,,0,9.798496265243031,3,6.0,16.785999298095703,0.0,0.0,106.00474216381726,66.7128,C,30262089000000,
Raw,1732151378001,28434000000,,705589.6941543473,-1416186567567000064,0.0,100.76941108067139,1366.3760957143331,0.0,0,19,0.0,16431,349795930767676,797,14.300000190734863,-24.132452633234436,0.14999,16,0.0,0.0,1575420030,,,,0,0.0,1,6.0,14.300000190734863,0.0,0.0,0.0,66.7128,C,30262089000000,
Fix,FLP,37.4248886000,-122.1584750000,5.400000095367432,1.1264492,5.285,180.0,1732151378241,1.7,61.8,30262089000000,15.561631,0,,,
Status,1732151378000,28,0,1,17,1575420030,0.00,107.0,80.0,0,0,0,0.0
Status,1732151378000,28,1,1,22,1575420030,0.00,4.0,68.0,0,0,0,0.0
Status,1732151378000,28,2,1,19,1575420030,19.30,199.0,56.0,1,0,0,14.299999
Status,1732151378000,28,3,1,14,1575420030,0.00,47.0,55.0,0,0,0,0.0
Status,1732151378000,28,4,1,13,1575420030,27.80,240.0,50.0,1,0,0,22.8
Status,1732151378000,28,5,2,135,1575420030,0.00,197.0,45.0,0,0,0,0.0
Status,1732151378000,28,6,1,30,1575420030,22.50,128.0,40.0,1,0,0,17.5
Status,1732151378000,28,7,1,15,1575420030,25.90,280.0,30.0,1,0,0,20.9
Status,1732151378000,28,8,1,2,1575420030,15.40,51.0,18.0,1,0,0,10.4
Status,1732151378000,28,9,1,24,1575420030,0.00,313.0,13.0,0,0,0,0.0
Status,1732151378000,28,10,1,6,1575420030,0.00,164.0,8.0,0,0,0,0.0
Status,1732151378000,28,11,1,21,1575420030,0.00,36.0,7.0,0,0,0,0.0
Status,1732151378000,28,12,1,7,1575420030,23.50,130.0,7.0,1,0,0,18.5
Status,1732151378000,28,13,3,20,1602000000,0.00,120.0,49.0,0,0,0,0.0
Status,1732151378000,28,14,3,9,1602000000,0.00,75.0,36.0,0,0,0,0.0
Status,1732151378000,28,15,3,8,1602000000,21.80,251.0,26.0,1,0,0,16.8
Status,1732151378000,28,16,3,19,1602000000,0.00,37.0,26.0,0,0,0,0.0
Status,1732151378000,28,17,3,11,1602000000,23.60,306.0,25.0,0,0,0,18.6
Status,1732151378000,28,18,3,17,1602000000,26.60,0.0,0.0,0,0,0,21.6
Status,1732151378000,28,19,6,21,1575420030,0.00,335.0,68.0,0,0,0,0.0
Status,1732151378000,28,20,6,19,1575420030,0.00,247.0,48.0,0,0,0,0.0
Status,1732151378000,28,21,6,27,1575420030,0.00,61.0,36.0,0,0,0,0.0
Status,1732151378000,28,22,6,29,1575420030,0.00,192.0,28.0,0,0,0,0.0
Status,1732151378000,28,23,6,13,1575420030,0.00,123.0,26.0,0,0,0,0.0
Status,1732151378000,28,24,6,15,1575420030,0.00,65.0,23.0,0,0,0,0.0
Status,1732151378000,28,25,6,4,1575420030,0.00,314.0,21.0,0,0,0,0.0
Status,1732151378000,28,26,6,26,1575420030,0.00,169.0,3.0,0,0,0,0.0
Status,1732151378000,28,27,6,6,1575420030,0.00,329.0,2.0,0,0,0,0.0
Fix,GPS,37.4248983333,-122.1584700000,23.7,0.0,5.3,0.0,1732151379000,1.7,67.1,30263089000000,45.3,0,,,
Fix,FLP,37.4248879000,-122.1584728000,5.400000095367432,1.0475587,5.285,180.0,1732151379241,1.7,67.1,30263089000000,14.96573,0,,,
Raw,1732151379001,29434000000,,705542.6824646803,-1416186567567000064,0.0,101.3360185786526,1366.603184714715,0.0,0,7,0.0,16431,349796918921243,487,18.52199935913086,1027.4373520129614,0.14999,16,0.0,0.0,1575420030,,,,0,1.752200372434137,1,6.0,18.52199935913086,0.0,0.0,0.0,66.7128,C,30263089000000,
Raw,1732151379001,29434000000,,705542.6824646803,-1416186567567000064,0.0,101.3360185786526,1366.603184714715,0.0,0,13,0.0,16431,349796930282226,396,22.8439998626709,719.6203789396894,0.14999,16,0.0,0.0,1575420030,,,,0,6.893542631515289,1,6.0,22.8439998626709,0.0,0.0,0.0,66.7128,C,30263089000000,
Raw,1732151379001,29434000000,,705542.6824646803,-1416186567567000064,0.0,101.3360185786526,1366.603184714715,0.0,0,15,0.0,16431,349796925938493,396,20.940000534057617,515.5200546366282,0.14999,16,0.0,0.0,1575420030,,,,0,6.4652782330861145,1,6.0,20.940000534057617,0.0,0.0,0.0,66.7128,C,30263089000000,
Raw,1732151379001,29434000000,,705542.6824646803,-1416186567567000064,0.0,101.3360185786526,1366.603184714715,0.0,0,30,0.0,16431,349796927671344,797,17.54800033569336,883.2296847607912,0.14999,16,0.0,0.0,1575420030,,,,0,0.0,1,6.0,17.54800033569336,0.0,0.0,0.0,66.7128,C,30263089000000,
Raw,1732151379001,29434000000,,705542.6824646803,-1416186567567000064,0.0,101.3360185786526,1366.603184714715,0.0,0,2,0.0,16431,349796920087900,1797,10.399999618530273,695.0361646672237,0.14999,16,0.0,0.0,1575420030,,,,0,0.0,1,6.0,10.399999618530273,0.0,0.0,0.0,66.7128,C,30263089000000,
Raw,1732151379001,29434000000,,705542.6824646803,-1416186567567000064,0.0,101.3360185786526,1366.603184714715,0.0,0,8,0.0,17,351594,487,5.0,945.4743415220371,0.14999,16,0.0,0.0,1605374980,,,,0,0.8937707307331308,3,6.0,20.0,0.0,0.0,105.31971279725225,66.7128,C,30263089000000,
Raw,1732151379001,29434000000,,705542.6824646803,-1416186567567000064,0.0,101.3360185786526,1366.603184714715,0.0,0,11,0.0,17,28048,487,16.84600067138672,-64.88368682720818,0.14999,16,0.0,0.0,1602000000,,,,0,1.9019608002851363,3,6.0,16.84600067138672,0.0,0.0,105.31971279725225,66.7128,C,30263089000000,
Raw,1732151379001,29434000000,,705542.6824646803,-1416186567567000064,0.0,101.3360185786526,1366.603184714715,0.0,0,19,0.0,16431,349796930767756,797,14.300000190734863,-23.918465168168694,0.14999,16,0.0,0.0,1575420030,,,,0,0.0,1,6.0,14.300000190734863,0.0,0.0,0.0,66.7128,C,30263089000000,
Status,1732151379000,28,0,1,17,1575420030,0.00,107.0,80.0,0,0,0,0.0
Status,1732151379000,28,1,1,22,1575420030,0.00,4.0,68.0,0,0,0,0.0
Status,1732151379000,28,2,1,19,1575420030,19.30,199.0,56.0,1,0,0,14.299999
Status,1732151379000,28,3,1,14,1575420030,0.00,47.0,55.0,0,0,0,0.0
Status,1732151379000,28,4,1,13,1575420030,27.80,240.0,50.0,1,0,0,22.8
Status,1732151379000,28,5,2,135,1575420030,0.00,197.0,45.0,0,0,0,0.0
Status,1732151379000,28,6,1,30,1575420030,19.60,128.0,40.0,1,0,0,14.6
Status,1732151379000,28,7,1,15,1575420030,26.00,280.0,30.0,1,0,0,21.0
Status,1732151379000,28,8,1,2,1575420030,15.40,51.0,18.0,1,0,0,10.4
Status,1732151379000,28,9,1,24,1575420030,0.00,313.0,13.0,0,0,0,0.0
Status,1732151379000,28,10,1,6,1575420030,0.00,164.0,8.0,0,0,0,0.0
Status,1732151379000,28,11,1,21,1575420030,0.00,36.0,7.0,0,0,0,0.0
