# 
# Header Description:
# 
# Version: v3.1.0.3 Platform: 13 Manufacturer: samsung Model: SM-S135DL GNSS Hardware Model Name: MediaTek,MT6631,MTK_MNLD_default,MNL_VER_default
# 
# Raw,utcTimeMillis,TimeNanos,LeapSecond,TimeUncertaintyNanos,FullBiasNanos,BiasNanos,BiasUncertaintyNanos,DriftNanosPerSecond,DriftUncertaintyNanosPerSecond,HardwareClockDiscontinuityCount,Svid,TimeOffsetNanos,State,ReceivedSvTimeNanos,ReceivedSvTimeUncertaintyNanos,Cn0DbHz,PseudorangeRateMetersPerSecond,PseudorangeRateUncertaintyMetersPerSecond,AccumulatedDeltaRangeState,AccumulatedDeltaRangeMeters,AccumulatedDeltaRangeUncertaintyMeters,CarrierFrequencyHz,CarrierCycles,CarrierPhase,CarrierPhaseUncertainty,MultipathIndicator,SnrInDb,ConstellationType,AgcDb,BasebandCn0DbHz,FullInterSignalBiasNanos,FullInterSignalBiasUncertaintyNanos,SatelliteInterSignalBiasNanos,SatelliteInterSignalBiasUncertaintyNanos,CodeType,ChipsetElapsedRealtimeNanos,IsFullTracking
# 
# UncalAccel,utcTimeMillis,elapsedRealtimeNanos,UncalAccelXMps2,UncalAccelYMps2,UncalAccelZMps2,BiasXMps2,BiasYMps2,BiasZMps2
# 
# Accel,utcTimeMillis,elapsedRealtimeNanos,AccelXMps2,AccelYMps2,AccelZMps2
# 
# UncalGyro,utcTimeMillis,elapsedRealtimeNanos,UncalGyroXRadPerSec,UncalGyroYRadPerSec,UncalGyroZRadPerSec,DriftXRadPerSec,DriftYRadPerSec,DriftZRadPerSec
# 
# Gyro,utcTimeMillis,elapsedRealtimeNanos,GyroXRadPerSec,GyroYRadPerSec,GyroZRadPerSec
# 
# UncalMag,utcTimeMillis,elapsedRealtimeNanos,UncalMagXMicroT,UncalMagYMicroT,UncalMagZMicroT,BiasXMicroT,BiasYMicroT,BiasZMicroT
# 
# Mag,utcTimeMillis,elapsedRealtimeNanos,MagXMicroT,MagYMicroT,MagZMicroT
# 
# Pressure,utcTimeMillis,elapsedRealtimeNanos,PressureHpa
# 
# OrientationDeg,utcTimeMillis,elapsedRealtimeNanos,yawDeg,rollDeg,pitchDeg
# 
# Fix,Provider,LatitudeDegrees,LongitudeDegrees,AltitudeMeters,SpeedMps,AccuracyMeters,BearingDegrees,UnixTimeMillis,SpeedAccuracyMps,BearingAccuracyDegrees,elapsedRealtimeNanos,VerticalAccuracyMeters,MockLocation,NumberOfUsedSignals,VerticalSpeedAccuracyMps,SolutionType
# 
# Nav,Svid,Type,Status,MessageId,Sub-messageId,Data(Bytes)
# 
# Status,UnixTimeMillis,SignalCount,SignalIndex,ConstellationType,Svid,CarrierFrequencyHz,Cn0DbHz,AzimuthDegrees,ElevationDegrees,UsedInFix,HasAlmanacData,HasEphemerisData,BasebandCn0DbHz
# 
# Agc,utcTimeMillis,TimeNanos,LeapSecond,TimeUncertaintyNanos,FullBiasNanos,BiasNanos,BiasUncertaintyNanos,DriftNanosPerSecond,DriftUncertaintyNanosPerSecond,HardwareClockDiscontinuityCount,AgcDb,CarrierFrequencyHz,ConstellationType
# 
Fix,FLP,37.4258147000,-122.1580521000,2.910770209339147,0.32978323,39.829,0.0,1732151282233,1.5,45.0,30166081000000,10.720418,0,,,
Status,,26,0,1,17,1575420030,0.00,111.0,80.0,0,0,0,0.0
Status,,26,1,1,22,1575420030,0.00,2.0,68.0,0,0,0,0.0
Status,,26,2,1,14,1575420030,0.00,47.0,56.0,0,0,0,0.0
Status,,26,3,1,19,1575420030,0.00,198.0,56.0,0,0,0,0.0
Status,,26,4,1,13,1575420030,0.00,241.0,51.0,0,0,0,0.0
Status,,26,5,1,30,1575420030,28.50,128.0,41.0,1,0,0,23.5
Status,,26,6,1,15,1575420030,24.50,280.0,30.0,1,0,0,19.5
Status,,26,7,1,2,1575420030,0.00,51.0,19.0,0,0,0,0.0
Status,,26,8,1,24,1575420030,0.00,312.0,12.0,0,0,0,0.0
Status,,26,9,1,6,1575420030,0.00,164.0,8.0,0,0,0,0.0
Status,,26,10,1,7,1575420030,28.00,129.0,8.0,1,0,0,23.0
Status,,26,11,1,21,1575420030,0.00,37.0,7.0,0,0,0,0.0
Status,,26,12,3,20,1602000000,0.00,121.0,49.0,0,0,0,0.0
Status,,26,13,3,9,1602000000,0.00,75.0,36.0,0,0,0,0.0
Status,,26,14,3,8,1602000000,0.00,251.0,27.0,0,0,0,0.0
Status,,26,15,3,19,1602000000,0.00,37.0,27.0,0,0,0,0.0
Status,,26,16,3,11,1602000000,0.00,306.0,25.0,0,0,0,0.0
Status,,26,17,6,21,1575420030,0.00,333.0,68.0,0,0,0,0.0
Status,,26,18,6,19,1575420030,0.00,248.0,49.0,0,0,0,0.0
Status,,26,19,6,27,1575420030,0.00,61.0,36.0,0,0,0,0.0
Status,,26,20,6,29,1575420030,0.00,192.0,29.0,0,0,0,0.0
Status,,26,21,6,13,1575420030,0.00,123.0,25.0,0,0,0,0.0
Status,,26,22,6,15,1575420030,0.00,66.0,23.0,0,0,0,0.0
Status,,26,23,6,4,1575420030,0.00,314.0,21.0,0,0,0,0.0
Status,,26,24,6,26,1575420030,0.00,169.0,3.0,0,0,0,0.0
Status,,26,25,6,6,1575420030,0.00,329.0,2.0,0,0,0,0.0
Fix,GPS,37.4257866667,-122.1580066667,23.8,0.0,44.5,0.0,1732151283000,2.5,179.9,30167081000000,89.5,0,,,
Fix,FLP,37.4257941000,-122.1580628000,3.1841283687648536,0.25714982,35.752,0.0,1732151283233,1.5,45.0,30167081000000,11.245372,0,,,
Status,1732151283000,26,0,1,17,1575420030,0.00,111.0,80.0,0,0,0,0.0
Status,1732151283000,26,1,1,22,1575420030,0.00,2.0,68.0,0,0,0,0.0
Status,1732151283000,26,2,1,14,1575420030,0.00,47.0,56.0,0,0,0,0.0
Status,1732151283000,26,3,1,19,1575420030,23.00,198.0,56.0,1,0,0,18.0
Status,1732151283000,26,4,1,13,1575420030,0.00,241.0,51.0,0,0,0,0.0
Status,1732151283000,26,5,1,30,1575420030,29.20,128.0,41.0,1,0,0,24.2
Status,1732151283000,26,6,1,15,1575420030,24.50,280.0,30.0,1,0,0,19.5
Status,1732151283000,26,7,1,2,1575420030,0.00,51.0,19.0,0,0,0,0.0
Status,1732151283000,26,8,1,24,1575420030,0.00,312.0,12.0,0,0,0,0.0
Status,1732151283000,26,9,1,6,1575420030,0.00,164.0,8.0,0,0,0,0.0
Status,1732151283000,26,10,1,7,1575420030,27.90,129.0,8.0,1,0,0,22.9
Status,1732151283000,26,11,1,21,1575420030,0.00,37.0,7.0,0,0,0,0.0
Status,1732151283000,26,12,3,20,1602000000,0.00,121.0,49.0,0,0,0,0.0
Status,1732151283000,26,13,3,9,1602000000,0.00,75.0,36.0,0,0,0,0.0
Status,1732151283000,26,14,3,8,1602000000,0.00,251.0,27.0,0,0,0,0.0
Status,1732151283000,26,15,3,19,1602000000,0.00,37.0,27.0,0,0,0,0.0
Status,1732151283000,26,16,3,11,1602000000,0.00,306.0,25.0,0,0,0,0.0
Status,1732151283000,26,17,6,21,1575420030,0.00,333.0,68.0,0,0,0,0.0
Status,1732151283000,26,18,6,19,1575420030,0.00,248.0,49.0,0,0,0,0.0
Status,1732151283000,26,19,6,27,1575420030,0.00,61.0,36.0,0,0,0,0.0
Status,1732151283000,26,20,6,29,1575420030,0.00,192.0,29.0,0,0,0,0.0
Status,1732151283000,26,21,6,13,1575420030,0.00,123.0,25.0,0,0,0,0.0
Status,1732151283000,26,22,6,15,1575420030,0.00,66.0,23.0,0,0,0,0.0
Status,1732151283000,26,23,6,4,1575420030,0.00,314.0,21.0,0,0,0,0.0
Status,1732151283000,26,24,6,26,1575420030,0.00,169.0,3.0,0,0,0,0.0
Status,1732151283000,26,25,6,6,1575420030,0.00,329.0,2.0,0,0,0,0.0
Fix,GPS,37.4257783333,-122.1579966667,23.8,0.0,6.7,0.0,1732151284000,2.5,179.9,30168081000000,92.5,0,,,
Fix,FLP,37.4257848000,-122.1580229000,2.9219685501673185,0.22529028,29.859,0.000000018125293,1732151284233,2.5,179.9,30168081000000,8.904841,0,,,
Raw,1732151284000,20340000000,,707065.5589174294,-1416186481660000000,0.0,177.18932015317196,1392.5427905187992,0.0,0,15,0.0,16431,349701925101154,487,19.520000457763672,511.22274405398576,0.14999,16,0.0,0.0,1575420030,,,,0,2.986596762372736,1,6.0,19.520000457763672,0.0,0.0,0.0,66.7128,C,30168081000000,
Raw,1732151284000,20340000000,,707065.5589174294,-1416186481660000000,0.0,177.18932015317196,1392.5427905187992,0.0,0,30,0.0,16431,349701926951290,396,24.21500015258789,883.6353596511416,0.14999,16,0.0,0.0,1575420030,,,,0,8.912267975163125,1,6.0,24.21500015258789,0.0,0.0,0.0,66.7128,C,30168081000000,
Raw,1732151284000,20340000000,,707065.5589174294,-1416186481660000000,0.0,177.18932015317196,1392.5427905187992,0.0,0,19,0.0,16431,349701929760344,797,17.988000869750977,-23.234690198381994,0.14999,16,0.0,0.0,1575420030,,,,0,0.0,1,6.0,17.988000869750977,0.0,0.0,0.0,66.7128,C,30168081000000,
Raw,1732151284000,20340000000,,707065.5589174294,-1416186481660000000,0.0,177.18932015317196,1392.5427905187992,0.0,0,7,0.0,16431,349701918247238,797,22.945999145507812,1030.0293599701797,0.14999,16,0.0,0.0,1575420030,,,,0,6.445251558589766,1,6.0,22.945999145507812,0.0,0.0,0.0,66.7128,C,30168081000000,
Status,1732151284000,26,0,1,17,1575420030,0.00,111.0,80.0,0,0,0,0.0
Status,1732151284000,26,1,1,22,1575420030,0.00,2.0,68.0,0,0,0,0.0
Status,1732151284000,26,2,1,14,1575420030,0.00,47.0,56.0,0,0,0,0.0
Status,1732151284000,26,3,1,19,1575420030,19.00,198.0,56.0,1,0,0,14.0
Status,1732151284000,26,4,1,13,1575420030,0.00,241.0,51.0,0,0,0,0.0
Status,1732151284000,26,5,1,30,1575420030,26.10,128.0,41.0,1,0,0,21.1
Status,1732151284000,26,6,1,15,1575420030,24.50,280.0,30.0,1,0,0,19.5
Status,1732151284000,26,7,1,2,1575420030,0.00,51.0,19.0,0,0,0,0.0
Status,1732151284000,26,8,1,24,1575420030,0.00,312.0,12.0,0,0,0,0.0
Status,1732151284000,26,9,1,6,1575420030,0.00,164.0,8.0,0,0,0,0.0
Status,1732151284000,26,10,1,7,1575420030,30.50,129.0,8.0,1,0,0,25.5
Status,1732151284000,26,11,1,21,1575420030,0.00,37.0,7.0,0,0,0,0.0
Status,1732151284000,26,12,3,20,1602000000,0.00,121.0,49.0,0,0,0,0.0
Status,1732151284000,26,13,3,9,1602000000,0.00,75.0,36.0,0,0,0,0.0
Status,1732151284000,26,14,3,8,1602000000,0.00,251.0,27.0,0,0,0,0.0
Status,1732151284000,26,15,3,19,1602000000,0.00,37.0,27.0,0,0,0,0.0
Status,1732151284000,26,16,3,11,1602000000,0.00,306.0,25.0,0,0,0,0.0
Status,1732151284000,26,17,6,21,1575420030,0.00,333.0,68.0,0,0,0,0.0
Status,1732151284000,26,18,6,19,1575420030,0.00,248.0,49.0,0,0,0,0.0
Status,1732151284000,26,19,6,27,1575420030,0.00,61.0,36.0,0,0,0,0.0
Status,1732151284000,26,20,6,29,1575420030,0.00,192.0,29.0,0,0,0,0.0
Status,1732151284000,26,21,6,13,1575420030,0.00,123.0,25.0,0,0,0,0.0
Status,1732151284000,26,22,6,15,1575420030,0.00,66.0,23.0,0,0,0,0.0
Status,1732151284000,26,23,6,4,1575420030,0.00,314.0,21.0,0,0,0,0.0
Status,1732151284000,26,24,6,26,1575420030,0.00,169.0,3.0,0,0,0,0.0
Status,1732151284000,26,25,6,6,1575420030,0.00,329.0,2.0,0,0,0,0.0
Fix,GPS,37.4257750000,-122.1579850000,23.8,0.0,6.7,0.0,1732151285000,2.5,179.9,30169081000000,91.4,0,,,
Raw,1732151285000,21340000000,,707051.2782046038,-1416186481660000000,0.0,169.28427456701849,1391.6129794573205,0.0,0,15,0.0,16431,349702925099472,487,19.54800033569336,511.11073281250214,0.14999,16,0.0,0.0,1575420030,,,,0,2.4008092403329857,1,6.0,19.54800033569336,0.0,0.0,0.0,66.7128,C,30169081000000,
Raw,1732151285000,21340000000,,707051.2782046038,-1416186481660000000,0.0,169.28427456701849,1391.6129794573205,0.0,0,30,0.0,16431,349702926948341,487,21.097999572753906,883.8420066864461,0.14999,16,0.0,0.0,1575420030,,,,0,4.051507001437238,1,6.0,21.097999572753906,0.0,0.0,0.0,66.7128,C,30169081000000,
Raw,1732151285000,21340000000,,707051.2782046038,-1416186481660000000,0.0,169.28427456701849,1391.6129794573205,0.0,0,19,0.0,16431,349702929760399,797,14.0,-23.501640257927747,0.14999,16,0.0,0.0,1575420030,,,,0,0.0,1,6.0,14.0,0.0,0.0,0.0,66.7128,C,30169081000000,
Raw,1732151285000,21340000000,,707051.2782046038,-1416186481660000000,0.0,169.28427456701849,1391.6129794573205,0.0,0,7,0.0,16431,349702918243811,316,25.52400016784668,1030.4407957041403,0.14999,16,0.0,0.0,1575420030,,,,0,10.75449057768888,1,6.0,25.52400016784668,0.0,0.0,0.0,66.7128,C,30169081000000,
Fix,FLP,37.4257812000,-122.1580055000,2.9219685501673185,0.20653985,23.982,0.00000024702254,1732151285233,2.5,179.9,30169081000000,9.489314,0,,,
Status,1732151285000,27,0,1,17,1575420030,0.00,111.0,80.0,0,0,0,0.0
Status,1732151285000,27,1,1,22,1575420030,0.00,2.0,68.0,0,0,0,0.0
Status,1732151285000,27,2,1,14,1575420030,0.00,47.0,56.0,0,0,0,0.0
Status,1732151285000,27,3,1,19,1575420030,19.00,198.0,56.0,1,0,0,14.0
Status,1732151285000,27,4,1,13,1575420030,30.80,241.0,51.0,1,0,0,25.8
Status,1732151285000,27,5,2,133,1575420030,0.00,191.0,45.0,0,0,0,0.0
Status,1732151285000,27,6,1,30,1575420030,29.20,128.0,41.0,1,0,0,24.2
Status,1732151285000,27,7,1,15,1575420030,24.60,280.0,30.0,1,0,0,19.6
Status,1732151285000,27,8,1,2,1575420030,0.00,51.0,19.0,0,0,0,0.0
Status,1732151285000,27,9,1,24,1575420030,0.00,312.0,12.0,0,0,0,0.0
Status,1732151285000,27,10,1,6,1575420030,0.00,164.0,8.0,0,0,0,0.0
Status,1732151285000,27,11,1,7,1575420030,30.90,129.0,8.0,1,0,0,25.9
Status,1732151285000,27,12,1,21,1575420030,0.00,37.0,7.0,0,0,0,0.0
Status,1732151285000,27,13,3,20,1602000000,0.00,121.0,49.0,0,0,0,0.0
Status,1732151285000,27,14,3,9,1602000000,0.00,75.0,36.0,0,0,0,0.0
Status,1732151285000,27,15,3,8,1602000000,0.00,251.0,27.0,0,0,0,0.0
Status,1732151285000,27,16,3,19,1602000000,0.00,37.0,27.0,0,0,0,0.0
Status,1732151285000,27,17,3,11,1602000000,0.00,306.0,25.0,0,0,0,0.0
Status,1732151285000,27,18,6,21,1575420030,0.00,333.0,68.0,0,0,0,0.0
Status,1732151285000,27,19,6,19,1575420030,0.00,248.0,49.0,0,0,0,0.0
Status,1732151285000,27,20,6,27,1575420030,0.00,61.0,36.0,0,0,0,0.0
Status,1732151285000,27,21,6,29,1575420030,0.00,192.0,29.0,0,0,0,0.0
Status,1732151285000,27,22,6,13,1575420030,0.00,123.0,25.0,0,0,0,0.0
Status,1732151285000,27,23,6,15,1575420030,0.00,66.0,23.0,0,0,0,0.0
Status,1732151285000,27,24,6,4,1575420030,0.00,314.0,21.0,0,0,0,0.0
Status,1732151285000,27,25,6,26,1575420030,0.00,169.0,3.0,0,0,0,0.0
Status,1732151285000,27,26,6,6,1575420030,0.00,329.0,2.0,0,0,0,0.0
Fix,GPS,37.4257683333,-122.1579866667,23.8,0.0,6.7,0.0,1732151286000,2.4,179.9,30170081000000,88.0,0,,,
Raw,1732151286000,22340000000,,707042.5742664947,-1416186481660000000,0.0,171.41073549433838,1391.98621075178,0.0,0,15,0.0,16431,349703925097767,797,19.575000762939453,511.56031090617154,0.14999,16,0.0,0.0,1575420030,,,,0,2.4008092403329857,1,6.0,19.575000762939453,0.0,0.0,0.0,66.7128,C,30170081000000,
Raw,1732151286000,22340000000,,707042.5742664947,-1416186481660000000,0.0,171.41073549433838,1391.98621075178,0.0,0,30,0.0,16431,349703926945397,316,24.246000289916992,884.2084706735149,0.14999,16,0.0,0.0,1575420030,,,,0,8.959862010070221,1,6.0,24.246000289916992,0.0,0.0,0.0,66.7128,C,30170081000000,
Raw,1732151286000,22340000000,,707042.5742664947,-1416186481660000000,0.0,171.41073549433838,1391.98621075178,0.0,0,19,0.0,16431,349703929760475,1797,14.0,-22.365035105336926,0.14999,16,0.0,0.0,1575420030,,,,0,0.0,1,6.0,14.0,0.0,0.0,0.0,66.7128,C,30170081000000,
Raw,1732151286000,22340000000,,707042.5742664947,-1416186481660000000,0.0,171.41073549433838,1391.98621075178,0.0,0,13,0.0,16431,349703929504960,316,25.82900047302246,716.6509892675929,0.14999,16,0.0,0.0,1575420030,,,,0,11.169080274863763,1,6.0,25.82900047302246,0.0,0.0,0.0,66.7128,C,30170081000000,
Raw,1732151286000,22340000000,,707042.5742664947,-1416186481660000000,0.0,171.41073549433838,1391.98621075178,0.0,0,7,0.0,16431,349703918240376,316,25.878000259399414,1031.161644490063,0.14999,16,0.0,0.0,1575420030,,,,0,11.24237935659187,1,6.0,25.878000259399414,0.0,0.0,0.0,66.7128,C,30170081000000,
Fix,FLP,37.4257767000,-122.1579977000,2.8573233782968055,0.18526317,18.109,0.00000014871297,1732151286234,2.4,179.9,30170081000000,11.864848,0,,,
Fix,FLP,37.4257742000,-122.1579939000,2.617572006989687,0.15854794,11.004,0.0000000014327762,1732151286841,2.4,179.9,30170688000000,10.776547,0,,,
Fix,NLP,37.4256697000,-122.1580489000,5.400000095367432,,82.5,,1732151286840,,,30170688000000,51.236687,0,,,
Status,1732151286000,27,0,1,17,1575420030,0.00,111.0,80.0,0,0,0,0.0
Status,1732151286000,27,1,1,22,1575420030,0.00,2.0,68.0,0,0,0,0.0
Status,1732151286000,27,2,1,14,1575420030,0.00,47.0,56.0,0,0,0,0.0
Status,1732151286000,27,3,1,19,1575420030,19.00,198.0,56.0,1,0,0,14.0
Status,1732151286000,27,4,1,13,1575420030,32.50,241.0,51.0,1,0,0,27.5
Status,1732151286000,27,5,2,133,1575420030,0.00,191.0,45.0,0,0,0,0.0
Status,1732151286000,27,6,1,30,1575420030,26.80,128.0,41.0,1,0,0,21.8
Status,1732151286000,27,7,1,15,1575420030,24.60,280.0,30.0,1,0,0,19.6
Status,1732151286000,27,8,1,2,1575420030,0.00,51.0,19.0,0,0,0,0.0
Status,1732151286000,27,9,1,24,1575420030,0.00,312.0,12.0,0,0,0,0.0
Status,1732151286000,27,10,1,6,1575420030,0.00,164.0,8.0,0,0,0,0.0
Status,1732151286000,27,11,1,7,1575420030,0.00,129.0,8.0,0,0,0,0.0
Status,1732151286000,27,12,1,21,1575420030,0.00,37.0,7.0,0,0,0,0.0
Status,1732151286000,27,13,3,20,1602000000,0.00,121.0,49.0,0,0,0,0.0
Status,1732151286000,27,14,3,9,1602000000,0.00,75.0,36.0,0,0,0,0.0
Status,1732151286000,27,15,3,8,1602000000,0.00,251.0,27.0,0,0,0,0.0
Status,1732151286000,27,16,3,19,1602000000,0.00,37.0,27.0,0,0,0,0.0
Status,1732151286000,27,17,3,11,1602000000,0.00,306.0,25.0,0,0,0,0.0
Status,1732151286000,27,18,6,21,1575420030,0.00,333.0,68.0,0,0,0,0.0
Status,1732151286000,27,19,6,19,1575420030,0.00,248.0,49.0,0,0,0,0.0
Status,1732151286000,27,20,6,27,1575420030,0.00,61.0,36.0,0,0,0,0.0
Status,1732151286000,27,21,6,29,1575420030,0.00,192.0,29.0,0,0,0,0.0
Status,1732151286000,27,22,6,13,1575420030,0.00,123.0,25.0,0,0,0,0.0
Status,1732151286000,27,23,6,15,1575420030,0.00,66.0,23.0,0,0,0,0.0
Status,1732151286000,27,24,6,4,1575420030,0.00,314.0,21.0,0,0,0,0.0
Status,1732151286000,27,25,6,26,1575420030,0.00,169.0,3.0,0,0,0,0.0
Status,1732151286000,27,26,6,6,1575420030,0.00,329.0,2.0,0,0,0,0.0
Fix,GPS,37.4257583333,-122.1579950000,23.8,0.0,6.6,0.0,1732151287000,2.4,179.9,30171081000000,87.9,0,,,
Fix,FLP,37.4257695000,-122.1579942000,2.617572006989687,0.115911886,10.375,0.0,1732151287233,2.4,179.9,30171081000000,11.446847,0,,,
Raw,1732151287000,23340000000,,707030.4304486539,-1416186481660000000,0.0,166.1366629666431,1393.0617118038415,0.0,0,15,0.0,16431,349704925096060,487,19.60099983215332,512.1969305835046,0.14999,16,0.0,0.0,1575420030,,,,0,2.4008092403329857,1,6.0,19.60099983215332,0.0,0.0,0.0,66.7128,C,30171081000000,
Raw,1732151287000,23340000000,,707030.4304486539,-1416186481660000000,0.0,166.1366629666431,1393.0617118038415,0.0,0,30,0.0,16431,349704926942442,487,21.805999755859375,884.8075984089659,0.14999,16,0.0,0.0,1575420030,,,,0,5.221779443312246,1,6.0,21.805999755859375,0.0,0.0,0.0,66.7128,C,30171081000000,
Raw,1732151287000,23340000000,,707030.4304486539,-1416186481660000000,0.0,166.1366629666431,1393.0617118038415,0.0,0,19,0.0,16431,349704929760549,1797,14.0,-22.388078479777352,0.14999,16,0.0,0.0,1575420030,,,,0,0.0,1,6.0,14.0,0.0,0.0,0.0,66.7128,C,30171081000000,
Raw,1732151287000,23340000000,,707030.4304486539,-1416186481660000000,0.0,166.1366629666431,1393.0617118038415,0.0,0,13,0.0,16431,349704929502555,235,27.52199935913086,717.3032654311888,0.14999,16,0.0,0.0,1575420030,,,,0,13.425268745093229,1,6.0,27.52199935913086,0.0,0.0,0.0,66.7128,C,30171081000000,
Status,1732151287000,27,0,1,17,1575420030,0.00,111.0,80.0,0,0,0,0.0
Status,1732151287000,27,1,1,22,1575420030,0.00,2.0,68.0,0,0,0,0.0
Status,1732151287000,27,2,1,14,1575420030,0.00,47.0,56.0,0,0,0,0.0
Status,1732151287000,27,3,1,19,1575420030,18.10,198.0,56.0,1,0,0,13.1
Status,1732151287000,27,4,1,13,1575420030,28.80,241.0,51.0,1,0,0,23.8
Status,1732151287000,27,5,2,133,1575420030,0.00,191.0,45.0,0,0,0,0.0
Status,1732151287000,27,6,1,30,1575420030,26.80,128.0,41.0,1,0,0,21.8
Status,1732151287000,27,7,1,15,1575420030,24.50,280.0,30.0,1,0,0,19.5
Status,1732151287000,27,8,1,2,1575420030,0.00,51.0,19.0,0,0,0,0.0
Status,1732151287000,27,9,1,24,1575420030,0.00,312.0,12.0,0,0,0,0.0
Status,1732151287000,27,10,1,6,1575420030,0.00,164.0,8.0,0,0,0,0.0
Status,1732151287000,27,11,1,7,1575420030,0.00,129.0,8.0,0,0,0,0.0
Status,1732151287000,27,12,1,21,1575420030,0.00,37.0,7.0,0,0,0,0.0
Status,1732151287000,27,13,3,20,1602000000,0.00,121.0,49.0,0,0,0,0.0
Status,1732151287000,27,14,3,9,1602000000,0.00,75.0,36.0,0,0,0,0.0
Status,1732151287000,27,15,3,8,1602000000,0.00,251.0,27.0,0,0,0,0.0
Status,1732151287000,27,16,3,19,1602000000,0.00,37.0,27.0,0,0,0,0.0
Status,1732151287000,27,17,3,11,1602000000,0.00,306.0,25.0,0,0,0,0.0
Status,1732151287000,27,18,6,21,1575420030,0.00,333.0,68.0,0,0,0,0.0
Status,1732151287000,27,19,6,19,1575420030,0.00,248.0,49.0,0,0,0,0.0
Status,1732151287000,27,20,6,27,1575420030,0.00,61.0,36.0,0,0,0,0.0
Status,1732151287000,27,21,6,29,1575420030,0.00,192.0,29.0,0,0,0,0.0
Status,1732151287000,27,22,6,13,1575420030,0.00,123.0,25.0,0,0,0,0.0
Status,1732151287000,27,23,6,15,1575420030,0.00,66.0,23.0,0,0,0,0.0
Status,1732151287000,27,24,6,4,1575420030,0.00,314.0,21.0,0,0,0,0.0
Status,1732151287000,27,25,6,26,1575420030,0.00,169.0,3.0,0,0,0,0.0
Status,1732151287000,27,26,6,6,1575420030,0.00,329.0,2.0,0,0,0,0.0
Fix,GPS,37.4257583333,-122.1579983333,23.8,0.0,6.7,0.0,1732151288000,2.4,179.9,30172081000000,87.4,0,,,
Fix,FLP,37.4257660000,-122.1579956000,2.9219685501673185,0.057527088,8.531,,1732151288233,2.4,,30172081000000,9.402662,0,,,
Raw,1732151288000,24340000000,,707029.3880608564,-1416186481660000000,0.0,166.4326084670596,1394.4626703654342,0.0,0,15,0.0,16431,349705925094367,797,19.548999786376953,511.92282592786233,0.14999,16,0.0,0.0,1575420030,,,,0,0.0,1,6.0,19.548999786376953,0.0,0.0,0.0,66.7128,C,30172081000000,
Raw,1732151288000,24340000000,,707029.3880608564,-1416186481660000000,0.0,166.4326084670596,1394.4626703654342,0.0,0,30,0.0,16431,349705926939489,316,21.805999755859375,885.1920882615243,0.14999,16,0.0,0.0,1575420030,,,,0,5.221779443312246,1,6.0,21.805999755859375,0.0,0.0,0.0,66.7128,C,30172081000000,
Raw,1732151288000,24340000000,,707029.3880608564,-1416186481660000000,0.0,166.4326084670596,1394.4626703654342,0.0,0,19,0.0,16431,349705929760622,797,13.100000381469727,-22.105286100303807,0.14999,16,0.0,0.0,1575420030,,,,0,0.0,1,6.0,13.100000381469727,0.0,0.0,0.0,66.7128,C,30172081000000,
Raw,1732151288000,24340000000,,707029.3880608564,-1416186481660000000,0.0,166.4326084670596,1394.4626703654342,0.0,0,13,0.0,16431,349705929500160,396,23.809999465942383,717.7789996131847,0.14999,16,0.0,0.0,1575420030,,,,0,8.319818643027109,1,6.0,23.809999465942383,0.0,0.0,0.0,66.7128,C,30172081000000,
Status,1732151288000,28,0,1,17,1575420030,0.00,111.0,80.0,0,0,0,0.0
Status,1732151288000,28,1,1,22,1575420030,0.00,2.0,68.0,0,0,0,0.0
Status,1732151288000,28,2,1,14,1575420030,0.00,47.0,56.0,0,0,0,0.0
Status,1732151288000,28,3,1,19,1575420030,18.10,198.0,56.0,1,0,0,13.1
Status,1732151288000,28,4,1,13,1575420030,26.20,241.0,51.0,1,0,0,21.2
Status,1732151288000,28,5,2,133,1575420030,0.00,191.0,45.0,0,0,0,0.0
Status,1732151288000,28,6,1,30,1575420030,30.90,128.0,41.0,1,0,0,25.9
Status,1732151288000,28,7,1,15,1575420030,24.60,280.0,30.0,1,0,0,19.6
Status,1732151288000,28,8,1,2,1575420030,0.00,51.0,19.0,0,0,0,0.0
Status,1732151288000,28,9,1,24,1575420030,0.00,312.0,12.0,0,0,0,0.0
Status,1732151288000,28,10,1,6,1575420030,0.00,164.0,8.0,0,0,0,0.0
Status,1732151288000,28,11,1,7,1575420030,0.00,129.0,8.0,0,0,0,0.0
Status,1732151288000,28,12,1,21,1575420030,0.00,37.0,7.0,0,0,0,0.0
Status,1732151288000,28,13,3,20,1602000000,0.00,121.0,49.0,0,0,0,0.0
Status,1732151288000,28,14,3,9,1602000000,0.00,75.0,36.0,0,0,0,0.0
Status,1732151288000,28,15,3,8,1602000000,0.00,251.0,27.0,0,0,0,0.0
Status,1732151288000,28,16,3,19,1602000000,0.00,37.0,27.0,0,0,0,0.0
Status,1732151288000,28,17,3,11,1602000000,0.00,306.0,25.0,0,0,0,0.0
Status,1732151288000,28,18,3,17,1602000000,27.40,0.0,0.0,0,0,0,22.4
Status,1732151288000,28,19,6,21,1575420030,0.00,333.0,68.0,0,0,0,0.0
Status,1732151288000,28,20,6,19,1575420030,0.00,248.0,49.0,0,0,0,0.0
Status,1732151288000,28,21,6,27,1575420030,0.00,61.0,36.0,0,0,0,0.0
Status,1732151288000,28,22,6,29,1575420030,0.00,192.0,29.0,0,0,0,0.0
Status,1732151288000,28,23,6,13,1575420030,0.00,123.0,25.0,0,0,0,0.0
Status,1732151288000,28,24,6,15,1575420030,0.00,66.0,23.0,0,0,0,0.0
Status,1732151288000,28,25,6,4,1575420030,0.00,314.0,21.0,0,0,0,0.0
Status,1732151288000,28,26,6,26,1575420030,0.00,169.0,3.0,0,0,0,0.0
Status,1732151288000,28,27,6,6,1575420030,0.00,329.0,2.0,0,0,0,0.0
Fix,GPS,37.4257583333,-122.1580016667,23.8,0.0,6.7,0.0,1732151289000,2.4,179.9,30173081000000,87.5,0,,,
Fix,FLP,37.4257632000,-122.1579977000,3.0049141089951847,0.007804772,6.685,,1732151289233,2.4,,30173081000000,10.678225,0,,,
Raw,1732151289000,25340000000,,707028.5541506184,-1416186481660000000,0.0,164.96355678726826,1394.7965994317549,0.0,0,15,0.0,16431,349706925092662,487,19.597000122070312,512.7752449484933,0.14999,16,0.0,0.0,1575420030,,,,0,3.080499186540333,1,6.0,19.597000122070312,0.0,0.0,0.0,66.7128,C,30173081000000,
Raw,1732151289000,25340000000,,707028.5541506184,-1416186481660000000,0.0,164.96355678726826,1394.7965994317549,0.0,0,30,0.0,16431,349706926936531,396,25.854000091552734,885.4911875450878,0.14999,16,0.0,0.0,1575420030,,,,0,11.205807135663708,1,6.0,25.854000091552734,0.0,0.0,0.0,66.7128,C,30173081000000,
Raw,1732151289000,25340000000,,707028.5541506184,-1416186481660000000,0.0,164.96355678726826,1394.7965994317549,0.0,0,19,0.0,16431,349706929760694,797,13.100000381469727,-21.612130012228942,0.14999,16,0.0,0.0,1575420030,,,,0,0.0,1,6.0,13.100000381469727,0.0,0.0,0.0,66.7128,C,30173081000000,
Raw,1732151289000,25340000000,,707028.5541506184,-1416186481660000000,0.0,164.96355678726826,1394.7965994317549,0.0,0,13,0.0,16431,349706929497764,487,21.191999435424805,717.9636253592054,0.14999,16,0.0,0.0,1575420030,,,,0,4.216957520757036,1,6.0,21.191999435424805,0.0,0.0,0.0,66.7128,C,30173081000000,
Status,1732151289000,28,0,1,17,1575420030,0.00,111.0,80.0,0,0,0,0.0
Status,1732151289000,28,1,1,22,1575420030,0.00,2.0,68.0,0,0,0,0.0
Status,1732151289000,28,2,1,14,1575420030,0.00,47.0,56.0,0,0,0,0.0
Status,1732151289000,28,3,1,19,1575420030,19.20,198.0,56.0,1,0,0,14.200001
Status,1732151289000,28,4,1,13,1575420030,27.60,241.0,51.0,1,0,0,22.6
Status,1732151289000,28,5,2,133,1575420030,0.00,191.0,45.0,0,0,0,0.0
Status,1732151289000,28,6,1,30,1575420030,26.30,128.0,41.0,1,0,0,21.3
Status,1732151289000,28,7,1,15,1575420030,27.20,280.0,30.0,1,0,0,22.2
Status,1732151289000,28,8,1,2,1575420030,0.00,51.0,19.0,0,0,0,0.0
Status,1732151289000,28,9,1,24,1575420030,0.00,312.0,12.0,0,0,0,0.0
Status,1732151289000,28,10,1,6,1575420030,0.00,164.0,8.0,0,0,0,0.0
Status,1732151289000,28,11,1,7,1575420030,27.80,129.0,8.0,1,0,0,22.8
Status,1732151289000,28,12,1,21,1575420030,0.00,37.0,7.0,0,0,0,0.0
Status,1732151289000,28,13,3,20,1602000000,0.00,121.0,49.0,0,0,0,0.0
Status,1732151289000,28,14,3,9,1602000000,0.00,75.0,36.0,0,0,0,0.0
Status,1732151289000,28,15,3,8,1602000000,0.00,251.0,27.0,0,0,0,0.0
Status,1732151289000,28,16,3,19,1602000000,0.00,37.0,27.0,0,0,0,0.0
Status,1732151289000,28,17,3,11,1602000000,0.00,306.0,25.0,0,0,0,0.0
Status,1732151289000,28,18,3,17,1602000000,21.90,0.0,0.0,0,0,0,16.9
Status,1732151289000,28,19,6,21,1575420030,0.00,333.0,68.0,0,0,0,0.0
Status,1732151289000,28,20,6,19,1575420030,0.00,248.0,49.0,0,0,0,0.0
Status,1732151289000,28,21,6,27,1575420030,0.00,61.0,36.0,0,0,0,0.0
Status,1732151289000,28,22,6,29,1575420030,0.00,192.0,29.0,0,0,0,0.0
Status,1732151289000,28,23,6,13,1575420030,0.00,123.0,25.0,0,0,0,0.0
Status,1732151289000,28,24,6,15,1575420030,0.00,66.0,23.0,0,0,0,0.0
Status,1732151289000,28,25,6,4,1575420030,0.00,314.0,21.0,0,0,0,0.0
Status,1732151289000,28,26,6,26,1575420030,0.00,169.0,3.0,0,0,0,0.0
Status,1732151289000,28,27,6,6,1575420030,0.00,329.0,2.0,0,0,0,0.0
Fix,GPS,37.4257550000,-122.1579950000,23.8,0.0,6.7,0.0,1732151290000,2.4,179.9,30174081000000,71.8,0,,,
Raw,1732151290000,26340000000,,707015.3158255903,-1416186481660000000,0.0,142.36183576435886,1394.391140210002,0.0,0,15,0.0,16431,349707925090910,396,22.214000701904297,512.9780823936685,0.14999,16,0.0,0.0,1575420030,,,,0,5.8550396084189975,1,6.0,22.214000701904297,0.0,0.0,0.0,66.7128,C,30174081000000,
Raw,1732151290000,26340000000,,707015.3158255903,-1416186481660000000,0.0,142.36183576435886,1394.391140210002,0.0,0,30,0.0,16431,349707926933576,396,21.32900047302246,885.0852339042401,0.14999,16,0.0,0.0,1575420030,,,,0,4.459370174274103,1,6.0,21.32900047302246,0.0,0.0,0.0,66.7128,C,30174081000000,
Raw,1732151290000,26340000000,,707015.3158255903,-1416186481660000000,0.0,142.36183576435886,1394.391140210002,0.0,0,19,0.0,16431,349707929760744,797,14.199999809265137,-22.01241572629894,0.14999,16,0.0,0.0,1575420030,,,,0,0.0,1,6.0,14.199999809265137,0.0,0.0,0.0,66.7128,C,30174081000000,
Raw,1732151290000,26340000000,,707015.3158255903,-1416186481660000000,0.0,142.36183576435886,1394.391140210002,0.0,0,13,0.0,16431,349707929495367,396,22.63599967956543,717.8161663461532,0.14999,16,0.0,0.0,1575420030,,,,0,6.508421943486361,1,6.0,22.63599967956543,0.0,0.0,0.0,66.7128,C,30174081000000,
Raw,1732151290000,26340000000,,707015.3158255903,-1416186481660000000,0.0,142.36183576435886,1394.391140210002,0.0,0,7,0.0,16431,349707918226648,396,22.78499984741211,1031.9780117797145,0.14999,16,0.0,0.0,1575420030,,,,0,6.756607103122759,1,6.0,22.78499984741211,0.0,0.0,0.0,66.7128,C,30174081000000,
Fix,FLP,37.4257598000,-122.1579968000,3.243108548534135,0.03728476,6.685,,1732151290234,2.4,,30174081000000,10.431272,0,,,
Status,1732151290000,28,0,1,17,1575420030,0.00,111.0,80.0,0,0,0,0.0
Status,1732151290000,28,1,1,22,1575420030,0.00,2.0,68.0,0,0,0,0.0
Status,1732151290000,28,2,1,14,1575420030,0.00,47.0,56.0,0,0,0,0.0
Status,1732151290000,28,3,1,19,1575420030,19.20,198.0,56.0,1,0,0,14.200001
Status,1732151290000,28,4,1,13,1575420030,25.30,241.0,51.0,1,0,0,20.3
Status,1732151290000,28,5,2,133,1575420030,0.00,191.0,45.0,0,0,0,0.0
Status,1732151290000,28,6,1,30,1575420030,26.30,128.0,41.0,1,0,0,21.3
Status,1732151290000,28,7,1,15,1575420030,27.10,280.0,30.0,1,0,0,22.1
Status,1732151290000,28,8,1,2,1575420030,0.00,51.0,19.0,0,0,0,0.0
Status,1732151290000,28,9,1,24,1575420030,0.00,312.0,12.0,0,0,0,0.0
Status,1732151290000,28,10,1,6,1575420030,0.00,164.0,8.0,0,0,0,0.0
Status,1732151290000,28,11,1,7,1575420030,28.90,129.0,8.0,1,0,0,23.9
Status,1732151290000,28,12,1,21,1575420030,0.00,37.0,7.0,0,0,0,0.0
Status,1732151290000,28,13,3,20,1602000000,0.00,121.0,49.0,0,0,0,0.0
Status,1732151290000,28,14,3,9,1602000000,0.00,75.0,36.0,0,0,0,0.0
Status,1732151290000,28,15,3,8,1602000000,0.00,251.0,27.0,0,0,0,0.0
Status,1732151290000,28,16,3,19,1602000000,0.00,37.0,27.0,0,0,0,0.0
Status,1732151290000,28,17,3,11,1602000000,0.00,306.0,25.0,0,0,0,0.0
Status,1732151290000,28,18,3,17,1602000000,25.80,0.0,0.0,0,0,0,20.8
Status,1732151290000,28,19,6,21,1575420030,0.00,333.0,68.0,0,0,0,0.0
Status,1732151290000,28,20,6,19,1575420030,0.00,248.0,49.0,0,0,0,0.0
Status,1732151290000,28,21,6,27,1575420030,0.00,61.0,36.0,0,0,0,0.0
Status,1732151290000,28,22,6,29,1575420030,0.00,192.0,29.0,0,0,0,0.0
Status,1732151290000,28,23,6,13,1575420030,0.00,123.0,25.0,0,0,0,0.0
Status,1732151290000,28,24,6,15,1575420030,0.00,66.0,23.0,0,0,0,0.0
Status,1732151290000,28,25,6,4,1575420030,0.00,314.0,21.0,0,0,0,0.0
Status,1732151290000,28,26,6,26,1575420030,0.00,169.0,3.0,0,0,0,0.0
Status,1732151290000,28,27,6,6,1575420030,0.00,329.0,2.0,0,0,0,0.0
Fix,GPS,37.4257633333,-122.1579850000,23.8,0.0,6.7,0.0,1732151291000,2.4,179.9,30175081000000,72.3,0,,,
Fix,FLP,37.4257612000,-122.1579925000,3.159653299855546,0.005662902,6.685,,1732151291234,2.4,,30175081000000,10.47487,0,,,
Raw,1732151291000,27340000000,,707002.8071720203,-1416186481660000000,0.0,142.9466265162783,1396.9737186595971,0.0,0,15,0.0,16431,349708925089194,487,22.104999542236328,513.6025764243706,0.14999,16,0.0,0.0,1575420030,,,,0,2.299218729747485,1,6.0,22.104999542236328,0.0,0.0,0.0,66.7128,C,30175081000000,
Raw,1732151291000,27340000000,,707002.8071720203,-1416186481660000000,0.0,142.9466265162783,1396.9737186595971,0.0,0,30,0.0,16431,349708926930623,396,21.32900047302246,885.1941324318376,0.14999,16,0.0,0.0,1575420030,,,,0,4.459370174274103,1,6.0,21.32900047302246,0.0,0.0,0.0,66.7128,C,30175081000000,
Raw,1732151291000,27340000000,,707002.8071720203,-1416186481660000000,0.0,142.9466265162783,1396.9737186595971,0.0,0,19,0.0,16431,349708929760815,797,14.199999809265137,-20.815414632634422,0.14999,16,0.0,0.0,1575420030,,,,0,0.0,1,6.0,14.199999809265137,0.0,0.0,0.0,66.7128,C,30175081000000,
Raw,1732151291000,27340000000,,707002.8071720203,-1416186481660000000,0.0,142.9466265162783,1396.9737186595971,0.0,0,13,0.0,16431,349708929492968,487,20.260000228881836,719.1246676387229,0.14999,16,0.0,0.0,1575420030,,,,0,2.6986403483598864,1,6.0,20.260000228881836,0.0,0.0,0.0,66.7128,C,30175081000000,
Raw,1732151291000,27340000000,,707002.8071720203,-1416186481660000000,0.0,142.9466265162783,1396.9737186595971,0.0,0,7,0.0,16431,349708918223158,487,23.874000549316406,1032.3885183453508,0.14999,16,0.0,0.0,1575420030,,,,0,8.42140915361261,1,6.0,23.874000549316406,0.0,0.0,0.0,66.7128,C,30175081000000,
Fix,FLP,37.4257619000,-122.1579904000,3.29911974884011,0.003926976,6.685,,1732151291453,2.4,,30175300000000,10.633012,0,,,
Fix,NLP,37.4256606000,-122.1580489000,5.400000095367432,,26.096,,1732151291453,,,30175300000000,36.675808,0,,,
Status,1732151291000,28,0,1,17,1575420030,0.00,111.0,80.0,0,0,0,0.0
Status,1732151291000,28,1,1,22,1575420030,0.00,2.0,68.0,0,0,0,0.0
Status,1732151291000,28,2,1,14,1575420030,0.00,47.0,56.0,0,0,0,0.0
Status,1732151291000,28,3,1,19,1575420030,19.20,198.0,56.0,1,0,0,14.200001
Status,1732151291000,28,4,1,13,1575420030,25.20,241.0,51.0,1,0,0,20.2
Status,1732151291000,28,5,2,133,1575420030,0.00,191.0,45.0,0,0,0,0.0
Status,1732151291000,28,6,1,30,1575420030,30.30,128.0,41.0,1,0,0,25.3
Status,1732151291000,28,7,1,15,1575420030,27.00,280.0,30.0,1,0,0,22.0
Status,1732151291000,28,8,1,2,1575420030,0.00,51.0,19.0,0,0,0,0.0
Status,1732151291000,28,9,1,24,1575420030,0.00,312.0,12.0,0,0,0,0.0
Status,1732151291000,28,10,1,6,1575420030,0.00,164.0,8.0,0,0,0,0.0
Status,1732151291000,28,11,1,7,1575420030,25.50,129.0,8.0,1,0,0,20.5
Status,1732151291000,28,12,1,21,1575420030,0.00,37.0,7.0,0,0,0,0.0
Status,1732151291000,28,13,3,20,1602000000,0.00,121.0,49.0,0,0,0,0.0
Status,1732151291000,28,14,3,9,1602000000,0.00,75.0,36.0,0,0,0,0.0
Status,1732151291000,28,15,3,8,1602000000,0.00,251.0,27.0,0,0,0,0.0
Status,1732151291000,28,16,3,19,1602000000,0.00,37.0,27.0,0,0,0,0.0
Status,1732151291000,28,17,3,11,1602000000,0.00,306.0,25.0,0,0,0,0.0
Status,1732151291000,28,18,3,17,1602000000,24.10,0.0,0.0,0,0,0,19.1
Status,1732151291000,28,19,6,21,1575420030,0.00,333.0,68.0,0,0,0,0.0
Status,1732151291000,28,20,6,19,1575420030,0.00,248.0,49.0,0,0,0,0.0
Status,1732151291000,28,21,6,27,1575420030,0.00,61.0,36.0,0,0,0,0.0
Status,1732151291000,28,22,6,29,1575420030,0.00,192.0,29.0,0,0,0,0.0
Status,1732151291000,28,23,6,13,1575420030,0.00,123.0,25.0,0,0,0,0.0
Status,1732151291000,28,24,6,15,1575420030,0.00,66.0,23.0,0,0,0,0.0
Status,1732151291000,28,25,6,4,1575420030,0.00,314.0,21.0,0,0,0,0.0
Status,1732151291000,28,26,6,26,1575420030,0.00,169.0,3.0,0,0,0,0.0
Status,1732151291000,28,27,6,6,1575420030,0.00,329.0,2.0,0,0,0,0.0
Fix,GPS,37.4257733333,-122.1579733333,23.8,0.0,6.7,0.0,1732151292000,2.3,179.9,30176081000000,70.6,0,,,
Fix,FLP,37.4257660000,-122.1579851000,3.431458047287811,0.054493707,6.685,,1732151292233,2.3,,30176081000000,11.460069,0,,,
Raw,1732151292000,28340000000,,706990.1421602807,-1416186481660000000,0.0,143.08290548736184,1396.7932405424017,0.0,0,15,0.0,16431,349709925087481,797,22.000999450683594,513.454374076659,0.14999,16,0.0,0.0,1575420030,,,,0,2.299218729747485,1,6.0,22.000999450683594,0.0,0.0,0.0,66.7128,C,30176081000000,
Raw,1732151292000,28340000000,,706990.1421602807,-1416186481660000000,0.0,143.08290548736184,1396.7932405424017,0.0,0,30,0.0,16431,349709926927675,316,25.264999389648438,885.4753916835762,0.14999,16,0.0,0.0,1575420030,,,,0,10.399915238480249,1,6.0,25.264999389648438,0.0,0.0,0.0,66.7128,C,30176081000000,
Raw,1732151292000,28340000000,,706990.1421602807,-1416186481660000000,0.0,143.08290548736184,1396.7932405424017,0.0,0,19,0.0,16431,349709929760884,797,14.199999809265137,-20.707538190193553,0.14999,16,0.0,0.0,1575420030,,,,0,0.0,1,6.0,14.199999809265137,0.0,0.0,0.0,66.7128,C,30176081000000,
Raw,1732151292000,28340000000,,706990.1421602807,-1416186481660000000,0.0,143.08290548736184,1396.7932405424017,0.0,0,13,0.0,16431,349709929490565,487,20.20199966430664,718.9750715385251,0.14999,16,0.0,0.0,1575420030,,,,0,0.6128010157467667,1,6.0,20.20199966430664,0.0,0.0,0.0,66.7128,C,30176081000000,
Raw,1732151292000,28340000000,,706990.1421602807,-1416186481660000000,0.0,143.08290548736184,1396.7932405424017,0.0,0,7,0.0,16431,349709918219715,487,20.513999938964844,1032.5752811785173,0.14999,16,0.0,0.0,1575420030,,,,0,3.080499186540333,1,6.0,20.513999938964844,0.0,0.0,0.0,66.7128,C,30176081000000,
Status,1732151292000,28,0,1,17,1575420030,0.00,111.0,80.0,0,0,0,0.0
Status,1732151292000,28,1,1,22,1575420030,0.00,2.0,68.0,0,0,0,0.0
Status,1732151292000,28,2,1,14,1575420030,0.00,47.0,56.0,0,0,0,0.0
Status,1732151292000,28,3,1,19,1575420030,19.20,198.0,56.0,1,0,0,14.200001
Status,1732151292000,28,4,1,13,1575420030,25.10,241.0,51.0,1,0,0,20.1
Status,1732151292000,28,5,2,133,1575420030,0.00,191.0,45.0,0,0,0,0.0
Status,1732151292000,28,6,1,30,1575420030,29.60,128.0,41.0,1,0,0,24.6
Status,1732151292000,28,7,1,15,1575420030,26.90,280.0,30.0,1,0,0,21.9
Status,1732151292000,28,8,1,2,1575420030,0.00,51.0,19.0,0,0,0,0.0
Status,1732151292000,28,9,1,24,1575420030,0.00,312.0,12.0,0,0,0,0.0
Status,1732151292000,28,10,1,6,1575420030,0.00,164.0,8.0,0,0,0,0.0
Status,1732151292000,28,11,1,7,1575420030,25.50,129.0,8.0,1,0,0,20.5
Status,1732151292000,28,12,1,21,1575420030,0.00,37.0,7.0,0,0,0,0.0
Status,1732151292000,28,13,3,20,1602000000,0.00,121.0,49.0,0,0,0,0.0
Status,1732151292000,28,14,3,9,1602000000,0.00,75.0,36.0,0,0,0,0.0
Status,1732151292000,28,15,3,8,1602000000,23.50,251.0,27.0,1,0,0,18.5
Status,1732151292000,28,16,3,19,1602000000,0.00,37.0,27.0,0,0,0,0.0
Status,1732151292000,28,17,3,11,1602000000,27.60,306.0,25.0,0,0,0,22.6
Status,1732151292000,28,18,3,17,1602000000,27.00,0.0,0.0,0,0,0,22.0
Status,1732151292000,28,19,6,21,1575420030,0.00,333.0,68.0,0,0,0,0.0
Status,1732151292000,28,20,6,19,1575420030,0.00,248.0,49.0,0,0,0,0.0
Status,1732151292000,28,21,6,27,1575420030,0.00,61.0,36.0,0,0,0,0.0
Status,1732151292000,28,22,6,29,1575420030,0.00,192.0,29.0,0,0,0,0.0
Status,1732151292000,28,23,6,13,1575420030,0.00,123.0,25.0,0,0,0,0.0
Status,1732151292000,28,24,6,15,1575420030,0.00,66.0,23.0,0,0,0,0.0
Status,1732151292000,28,25,6,4,1575420030,0.00,314.0,21.0,0,0,0,0.0
Status,1732151292000,28,26,6,26,1575420030,0.00,169.0,3.0,0,0,0,0.0
Status,1732151292000,28,27,6,6,1575420030,0.00,329.0,2.0,0,0,0,0.0
Fix,GPS,37.4257816667,-122.1579616667,23.7,0.0,6.7,0.0,1732151293000,2.3,179.9,30177081000000,67.1,0,,,
Fix,FLP,37.4257726000,-122.1579772000,3.431458047287811,0.11788672,6.7,0.000000004138029,1732151293233,2.3,179.9,30177081000000,12.650889,0,,,
Raw,1732151293000,29340000000,,996598.7244749166,-1416186481660000000,0.0,139.8240312050859,1396.121702550521,0.0,0,15,0.0,16431,349710925085767,487,21.902999877929688,514.1668138892476,0.14999,16,0.0,0.0,1575420030,,,,0,2.299218729747485,1,6.0,21.902999877929688,0.0,0.0,0.0,66.7128,C,30177081000000,
Raw,1732151293000,29340000000,,996598.7244749166,-1416186481660000000,0.0,139.8240312050859,1396.121702550521,0.0,0,30,0.0,16431,349710926924720,396,24.628000259399414,885.4753916835762,0.14999,16,0.0,0.0,1575420030,,,,0,9.511532442711992,1,6.0,24.628000259399414,0.0,0.0,0.0,66.7128,C,30177081000000,
Raw,1732151293000,29340000000,,996598.7244749166,-1416186481660000000,0.0,139.8240312050859,1396.121702550521,0.0,0,19,0.0,16431,349710929760958,797,14.234999656677246,-20.679663140467227,0.14999,16,0.0,0.0,1575420030,,,,0,0.0,1,6.0,14.234999656677246,0.0,0.0,0.0,66.7128,C,30177081000000,
Raw,1732151293000,29340000000,,996598.7244749166,-1416186481660000000,0.0,139.8240312050859,1396.121702550521,0.0,0,13,0.0,16431,349710929488168,797,20.14699935913086,718.9041759953877,0.14999,16,0.0,0.0,1575420030,,,,0,0.6128010157467667,1,6.0,20.14699935913086,0.0,0.0,0.0,66.7128,C,30177081000000,
Raw,1732151293000,29340000000,,996598.7244749166,-1416186481660000000,0.0,139.8240312050859,1396.121702550521,0.0,0,8,0.0,17,622288,797,5.0,943.4109596177161,0.14999,16,0.0,0.0,1605374980,,,,0,1.7667691273392028,3,6.0,17.0,0.0,0.0,106.8873974182589,66.7128,C,30177081000000,
Raw,1732151293000,29340000000,,996598.7244749166,-1416186481660000000,0.0,139.8240312050859,1396.121702550521,0.0,0,11,0.0,17,10105,487,18.5,-57.01450213292619,0.14999,16,0.0,0.0,1602000000,,,,0,7.92256071356476,3,6.0,18.5,0.0,0.0,106.8873974182589,66.7128,C,30177081000000,
Raw,1732151293000,29340000000,,996598.7244749166,-1416186481660000000,0.0,139.8240312050859,1396.121702550521,0.0,0,7,0.0,16431,349710918216271,487,20.513999938964844,1032.4612722251366,0.14999,16,0.0,0.0,1575420030,,,,0,3.080499186540333,1,6.0,20.513999938964844,0.0,0.0,0.0,66.7128,C,30177081000000,
Status,1732151293000,28,0,1,17,1575420030,0.00,111.0,80.0,0,0,0,0.0
Status,1732151293000,28,1,1,22,1575420030,0.00,2.0,68.0,0,0,0,0.0
Status,1732151293000,28,2,1,14,1575420030,0.00,47.0,56.0,0,0,0,0.0
Status,1732151293000,28,3,1,19,1575420030,19.30,198.0,56.0,1,0,0,14.299999
Status,1732151293000,28,4,1,13,1575420030,25.10,241.0,51.0,1,0,0,20.1
Status,1732151293000,28,5,2,133,1575420030,0.00,191.0,45.0,0,0,0,0.0
Status,1732151293000,28,6,1,30,1575420030,26.40,128.0,41.0,1,0,0,21.4
Status,1732151293000,28,7,1,15,1575420030,24.40,280.0,30.0,1,0,0,19.4
Status,1732151293000,28,8,1,2,1575420030,0.00,51.0,19.0,0,0,0,0.0
Status,1732151293000,28,9,1,24,1575420030,0.00,312.0,12.0,0,0,0,0.0
Status,1732151293000,28,10,1,6,1575420030,0.00,164.0,8.0,0,0,0,0.0
Status,1732151293000,28,11,1,7,1575420030,25.50,129.0,8.0,1,0,0,20.5
Status,1732151293000,28,12,1,21,1575420030,0.00,37.0,7.0,0,0,0,0.0
Status,1732151293000,28,13,3,20,1602000000,0.00,121.0,49.0,0,0,0,0.0
Status,1732151293000,28,14,3,9,1602000000,0.00,75.0,36.0,0,0,0,0.0
Status,1732151293000,28,15,3,8,1602000000,0.00,251.0,27.0,0,0,0,0.0
Status,1732151293000,28,16,3,19,1602000000,0.00,37.0,27.0,0,0,0,0.0
Status,1732151293000,28,17,3,11,1602000000,22.70,306.0,25.0,0,0,0,17.7
Status,1732151293000,28,18,3,17,1602000000,22.70,0.0,0.0,0,0,0,17.7
Status,1732151293000,28,19,6,21,1575420030,0.00,333.0,68.0,0,0,0,0.0
Status,1732151293000,28,20,6,19,1575420030,0.00,248.0,49.0,0,0,0,0.0
Status,1732151293000,28,21,6,27,1575420030,0.00,61.0,36.0,0,0,0,0.0
Status,1732151293000,28,22,6,29,1575420030,0.00,192.0,29.0,0,0,0,0.0
Status,1732151293000,28,23,6,13,1575420030,0.00,123.0,25.0,0,0,0,0.0
Status,1732151293000,28,24,6,15,1575420030,0.00,66.0,23.0,0,0,0,0.0
Status,1732151293000,28,25,6,4,1575420030,0.00,314.0,21.0,0,0,0,0.0
Status,1732151293000,28,26,6,26,1575420030,0.00,169.0,3.0,0,0,0,0.0
Status,1732151293000,28,27,6,6,1575420030,0.00,329.0,2.0,0,0,0,0.0
Fix,GPS,37.4257916667,-122.1579483333,23.7,0.0,6.7,0.0,1732151294000,2.2,179.9,30178081000000,67.3,0,,,
Fix,FLP,37.4257811000,-122.1579670000,3.348512488459945,0.17748733,6.7,0.0000000033256897,1732151294233,2.2,179.9,30178081000000,13.292958,0,,,
Raw,1732151294000,30340000000,,705819.6970218644,-1416186481660000000,0.0,140.9857235434652,1395.6824427275612,0.0,0,15,0.0,16431,349711925084053,797,19.35300064086914,514.2297650432129,0.14999,16,0.0,0.0,1575420030,,,,0,1.0954746100811552,1,6.0,19.35300064086914,0.0,0.0,0.0,66.7128,C,30178081000000,
Raw,1732151294000,30340000000,,705819.6970218644,-1416186481660000000,0.0,140.9857235434652,1395.6824427275612,0.0,0,30,0.0,16431,349711926921769,487,21.41699981689453,885.3522768806182,0.14999,16,0.0,0.0,1575420030,,,,0,4.617299791194779,1,6.0,21.41699981689453,0.0,0.0,0.0,66.7128,C,30178081000000,
Raw,1732151294000,30340000000,,705819.6970218644,-1416186481660000000,0.0,140.9857235434652,1395.6824427275612,0.0,0,19,0.0,16431,349711929761028,797,14.267999649047852,-21.11823058949471,0.14999,16,0.0,0.0,1575420030,,,,0,0.0,1,6.0,14.267999649047852,0.0,0.0,0.0,66.7128,C,30178081000000,
Raw,1732151294000,30340000000,,705819.6970218644,-1416186481660000000,0.0,140.9857235434652,1395.6824427275612,0.0,0,13,0.0,16431,349711929485770,396,20.0939998626709,718.9510525373441,0.14999,16,0.0,0.0,1575420030,,,,0,0.6128010157467667,1,6.0,20.0939998626709,0.0,0.0,0.0,66.7128,C,30178081000000,
Raw,1732151294000,30340000000,,705819.6970218644,-1416186481660000000,0.0,140.9857235434652,1395.6824427275612,0.0,0,11,0.0,17,10296,487,19.0,-58.10721220633083,0.14999,16,0.0,0.0,1602000000,,,,0,0.38015741887547794,3,6.0,19.0,0.0,0.0,106.8873974182589,66.7128,C,30178081000000,
Raw,1732151294000,30340000000,,705819.6970218644,-1416186481660000000,0.0,140.9857235434652,1395.6824427275612,0.0,0,7,0.0,16431,349711918212822,797,20.513999938964844,1032.0660040200173,0.14999,16,0.0,0.0,1575420030,,,,0,3.080499186540333,1,6.0,20.513999938964844,0.0,0.0,0.0,66.7128,C,30178081000000,
Status,1732151294000,28,0,1,17,1575420030,0.00,111.0,80.0,0,0,0,0.0
Status,1732151294000,28,1,1,22,1575420030,0.00,2.0,68.0,0,0,0,0.0
Status,1732151294000,28,2,1,14,1575420030,0.00,47.0,56.0,0,0,0,0.0
Status,1732151294000,28,3,1,19,1575420030,19.30,198.0,56.0,1,0,0,14.299999
Status,1732151294000,28,4,1,13,1575420030,25.20,241.0,51.0,1,0,0,20.2
Status,1732151294000,28,5,2,133,1575420030,0.00,191.0,45.0,0,0,0,0.0
Status,1732151294000,28,6,1,30,1575420030,26.40,128.0,41.0,1,0,0,21.4
Status,1732151294000,28,7,1,15,1575420030,24.40,280.0,30.0,1,0,0,19.4
Status,1732151294000,28,8,1,2,1575420030,0.00,51.0,19.0,0,0,0,0.0
Status,1732151294000,28,9,1,24,1575420030,0.00,312.0,12.0,0,0,0,0.0
Status,1732151294000,28,10,1,6,1575420030,0.00,164.0,8.0,0,0,0,0.0
Status,1732151294000,28,11,1,7,1575420030,25.50,129.0,8.0,1,0,0,20.5
Status,1732151294000,28,12,1,21,1575420030,0.00,37.0,7.0,0,0,0,0.0
Status,1732151294000,28,13,3,20,1602000000,0.00,121.0,49.0,0,0,0,0.0
Status,1732151294000,28,14,3,9,1602000000,0.00,75.0,36.0,0,0,0,0.0
Status,1732151294000,28,15,3,8,1602000000,0.00,251.0,27.0,0,0,0,0.0
Status,1732151294000,28,16,3,19,1602000000,0.00,37.0,27.0,0,0,0,0.0
Status,1732151294000,28,17,3,11,1602000000,23.30,306.0,25.0,0,0,0,18.3
Status,1732151294000,28,18,3,17,1602000000,28.30,0.0,0.0,0,0,0,23.3
Status,1732151294000,28,19,6,21,1575420030,0.00,333.0,68.0,0,0,0,0.0
Status,1732151294000,28,20,6,19,1575420030,0.00,248.0,49.0,0,0,0,0.0
Status,1732151294000,28,21,6,27,1575420030,0.00,61.0,36.0,0,0,0,0.0
Status,1732151294000,28,22,6,29,1575420030,0.00,192.0,29.0,0,0,0,0.0
Status,1732151294000,28,23,6,13,1575420030,0.00,123.0,25.0,0,0,0,0.0
Status,1732151294000,28,24,6,15,1575420030,0.00,66.0,23.0,0,0,0,0.0
Status,1732151294000,28,25,6,4,1575420030,0.00,314.0,21.0,0,0,0,0.0
Status,1732151294000,28,26,6,26,1575420030,0.00,169.0,3.0,0,0,0,0.0
Status,1732151294000,28,27,6,6,1575420030,0.00,329.0,2.0,0,0,0,0.0
Fix,GPS,37.4258150000,-122.1579266667,23.7,0.0,6.6,0.0,1732151295000,2.2,179.9,30179081000000,67.1,0,,,
Fix,FLP,37.4257965000,-122.1579524000,3.431458047287811,0.29664636,6.685,0.0000000028091676,1732151295233,2.2,179.9,30179081000000,15.150575,0,,,
Raw,1732151295000,31340000000,,705731.8758499254,-1416186481660000000,0.0,141.3168267280184,1391.6397674012285,0.0,0,15,0.0,16431,349712925082340,797,19.35300064086914,512.8692303244873,0.14999,16,0.0,0.0,1575420030,,,,0,1.0954746100811552,1,6.0,19.35300064086914,0.0,0.0,0.0,66.7128,C,30179081000000,
Raw,1732151295000,31340000000,,705731.8758499254,-1416186481660000000,0.0,141.3168267280184,1391.6397674012285,0.0,0,30,0.0,16431,349712926918819,487,21.37700080871582,883.5504336663088,0.14999,16,0.0,0.0,1575420030,,,,0,3.2653123212385857,1,6.0,21.37700080871582,0.0,0.0,0.0,66.7128,C,30179081000000,
Raw,1732151295000,31340000000,,705731.8758499254,-1416186481660000000,0.0,141.3168267280184,1391.6397674012285,0.0,0,19,0.0,16431,349712929761113,797,14.347999572753906,-21.963587930861664,0.14999,16,0.0,0.0,1575420030,,,,0,0.0,1,6.0,14.347999572753906,0.0,0.0,0.0,66.7128,C,30179081000000,
Raw,1732151295000,31340000000,,705731.8758499254,-1416186481660000000,0.0,141.3168267280184,1391.6397674012285,0.0,0,13,0.0,16431,349712929483339,487,20.177000045776367,717.8660162267471,0.14999,16,0.0,0.0,1575420030,,,,0,5.148480361584138,1,6.0,20.177000045776367,0.0,0.0,0.0,66.7128,C,30179081000000,
Raw,1732151295000,31340000000,,705731.8758499254,-1416186481660000000,0.0,141.3168267280184,1391.6397674012285,0.0,0,11,0.0,17,10425,487,18.0,-58.115435972405706,0.14999,16,0.0,0.0,1602000000,,,,0,1.3973752628515745,3,6.0,18.0,0.0,0.0,106.8873974182589,66.7128,C,30179081000000,
Raw,1732151295000,31340000000,,705731.8758499254,-1416186481660000000,0.0,141.3168267280184,1391.6397674012285,0.0,0,7,0.0,16431,349712918209378,487,20.520999908447266,1031.6680412267579,0.14999,16,0.0,0.0,1575420030,,,,0,3.3562648762529985,1,6.0,20.520999908447266,0.0,0.0,0.0,66.7128,C,30179081000000,
Status,1732151295000,28,0,1,17,1575420030,0.00,111.0,80.0,0,0,0,0.0
Status,1732151295000,28,1,1,22,1575420030,0.00,2.0,68.0,0,0,0,0.0
Status,1732151295000,28,2,1,14,1575420030,0.00,47.0,56.0,0,0,0,0.0
Status,1732151295000,28,3,1,19,1575420030,19.40,198.0,56.0,1,0,0,14.4
Status,1732151295000,28,4,1,13,1575420030,25.20,241.0,51.0,1,0,0,20.2
Status,1732151295000,28,5,2,135,1575420030,0.00,197.0,45.0,0,0,0,0.0
Status,1732151295000,28,6,1,30,1575420030,26.40,128.0,41.0,1,0,0,21.4
Status,1732151295000,28,7,1,15,1575420030,21.10,280.0,30.0,1,0,0,16.1
Status,1732151295000,28,8,1,2,1575420030,0.00,51.0,19.0,0,0,0,0.0
Status,1732151295000,28,9,1,24,1575420030,0.00,312.0,12.0,0,0,0,0.0
Status,1732151295000,28,10,1,6,1575420030,0.00,164.0,8.0,0,0,0,0.0
Status,1732151295000,28,11,1,7,1575420030,32.80,129.0,8.0,1,0,0,27.8
Status,1732151295000,28,12,1,21,1575420030,0.00,37.0,7.0,0,0,0,0.0
Status,1732151295000,28,13,3,20,1602000000,0.00,121.0,49.0,0,0,0,0.0
Status,1732151295000,28,14,3,9,1602000000,0.00,75.0,36.0,0,0,0,0.0
Status,1732151295000,28,15,3,8,1602000000,0.00,251.0,27.0,0,0,0,0.0
Status,1732151295000,28,16,3,19,1602000000,0.00,37.0,27.0,0,0,0,0.0
Status,1732151295000,28,17,3,11,1602000000,22.70,306.0,25.0,0,0,0,17.7
Status,1732151295000,28,18,3,17,1602000000,23.90,0.0,0.0,0,0,0,18.9
Status,1732151295000,28,19,6,21,1575420030,0.00,333.0,68.0,0,0,0,0.0
Status,1732151295000,28,20,6,19,1575420030,0.00,248.0,49.0,0,0,0,0.0
Status,1732151295000,28,21,6,27,1575420030,0.00,61.0,36.0,0,0,0,0.0
Status,1732151295000,28,22,6,29,1575420030,0.00,192.0,29.0,0,0,0,0.0
Status,1732151295000,28,23,6,13,1575420030,0.00,123.0,25.0,0,0,0,0.0
Status,1732151295000,28,24,6,15,1575420030,0.00,66.0,23.0,0,0,0,0.0
Status,1732151295000,28,25,6,4,1575420030,0.00,314.0,21.0,0,0,0,0.0
Status,1732151295000,28,26,6,26,1575420030,0.00,169.0,3.0,0,0,0,0.0
Status,1732151295000,28,27,6,6,1575420030,0.00,329.0,2.0,0,0,0,0.0
Fix,GPS,37.4258250000,-122.1579233333,23.7,0.0,6.6,0.0,1732151296000,2.2,179.9,30180081000000,66.6,0,,,
Raw,1732151296000,32340000000,,705652.0289446374,-1416186481660000000,0.0,138.50581527909702,1388.6705092078535,0.0,0,15,0.0,16431,349713925080630,797,16.086999893188477,512.0250344435256,0.14999,16,0.0,0.0,1575420030,,,,0,0.0,1,6.0,16.086999893188477,0.0,0.0,0.0,66.7128,C,30180081000000,
Raw,1732151296000,32340000000,,705652.0289446374,-1416186481660000000,0.0,138.50581527909702,1388.6705092078535,0.0,0,30,0.0,16431,349713926915869,487,21.374000549316406,883.8812175897277,0.14999,16,0.0,0.0,1575420030,,,,0,4.459370174274103,1,6.0,21.374000549316406,0.0,0.0,0.0,66.7128,C,30180081000000,
Raw,1732151296000,32340000000,,705652.0289446374,-1416186481660000000,0.0,138.50581527909702,1388.6705092078535,0.0,0,19,0.0,16431,349713929761187,487,14.423999786376953,-22.912640457210543,0.14999,16,0.0,0.0,1575420030,,,,0,0.0,1,6.0,14.423999786376953,0.0,0.0,0.0,66.7128,C,30180081000000,
Raw,1732151296000,32340000000,,705652.0289446374,-1416186481660000000,0.0,138.50581527909702,1388.6705092078535,0.0,0,13,0.0,16431,349713929480982,487,20.17799949645996,717.4174602182343,0.14999,16,0.0,0.0,1575420030,,,,0,2.6004936584650027,1,6.0,20.17799949645996,0.0,0.0,0.0,66.7128,C,30180081000000,
Raw,1732151296000,32340000000,,705652.0289446374,-1416186481660000000,0.0,138.50581527909702,1388.6705092078535,0.0,0,11,0.0,17,10648,487,19.0,-59.68663216860028,0.14999,16,0.0,0.0,1602000000,,,,0,0.3641718149243376,3,6.0,19.0,0.0,0.0,106.8873974182589,66.7128,C,30180081000000,
Raw,1732151296000,32340000000,,705652.0289446374,-1416186481660000000,0.0,138.50581527909702,1388.6705092078535,0.0,0,7,0.0,16431,349713918205921,235,27.84000015258789,1031.7579847205416,0.14999,16,0.0,0.0,1575420030,,,,0,13.840940863559071,1,6.0,27.84000015258789,0.0,0.0,0.0,66.7128,C,30180081000000,
Fix,FLP,37.4258100000,-122.1579418000,3.243108548534135,0.34426954,6.671,0.0000000017428422,1732151296233,2.2,179.9,30180081000000,11.402323,0,,,
Fix,FLP,37.4258156000,-122.1579361000,3.077171016845602,0.3112544,6.65,0.000000001333085,1732151296624,2.2,179.9,30180472000000,12.026743,0,,,
Fix,NLP,37.4256645000,-122.1581620000,5.400000095367432,,110.0,,1732151296624,,,30180472000000,47.49674,0,,,
Status,1732151296000,28,0,1,17,1575420030,0.00,111.0,80.0,0,0,0,0.0
Status,1732151296000,28,1,1,22,1575420030,0.00,2.0,68.0,0,0,0,0.0
Status,1732151296000,28,2,1,14,1575420030,0.00,47.0,56.0,0,0,0,0.0
Status,1732151296000,28,3,1,19,1575420030,25.10,198.0,56.0,1,0,0,20.1
Status,1732151296000,28,4,1,13,1575420030,25.20,241.0,51.0,1,0,0,20.2
Status,1732151296000,28,5,2,135,1575420030,0.00,197.0,45.0,0,0,0,0.0
Status,1732151296000,28,6,1,30,1575420030,26.40,128.0,41.0,1,0,0,21.4
Status,1732151296000,28,7,1,15,1575420030,24.90,280.0,30.0,1,0,0,19.9
Status,1732151296000,28,8,1,2,1575420030,0.00,51.0,19.0,0,0,0,0.0
Status,1732151296000,28,9,1,24,1575420030,0.00,312.0,12.0,0,0,0,0.0
Status,1732151296000,28,10,1,6,1575420030,0.00,164.0,8.0,0,0,0,0.0
Status,1732151296000,28,11,1,7,1575420030,28.60,129.0,8.0,1,0,0,23.6
Status,1732151296000,28,12,1,21,1575420030,0.00,37.0,7.0,0,0,0,0.0
Status,1732151296000,28,13,3,20,1602000000,0.00,121.0,49.0,0,0,0,0.0
Status,1732151296000,28,14,3,9,1602000000,0.00,75.0,36.0,0,0,0,0.0
Status,1732151296000,28,15,3,8,1602000000,21.90,251.0,27.0,1,0,0,16.9
Status,1732151296000,28,16,3,19,1602000000,0.00,37.0,27.0,0,0,0,0.0
Status,1732151296000,28,17,3,11,1602000000,22.70,306.0,25.0,0,0,0,17.7
Status,1732151296000,28,18,3,17,1602000000,24.80,0.0,0.0,0,0,0,19.8
Status,1732151296000,28,19,6,21,1575420030,0.00,333.0,68.0,0,0,0,0.0
Status,1732151296000,28,20,6,19,1575420030,0.00,248.0,49.0,0,0,0,0.0
Status,1732151296000,28,21,6,27,1575420030,0.00,61.0,36.0,0,0,0,0.0
Status,1732151296000,28,22,6,29,1575420030,0.00,192.0,29.0,0,0,0,0.0
Status,1732151296000,28,23,6,13,1575420030,0.00,123.0,25.0,0,0,0,0.0
Status,1732151296000,28,24,6,15,1575420030,0.00,66.0,23.0,0,0,0,0.0
Status,1732151296000,28,25,6,4,1575420030,0.00,314.0,21.0,0,0,0,0.0
Status,1732151296000,28,26,6,26,1575420030,0.00,169.0,3.0,0,0,0,0.0
Status,1732151296000,28,27,6,6,1575420030,0.00,329.0,2.0,0,0,0,0.0
Fix,GPS,37.4258416667,-122.1579133333,23.7,0.0,6.5,0.0,1732151297000,2.1,179.9,30181081000000,66.1,0,,,
Fix,FLP,37.4258256000,-122.1579290000,3.077171016845602,0.3249618,6.628,0.0000000016186733,1732151297233,2.1,179.9,30181081000000,11.781986,0,,,
Raw,1732151297000,33340000000,,705612.9915216212,-1416186481660000000,0.0,136.24563299723775,1386.21093231995,0.0,0,15,0.0,16431,349714925078917,487,19.933000564575195,511.6643777584831,0.14999,16,0.0,0.0,1575420030,,,,0,2.0924020629831093,1,6.0,19.933000564575195,0.0,0.0,0.0,66.7128,C,30181081000000,
Raw,1732151297000,33340000000,,705612.9915216212,-1416186481660000000,0.0,136.24563299723775,1386.21093231995,0.0,0,30,0.0,16431,349714926912922,797,21.371000289916992,883.3226945100447,0.14999,16,0.0,0.0,1575420030,,,,0,4.459370174274103,1,6.0,21.371000289916992,0.0,0.0,0.0,66.7128,C,30181081000000,
Raw,1732151297000,33340000000,,705612.9915216212,-1416186481660000000,0.0,136.24563299723775,1386.21093231995,0.0,0,19,0.0,16431,349714929761229,487,20.097000122070312,-23.52096695907133,0.14999,16,0.0,0.0,1575420030,,,,0,2.4008092403329857,1,6.0,20.097000122070312,0.0,0.0,0.0,66.7128,C,30181081000000,
Raw,1732151297000,33340000000,,705612.9915216212,-1416186481660000000,0.0,136.24563299723775,1386.21093231995,0.0,0,13,0.0,16431,349714929478590,797,20.179000854492188,716.5045987981134,0.14999,16,0.0,0.0,1575420030,,,,0,2.6004936584650027,1,6.0,20.179000854492188,0.0,0.0,0.0,66.7128,C,30181081000000,
Raw,1732151297000,33340000000,,705612.9915216212,-1416186481660000000,0.0,136.24563299723775,1386.21093231995,0.0,0,8,0.0,17,609663,797,5.0,943.4725993794077,0.14999,16,0.0,0.0,1605374980,,,,0,0.0,3,6.0,17.0,0.0,0.0,105.15452168646198,66.7128,C,30181081000000,
Raw,1732151297000,33340000000,,705612.9915216212,-1416186481660000000,0.0,136.24563299723775,1386.21093231995,0.0,0,11,0.0,17,10844,797,16.899999618530273,-58.614847011097275,0.14999,16,0.0,0.0,1602000000,,,,0,0.3641718149243376,3,6.0,16.899999618530273,0.0,0.0,105.15452168646198,66.7128,C,30181081000000,
Raw,1732151297000,33340000000,,705612.9915216212,-1416186481660000000,0.0,136.24563299723775,1386.21093231995,0.0,0,7,0.0,16431,349714918202486,396,23.648000717163086,1030.5781267824586,0.14999,16,0.0,0.0,1575420030,,,,0,8.060519099739755,1,6.0,23.648000717163086,0.0,0.0,0.0,66.7128,C,30181081000000,
Status,1732151297000,28,0,1,17,1575420030,0.00,111.0,80.0,0,0,0,0.0
Status,1732151297000,28,1,1,22,1575420030,0.00,2.0,68.0,0,0,0,0.0
Status,1732151297000,28,2,1,14,1575420030,0.00,47.0,56.0,0,0,0,0.0
Status,1732151297000,28,3,1,19,1575420030,25.10,198.0,56.0,1,0,0,20.1
Status,1732151297000,28,4,1,13,1575420030,25.20,241.0,51.0,1,0,0,20.2
Status,1732151297000,28,5,2,135,1575420030,0.00,197.0,45.0,0,0,0,0.0
Status,1732151297000,28,6,1,30,1575420030,26.40,128.0,41.0,1,0,0,21.4
Status,1732151297000,28,7,1,15,1575420030,25.00,280.0,30.0,1,0,0,20.0
Status,1732151297000,28,8,1,2,1575420030,0.00,51.0,19.0,0,0,0,0.0
Status,1732151297000,28,9,1,24,1575420030,0.00,312.0,12.0,0,0,0,0.0
Status,1732151297000,28,10,1,6,1575420030,0.00,164.0,8.0,0,0,0,0.0
Status,1732151297000,28,11,1,7,1575420030,28.40,129.0,8.0,1,0,0,23.4
Status,1732151297000,28,12,1,21,1575420030,0.00,37.0,7.0,0,0,0,0.0
Status,1732151297000,28,13,3,20,1602000000,0.00,121.0,49.0,0,0,0,0.0
Status,1732151297000,28,14,3,9,1602000000,0.00,75.0,36.0,0,0,0,0.0
Status,1732151297000,28,15,3,8,1602000000,23.80,251.0,27.0,1,0,0,18.8
Status,1732151297000,28,16,3,19,1602000000,0.00,37.0,27.0,0,0,0,0.0
Status,1732151297000,28,17,3,11,1602000000,19.80,306.0,25.0,0,0,0,14.799999
Status,1732151297000,28,18,3,17,1602000000,25.60,0.0,0.0,0,0,0,20.6
Status,1732151297000,28,19,6,21,1575420030,0.00,333.0,68.0,0,0,0,0.0
Status,1732151297000,28,20,6,19,1575420030,0.00,248.0,49.0,0,0,0,0.0
Status,1732151297000,28,21,6,27,1575420030,0.00,61.0,36.0,0,0,0,0.0
Status,1732151297000,28,22,6,29,1575420030,0.00,192.0,29.0,0,0,0,0.0
Status,1732151297000,28,23,6,13,1575420030,0.00,123.0,25.0,0,0,0,0.0
Status,1732151297000,28,24,6,15,1575420030,0.00,66.0,23.0,0,0,0,0.0
Status,1732151297000,28,25,6,4,1575420030,0.00,314.0,21.0,0,0,0,0.0
Status,1732151297000,28,26,6,26,1575420030,0.00,169.0,3.0,0,0,0,0.0
Status,1732151297000,28,27,6,6,1575420030,0.00,329.0,2.0,0,0,0,0.0
Fix,GPS,37.4258366667,-122.1579266667,23.7,0.0,6.5,0.0,1732151298000,2.1,179.9,30182081000000,55.8,0,,,
Fix,FLP,37.4258313000,-122.1579282000,3.3275417064638546,0.2656278,6.6,0.00000000019154572,1732151298233,2.1,179.9,30182081000000,10.768387,0,,,
Raw,1732151298000,34340000000,,705567.5434136505,-1416186481660000000,0.0,133.40908355625618,1382.9590795885267,0.0,0,15,0.0,16431,349715925077232,487,19.99799919128418,510.44642391910764,0.14999,16,0.0,0.0,1575420030,,,,0,4.298515769165824,1,6.0,19.99799919128418,0.0,0.0,0.0,66.7128,C,30182081000000,
Raw,1732151298000,34340000000,,705567.5434136505,-1416186481660000000,0.0,133.40908355625618,1382.9590795885267,0.0,0,30,0.0,16431,349715926909976,797,21.368000030517578,882.5981290508252,0.14999,16,0.0,0.0,1575420030,,,,0,4.459370174274103,1,6.0,21.368000030517578,0.0,0.0,0.0,66.7128,C,30182081000000,
Raw,1732151298000,34340000000,,705567.5434136505,-1416186481660000000,0.0,133.40908355625618,1382.9590795885267,0.0,0,19,0.0,16431,349715929761309,797,20.097000122070312,-24.88275605503463,0.14999,16,0.0,0.0,1575420030,,,,0,2.4008092403329857,1,6.0,20.097000122070312,0.0,0.0,0.0,66.7128,C,30182081000000,
Raw,1732151298000,34340000000,,705567.5434136505,-1416186481660000000,0.0,133.40908355625618,1382.9590795885267,0.0,0,13,0.0,16431,349715929476200,797,20.18000030517578,715.952394063035,0.14999,16,0.0,0.0,1575420030,,,,0,2.6004936584650027,1,6.0,20.18000030517578,0.0,0.0,0.0,66.7128,C,30182081000000,
Raw,1732151298000,34340000000,,705567.5434136505,-1416186481660000000,0.0,133.40908355625618,1382.9590795885267,0.0,0,8,0.0,17,606518,487,5.0,942.1526331216434,0.14999,16,0.0,0.0,1605374980,,,,0,2.2632408018398458,3,6.0,20.0,0.0,0.0,85.24440368772821,66.7128,C,30182081000000,
