# 
# Header Description:
# 
# Version: v3.1.0.3 Platform: 13 Manufacturer: samsung Model: SM-S135DL GNSS Hardware Model Name: MediaTek,MT6631,MTK_MNLD_default,MNL_VER_default
# 
# Raw,utcTimeMillis,TimeNanos,LeapSecond,TimeUncertaintyNanos,FullBiasNanos,BiasNanos,BiasUncertaintyNanos,DriftNanosPerSecond,DriftUncertaintyNanosPerSecond,HardwareClockDiscontinuityCount,Svid,TimeOffsetNanos,State,ReceivedSvTimeNanos,ReceivedSvTimeUncertaintyNanos,Cn0DbHz,PseudorangeRateMetersPerSecond,PseudorangeRateUncertaintyMetersPerSecond,AccumulatedDeltaRangeState,AccumulatedDeltaRangeMeters,AccumulatedDeltaRangeUncertaintyMeters,CarrierFrequencyHz,CarrierCycles,CarrierPhase,CarrierPhaseUncertainty,MultipathIndicator,SnrInDb,ConstellationType,AgcDb,BasebandCn0DbHz,FullInterSignalBiasNanos,FullInterSignalBiasUncertaintyNanos,SatelliteInterSignalBiasNanos,SatelliteInterSignalBiasUncertaintyNanos,CodeType,ChipsetElapsedRealtimeNanos,IsFullTracking
# 
# UncalAccel,utcTimeMillis,elapsedRealtimeNanos,UncalAccelXMps2,UncalAccelYMps2,UncalAccelZMps2,BiasXMps2,BiasYMps2,BiasZMps2
# 
# Accel,utcTimeMillis,elapsedRealtimeNanos,AccelXMps2,AccelYMps2,AccelZMps2
# 
# UncalGyro,utcTimeMillis,elapsedRealtimeNanos,UncalGyroXRadPerSec,UncalGyroYRadPerSec,UncalGyroZRadPerSec,DriftXRadPerSec,DriftYRadPerSec,DriftZRadPerSec
# 
# Gyro,utcTimeMillis,elapsedRealtimeNanos,GyroXRadPerSec,GyroYRadPerSec,GyroZRadPerSec
# 
# UncalMag,utcTimeMillis,elapsedRealtimeNanos,UncalMagXMicroT,UncalMagYMicroT,UncalMagZMicroT,BiasXMicroT,BiasYMicroT,BiasZMicroT
# 
# Mag,utcTimeMillis,elapsedRealtimeNanos,MagXMicroT,MagYMicroT,MagZMicroT
# 
# Pressure,utcTimeMillis,elapsedRealtimeNanos,PressureHpa
# 
# OrientationDeg,utcTimeMillis,elapsedRealtimeNanos,yawDeg,rollDeg,pitchDeg
# 
# Fix,Provider,LatitudeDegrees,LongitudeDegrees,AltitudeMeters,SpeedMps,AccuracyMeters,BearingDegrees,UnixTimeMillis,SpeedAccuracyMps,BearingAccuracyDegrees,elapsedRealtimeNanos,VerticalAccuracyMeters,MockLocation,NumberOfUsedSignals,VerticalSpeedAccuracyMps,SolutionType
# 
# Nav,Svid,Type,Status,MessageId,Sub-messageId,Data(Bytes)
# 
# Status,UnixTimeMillis,SignalCount,SignalIndex,ConstellationType,Svid,CarrierFrequencyHz,Cn0DbHz,AzimuthDegrees,ElevationDegrees,UsedInFix,HasAlmanacData,HasEphemerisData,BasebandCn0DbHz
# 
# Agc,utcTimeMillis,TimeNanos,LeapSecond,TimeUncertaintyNanos,FullBiasNanos,BiasNanos,BiasUncertaintyNanos,DriftNanosPerSecond,DriftUncertaintyNanosPerSecond,HardwareClockDiscontinuityCount,AgcDb,CarrierFrequencyHz,ConstellationType
# 
Fix,FLP,37.4256833000,-122.1580714000,5.400000095367432,0.10166103,17.148,0.00000034226605,1732151825244,2.1,179.9,30709091000000,19.343609,0,,,
Status,,27,0,1,17,1575420030,0.00,87.0,79.0,0,0,0,0.0
Status,,27,1,1,22,1575420030,0.00,12.0,66.0,0,0,0,0.0
Status,,27,2,1,19,1575420030,0.00,200.0,60.0,0,0,0,0.0
Status,,27,3,1,14,1575420030,0.00,52.0,53.0,0,0,0,0.0
Status,,27,4,1,13,1575420030,26.10,235.0,48.0,1,0,0,21.1
Status,,27,5,2,135,1575420030,0.00,197.0,45.0,0,0,0,0.0
Status,,27,6,1,30,1575420030,0.00,131.0,37.0,0,0,0,0.0
Status,,27,7,1,15,1575420030,23.30,276.0,30.0,1,0,0,18.3
Status,,27,8,1,2,1575420030,0.00,48.0,17.0,0,0,0,0.0
Status,,27,9,1,24,1575420030,0.00,313.0,16.0,0,0,0,0.0
Status,,27,10,1,6,1575420030,0.00,162.0,11.0,0,0,0,0.0
Status,,27,11,1,21,1575420030,0.00,34.0,5.0,0,0,0,0.0
Status,,27,12,1,7,1575420030,29.30,131.0,5.0,1,0,0,24.3
Status,,27,13,3,20,1602000000,0.00,115.0,52.0,0,0,0,0.0
Status,,27,14,3,9,1602000000,0.00,80.0,34.0,0,0,0,0.0
Status,,27,15,3,11,1602000000,21.90,310.0,27.0,0,0,0,16.9
Status,,27,16,3,19,1602000000,0.00,34.0,24.0,0,0,0,0.0
Status,,27,17,3,8,1602000000,28.10,247.0,23.0,1,0,0,23.1
Status,,27,18,6,21,1575420030,0.00,342.0,68.0,0,0,0,0.0
Status,,27,19,6,19,1575420030,0.00,244.0,46.0,0,0,0,0.0
Status,,27,20,6,27,1575420030,0.00,64.0,34.0,0,0,0,0.0
Status,,27,21,6,13,1575420030,0.00,121.0,28.0,0,0,0,0.0
Status,,27,22,6,29,1575420030,0.00,191.0,25.0,0,0,0,0.0
Status,,27,23,6,15,1575420030,0.00,63.0,24.0,0,0,0,0.0
Status,,27,24,6,4,1575420030,19.70,312.0,23.0,1,0,0,14.700001
Status,,27,25,6,26,1575420030,0.00,168.0,6.0,0,0,0,0.0
Status,,27,26,6,6,1575420030,0.00,327.0,4.0,0,0,0,0.0
Fix,GPS,37.4256550000,-122.1580583333,23.400000000000002,0.0,6.4,0.0,1732151826000,2.1,179.9,30710091000000,94.1,0,,,
Raw,1732151826000,23881000000,,705808.9604275501,-1416187020119000064,0.0,106.50094704710709,1182.2011090883166,0.0,0,15,0.0,16431,350243925181984,797,18.343000411987305,514.1924124765795,0.14999,16,0.0,0.0,1575420030,,,,0,0.0,1,6.0,18.343000411987305,0.0,0.0,0.0,66.7128,C,30710091000000,
Raw,1732151826000,23881000000,,705808.9604275501,-1416187020119000064,0.0,106.50094704710709,1182.2011090883166,0.0,0,7,0.0,16431,350243917430692,396,24.308000564575195,987.4049710158324,0.14999,16,0.0,0.0,1575420030,,,,0,9.024039592774248,1,6.0,24.308000564575195,0.0,0.0,0.0,66.7128,C,30710091000000,
Raw,1732151826000,23881000000,,705808.9604275501,-1416187020119000064,0.0,106.50094704710709,1182.2011090883166,0.0,0,13,0.0,16431,350243929225064,487,21.101999282836914,713.0108794406648,0.14999,16,0.0,0.0,1575420030,,,,0,4.102067022249219,1,6.0,21.101999282836914,0.0,0.0,0.0,66.7128,C,30710091000000,
Raw,1732151826000,23881000000,,705808.9604275501,-1416187020119000064,0.0,106.50094704710709,1182.2011090883166,0.0,0,4,0.0,16431,350243911686182,487,14.657999992370605,87.14534983365763,0.14999,16,0.0,0.0,1575420030,,,,0,0.0,6,6.0,14.657999992370605,0.0,0.0,-9.008436167958047,66.7128,C,30710091000000,
Raw,1732151826000,23881000000,,705808.9604275501,-1416187020119000064,0.0,106.50094704710709,1182.2011090883166,0.0,0,8,0.0,17,965831,396,5.0,929.472166998248,0.14999,16,0.0,0.0,1605374980,,,,0,8.67693447504887,3,6.0,23.0,0.0,0.0,108.67631620913818,66.7128,C,30710091000000,
Raw,1732151826000,23881000000,,705808.9604275501,-1416187020119000064,0.0,106.50094704710709,1182.2011090883166,0.0,0,11,0.0,17,175375,1797,23.100000381469727,-116.78455983959716,0.14999,16,0.0,0.0,1602000000,,,,0,0.0,3,6.0,23.100000381469727,0.0,0.0,108.67631620913818,66.7128,C,30710091000000,
Fix,FLP,37.4256719000,-122.1580662000,5.400000095367432,0.05692498,11.889,,1732151826243,2.1,,30710091000000,18.21971,0,,,
Status,1732151826000,27,0,1,17,1575420030,0.00,87.0,79.0,0,0,0,0.0
Status,1732151826000,27,1,1,22,1575420030,0.00,12.0,66.0,0,0,0,0.0
Status,1732151826000,27,2,1,19,1575420030,0.00,200.0,60.0,0,0,0,0.0
Status,1732151826000,27,3,1,14,1575420030,0.00,52.0,53.0,0,0,0,0.0
Status,1732151826000,27,4,1,13,1575420030,31.80,235.0,48.0,1,0,0,26.8
Status,1732151826000,27,5,2,135,1575420030,0.00,197.0,45.0,0,0,0,0.0
Status,1732151826000,27,6,1,30,1575420030,31.90,131.0,37.0,1,0,0,26.9
Status,1732151826000,27,7,1,15,1575420030,23.40,276.0,30.0,1,0,0,18.4
Status,1732151826000,27,8,1,2,1575420030,0.00,48.0,17.0,0,0,0,0.0
Status,1732151826000,27,9,1,24,1575420030,0.00,313.0,16.0,0,0,0,0.0
Status,1732151826000,27,10,1,6,1575420030,0.00,162.0,11.0,0,0,0,0.0
Status,1732151826000,27,11,1,21,1575420030,0.00,34.0,5.0,0,0,0,0.0
Status,1732151826000,27,12,1,7,1575420030,30.90,131.0,5.0,1,0,0,25.9
Status,1732151826000,27,13,3,20,1602000000,0.00,115.0,52.0,0,0,0,0.0
Status,1732151826000,27,14,3,9,1602000000,0.00,80.0,34.0,0,0,0,0.0
Status,1732151826000,27,15,3,11,1602000000,17.70,310.0,27.0,0,0,0,12.700001
Status,1732151826000,27,16,3,19,1602000000,0.00,34.0,24.0,0,0,0,0.0
Status,1732151826000,27,17,3,8,1602000000,27.70,247.0,23.0,1,0,0,22.7
Status,1732151826000,27,18,6,21,1575420030,0.00,342.0,68.0,0,0,0,0.0
Status,1732151826000,27,19,6,19,1575420030,0.00,244.0,46.0,0,0,0,0.0
Status,1732151826000,27,20,6,27,1575420030,0.00,64.0,34.0,0,0,0,0.0
Status,1732151826000,27,21,6,13,1575420030,0.00,121.0,28.0,0,0,0,0.0
Status,1732151826000,27,22,6,29,1575420030,0.00,191.0,25.0,0,0,0,0.0
Status,1732151826000,27,23,6,15,1575420030,0.00,63.0,24.0,0,0,0,0.0
Status,1732151826000,27,24,6,4,1575420030,22.50,312.0,23.0,1,0,0,17.5
Status,1732151826000,27,25,6,26,1575420030,0.00,168.0,6.0,0,0,0,0.0
Status,1732151826000,27,26,6,6,1575420030,0.00,327.0,4.0,0,0,0,0.0
Fix,GPS,37.4256250000,-122.1580716667,23.400000000000002,0.0,6.4,0.0,1732151827000,2.0,179.9,30711091000000,66.0,0,,,
Fix,FLP,37.4256525000,-122.1580684000,5.400000095367432,0.010620124,6.628,,1732151827243,2.0,,30711091000000,18.273363,0,,,
Raw,1732151827000,24881000000,,996658.9744896117,-1416187020119000064,0.0,102.21969418134525,1182.2343508462518,0.0,0,15,0.0,16431,350244925180258,797,18.44499969482422,513.6824849002527,0.14999,16,0.0,0.0,1575420030,,,,0,2.90529298959974,1,6.0,18.44499969482422,0.0,0.0,0.0,66.7128,C,30711091000000,
Raw,1732151827000,24881000000,,996658.9744896117,-1416187020119000064,0.0,102.21969418134525,1182.2343508462518,0.0,0,7,0.0,16431,350244917427400,316,25.8799991607666,987.5845792529024,0.14999,16,0.0,0.0,1575420030,,,,0,11.250196266948224,1,6.0,25.8799991607666,0.0,0.0,0.0,66.7128,C,30711091000000,
Raw,1732151827000,24881000000,,996658.9744896117,-1416187020119000064,0.0,102.21969418134525,1182.2343508462518,0.0,0,13,0.0,16431,350244929222682,316,26.773000717163086,713.9143098022948,0.14999,16,0.0,0.0,1575420030,,,,0,12.447718083992989,1,6.0,26.773000717163086,0.0,0.0,0.0,66.7128,C,30711091000000,
Raw,1732151827000,24881000000,,996658.9744896117,-1416187020119000064,0.0,102.21969418134525,1182.2343508462518,0.0,0,4,0.0,16431,350244911685881,487,17.5,86.21713390697919,0.14999,16,0.0,0.0,1575420030,,,,0,0.0024505356680020185,6,6.0,17.5,0.0,0.0,0.030296261231574403,66.7128,C,30711091000000,
Raw,1732151827000,24881000000,,996658.9744896117,-1416187020119000064,0.0,102.21969418134525,1182.2343508462518,0.0,0,8,0.0,17,962818,396,5.0,929.0538190298436,0.14999,16,0.0,0.0,1605374980,,,,0,8.045766887661129,3,6.0,21.0,0.0,0.0,88.17415268668702,66.7128,C,30711091000000,
Raw,1732151827000,24881000000,,996658.9744896117,-1416187020119000064,0.0,102.21969418134525,1182.2343508462518,0.0,0,11,0.0,17,175767,1797,22.700000762939453,-116.78003676825598,0.14999,16,0.0,0.0,1602000000,,,,0,0.0,3,6.0,22.700000762939453,0.0,0.0,88.17415268668702,66.7128,C,30711091000000,
Raw,1732151827000,24881000000,,996658.9744896117,-1416187020119000064,0.0,102.21969418134525,1182.2343508462518,0.0,0,30,0.0,16431,350244926380171,316,26.908000946044922,859.5897842562209,0.14999,16,0.0,0.0,1575420030,,,,0,12.610685146644528,1,6.0,26.908000946044922,0.0,0.0,0.0,66.7128,C,30711091000000,
Fix,FLP,37.4256418000,-122.1580696000,5.400000095367432,0.044727374,6.557,,1732151827976,2.0,,30711824000000,17.056965,0,,,
Fix,NLP,37.4256793000,-122.1581388000,5.400000095367432,,23.803,,1732151827976,,,30711824000000,23.226149,0,,,
Status,1732151827000,27,0,1,17,1575420030,0.00,87.0,79.0,0,0,0,0.0
Status,1732151827000,27,1,1,22,1575420030,0.00,12.0,66.0,0,0,0,0.0
Status,1732151827000,27,2,1,19,1575420030,19.10,200.0,60.0,1,0,0,14.1
Status,1732151827000,27,3,1,14,1575420030,0.00,52.0,53.0,0,0,0,0.0
Status,1732151827000,27,4,1,13,1575420030,28.70,235.0,48.0,1,0,0,23.7
Status,1732151827000,27,5,2,135,1575420030,0.00,197.0,45.0,0,0,0,0.0
Status,1732151827000,27,6,1,30,1575420030,28.90,131.0,37.0,1,0,0,23.9
Status,1732151827000,27,7,1,15,1575420030,23.50,276.0,30.0,1,0,0,18.5
Status,1732151827000,27,8,1,2,1575420030,0.00,48.0,17.0,0,0,0,0.0
Status,1732151827000,27,9,1,24,1575420030,0.00,313.0,16.0,0,0,0,0.0
Status,1732151827000,27,10,1,6,1575420030,0.00,162.0,11.0,0,0,0,0.0
Status,1732151827000,27,11,1,21,1575420030,0.00,34.0,5.0,0,0,0,0.0
Status,1732151827000,27,12,1,7,1575420030,30.90,131.0,5.0,1,0,0,25.9
Status,1732151827000,27,13,3,20,1602000000,0.00,115.0,52.0,0,0,0,0.0
Status,1732151827000,27,14,3,9,1602000000,0.00,80.0,34.0,0,0,0,0.0
Status,1732151827000,27,15,3,11,1602000000,17.70,310.0,27.0,0,0,0,12.700001
Status,1732151827000,27,16,3,19,1602000000,0.00,34.0,24.0,0,0,0,0.0
Status,1732151827000,27,17,3,8,1602000000,23.30,247.0,23.0,1,0,0,18.3
Status,1732151827000,27,18,6,21,1575420030,0.00,342.0,68.0,0,0,0,0.0
Status,1732151827000,27,19,6,19,1575420030,0.00,244.0,46.0,0,0,0,0.0
Status,1732151827000,27,20,6,27,1575420030,0.00,64.0,34.0,0,0,0,0.0
Status,1732151827000,27,21,6,13,1575420030,0.00,121.0,28.0,0,0,0,0.0
Status,1732151827000,27,22,6,29,1575420030,0.00,191.0,25.0,0,0,0,0.0
Status,1732151827000,27,23,6,15,1575420030,0.00,63.0,24.0,0,0,0,0.0
Status,1732151827000,27,24,6,4,1575420030,22.50,312.0,23.0,1,0,0,17.5
Status,1732151827000,27,25,6,26,1575420030,0.00,168.0,6.0,0,0,0,0.0
Status,1732151827000,27,26,6,6,1575420030,0.00,327.0,4.0,0,0,0,0.0
Fix,GPS,37.4256183333,-122.1580716667,23.400000000000002,0.0,6.4,0.0,1732151828000,2.0,179.9,30712091000000,57.3,0,,,
Raw,1732151828000,25881000000,,996138.6145011026,-1416187020119000064,0.0,112.85488090822949,1177.6239610181435,0.0,0,15,0.0,16431,350245925178546,797,18.54199981689453,512.7185192223002,0.14999,16,0.0,0.0,1575420030,,,,0,2.90529298959974,1,6.0,18.54199981689453,0.0,0.0,0.0,66.7128,C,30712091000000,
Raw,1732151828000,25881000000,,996138.6145011026,-1416187020119000064,0.0,112.85488090822949,1177.6239610181435,0.0,0,7,0.0,16431,350245917424111,316,25.93000030517578,985.5788765082609,0.14999,16,0.0,0.0,1575420030,,,,0,11.325399244414363,1,6.0,25.93000030517578,0.0,0.0,0.0,66.7128,C,30712091000000,
Raw,1732151828000,25881000000,,996138.6145011026,-1416187020119000064,0.0,112.85488090822949,1177.6239610181435,0.0,0,13,0.0,16431,350245929220307,316,23.694000244140625,711.8126239697625,0.14999,16,0.0,0.0,1575420030,,,,0,8.152157067233361,1,6.0,23.694000244140625,0.0,0.0,0.0,66.7128,C,30712091000000,
Raw,1732151828000,25881000000,,996138.6145011026,-1416187020119000064,0.0,112.85488090822949,1177.6239610181435,0.0,0,4,0.0,16431,350245911685596,487,17.5,84.86229034423936,0.14999,16,0.0,0.0,1575420030,,,,0,0.0024505356680020185,6,6.0,17.5,0.0,0.0,2.6278719713153627,66.7128,C,30712091000000,
Raw,1732151828000,25881000000,,996138.6145011026,-1416187020119000064,0.0,112.85488090822949,1177.6239610181435,0.0,0,8,0.0,17,959715,487,5.0,926.331457010514,0.14999,16,0.0,0.0,1605374980,,,,0,1.3908787108373737,3,6.0,20.0,0.0,0.0,87.90583132156036,66.7128,C,30712091000000,
Raw,1732151828000,25881000000,,996138.6145011026,-1416187020119000064,0.0,112.85488090822949,1177.6239610181435,0.0,0,11,0.0,17,176159,1797,18.299999237060547,-118.22426715377232,0.14999,16,0.0,0.0,1602000000,,,,0,0.0,3,6.0,18.299999237060547,0.0,0.0,87.90583132156036,66.7128,C,30712091000000,
Raw,1732151828000,25881000000,,996138.6145011026,-1416187020119000064,0.0,112.85488090822949,1177.6239610181435,0.0,0,30,0.0,16431,350245926377309,396,23.89299964904785,858.6246571178632,0.14999,16,0.0,0.0,1575420030,,,,0,8.41780130739747,1,6.0,23.89299964904785,0.0,0.0,0.0,66.7128,C,30712091000000,
Raw,1732151828000,25881000000,,996138.6145011026,-1416187020119000064,0.0,112.85488090822949,1177.6239610181435,0.0,0,19,0.0,16431,350245930824332,797,14.100000381469727,-38.74362453144873,0.14999,16,0.0,0.0,1575420030,,,,0,0.0,1,6.0,14.100000381469727,0.0,0.0,0.0,66.7128,C,30712091000000,
Fix,FLP,37.4256343000,-122.1580703000,5.400000095367432,0.066408016,6.485,,1732151828243,2.0,,30712091000000,14.000464,0,,,
Status,1732151828000,27,0,1,17,1575420030,0.00,87.0,79.0,0,0,0,0.0
Status,1732151828000,27,1,1,22,1575420030,0.00,12.0,66.0,0,0,0,0.0
Status,1732151828000,27,2,1,19,1575420030,19.10,200.0,60.0,1,0,0,14.1
Status,1732151828000,27,3,1,14,1575420030,0.00,52.0,53.0,0,0,0,0.0
Status,1732151828000,27,4,1,13,1575420030,29.60,235.0,48.0,1,0,0,24.6
Status,1732151828000,27,5,2,135,1575420030,0.00,197.0,45.0,0,0,0,0.0
Status,1732151828000,27,6,1,30,1575420030,27.00,131.0,37.0,1,0,0,22.0
Status,1732151828000,27,7,1,15,1575420030,23.60,276.0,30.0,1,0,0,18.6
Status,1732151828000,27,8,1,2,1575420030,0.00,48.0,17.0,0,0,0,0.0
Status,1732151828000,27,9,1,24,1575420030,0.00,313.0,16.0,0,0,0,0.0
Status,1732151828000,27,10,1,6,1575420030,19.20,162.0,11.0,1,0,0,14.200001
Status,1732151828000,27,11,1,21,1575420030,0.00,34.0,5.0,0,0,0,0.0
Status,1732151828000,27,12,1,7,1575420030,32.60,131.0,5.0,1,0,0,27.599998
Status,1732151828000,27,13,3,20,1602000000,0.00,115.0,52.0,0,0,0,0.0
Status,1732151828000,27,14,3,9,1602000000,0.00,80.0,34.0,0,0,0,0.0
Status,1732151828000,27,15,3,11,1602000000,24.50,310.0,27.0,0,0,0,19.5
Status,1732151828000,27,16,3,19,1602000000,0.00,34.0,24.0,0,0,0,0.0
Status,1732151828000,27,17,3,8,1602000000,22.40,247.0,23.0,1,0,0,17.4
Status,1732151828000,27,18,6,21,1575420030,0.00,342.0,68.0,0,0,0,0.0
Status,1732151828000,27,19,6,19,1575420030,0.00,244.0,46.0,0,0,0,0.0
Status,1732151828000,27,20,6,27,1575420030,0.00,64.0,34.0,0,0,0,0.0
Status,1732151828000,27,21,6,13,1575420030,0.00,121.0,28.0,0,0,0,0.0
Status,1732151828000,27,22,6,29,1575420030,0.00,191.0,25.0,0,0,0,0.0
Status,1732151828000,27,23,6,15,1575420030,0.00,63.0,24.0,0,0,0,0.0
Status,1732151828000,27,24,6,4,1575420030,22.50,312.0,23.0,1,0,0,17.5
Status,1732151828000,27,25,6,26,1575420030,0.00,168.0,6.0,0,0,0,0.0
Status,1732151828000,27,26,6,6,1575420030,0.00,327.0,4.0,0,0,0,0.0
Fix,GPS,37.4256166667,-122.1580750000,23.400000000000002,0.0,6.4,0.0,1732151829000,1.9,179.9,30713091000000,52.7,0,,,
Fix,FLP,37.4256273000,-122.1580720000,5.400000095367432,0.083573595,6.442,,1732151829243,1.9,,30713091000000,15.453169,0,,,
Raw,1732151829000,26881000000,,705699.0406343044,-1416187020119000064,0.0,104.69603959679621,1172.6102559199655,0.0,0,15,0.0,16431,350246925176837,797,18.634000778198242,511.90428901979436,0.14999,16,0.0,0.0,1575420030,,,,0,2.90529298959974,1,6.0,18.634000778198242,0.0,0.0,0.0,66.7128,C,30713091000000,
Raw,1732151829000,26881000000,,705699.0406343044,-1416187020119000064,0.0,104.69603959679621,1172.6102559199655,0.0,0,7,0.0,16431,350246917420819,316,27.597999572753906,985.0735018567227,0.14999,16,0.0,0.0,1575420030,,,,0,13.529063313084961,1,6.0,27.597999572753906,0.0,0.0,0.0,66.7128,C,30713091000000,
Raw,1732151829000,26881000000,,705699.0406343044,-1416187020119000064,0.0,104.69603959679621,1172.6102559199655,0.0,0,13,0.0,16431,350246929217932,396,24.642000198364258,710.7910963141252,0.14999,16,0.0,0.0,1575420030,,,,0,9.498796531869965,1,6.0,24.642000198364258,0.0,0.0,0.0,66.7128,C,30713091000000,
Raw,1732151829000,26881000000,,705699.0406343044,-1416187020119000064,0.0,104.69603959679621,1172.6102559199655,0.0,0,4,0.0,16431,350246911685309,487,17.46500015258789,82.35599816492945,0.14999,16,0.0,0.0,1575420030,,,,0,0.0,6,6.0,17.46500015258789,0.0,0.0,5.730280745640134,66.7128,C,30713091000000,
Raw,1732151829000,26881000000,,705699.0406343044,-1416187020119000064,0.0,104.69603959679621,1172.6102559199655,0.0,0,8,0.0,17,956624,797,5.0,924.7431389500001,0.14999,16,0.0,0.0,1605374980,,,,0,0.0,3,6.0,17.0,0.0,0.0,87.31810151229544,66.7128,C,30713091000000,
Raw,1732151829000,26881000000,,705699.0406343044,-1416187020119000064,0.0,104.69603959679621,1172.6102559199655,0.0,0,11,0.0,17,176576,487,17.399999618530273,-119.9352216856505,0.14999,16,0.0,0.0,1602000000,,,,0,3.3722841740268326,3,6.0,17.399999618530273,0.0,0.0,87.31810151229544,66.7128,C,30713091000000,
Raw,1732151829000,26881000000,,705699.0406343044,-1416187020119000064,0.0,104.69603959679621,1172.6102559199655,0.0,0,30,0.0,16431,350246926374448,487,22.000999450683594,857.4174816310485,0.14999,16,0.0,0.0,1575420030,,,,0,5.526578774446983,1,6.0,22.000999450683594,0.0,0.0,0.0,66.7128,C,30713091000000,
Raw,1732151829000,26881000000,,705699.0406343044,-1416187020119000064,0.0,104.69603959679621,1172.6102559199655,0.0,0,19,0.0,16431,350246930824463,797,14.100000381469727,-40.298401888350604,0.14999,16,0.0,0.0,1575420030,,,,0,0.0,1,6.0,14.100000381469727,0.0,0.0,0.0,66.7128,C,30713091000000,
Raw,1732151829000,26881000000,,705699.0406343044,-1416187020119000064,0.0,104.69603959679621,1172.6102559199655,0.0,0,6,0.0,16431,350246918682660,797,14.199999809265137,-306.1992445624049,0.14999,16,0.0,0.0,1575420030,,,,0,0.0,1,6.0,14.199999809265137,0.0,0.0,0.0,66.7128,C,30713091000000,
Status,1732151829000,27,0,1,17,1575420030,0.00,87.0,79.0,0,0,0,0.0
Status,1732151829000,27,1,1,22,1575420030,0.00,12.0,66.0,0,0,0,0.0
Status,1732151829000,27,2,1,19,1575420030,19.10,200.0,60.0,1,0,0,14.1
Status,1732151829000,27,3,1,14,1575420030,0.00,52.0,53.0,0,0,0,0.0
Status,1732151829000,27,4,1,13,1575420030,29.60,235.0,48.0,1,0,0,24.6
Status,1732151829000,27,5,2,135,1575420030,0.00,197.0,45.0,0,0,0,0.0
Status,1732151829000,27,6,1,30,1575420030,25.10,131.0,37.0,1,0,0,20.1
Status,1732151829000,27,7,1,15,1575420030,18.70,276.0,30.0,1,0,0,13.700001
Status,1732151829000,27,8,1,2,1575420030,0.00,48.0,17.0,0,0,0,0.0
Status,1732151829000,27,9,1,24,1575420030,0.00,313.0,16.0,0,0,0,0.0
Status,1732151829000,27,10,1,6,1575420030,19.00,162.0,11.0,1,0,0,14.0
Status,1732151829000,27,11,1,21,1575420030,0.00,34.0,5.0,0,0,0,0.0
Status,1732151829000,27,12,1,7,1575420030,29.00,131.0,5.0,1,0,0,24.0
Status,1732151829000,27,13,3,20,1602000000,0.00,115.0,52.0,0,0,0,0.0
Status,1732151829000,27,14,3,9,1602000000,0.00,80.0,34.0,0,0,0,0.0
Status,1732151829000,27,15,3,11,1602000000,24.50,310.0,27.0,0,0,0,19.5
Status,1732151829000,27,16,3,19,1602000000,0.00,34.0,24.0,0,0,0,0.0
Status,1732151829000,27,17,3,8,1602000000,22.60,247.0,23.0,1,0,0,17.6
Status,1732151829000,27,18,6,21,1575420030,0.00,342.0,68.0,0,0,0,0.0
Status,1732151829000,27,19,6,19,1575420030,0.00,244.0,46.0,0,0,0,0.0
Status,1732151829000,27,20,6,27,1575420030,0.00,64.0,34.0,0,0,0,0.0
Status,1732151829000,27,21,6,13,1575420030,0.00,121.0,28.0,0,0,0,0.0
Status,1732151829000,27,22,6,29,1575420030,0.00,191.0,25.0,0,0,0,0.0
Status,1732151829000,27,23,6,15,1575420030,0.00,63.0,24.0,0,0,0,0.0
Status,1732151829000,27,24,6,4,1575420030,22.40,312.0,23.0,1,0,0,17.4
Status,1732151829000,27,25,6,26,1575420030,0.00,168.0,6.0,0,0,0,0.0
Status,1732151829000,27,26,6,6,1575420030,0.00,327.0,4.0,0,0,0,0.0
Fix,GPS,37.4256050000,-122.1580950000,23.400000000000002,0.0,6.3,0.0,1732151830000,1.9,179.9,30714091000000,51.3,0,,,
Raw,1732151830000,27881000000,,705657.7099581338,-1416187020119000064,0.0,102.67853186181085,1168.860523394228,0.0,0,15,0.0,16431,350247925175118,797,13.699999809265137,510.64433677216454,0.14999,16,0.0,0.0,1575420030,,,,0,0.0,1,6.0,13.699999809265137,0.0,0.0,0.0,66.7128,C,30714091000000,
Raw,1732151830000,27881000000,,705657.7099581338,-1416187020119000064,0.0,102.67853186181085,1168.860523394228,0.0,0,7,0.0,16431,350247917417533,396,24.020000457763672,984.4132348455386,0.14999,16,0.0,0.0,1575420030,,,,0,8.624617974161847,1,6.0,24.020000457763672,0.0,0.0,0.0,66.7128,C,30714091000000,
Raw,1732151830000,27881000000,,705657.7099581338,-1416187020119000064,0.0,102.67853186181085,1168.860523394228,0.0,0,13,0.0,16431,350247929215563,797,24.642000198364258,709.9718486026686,0.14999,16,0.0,0.0,1575420030,,,,0,9.498796531869965,1,6.0,24.642000198364258,0.0,0.0,0.0,66.7128,C,30714091000000,
Raw,1732151830000,27881000000,,705657.7099581338,-1416187020119000064,0.0,102.67853186181085,1168.860523394228,0.0,0,4,0.0,16431,350247911685033,797,17.430999755859375,82.01506307756841,0.14999,16,0.0,0.0,1575420030,,,,0,0.0,6,6.0,17.430999755859375,0.0,0.0,5.433502865591241,66.7128,C,30714091000000,
Raw,1732151830000,27881000000,,705657.7099581338,-1416187020119000064,0.0,102.67853186181085,1168.860523394228,0.0,0,8,0.0,17,953532,487,5.0,924.1480781736689,0.14999,16,0.0,0.0,1605374980,,,,0,0.0803514133384855,3,6.0,18.0,0.0,0.0,74.33150393720231,66.7128,C,30714091000000,
Raw,1732151830000,27881000000,,705657.7099581338,-1416187020119000064,0.0,102.67853186181085,1168.860523394228,0.0,0,11,0.0,17,176976,487,17.600000381469727,-120.27111684221993,0.14999,16,0.0,0.0,1602000000,,,,0,3.3722841740268326,3,6.0,17.600000381469727,0.0,0.0,74.33150393720231,66.7128,C,30714091000000,
Raw,1732151830000,27881000000,,705657.7099581338,-1416187020119000064,0.0,102.67853186181085,1168.860523394228,0.0,0,30,0.0,16431,350247926371587,487,20.118999481201172,857.186769136147,0.14999,16,0.0,0.0,1575420030,,,,0,2.397201394117846,1,6.0,20.118999481201172,0.0,0.0,0.0,66.7128,C,30714091000000,
Raw,1732151830000,27881000000,,705657.7099581338,-1416187020119000064,0.0,102.67853186181085,1168.860523394228,0.0,0,19,0.0,16431,350247930824598,797,14.100000381469727,-41.06858951228891,0.14999,16,0.0,0.0,1575420030,,,,0,0.0,1,6.0,14.100000381469727,0.0,0.0,0.0,66.7128,C,30714091000000,
Raw,1732151830000,27881000000,,705657.7099581338,-1416187020119000064,0.0,102.67853186181085,1168.860523394228,0.0,0,6,0.0,16431,350247918683665,797,14.0,-306.73314468149636,0.14999,16,0.0,0.0,1575420030,,,,0,0.0,1,6.0,14.0,0.0,0.0,0.0,66.7128,C,30714091000000,
Fix,FLP,37.4256177000,-122.1580811000,5.400000095367432,0.10706653,6.4,180.0,1732151830243,1.9,179.9,30714091000000,10.979492,0,,,
Status,1732151830000,27,0,1,17,1575420030,0.00,87.0,79.0,0,0,0,0.0
Status,1732151830000,27,1,1,22,1575420030,0.00,12.0,66.0,0,0,0,0.0
Status,1732151830000,27,2,1,19,1575420030,21.90,200.0,60.0,1,0,0,16.9
Status,1732151830000,27,3,1,14,1575420030,0.00,52.0,53.0,0,0,0,0.0
Status,1732151830000,27,4,1,13,1575420030,29.60,235.0,48.0,1,0,0,24.6
Status,1732151830000,27,5,2,135,1575420030,0.00,197.0,45.0,0,0,0,0.0
Status,1732151830000,27,6,1,30,1575420030,26.30,131.0,37.0,1,0,0,21.3
Status,1732151830000,27,7,1,15,1575420030,18.70,276.0,30.0,1,0,0,13.700001
Status,1732151830000,27,8,1,2,1575420030,0.00,48.0,17.0,0,0,0,0.0
Status,1732151830000,27,9,1,24,1575420030,0.00,313.0,16.0,0,0,0,0.0
Status,1732151830000,27,10,1,6,1575420030,19.00,162.0,11.0,1,0,0,14.0
Status,1732151830000,27,11,1,21,1575420030,0.00,34.0,5.0,0,0,0,0.0
Status,1732151830000,27,12,1,7,1575420030,30.80,131.0,5.0,1,0,0,25.8
Status,1732151830000,27,13,3,20,1602000000,0.00,115.0,52.0,0,0,0,0.0
Status,1732151830000,27,14,3,9,1602000000,0.00,80.0,34.0,0,0,0,0.0
Status,1732151830000,27,15,3,11,1602000000,24.50,310.0,27.0,0,0,0,19.5
Status,1732151830000,27,16,3,19,1602000000,0.00,34.0,24.0,0,0,0,0.0
Status,1732151830000,27,17,3,8,1602000000,22.60,247.0,23.0,1,0,0,17.6
Status,1732151830000,27,18,6,21,1575420030,0.00,342.0,68.0,0,0,0,0.0
Status,1732151830000,27,19,6,19,1575420030,0.00,244.0,46.0,0,0,0,0.0
Status,1732151830000,27,20,6,27,1575420030,0.00,64.0,34.0,0,0,0,0.0
Status,1732151830000,27,21,6,13,1575420030,0.00,121.0,28.0,0,0,0,0.0
Status,1732151830000,27,22,6,29,1575420030,0.00,191.0,25.0,0,0,0,0.0
Status,1732151830000,27,23,6,15,1575420030,0.00,63.0,24.0,0,0,0,0.0
Status,1732151830000,27,24,6,4,1575420030,17.90,312.0,23.0,1,0,0,12.9
Status,1732151830000,27,25,6,26,1575420030,0.00,168.0,6.0,0,0,0,0.0
Status,1732151830000,27,26,6,6,1575420030,0.00,327.0,4.0,0,0,0,0.0
Fix,GPS,37.4256166667,-122.1581016667,23.400000000000002,0.0,6.3,0.0,1732151831000,1.8,179.9,30715091000000,45.9,0,,,
Raw,1732151831000,28881000000,,705581.9283652559,-1416187020119000064,0.0,96.68970094348023,1168.3740966870255,0.0,0,15,0.0,16431,350248925173416,797,13.699999809265137,510.4978069274365,0.14999,16,0.0,0.0,1575420030,,,,0,0.0,1,6.0,13.699999809265137,0.0,0.0,0.0,66.7128,C,30715091000000,
Raw,1732151831000,28881000000,,705581.9283652559,-1416187020119000064,0.0,96.68970094348023,1168.3740966870255,0.0,0,7,0.0,16431,350248917414244,316,25.75200080871582,985.2358275629623,0.14999,16,0.0,0.0,1575420030,,,,0,11.059289908823619,1,6.0,25.75200080871582,0.0,0.0,0.0,66.7128,C,30715091000000,
Raw,1732151831000,28881000000,,705581.9283652559,-1416187020119000064,0.0,96.68970094348023,1168.3740966870255,0.0,0,13,0.0,16431,350248929213194,487,24.642000198364258,709.9959140622657,0.14999,16,0.0,0.0,1575420030,,,,0,9.498796531869965,1,6.0,24.642000198364258,0.0,0.0,0.0,66.7128,C,30715091000000,
Raw,1732151831000,28881000000,,705581.9283652559,-1416187020119000064,0.0,96.68970094348023,1168.3740966870255,0.0,0,4,0.0,16431,350248911684765,1797,12.899999618530273,82.38380352703146,0.14999,16,0.0,0.0,1575420030,,,,0,0.0,6,6.0,12.899999618530273,0.0,0.0,7.138952202899337,66.7128,C,30715091000000,
Raw,1732151831000,28881000000,,705581.9283652559,-1416187020119000064,0.0,96.68970094348023,1168.3740966870255,0.0,0,8,0.0,17,950442,487,5.0,926.5647033276846,0.14999,16,0.0,0.0,1605374980,,,,0,0.0803514133384855,3,6.0,19.0,0.0,0.0,60.85427393853157,66.7128,C,30715091000000,
Raw,1732151831000,28881000000,,705581.9283652559,-1416187020119000064,0.0,96.68970094348023,1168.3740966870255,0.0,0,11,0.0,17,177331,797,17.600000381469727,-120.3533545029687,0.14999,16,0.0,0.0,1602000000,,,,0,3.238652466896527,3,6.0,17.600000381469727,0.0,0.0,60.85427393853157,66.7128,C,30715091000000,
Raw,1732151831000,28881000000,,705581.9283652559,-1416187020119000064,0.0,96.68970094348023,1168.3740966870255,0.0,0,30,0.0,16431,350248926368728,487,21.34000015258789,856.6567715240171,0.14999,16,0.0,0.0,1575420030,,,,0,4.439425527995129,1,6.0,21.34000015258789,0.0,0.0,0.0,66.7128,C,30715091000000,
Raw,1732151831000,28881000000,,705581.9283652559,-1416187020119000064,0.0,96.68970094348023,1168.3740966870255,0.0,0,19,0.0,16431,350248930824727,797,16.874000549316406,-40.608418899723524,0.14999,16,0.0,0.0,1575420030,,,,0,0.0,1,6.0,16.874000549316406,0.0,0.0,0.0,66.7128,C,30715091000000,
Raw,1732151831000,28881000000,,705581.9283652559,-1416187020119000064,0.0,96.68970094348023,1168.3740966870255,0.0,0,6,0.0,16431,350248918684687,797,14.0,-306.0645151553943,0.14999,16,0.0,0.0,1575420030,,,,0,0.0,1,6.0,14.0,0.0,0.0,0.0,66.7128,C,30715091000000,
Fix,FLP,37.4256168000,-122.1580893000,5.400000095367432,0.10200484,6.371,180.0,1732151831243,1.8,179.9,30715091000000,11.049754,0,,,
Status,1732151831000,27,0,1,17,1575420030,0.00,87.0,79.0,0,0,0,0.0
Status,1732151831000,27,1,1,22,1575420030,0.00,12.0,66.0,0,0,0,0.0
Status,1732151831000,27,2,1,19,1575420030,21.90,200.0,60.0,1,0,0,16.9
Status,1732151831000,27,3,1,14,1575420030,0.00,52.0,53.0,0,0,0,0.0
Status,1732151831000,27,4,1,13,1575420030,24.20,235.0,48.0,1,0,0,19.2
Status,1732151831000,27,5,2,138,1575420030,0.00,156.0,43.0,0,0,0,0.0
Status,1732151831000,27,6,1,30,1575420030,27.00,131.0,37.0,1,0,0,22.0
Status,1732151831000,27,7,1,15,1575420030,24.80,276.0,30.0,1,0,0,19.8
Status,1732151831000,27,8,1,2,1575420030,0.00,48.0,17.0,0,0,0,0.0
Status,1732151831000,27,9,1,24,1575420030,0.00,313.0,16.0,0,0,0,0.0
Status,1732151831000,27,10,1,6,1575420030,19.00,162.0,11.0,1,0,0,14.0
Status,1732151831000,27,11,1,21,1575420030,0.00,34.0,5.0,0,0,0,0.0
Status,1732151831000,27,12,1,7,1575420030,33.30,131.0,5.0,1,0,0,28.3
Status,1732151831000,27,13,3,20,1602000000,0.00,115.0,52.0,0,0,0,0.0
Status,1732151831000,27,14,3,9,1602000000,0.00,80.0,34.0,0,0,0,0.0
Status,1732151831000,27,15,3,11,1602000000,20.70,310.0,27.0,0,0,0,15.700001
Status,1732151831000,27,16,3,19,1602000000,0.00,34.0,24.0,0,0,0,0.0
Status,1732151831000,27,17,3,8,1602000000,22.40,247.0,23.0,1,0,0,17.4
Status,1732151831000,27,18,6,21,1575420030,0.00,342.0,68.0,0,0,0,0.0
Status,1732151831000,27,19,6,19,1575420030,0.00,244.0,46.0,0,0,0,0.0
Status,1732151831000,27,20,6,27,1575420030,0.00,64.0,34.0,0,0,0,0.0
Status,1732151831000,27,21,6,13,1575420030,0.00,121.0,28.0,0,0,0,0.0
Status,1732151831000,27,22,6,29,1575420030,0.00,191.0,25.0,0,0,0,0.0
Status,1732151831000,27,23,6,15,1575420030,0.00,63.0,24.0,0,0,0,0.0
Status,1732151831000,27,24,6,4,1575420030,17.90,312.0,23.0,1,0,0,12.9
Status,1732151831000,27,25,6,26,1575420030,0.00,168.0,6.0,0,0,0,0.0
Status,1732151831000,27,26,6,6,1575420030,0.00,327.0,4.0,0,0,0,0.0
Fix,GPS,37.4256233333,-122.1581083333,23.400000000000002,0.0,6.2,0.0,1732151832000,1.8,179.9,30716091000000,46.2,0,,,
Raw,1732151832000,29881000000,,705535.3336307079,-1416187020119000064,0.0,96.8628808497778,1167.878973602871,0.0,0,15,0.0,16431,350249925171706,487,19.775999069213867,510.91588621491513,0.14999,16,0.0,0.0,1575420030,,,,0,1.8575316004059754,1,6.0,19.775999069213867,0.0,0.0,0.0,66.7128,C,30716091000000,
Raw,1732151832000,29881000000,,705535.3336307079,-1416187020119000064,0.0,96.8628808497778,1167.878973602871,0.0,0,7,0.0,16431,350249917410958,316,28.33099937438965,984.2367857807709,0.14999,16,0.0,0.0,1575420030,,,,0,14.464524216722765,1,6.0,28.33099937438965,0.0,0.0,0.0,66.7128,C,30716091000000,
Raw,1732151832000,29881000000,,705535.3336307079,-1416187020119000064,0.0,96.8628808497778,1167.878973602871,0.0,0,13,0.0,16431,350249929210824,797,19.222000122070312,710.1488551684307,0.14999,16,0.0,0.0,1575420030,,,,0,0.7926213613414745,1,6.0,19.222000122070312,0.0,0.0,0.0,66.7128,C,30716091000000,
Raw,1732151832000,29881000000,,705535.3336307079,-1416187020119000064,0.0,96.8628808497778,1167.878973602871,0.0,0,4,0.0,16431,350249911684491,1837,12.899999618530273,82.1569238514673,0.14999,16,0.0,0.0,1575420030,,,,0,0.0,6,6.0,12.899999618530273,0.0,0.0,7.662028118814054,66.7128,C,30716091000000,
Raw,1732151832000,29881000000,,705535.3336307079,-1416187020119000064,0.0,96.8628808497778,1167.878973602871,0.0,0,8,0.0,17,947353,487,5.0,925.8864835829172,0.14999,16,0.0,0.0,1605374980,,,,0,0.0,3,6.0,18.0,0.0,0.0,51.747662473616366,66.7128,C,30716091000000,
Raw,1732151832000,29881000000,,705535.3336307079,-1416187020119000064,0.0,96.8628808497778,1167.878973602871,0.0,0,11,0.0,17,177707,797,17.399999618530273,-120.95428336509569,0.14999,16,0.0,0.0,1602000000,,,,0,0.0,3,6.0,17.399999618530273,0.0,0.0,51.747662473616366,66.7128,C,30716091000000,
Raw,1732151832000,29881000000,,705535.3336307079,-1416187020119000064,0.0,96.8628808497778,1167.878973602871,0.0,0,30,0.0,16431,350249926365870,487,22.042999267578125,857.2541338396522,0.14999,16,0.0,0.0,1575420030,,,,0,5.599264467548864,1,6.0,22.042999267578125,0.0,0.0,0.0,66.7128,C,30716091000000,
Raw,1732151832000,29881000000,,705535.3336307079,-1416187020119000064,0.0,96.8628808497778,1167.878973602871,0.0,0,19,0.0,16431,350249930824862,797,16.874000549316406,-40.74886269192798,0.14999,16,0.0,0.0,1575420030,,,,0,0.0,1,6.0,16.874000549316406,0.0,0.0,0.0,66.7128,C,30716091000000,
Raw,1732151832000,29881000000,,705535.3336307079,-1416187020119000064,0.0,96.8628808497778,1167.878973602871,0.0,0,6,0.0,16431,350249918685709,797,14.0,-306.91163791657726,0.14999,16,0.0,0.0,1575420030,,,,0,0.0,1,6.0,14.0,0.0,0.0,0.0,66.7128,C,30716091000000,
Fix,FLP,37.4256191000,-122.1580971000,5.400000095367432,0.08774992,6.342,,1732151832244,1.8,,30716091000000,11.060865,0,,,
Fix,FLP,37.4256205000,-122.1581016000,5.400000095367432,0.0776936,6.3,,1732151833137,1.8,,30716985000000,10.81878,0,,,
Fix,NLP,37.4256754000,-122.1581379000,5.400000095367432,,22.286,,1732151833137,,,30716985000000,21.400106,0,,,
Status,1732151832000,27,0,1,17,1575420030,0.00,87.0,79.0,0,0,0,0.0
Status,1732151832000,27,1,1,22,1575420030,0.00,12.0,66.0,0,0,0,0.0
Status,1732151832000,27,2,1,19,1575420030,18.50,200.0,60.0,1,0,0,13.5
Status,1732151832000,27,3,1,14,1575420030,0.00,52.0,53.0,0,0,0,0.0
Status,1732151832000,27,4,1,13,1575420030,23.70,235.0,48.0,1,0,0,18.7
Status,1732151832000,27,5,2,138,1575420030,0.00,156.0,43.0,0,0,0,0.0
Status,1732151832000,27,6,1,30,1575420030,24.40,131.0,37.0,1,0,0,19.4
Status,1732151832000,27,7,1,15,1575420030,24.80,276.0,30.0,1,0,0,19.8
Status,1732151832000,27,8,1,2,1575420030,0.00,48.0,17.0,0,0,0,0.0
Status,1732151832000,27,9,1,24,1575420030,0.00,313.0,16.0,0,0,0,0.0
Status,1732151832000,27,10,1,6,1575420030,18.00,162.0,11.0,1,0,0,13.0
Status,1732151832000,27,11,1,21,1575420030,0.00,34.0,5.0,0,0,0,0.0
Status,1732151832000,27,12,1,7,1575420030,32.40,131.0,5.0,1,0,0,27.400002
Status,1732151832000,27,13,3,20,1602000000,0.00,115.0,52.0,0,0,0,0.0
Status,1732151832000,27,14,3,9,1602000000,0.00,80.0,34.0,0,0,0,0.0
Status,1732151832000,27,15,3,11,1602000000,23.50,310.0,27.0,0,0,0,18.5
Status,1732151832000,27,16,3,19,1602000000,0.00,34.0,24.0,0,0,0,0.0
Status,1732151832000,27,17,3,8,1602000000,22.40,247.0,23.0,1,0,0,17.4
Status,1732151832000,27,18,6,21,1575420030,0.00,342.0,68.0,0,0,0,0.0
Status,1732151832000,27,19,6,19,1575420030,0.00,244.0,46.0,0,0,0,0.0
Status,1732151832000,27,20,6,27,1575420030,0.00,64.0,34.0,0,0,0,0.0
Status,1732151832000,27,21,6,13,1575420030,0.00,121.0,28.0,0,0,0,0.0
Status,1732151832000,27,22,6,29,1575420030,0.00,191.0,25.0,0,0,0,0.0
Status,1732151832000,27,23,6,15,1575420030,0.00,63.0,24.0,0,0,0,0.0
Status,1732151832000,27,24,6,4,1575420030,17.90,312.0,23.0,1,0,0,12.9
Status,1732151832000,27,25,6,26,1575420030,0.00,168.0,6.0,0,0,0,0.0
Status,1732151832000,27,26,6,6,1575420030,0.00,327.0,4.0,0,0,0,0.0
Fix,GPS,37.4256200000,-122.1581133333,23.400000000000002,0.0,6.2,0.0,1732151833000,1.8,179.9,30717091000000,46.6,0,,,
Raw,1732151833000,30881000000,,705481.7027785268,-1416187020119000064,0.0,96.79178928941892,1167.6637296385964,0.0,0,15,0.0,16431,350250925170003,797,19.775999069213867,510.8579061114844,0.14999,16,0.0,0.0,1575420030,,,,0,1.8575316004059754,1,6.0,19.775999069213867,0.0,0.0,0.0,66.7128,C,30717091000000,
Raw,1732151833000,30881000000,,705481.7027785268,-1416187020119000064,0.0,96.79178928941892,1167.6637296385964,0.0,0,7,0.0,16431,350250917407672,316,27.388999938964844,985.2947368347172,0.14999,16,0.0,0.0,1575420030,,,,0,13.26359950457549,1,6.0,27.388999938964844,0.0,0.0,0.0,66.7128,C,30717091000000,
Raw,1732151833000,30881000000,,705481.7027785268,-1416187020119000064,0.0,96.79178928941892,1167.6637296385964,0.0,0,13,0.0,16431,350250929208444,797,18.68199920654297,709.9828127888943,0.14999,16,0.0,0.0,1575420030,,,,0,0.0,1,6.0,18.68199920654297,0.0,0.0,0.0,66.7128,C,30717091000000,
Raw,1732151833000,30881000000,,705481.7027785268,-1416187020119000064,0.0,96.79178928941892,1167.6637296385964,0.0,0,4,0.0,16431,350250911684218,797,12.899999618530273,81.98196145601841,0.14999,16,0.0,0.0,1575420030,,,,0,0.0,6,6.0,12.899999618530273,0.0,0.0,6.460169284137781,66.7128,C,30717091000000,
Raw,1732151833000,30881000000,,705481.7027785268,-1416187020119000064,0.0,96.79178928941892,1167.6637296385964,0.0,0,8,0.0,17,944264,797,5.0,926.5101758461881,0.14999,16,0.0,0.0,1605374980,,,,0,0.0,3,6.0,17.0,0.0,0.0,42.4551721408479,66.7128,C,30717091000000,
Raw,1732151833000,30881000000,,705481.7027785268,-1416187020119000064,0.0,96.79178928941892,1167.6637296385964,0.0,0,11,0.0,17,178111,487,17.375,-120.883147788548,0.14999,16,0.0,0.0,1602000000,,,,0,1.7753882197240198,3,6.0,17.375,0.0,0.0,42.4551721408479,66.7128,C,30717091000000,
Raw,1732151833000,30881000000,,705481.7027785268,-1416187020119000064,0.0,96.79178928941892,1167.6637296385964,0.0,0,30,0.0,16431,350250926363010,487,19.410999298095703,856.9661845759794,0.14999,16,0.0,0.0,1575420030,,,,0,1.1622894752217379,1,6.0,19.410999298095703,0.0,0.0,0.0,66.7128,C,30717091000000,
Raw,1732151833000,30881000000,,705481.7027785268,-1416187020119000064,0.0,96.79178928941892,1167.6637296385964,0.0,0,19,0.0,16431,350250930825014,1797,13.5,-40.96521953622046,0.14999,16,0.0,0.0,1575420030,,,,0,0.0,1,6.0,13.5,0.0,0.0,0.0,66.7128,C,30717091000000,
Raw,1732151833000,30881000000,,705481.7027785268,-1416187020119000064,0.0,96.79178928941892,1167.6637296385964,0.0,0,6,0.0,16431,350250918686760,1797,13.0,-306.8091506504168,0.14999,16,0.0,0.0,1575420030,,,,0,0.0,1,6.0,13.0,0.0,0.0,0.0,66.7128,C,30717091000000,
Status,1732151833000,27,0,1,17,1575420030,0.00,87.0,79.0,0,0,0,0.0
Status,1732151833000,27,1,1,22,1575420030,0.00,12.0,66.0,0,0,0,0.0
Status,1732151833000,27,2,1,19,1575420030,18.50,200.0,60.0,1,0,0,13.5
Status,1732151833000,27,3,1,14,1575420030,0.00,52.0,53.0,0,0,0,0.0
Status,1732151833000,27,4,1,13,1575420030,23.70,235.0,48.0,1,0,0,18.7
Status,1732151833000,27,5,2,138,1575420030,0.00,156.0,43.0,0,0,0,0.0
Status,1732151833000,27,6,1,30,1575420030,24.40,131.0,37.0,1,0,0,19.4
Status,1732151833000,27,7,1,15,1575420030,24.70,276.0,30.0,1,0,0,19.7
Status,1732151833000,27,8,1,2,1575420030,0.00,48.0,17.0,0,0,0,0.0
Status,1732151833000,27,9,1,24,1575420030,0.00,313.0,16.0,0,0,0,0.0
Status,1732151833000,27,10,1,6,1575420030,18.00,162.0,11.0,1,0,0,13.0
Status,1732151833000,27,11,1,21,1575420030,0.00,34.0,5.0,0,0,0,0.0
Status,1732151833000,27,12,1,7,1575420030,28.70,131.0,5.0,1,0,0,23.7
Status,1732151833000,27,13,3,20,1602000000,0.00,115.0,52.0,0,0,0,0.0
Status,1732151833000,27,14,3,9,1602000000,0.00,80.0,34.0,0,0,0,0.0
Status,1732151833000,27,15,3,11,1602000000,22.50,310.0,27.0,0,0,0,17.5
Status,1732151833000,27,16,3,19,1602000000,0.00,34.0,24.0,0,0,0,0.0
Status,1732151833000,27,17,3,8,1602000000,22.40,247.0,23.0,1,0,0,17.4
Status,1732151833000,27,18,6,21,1575420030,0.00,342.0,68.0,0,0,0,0.0
Status,1732151833000,27,19,6,19,1575420030,0.00,244.0,46.0,0,0,0,0.0
Status,1732151833000,27,20,6,27,1575420030,0.00,64.0,34.0,0,0,0,0.0
Status,1732151833000,27,21,6,13,1575420030,0.00,121.0,28.0,0,0,0,0.0
Status,1732151833000,27,22,6,29,1575420030,0.00,191.0,25.0,0,0,0,0.0
Status,1732151833000,27,23,6,15,1575420030,0.00,63.0,24.0,0,0,0,0.0
Status,1732151833000,27,24,6,4,1575420030,17.90,312.0,23.0,1,0,0,12.9
Status,1732151833000,27,25,6,26,1575420030,0.00,168.0,6.0,0,0,0,0.0
Status,1732151833000,27,26,6,6,1575420030,0.00,327.0,4.0,0,0,0,0.0
Fix,GPS,37.4256350000,-122.1581033333,23.400000000000002,0.0,6.2,0.0,1732151834000,1.8,143.7,30718091000000,48.0,0,,,
Raw,1732151834000,31881000000,,705452.6201589768,-1416187020119000064,0.0,110.0483739182963,1168.9294325144376,0.0,0,15,0.0,16431,350251925168314,797,19.702999114990234,511.1030671738274,0.14999,16,0.0,0.0,1575420030,,,,0,0.0,1,6.0,19.702999114990234,0.0,0.0,0.0,66.7128,C,30718091000000,
Raw,1732151834000,31881000000,,705452.6201589768,-1416187020119000064,0.0,110.0483739182963,1168.9294325144376,0.0,0,7,0.0,16431,350251917404384,396,23.694000244140625,985.3034710169649,0.14999,16,0.0,0.0,1575420030,,,,0,8.152157067233361,1,6.0,23.694000244140625,0.0,0.0,0.0,66.7128,C,30718091000000,
Raw,1732151834000,31881000000,,705452.6201589768,-1416187020119000064,0.0,110.0483739182963,1168.9294325144376,0.0,0,13,0.0,16431,350251929206075,487,18.68199920654297,710.4908820285727,0.14999,16,0.0,0.0,1575420030,,,,0,0.0,1,6.0,18.68199920654297,0.0,0.0,0.0,66.7128,C,30718091000000,
Raw,1732151834000,31881000000,,705452.6201589768,-1416187020119000064,0.0,110.0483739182963,1168.9294325144376,0.0,0,4,0.0,16431,350251911683944,1797,12.899999618530273,82.28428959950848,0.14999,16,0.0,0.0,1575420030,,,,0,0.0,6,6.0,12.899999618530273,0.0,0.0,7.529525332293393,66.7128,C,30718091000000,
Raw,1732151834000,31881000000,,705452.6201589768,-1416187020119000064,0.0,110.0483739182963,1168.9294325144376,0.0,0,8,0.0,17,941172,487,5.0,928.1720786517984,0.14999,16,0.0,0.0,1605374980,,,,0,0.6796158808873498,3,6.0,19.0,0.0,0.0,39.549010607203364,66.7128,C,30718091000000,
Raw,1732151834000,31881000000,,705452.6201589768,-1416187020119000064,0.0,110.0483739182963,1168.9294325144376,0.0,0,11,0.0,17,178510,797,17.400999069213867,-120.60171223843,0.14999,16,0.0,0.0,1602000000,,,,0,0.014658393809803272,3,6.0,17.400999069213867,0.0,0.0,39.549010607203364,66.7128,C,30718091000000,
Raw,1732151834000,31881000000,,705452.6201589768,-1416187020119000064,0.0,110.0483739182963,1168.9294325144376,0.0,0,30,0.0,16431,350251926360150,487,19.445999145507812,857.2721597051419,0.14999,16,0.0,0.0,1575420030,,,,0,2.397201394117846,1,6.0,19.445999145507812,0.0,0.0,0.0,66.7128,C,30718091000000,
Raw,1732151834000,31881000000,,705452.6201589768,-1416187020119000064,0.0,110.0483739182963,1168.9294325144376,0.0,0,19,0.0,16431,350251930825150,797,13.5,-40.99235125128742,0.14999,16,0.0,0.0,1575420030,,,,0,0.0,1,6.0,13.5,0.0,0.0,0.0,66.7128,C,30718091000000,
Raw,1732151834000,31881000000,,705452.6201589768,-1416187020119000064,0.0,110.0483739182963,1168.9294325144376,0.0,0,6,0.0,16431,350251918687783,1797,13.0,-306.43943457421335,0.14999,16,0.0,0.0,1575420030,,,,0,0.0,1,6.0,13.0,0.0,0.0,0.0,66.7128,C,30718091000000,
Fix,FLP,37.4256255000,-122.1581044000,5.400000095367432,0.054697245,6.257,,1732151834243,1.8,,30718091000000,10.265322,0,,,
Status,1732151834000,27,0,1,17,1575420030,0.00,87.0,79.0,0,0,0,0.0
Status,1732151834000,27,1,1,22,1575420030,0.00,12.0,66.0,0,0,0,0.0
Status,1732151834000,27,2,1,19,1575420030,18.50,200.0,60.0,1,0,0,13.5
Status,1732151834000,27,3,1,14,1575420030,0.00,52.0,53.0,0,0,0,0.0
Status,1732151834000,27,4,1,13,1575420030,23.70,235.0,48.0,1,0,0,18.7
Status,1732151834000,27,5,2,138,1575420030,0.00,156.0,43.0,0,0,0,0.0
Status,1732151834000,27,6,1,30,1575420030,0.00,131.0,37.0,0,0,0,0.0
Status,1732151834000,27,7,1,15,1575420030,24.60,276.0,30.0,1,0,0,19.6
Status,1732151834000,27,8,1,2,1575420030,0.00,48.0,17.0,0,0,0,0.0
Status,1732151834000,27,9,1,24,1575420030,0.00,313.0,16.0,0,0,0,0.0
Status,1732151834000,27,10,1,6,1575420030,18.00,162.0,11.0,1,0,0,13.0
Status,1732151834000,27,11,1,21,1575420030,0.00,34.0,5.0,0,0,0,0.0
Status,1732151834000,27,12,1,7,1575420030,28.10,131.0,5.0,1,0,0,23.1
Status,1732151834000,27,13,3,20,1602000000,0.00,115.0,52.0,0,0,0,0.0
Status,1732151834000,27,14,3,9,1602000000,0.00,80.0,34.0,0,0,0,0.0
Status,1732151834000,27,15,3,11,1602000000,24.40,310.0,27.0,0,0,0,19.4
Status,1732151834000,27,16,3,19,1602000000,0.00,34.0,24.0,0,0,0,0.0
Status,1732151834000,27,17,3,8,1602000000,22.40,247.0,23.0,1,0,0,17.4
Status,1732151834000,27,18,6,21,1575420030,0.00,342.0,68.0,0,0,0,0.0
Status,1732151834000,27,19,6,19,1575420030,0.00,244.0,46.0,0,0,0,0.0
Status,1732151834000,27,20,6,27,1575420030,0.00,64.0,34.0,0,0,0,0.0
Status,1732151834000,27,21,6,13,1575420030,0.00,121.0,28.0,0,0,0,0.0
Status,1732151834000,27,22,6,29,1575420030,0.00,191.0,25.0,0,0,0,0.0
Status,1732151834000,27,23,6,15,1575420030,0.00,63.0,24.0,0,0,0,0.0
Status,1732151834000,27,24,6,4,1575420030,17.90,312.0,23.0,1,0,0,12.9
Status,1732151834000,27,25,6,26,1575420030,0.00,168.0,6.0,0,0,0,0.0
Status,1732151834000,27,26,6,6,1575420030,0.00,327.0,4.0,0,0,0,0.0
Fix,GPS,37.4256550000,-122.1580883333,23.400000000000002,0.0,6.2,0.0,1732151835000,1.8,102.8,30719091000000,42.5,0,,,
Raw,1732151835000,32881000000,,705438.0267298119,-1416187020119000064,0.0,110.07347927870227,1171.5384121480936,0.0,0,15,0.0,16431,350252925166609,487,19.632999420166016,511.65285607126293,0.14999,16,0.0,0.0,1575420030,,,,0,0.0,1,6.0,19.632999420166016,0.0,0.0,0.0,66.7128,C,30719091000000,
Raw,1732151835000,32881000000,,705438.0267298119,-1416187020119000064,0.0,110.07347927870227,1171.5384121480936,0.0,0,7,0.0,16431,350252917401096,487,23.06100082397461,985.52702891577,0.14999,16,0.0,0.0,1575420030,,,,0,7.182889388501362,1,6.0,23.06100082397461,0.0,0.0,0.0,66.7128,C,30719091000000,
Raw,1732151835000,32881000000,,705438.0267298119,-1416187020119000064,0.0,110.07347927870227,1171.5384121480936,0.0,0,13,0.0,16431,350252929203697,797,18.67099952697754,711.1877582717308,0.14999,16,0.0,0.0,1575420030,,,,0,0.0,1,6.0,18.67099952697754,0.0,0.0,0.0,66.7128,C,30719091000000,
Raw,1732151835000,32881000000,,705438.0267298119,-1416187020119000064,0.0,110.07347927870227,1171.5384121480936,0.0,0,4,0.0,16431,350252911683668,797,12.899999618530273,83.21382959104893,0.14999,16,0.0,0.0,1575420030,,,,0,0.0,6,6.0,12.899999618530273,0.0,0.0,8.945505332212553,66.7128,C,30719091000000,
Raw,1732151835000,32881000000,,705438.0267298119,-1416187020119000064,0.0,110.07347927870227,1171.5384121480936,0.0,0,8,0.0,17,938077,797,5.0,930.3689525843985,0.14999,16,0.0,0.0,1605374980,,,,0,0.6796158808873498,3,6.0,16.0,0.0,0.0,36.743560956836255,66.7128,C,30719091000000,
Raw,1732151835000,32881000000,,705438.0267298119,-1416187020119000064,0.0,110.07347927870227,1171.5384121480936,0.0,0,11,0.0,17,178925,487,17.424999237060547,-120.19692019718882,0.14999,16,0.0,0.0,1602000000,,,,0,3.238652466896527,3,6.0,17.424999237060547,0.0,0.0,36.743560956836255,66.7128,C,30719091000000,
Raw,1732151835000,32881000000,,705438.0267298119,-1416187020119000064,0.0,110.07347927870227,1171.5384121480936,0.0,0,19,0.0,16431,350252930825284,797,13.5,-39.69620789742961,0.14999,16,0.0,0.0,1575420030,,,,0,0.0,1,6.0,13.5,0.0,0.0,0.0,66.7128,C,30719091000000,
Raw,1732151835000,32881000000,,705438.0267298119,-1416187020119000064,0.0,110.07347927870227,1171.5384121480936,0.0,0,6,0.0,16431,350252918688804,797,13.0,-305.5222525213849,0.14999,16,0.0,0.0,1575420030,,,,0,0.0,1,6.0,13.0,0.0,0.0,0.0,66.7128,C,30719091000000,
Fix,FLP,37.4256373000,-122.1580981000,5.400000095367432,0.017913045,6.228,,1732151835243,1.8,,30719091000000,10.224926,0,,,
Status,1732151835000,27,0,1,17,1575420030,0.00,87.0,79.0,0,0,0,0.0
Status,1732151835000,27,1,1,22,1575420030,0.00,12.0,66.0,0,0,0,0.0
Status,1732151835000,27,2,1,19,1575420030,19.20,200.0,60.0,1,0,0,14.200001
Status,1732151835000,27,3,1,14,1575420030,0.00,52.0,53.0,0,0,0,0.0
Status,1732151835000,27,4,1,13,1575420030,27.60,235.0,48.0,1,0,0,22.6
Status,1732151835000,27,5,2,138,1575420030,0.00,156.0,43.0,0,0,0,0.0
Status,1732151835000,27,6,1,30,1575420030,0.00,131.0,37.0,0,0,0,0.0
Status,1732151835000,27,7,1,15,1575420030,24.70,276.0,30.0,1,0,0,19.7
Status,1732151835000,27,8,1,2,1575420030,0.00,48.0,17.0,0,0,0,0.0
Status,1732151835000,27,9,1,24,1575420030,0.00,313.0,16.0,0,0,0,0.0
Status,1732151835000,27,10,1,6,1575420030,18.00,162.0,11.0,1,0,0,13.0
Status,1732151835000,27,11,1,21,1575420030,0.00,34.0,5.0,0,0,0,0.0
Status,1732151835000,27,12,1,7,1575420030,23.00,131.0,5.0,1,0,0,18.0
Status,1732151835000,27,13,3,20,1602000000,0.00,115.0,52.0,0,0,0,0.0
Status,1732151835000,27,14,3,9,1602000000,0.00,80.0,34.0,0,0,0,0.0
Status,1732151835000,27,15,3,11,1602000000,22.20,310.0,27.0,0,0,0,17.2
Status,1732151835000,27,16,3,19,1602000000,0.00,34.0,24.0,0,0,0,0.0
Status,1732151835000,27,17,3,8,1602000000,22.20,247.0,23.0,1,0,0,17.2
Status,1732151835000,27,18,6,21,1575420030,0.00,342.0,68.0,0,0,0,0.0
Status,1732151835000,27,19,6,19,1575420030,0.00,244.0,46.0,0,0,0,0.0
Status,1732151835000,27,20,6,27,1575420030,0.00,64.0,34.0,0,0,0,0.0
Status,1732151835000,27,21,6,13,1575420030,0.00,121.0,28.0,0,0,0,0.0
Status,1732151835000,27,22,6,29,1575420030,0.00,191.0,25.0,0,0,0,0.0
Status,1732151835000,27,23,6,15,1575420030,0.00,63.0,24.0,0,0,0,0.0
Status,1732151835000,27,24,6,4,1575420030,18.30,312.0,23.0,1,0,0,13.299999
Status,1732151835000,27,25,6,26,1575420030,0.00,168.0,6.0,0,0,0,0.0
Status,1732151835000,27,26,6,6,1575420030,0.00,327.0,4.0,0,0,0,0.0
Fix,GPS,37.4256566667,-122.1580816667,23.400000000000002,0.0,6.2,0.0,1732151836000,1.8,105.9,30720091000000,43.1,0,,,
Fix,FLP,37.4256453000,-122.1580914000,5.400000095367432,0.0056529,6.214,,1732151836243,1.8,,30720091000000,13.090772,0,,,
Raw,1732151836000,33881000000,,705429.7918662117,-1416187020119000064,0.0,108.40054356962321,1172.1341486477859,0.0,0,15,0.0,16431,350253925164857,487,19.698999404907227,512.7298086174394,0.14999,16,0.0,0.0,1575420030,,,,0,3.840161060446265,1,6.0,19.698999404907227,0.0,0.0,0.0,66.7128,C,30720091000000,
Raw,1732151836000,33881000000,,705429.7918662117,-1416187020119000064,0.0,108.40054356962321,1172.1341486477859,0.0,0,7,0.0,16431,350253917397807,797,18.006000518798828,985.7857093772302,0.14999,16,0.0,0.0,1575420030,,,,0,0.0,1,6.0,18.006000518798828,0.0,0.0,0.0,66.7128,C,30720091000000,
Raw,1732151836000,33881000000,,705429.7918662117,-1416187020119000064,0.0,108.40054356962321,1172.1341486477859,0.0,0,13,0.0,16431,350253929201304,396,22.610000610351562,711.8404990194889,0.14999,16,0.0,0.0,1575420030,,,,0,6.492672365938084,1,6.0,22.610000610351562,0.0,0.0,0.0,66.7128,C,30720091000000,
Raw,1732151836000,33881000000,,705429.7918662117,-1416187020119000064,0.0,108.40054356962321,1172.1341486477859,0.0,0,4,0.0,16431,350253911683388,487,13.300000190734863,83.88078661416742,0.14999,16,0.0,0.0,1575420030,,,,0,0.0,6,6.0,13.300000190734863,0.0,0.0,5.211338134534945,66.7128,C,30720091000000,
Raw,1732151836000,33881000000,,705429.7918662117,-1416187020119000064,0.0,108.40054356962321,1172.1341486477859,0.0,0,8,0.0,17,934978,487,5.0,926.670840432136,0.14999,16,0.0,0.0,1605374980,,,,0,0.0,3,6.0,18.0,0.0,0.0,36.07773062152494,66.7128,C,30720091000000,
Raw,1732151836000,33881000000,,705429.7918662117,-1416187020119000064,0.0,108.40054356962321,1172.1341486477859,0.0,0,11,0.0,17,179323,487,17.200000762939453,-119.94810558583448,0.14999,16,0.0,0.0,1602000000,,,,0,0.0,3,6.0,17.200000762939453,0.0,0.0,36.07773062152494,66.7128,C,30720091000000,
Raw,1732151836000,33881000000,,705429.7918662117,-1416187020119000064,0.0,108.40054356962321,1172.1341486477859,0.0,0,19,0.0,16431,350253930825416,797,14.199999809265137,-39.321242020194354,0.14999,16,0.0,0.0,1575420030,,,,0,0.0,1,6.0,14.199999809265137,0.0,0.0,0.0,66.7128,C,30720091000000,
Raw,1732151836000,33881000000,,705429.7918662117,-1416187020119000064,0.0,108.40054356962321,1172.1341486477859,0.0,0,6,0.0,16431,350253918689822,797,13.0,-305.0398283274547,0.14999,16,0.0,0.0,1575420030,,,,0,0.0,1,6.0,13.0,0.0,0.0,0.0,66.7128,C,30720091000000,
Status,1732151836000,27,0,1,17,1575420030,0.00,87.0,79.0,0,0,0,0.0
Status,1732151836000,27,1,1,22,1575420030,0.00,12.0,66.0,0,0,0,0.0
Status,1732151836000,27,2,1,19,1575420030,19.20,200.0,60.0,1,0,0,14.200001
Status,1732151836000,27,3,1,14,1575420030,0.00,52.0,53.0,0,0,0,0.0
Status,1732151836000,27,4,1,13,1575420030,27.30,235.0,48.0,1,0,0,22.3
Status,1732151836000,27,5,2,138,1575420030,0.00,156.0,43.0,0,0,0,0.0
Status,1732151836000,27,6,1,30,1575420030,0.00,131.0,37.0,0,0,0,0.0
Status,1732151836000,27,7,1,15,1575420030,30.60,276.0,30.0,1,0,0,25.6
Status,1732151836000,27,8,1,2,1575420030,0.00,48.0,17.0,0,0,0,0.0
Status,1732151836000,27,9,1,24,1575420030,0.00,313.0,16.0,0,0,0,0.0
Status,1732151836000,27,10,1,6,1575420030,18.00,162.0,11.0,1,0,0,13.0
Status,1732151836000,27,11,1,21,1575420030,0.00,34.0,5.0,0,0,0,0.0
Status,1732151836000,27,12,1,7,1575420030,23.00,131.0,5.0,1,0,0,18.0
Status,1732151836000,27,13,3,20,1602000000,0.00,115.0,52.0,0,0,0,0.0
Status,1732151836000,27,14,3,9,1602000000,0.00,80.0,34.0,0,0,0,0.0
Status,1732151836000,27,15,3,11,1602000000,23.70,310.0,27.0,0,0,0,18.7
Status,1732151836000,27,16,3,19,1602000000,0.00,34.0,24.0,0,0,0,0.0
Status,1732151836000,27,17,3,8,1602000000,22.80,247.0,23.0,1,0,0,17.8
Status,1732151836000,27,18,6,21,1575420030,0.00,342.0,68.0,0,0,0,0.0
Status,1732151836000,27,19,6,19,1575420030,0.00,244.0,46.0,0,0,0,0.0
Status,1732151836000,27,20,6,27,1575420030,0.00,64.0,34.0,0,0,0,0.0
Status,1732151836000,27,21,6,13,1575420030,0.00,121.0,28.0,0,0,0,0.0
Status,1732151836000,27,22,6,29,1575420030,0.00,191.0,25.0,0,0,0,0.0
Status,1732151836000,27,23,6,15,1575420030,0.00,63.0,24.0,0,0,0,0.0
Status,1732151836000,27,24,6,4,1575420030,18.30,312.0,23.0,1,0,0,13.299999
Status,1732151836000,27,25,6,26,1575420030,0.00,168.0,6.0,0,0,0,0.0
Status,1732151836000,27,26,6,6,1575420030,0.00,327.0,4.0,0,0,0,0.0
Fix,GPS,37.4256533333,-122.1580716667,23.400000000000002,0.0,6.2,0.0,1732151837000,1.8,111.0,30721091000000,43.7,0,,,
Raw,1732151837000,34881000000,,705419.0552718975,-1416187020119000064,0.0,108.28732132081824,1172.2290192036417,0.0,0,15,0.0,16431,350254925163141,316,25.5939998626709,512.9236331298698,0.14999,16,0.0,0.0,1575420030,,,,0,10.864093163040494,1,6.0,25.5939998626709,0.0,0.0,0.0,66.7128,C,30721091000000,
Raw,1732151837000,34881000000,,705419.0552718975,-1416187020119000064,0.0,108.28732132081824,1172.2290192036417,0.0,0,7,0.0,16431,350254917394520,797,18.006000518798828,985.5521164605236,0.14999,16,0.0,0.0,1575420030,,,,0,0.0,1,6.0,18.006000518798828,0.0,0.0,0.0,66.7128,C,30721091000000,
Raw,1732151837000,34881000000,,705419.0552718975,-1416187020119000064,0.0,108.28732132081824,1172.2290192036417,0.0,0,13,0.0,16431,350254929198925,487,22.29400062561035,712.0093753624142,0.14999,16,0.0,0.0,1575420030,,,,0,6.023050448947625,1,6.0,22.29400062561035,0.0,0.0,0.0,66.7128,C,30721091000000,
Raw,1732151837000,34881000000,,705419.0552718975,-1416187020119000064,0.0,108.28732132081824,1172.2290192036417,0.0,0,4,0.0,16431,350254911683107,396,13.300000190734863,84.10799149864506,0.14999,16,0.0,0.0,1575420030,,,,0,0.0,6,6.0,13.300000190734863,0.0,0.0,-0.7308130809861618,66.7128,C,30721091000000,
Raw,1732151837000,34881000000,,705419.0552718975,-1416187020119000064,0.0,108.28732132081824,1172.2290192036417,0.0,0,8,0.0,17,931881,487,5.0,927.4060496015442,0.14999,16,0.0,0.0,1605374980,,,,0,0.5227191829663616,3,6.0,18.0,0.0,0.0,34.564226632721265,66.7128,C,30721091000000,
Raw,1732151837000,34881000000,,705419.0552718975,-1416187020119000064,0.0,108.28732132081824,1172.2290192036417,0.0,0,11,0.0,17,179717,797,17.799999237060547,-120.04944065891269,0.14999,16,0.0,0.0,1602000000,,,,0,2.0884271305799422,3,6.0,17.799999237060547,0.0,0.0,34.564226632721265,66.7128,C,30721091000000,
Raw,1732151837000,34881000000,,705419.0552718975,-1416187020119000064,0.0,108.28732132081824,1172.2290192036417,0.0,0,19,0.0,16431,350254930825547,1797,14.199999809265137,-39.00197978399553,0.14999,16,0.0,0.0,1575420030,,,,0,0.0,1,6.0,14.199999809265137,0.0,0.0,0.0,66.7128,C,30721091000000,
Raw,1732151837000,34881000000,,705419.0552718975,-1416187020119000064,0.0,108.28732132081824,1172.2290192036417,0.0,0,6,0.0,16431,350254918690841,797,13.0,-305.58097595947504,0.14999,16,0.0,0.0,1575420030,,,,0,0.0,1,6.0,13.0,0.0,0.0,0.0,66.7128,C,30721091000000,
Fix,FLP,37.4256487000,-122.1580834000,5.400000095367432,0.0146245975,6.2,,1732151837243,1.8,,30721091000000,14.407233,0,,,
Fix,FLP,37.4256506000,-122.1580789000,5.400000095367432,0.018849159,6.2,,1732151838006,1.8,,30721853000000,9.942678,0,,,
Fix,NLP,37.4256754000,-122.1581379000,5.400000095367432,,22.286,,1732151838005,,,30721853000000,21.400106,0,,,
Status,1732151837000,27,0,1,17,1575420030,0.00,87.0,79.0,0,0,0,0.0
Status,1732151837000,27,1,1,22,1575420030,0.00,12.0,66.0,0,0,0,0.0
Status,1732151837000,27,2,1,19,1575420030,19.20,200.0,60.0,1,0,0,14.200001
Status,1732151837000,27,3,1,14,1575420030,0.00,52.0,53.0,0,0,0,0.0
Status,1732151837000,27,4,1,13,1575420030,27.20,235.0,48.0,1,0,0,22.2
Status,1732151837000,27,5,2,138,1575420030,0.00,156.0,43.0,0,0,0,0.0
Status,1732151837000,27,6,1,30,1575420030,21.10,131.0,37.0,1,0,0,16.1
Status,1732151837000,27,7,1,15,1575420030,30.50,276.0,30.0,1,0,0,25.5
Status,1732151837000,27,8,1,2,1575420030,0.00,48.0,17.0,0,0,0,0.0
Status,1732151837000,27,9,1,24,1575420030,0.00,313.0,16.0,0,0,0,0.0
Status,1732151837000,27,10,1,6,1575420030,19.40,162.0,11.0,1,0,0,14.4
Status,1732151837000,27,11,1,21,1575420030,0.00,34.0,5.0,0,0,0,0.0
Status,1732151837000,27,12,1,7,1575420030,23.00,131.0,5.0,1,0,0,18.0
Status,1732151837000,27,13,3,20,1602000000,0.00,115.0,52.0,0,0,0,0.0
Status,1732151837000,27,14,3,9,1602000000,0.00,80.0,34.0,0,0,0,0.0
Status,1732151837000,27,15,3,11,1602000000,27.40,310.0,27.0,0,0,0,22.4
Status,1732151837000,27,16,3,19,1602000000,0.00,34.0,24.0,0,0,0,0.0
Status,1732151837000,27,17,3,8,1602000000,22.80,247.0,23.0,1,0,0,17.8
Status,1732151837000,27,18,6,21,1575420030,0.00,342.0,68.0,0,0,0,0.0
Status,1732151837000,27,19,6,19,1575420030,0.00,244.0,46.0,0,0,0,0.0
Status,1732151837000,27,20,6,27,1575420030,0.00,64.0,34.0,0,0,0,0.0
Status,1732151837000,27,21,6,13,1575420030,0.00,121.0,28.0,0,0,0,0.0
Status,1732151837000,27,22,6,29,1575420030,0.00,191.0,25.0,0,0,0,0.0
Status,1732151837000,27,23,6,15,1575420030,0.00,63.0,24.0,0,0,0,0.0
Status,1732151837000,27,24,6,4,1575420030,18.30,312.0,23.0,1,0,0,13.299999
Status,1732151837000,27,25,6,26,1575420030,0.00,168.0,6.0,0,0,0,0.0
Status,1732151837000,27,26,6,6,1575420030,0.00,327.0,4.0,0,0,0,0.0
Fix,GPS,37.4256600000,-122.1580633333,23.400000000000002,0.0,6.2,0.0,1732151838000,1.8,102.3,30722091000000,43.9,0,,,
Raw,1732151838000,35881000000,,705396.383337302,-1416187020119000064,0.0,108.41335710126478,1176.0794508277445,0.0,0,15,0.0,16431,350255925161434,396,25.549999237060547,514.2021222855676,0.14999,16,0.0,0.0,1575420030,,,,0,9.636306891550918,1,6.0,25.549999237060547,0.0,0.0,0.0,66.7128,C,30722091000000,
Raw,1732151838000,35881000000,,705396.383337302,-1416187020119000064,0.0,108.41335710126478,1176.0794508277445,0.0,0,7,0.0,16431,350255917391230,487,18.006000518798828,986.984522349127,0.14999,16,0.0,0.0,1575420030,,,,0,0.0,1,6.0,18.006000518798828,0.0,0.0,0.0,66.7128,C,30722091000000,
Raw,1732151838000,35881000000,,705396.383337302,-1416187020119000064,0.0,108.41335710126478,1176.0794508277445,0.0,0,13,0.0,16431,350255929196560,487,22.17099952697754,713.7348409404735,0.14999,16,0.0,0.0,1575420030,,,,0,5.813741775384328,1,6.0,22.17099952697754,0.0,0.0,0.0,66.7128,C,30722091000000,
