# 
# Header Description:
# 
# Version: v3.1.0.3 Platform: 13 Manufacturer: samsung Model: SM-S135DL GNSS Hardware Model Name: MediaTek,MT6631,MTK_MNLD_default,MNL_VER_default
# 
# Raw,utcTimeMillis,TimeNanos,LeapSecond,TimeUncertaintyNanos,FullBiasNanos,BiasNanos,BiasUncertaintyNanos,DriftNanosPerSecond,DriftUncertaintyNanosPerSecond,HardwareClockDiscontinuityCount,Svid,TimeOffsetNanos,State,ReceivedSvTimeNanos,ReceivedSvTimeUncertaintyNanos,Cn0DbHz,PseudorangeRateMetersPerSecond,PseudorangeRateUncertaintyMetersPerSecond,AccumulatedDeltaRangeState,AccumulatedDeltaRangeMeters,AccumulatedDeltaRangeUncertaintyMeters,CarrierFrequencyHz,CarrierCycles,CarrierPhase,CarrierPhaseUncertainty,MultipathIndicator,SnrInDb,ConstellationType,AgcDb,BasebandCn0DbHz,FullInterSignalBiasNanos,FullInterSignalBiasUncertaintyNanos,SatelliteInterSignalBiasNanos,SatelliteInterSignalBiasUncertaintyNanos,CodeType,ChipsetElapsedRealtimeNanos,IsFullTracking
# 
# UncalAccel,utcTimeMillis,elapsedRealtimeNanos,UncalAccelXMps2,UncalAccelYMps2,UncalAccelZMps2,BiasXMps2,BiasYMps2,BiasZMps2
# 
# Accel,utcTimeMillis,elapsedRealtimeNanos,AccelXMps2,AccelYMps2,AccelZMps2
# 
# UncalGyro,utcTimeMillis,elapsedRealtimeNanos,UncalGyroXRadPerSec,UncalGyroYRadPerSec,UncalGyroZRadPerSec,DriftXRadPerSec,DriftYRadPerSec,DriftZRadPerSec
# 
# Gyro,utcTimeMillis,elapsedRealtimeNanos,GyroXRadPerSec,GyroYRadPerSec,GyroZRadPerSec
# 
# UncalMag,utcTimeMillis,elapsedRealtimeNanos,UncalMagXMicroT,UncalMagYMicroT,UncalMagZMicroT,BiasXMicroT,BiasYMicroT,BiasZMicroT
# 
# Mag,utcTimeMillis,elapsedRealtimeNanos,MagXMicroT,MagYMicroT,MagZMicroT
# 
# Pressure,utcTimeMillis,elapsedRealtimeNanos,PressureHpa
# 
# OrientationDeg,utcTimeMillis,elapsedRealtimeNanos,yawDeg,rollDeg,pitchDeg
# 
# Fix,Provider,LatitudeDegrees,LongitudeDegrees,AltitudeMeters,SpeedMps,AccuracyMeters,BearingDegrees,UnixTimeMillis,SpeedAccuracyMps,BearingAccuracyDegrees,elapsedRealtimeNanos,VerticalAccuracyMeters,MockLocation,NumberOfUsedSignals,VerticalSpeedAccuracyMps,SolutionType
# 
# Nav,Svid,Type,Status,MessageId,Sub-messageId,Data(Bytes)
# 
# Status,UnixTimeMillis,SignalCount,SignalIndex,ConstellationType,Svid,CarrierFrequencyHz,Cn0DbHz,AzimuthDegrees,ElevationDegrees,UsedInFix,HasAlmanacData,HasEphemerisData,BasebandCn0DbHz
# 
# Agc,utcTimeMillis,TimeNanos,LeapSecond,TimeUncertaintyNanos,FullBiasNanos,BiasNanos,BiasUncertaintyNanos,DriftNanosPerSecond,DriftUncertaintyNanosPerSecond,HardwareClockDiscontinuityCount,AgcDb,CarrierFrequencyHz,ConstellationType
# 
Fix,FLP,37.4251541000,-122.1585915000,5.400000095367432,0.37966913,5.528,0.00000004569877,1732152232243,1.7,115.0,31116091000000,22.633175,0,,,
Status,,27,0,1,17,1575420030,0.00,72.0,77.0,0,0,0,0.0
Status,,27,1,1,22,1575420030,0.00,19.0,65.0,0,0,0,0.0
Status,,27,2,1,19,1575420030,19.60,201.0,63.0,1,0,0,14.6
Status,,27,3,1,14,1575420030,0.00,55.0,51.0,0,0,0,0.0
Status,,27,4,1,13,1575420030,26.20,232.0,46.0,1,0,0,21.2
Status,,27,5,2,135,1575420030,0.00,197.0,45.0,0,0,0,0.0
Status,,27,6,1,30,1575420030,29.00,133.0,34.0,1,0,0,24.0
Status,,27,7,1,15,1575420030,19.10,272.0,29.0,1,0,0,14.1
Status,,27,8,1,24,1575420030,0.00,313.0,19.0,0,0,0,0.0
Status,,27,9,1,2,1575420030,0.00,46.0,16.0,0,0,0,0.0
Status,,27,10,1,6,1575420030,25.40,161.0,14.0,1,0,0,20.4
Status,,27,11,1,21,1575420030,0.00,32.0,3.0,0,0,0,0.0
Status,,27,12,1,7,1575420030,27.00,133.0,2.0,0,0,0,22.0
Status,,27,13,3,20,1602000000,0.00,109.0,55.0,0,0,0,0.0
Status,,27,14,3,9,1602000000,0.00,83.0,32.0,0,0,0,0.0
Status,,27,15,3,11,1602000000,0.00,313.0,30.0,0,0,0,0.0
Status,,27,16,3,8,1602000000,21.50,244.0,21.0,1,0,0,16.5
Status,,27,17,3,19,1602000000,0.00,31.0,21.0,0,0,0,0.0
Status,,27,18,6,21,1575420030,0.00,348.0,68.0,0,0,0,0.0
Status,,27,19,6,19,1575420030,0.00,241.0,45.0,0,0,0,0.0
Status,,27,20,6,27,1575420030,0.00,66.0,33.0,0,0,0,0.0
Status,,27,21,6,13,1575420030,0.00,118.0,30.0,0,0,0,0.0
Status,,27,22,6,4,1575420030,19.10,310.0,24.0,1,0,0,14.1
Status,,27,23,6,15,1575420030,0.00,60.0,24.0,0,0,0,0.0
Status,,27,24,6,29,1575420030,0.00,191.0,23.0,0,0,0,0.0
Status,,27,25,6,26,1575420030,0.00,167.0,8.0,0,0,0,0.0
Status,,27,26,6,6,1575420030,0.00,326.0,6.0,0,0,0,0.0
Fix,GPS,37.4251700000,-122.1585433333,23.099999999999998,0.0,5.4,0.0,1732152233000,1.7,114.2,31117091000000,48.1,0,,,
Fix,FLP,37.4251632000,-122.1585695000,5.400000095367432,0.3772137,5.514,0.000000043954756,1732152233243,1.7,114.2,31117091000000,23.179403,0,,,
Raw,1732152233001,25901000000,,114.04172950485643,-1416187425100000000,0.0,114.04172950485643,1090.2422150204013,0.0,0,15,0.0,16431,350650925476865,797,14.100000381469727,533.4656399831051,0.14999,16,0.0,0.0,1575420030,,,,0,0.0,1,6.0,14.100000381469727,0.0,0.0,0.0,66.7128,C,31117091000000,
Raw,1732152233001,25901000000,,114.04172950485643,-1416187425100000000,0.0,114.04172950485643,1090.2422150204013,0.0,0,19,0.0,16431,350650931873667,797,14.588000297546387,-26.207889460607813,0.14999,16,0.0,0.0,1575420030,,,,0,0.0,1,6.0,14.588000297546387,0.0,0.0,0.0,66.7128,C,31117091000000,
Raw,1732152233001,25901000000,,114.04172950485643,-1416187425100000000,0.0,114.04172950485643,1090.2422150204013,0.0,0,13,0.0,16431,350650929253189,487,21.194000244140625,727.4566129187533,0.14999,16,0.0,0.0,1575420030,,,,0,4.251092385601996,1,6.0,21.194000244140625,0.0,0.0,0.0,66.7128,C,31117091000000,
Raw,1732152233001,25901000000,,114.04172950485643,-1416187425100000000,0.0,114.04172950485643,1090.2422150204013,0.0,0,30,0.0,16431,350650926221669,487,23.98699951171875,860.3310747452762,0.14999,16,0.0,0.0,1575420030,,,,0,8.572032775465617,1,6.0,23.98699951171875,0.0,0.0,0.0,66.7128,C,31117091000000,
Raw,1732152233001,25901000000,,114.04172950485643,-1416187425100000000,0.0,114.04172950485643,1090.2422150204013,0.0,0,4,0.0,16431,350650912572341,797,14.100000381469727,91.3134131024023,0.14999,16,0.0,0.0,1575420030,,,,0,0.0,6,6.0,14.100000381469727,0.0,0.0,-49.71013395787133,66.7128,C,31117091000000,
Raw,1732152233001,25901000000,,114.04172950485643,-1416187425100000000,0.0,114.04172950485643,1090.2422150204013,0.0,0,7,0.0,16431,350650917106138,487,22.017000198364258,972.521274048127,0.14999,16,0.0,0.0,1575420030,,,,0,5.6193823448414575,1,6.0,22.017000198364258,0.0,0.0,0.0,66.7128,C,31117091000000,
Raw,1732152233001,25901000000,,114.04172950485643,-1416187425100000000,0.0,114.04172950485643,1090.2422150204013,0.0,0,8,0.0,17,708183,487,5.0,931.7152707521169,0.14999,16,0.0,0.0,1605374980,,,,0,0.0,3,6.0,18.0,0.0,0.0,83.7933249166973,66.7128,C,31117091000000,
Raw,1732152233001,25901000000,,114.04172950485643,-1416187425100000000,0.0,114.04172950485643,1090.2422150204013,0.0,0,6,0.0,16431,350650920118202,487,20.385000228881836,-332.09056637495405,0.14999,16,0.0,0.0,1575420030,,,,0,0.8721640289493777,1,6.0,20.385000228881836,0.0,0.0,0.0,66.7128,C,31117091000000,
Fix,NLP,37.4257203000,-122.1580861000,5.400000095367432,,17.283,,1732152233324,,,31117171000000,11.53231,0,,,
Status,1732152233000,27,0,1,17,1575420030,0.00,72.0,77.0,0,0,0,0.0
Status,1732152233000,27,1,1,22,1575420030,0.00,19.0,65.0,0,0,0,0.0
Status,1732152233000,27,2,1,19,1575420030,19.60,201.0,63.0,1,0,0,14.6
Status,1732152233000,27,3,1,14,1575420030,0.00,55.0,51.0,0,0,0,0.0
Status,1732152233000,27,4,1,13,1575420030,23.70,232.0,46.0,1,0,0,18.7
Status,1732152233000,27,5,2,135,1575420030,0.00,197.0,45.0,0,0,0,0.0
Status,1732152233000,27,6,1,30,1575420030,28.90,133.0,34.0,1,0,0,23.9
Status,1732152233000,27,7,1,15,1575420030,24.00,272.0,29.0,1,0,0,19.0
Status,1732152233000,27,8,1,24,1575420030,0.00,313.0,19.0,0,0,0,0.0
Status,1732152233000,27,9,1,2,1575420030,0.00,46.0,16.0,0,0,0,0.0
Status,1732152233000,27,10,1,6,1575420030,28.30,161.0,14.0,1,0,0,23.3
Status,1732152233000,27,11,1,21,1575420030,0.00,32.0,3.0,0,0,0,0.0
Status,1732152233000,27,12,1,7,1575420030,27.00,133.0,2.0,0,0,0,22.0
Status,1732152233000,27,13,3,20,1602000000,0.00,109.0,55.0,0,0,0,0.0
Status,1732152233000,27,14,3,9,1602000000,0.00,83.0,32.0,0,0,0,0.0
Status,1732152233000,27,15,3,11,1602000000,0.00,313.0,30.0,0,0,0,0.0
Status,1732152233000,27,16,3,8,1602000000,25.10,244.0,21.0,1,0,0,20.1
Status,1732152233000,27,17,3,19,1602000000,0.00,31.0,21.0,0,0,0,0.0
Status,1732152233000,27,18,6,21,1575420030,0.00,348.0,68.0,0,0,0,0.0
Status,1732152233000,27,19,6,19,1575420030,0.00,241.0,45.0,0,0,0,0.0
Status,1732152233000,27,20,6,27,1575420030,0.00,66.0,33.0,0,0,0,0.0
Status,1732152233000,27,21,6,13,1575420030,22.50,118.0,30.0,1,0,0,17.5
Status,1732152233000,27,22,6,4,1575420030,19.00,310.0,24.0,1,0,0,14.0
Status,1732152233000,27,23,6,15,1575420030,0.00,60.0,24.0,0,0,0,0.0
Status,1732152233000,27,24,6,29,1575420030,0.00,191.0,23.0,0,0,0,0.0
Status,1732152233000,27,25,6,26,1575420030,0.00,167.0,8.0,0,0,0,0.0
Status,1732152233000,27,26,6,6,1575420030,0.00,326.0,6.0,0,0,0,0.0
Fix,GPS,37.4251783333,-122.1585116667,23.099999999999998,0.0,5.4,0.0,1732152234000,1.6,117.0,31118091000000,47.1,0,,,
Raw,1732152234001,26901000000,,112.49410428198006,-1416187425100000000,0.0,112.49410428198006,1084.7938183769418,0.0,0,15,0.0,16431,350651925475111,487,19.016000747680664,531.5977329009443,0.14999,16,0.0,0.0,1575420030,,,,0,0.4998546227762777,1,6.0,19.016000747680664,0.0,0.0,0.0,66.7128,C,31118091000000,
Raw,1732152234001,26901000000,,112.49410428198006,-1416187425100000000,0.0,112.49410428198006,1084.7938183769418,0.0,0,19,0.0,16431,350651931873757,797,14.562999725341797,-27.832702879947075,0.14999,16,0.0,0.0,1575420030,,,,0,0.0,1,6.0,14.562999725341797,0.0,0.0,0.0,66.7128,C,31118091000000,
Raw,1732152234001,26901000000,,112.49410428198006,-1416187425100000000,0.0,112.49410428198006,1084.7938183769418,0.0,0,13,0.0,16431,350651929250762,487,18.687000274658203,725.2789211173006,0.14999,16,0.0,0.0,1575420030,,,,0,0.0,1,6.0,18.687000274658203,0.0,0.0,0.0,66.7128,C,31118091000000,
Raw,1732152234001,26901000000,,112.49410428198006,-1416187425100000000,0.0,112.49410428198006,1084.7938183769418,0.0,0,30,0.0,16431,350651926218793,396,23.893999099731445,858.3189607391978,0.14999,16,0.0,0.0,1575420030,,,,0,8.471325680503552,1,6.0,23.893999099731445,0.0,0.0,0.0,66.7128,C,31118091000000,
Raw,1732152234001,26901000000,,112.49410428198006,-1416187425100000000,0.0,112.49410428198006,1084.7938183769418,0.0,0,4,0.0,16431,350651912572037,797,14.024999618530273,89.19818464154459,0.14999,16,0.0,0.0,1575420030,,,,0,0.0,6,6.0,14.024999618530273,0.0,0.0,-49.71013395787133,66.7128,C,31118091000000,
Raw,1732152234001,26901000000,,112.49410428198006,-1416187425100000000,0.0,112.49410428198006,1084.7938183769418,0.0,0,13,0.0,16431,350651914578805,487,17.5,-99.41905943707111,0.14999,16,0.0,0.0,1575420030,,,,0,0.0,6,6.0,17.5,0.0,0.0,-49.71013395787133,66.7128,C,31118091000000,
Raw,1732152234001,26901000000,,112.49410428198006,-1416187425100000000,0.0,112.49410428198006,1084.7938183769418,0.0,0,7,0.0,16431,350651917102898,235,22.017000198364258,970.3473918368036,0.14999,16,0.0,0.0,1575420030,,,,0,5.6193823448414575,1,6.0,22.017000198364258,0.0,0.0,0.0,66.7128,C,31118091000000,
Raw,1732152234001,26901000000,,112.49410428198006,-1416187425100000000,0.0,112.49410428198006,1084.7938183769418,0.0,0,8,0.0,17,705064,487,5.0,930.564905022084,0.14999,16,0.0,0.0,1605374980,,,,0,4.447354227439393,3,6.0,20.0,0.0,0.0,82.43394575190807,66.7128,C,31118091000000,
Raw,1732152234001,26901000000,,112.49410428198006,-1416187425100000000,0.0,112.49410428198006,1084.7938183769418,0.0,0,6,0.0,16431,350651920119321,396,23.26300048828125,-334.6464296843606,0.14999,16,0.0,0.0,1575420030,,,,0,7.508210789191873,1,6.0,23.26300048828125,0.0,0.0,0.0,66.7128,C,31118091000000,
Fix,FLP,37.4251724000,-122.1585412000,5.400000095367432,0.35620427,5.457,0.00000005386628,1732152234243,1.6,117.0,31118091000000,17.49293,0,,,
Status,1732152234000,28,0,1,17,1575420030,0.00,72.0,77.0,0,0,0,0.0
Status,1732152234000,28,1,1,22,1575420030,0.00,19.0,65.0,0,0,0,0.0
Status,1732152234000,28,2,1,19,1575420030,19.50,201.0,63.0,1,0,0,14.5
Status,1732152234000,28,3,1,14,1575420030,0.00,55.0,51.0,0,0,0,0.0
Status,1732152234000,28,4,1,13,1575420030,30.30,232.0,46.0,1,0,0,25.3
Status,1732152234000,28,5,2,138,1575420030,0.00,156.0,43.0,0,0,0,0.0
Status,1732152234000,28,6,1,30,1575420030,32.70,133.0,34.0,1,0,0,27.7
Status,1732152234000,28,7,1,15,1575420030,24.20,272.0,29.0,1,0,0,19.2
Status,1732152234000,28,8,1,24,1575420030,0.00,313.0,19.0,0,0,0,0.0
Status,1732152234000,28,9,1,2,1575420030,0.00,46.0,16.0,0,0,0,0.0
Status,1732152234000,28,10,1,6,1575420030,28.20,161.0,14.0,1,0,0,23.2
Status,1732152234000,28,11,1,21,1575420030,0.00,32.0,3.0,0,0,0,0.0
Status,1732152234000,28,12,1,7,1575420030,31.80,133.0,2.0,0,0,0,26.8
Status,1732152234000,28,13,3,20,1602000000,0.00,109.0,55.0,0,0,0,0.0
Status,1732152234000,28,14,3,9,1602000000,0.00,83.0,32.0,0,0,0,0.0
Status,1732152234000,28,15,3,11,1602000000,0.00,313.0,30.0,0,0,0,0.0
Status,1732152234000,28,16,3,8,1602000000,24.70,244.0,21.0,1,0,0,19.7
Status,1732152234000,28,17,3,19,1602000000,0.00,31.0,21.0,0,0,0,0.0
Status,1732152234000,28,18,3,17,1602000000,29.50,0.0,0.0,0,0,0,24.5
Status,1732152234000,28,19,6,21,1575420030,0.00,348.0,68.0,0,0,0,0.0
Status,1732152234000,28,20,6,19,1575420030,0.00,241.0,45.0,0,0,0,0.0
Status,1732152234000,28,21,6,27,1575420030,0.00,66.0,33.0,0,0,0,0.0
Status,1732152234000,28,22,6,13,1575420030,0.00,118.0,30.0,0,0,0,0.0
Status,1732152234000,28,23,6,4,1575420030,19.00,310.0,24.0,1,0,0,14.0
Status,1732152234000,28,24,6,15,1575420030,0.00,60.0,24.0,0,0,0,0.0
Status,1732152234000,28,25,6,29,1575420030,0.00,191.0,23.0,0,0,0,0.0
Status,1732152234000,28,26,6,26,1575420030,0.00,167.0,8.0,0,0,0,0.0
Status,1732152234000,28,27,6,6,1575420030,0.00,326.0,6.0,0,0,0,0.0
Fix,GPS,37.4252150000,-122.1584416667,23.2,0.0,5.2,0.0,1732152235000,1.6,84.9,31119091000000,46.5,0,,,
Raw,1732152235001,27901000000,,106.79441127774197,-1416187425100000000,0.0,106.79441127774197,1076.7465032989667,0.0,0,15,0.0,16431,350652925473353,797,19.21299934387207,529.5083120902915,0.14999,16,0.0,0.0,1575420030,,,,0,0.8721640289493777,1,6.0,19.21299934387207,0.0,0.0,0.0,66.7128,C,31119091000000,
Raw,1732152235001,27901000000,,106.79441127774197,-1416187425100000000,0.0,106.79441127774197,1076.7465032989667,0.0,0,19,0.0,16431,350652931873852,1797,14.538999557495117,-30.03034857116227,0.14999,16,0.0,0.0,1575420030,,,,0,0.0,1,6.0,14.538999557495117,0.0,0.0,0.0,66.7128,C,31119091000000,
Raw,1732152235001,27901000000,,106.79441127774197,-1416187425100000000,0.0,106.79441127774197,1076.7465032989667,0.0,0,13,0.0,16431,350652929248347,316,25.267000198364258,722.5111145131415,0.14999,16,0.0,0.0,1575420030,,,,0,10.414589123342626,1,6.0,25.267000198364258,0.0,0.0,0.0,66.7128,C,31119091000000,
Raw,1732152235001,27901000000,,106.79441127774197,-1416187425100000000,0.0,106.79441127774197,1076.7465032989667,0.0,0,30,0.0,16431,350652926215936,235,27.663000106811523,856.2677287466702,0.14999,16,0.0,0.0,1575420030,,,,0,13.627275283179747,1,6.0,27.663000106811523,0.0,0.0,0.0,66.7128,C,31119091000000,
Raw,1732152235001,27901000000,,106.79441127774197,-1416187425100000000,0.0,106.79441127774197,1076.7465032989667,0.0,0,4,0.0,16431,350652912571742,487,13.95300006866455,86.62241390079181,0.14999,16,0.0,0.0,1575420030,,,,0,0.0,6,6.0,13.95300006866455,0.0,0.0,-49.71013395787133,66.7128,C,31119091000000,
Raw,1732152235001,27901000000,,106.79441127774197,-1416187425100000000,0.0,106.79441127774197,1076.7465032989667,0.0,0,7,0.0,16431,350652917099613,235,26.799999237060547,969.2243990001624,0.14999,16,0.0,0.0,1575420030,,,,0,12.49337332518099,1,6.0,26.799999237060547,0.0,0.0,0.0,66.7128,C,31119091000000,
Raw,1732152235001,27901000000,,106.79441127774197,-1416187425100000000,0.0,106.79441127774197,1076.7465032989667,0.0,0,8,0.0,17,701944,487,5.0,929.557879092908,0.14999,16,0.0,0.0,1605374980,,,,0,3.7890173034303958,3,6.0,20.0,0.0,0.0,81.00255330289416,66.7128,C,31119091000000,
Raw,1732152235001,27901000000,,106.79441127774197,-1416187425100000000,0.0,106.79441127774197,1076.7465032989667,0.0,0,6,0.0,16431,350652920120427,487,23.24799919128418,-337.2898671083241,0.14999,16,0.0,0.0,1575420030,,,,0,7.102795686730332,1,6.0,23.24799919128418,0.0,0.0,0.0,66.7128,C,31119091000000,
Fix,FLP,37.4251939000,-122.1584958000,5.400000095367432,0.38715646,5.414,0.000000054515418,1732152235243,1.6,84.9,31119091000000,11.924703,0,,,
Status,1732152235000,28,0,1,17,1575420030,0.00,72.0,77.0,0,0,0,0.0
Status,1732152235000,28,1,1,22,1575420030,0.00,19.0,65.0,0,0,0,0.0
Status,1732152235000,28,2,1,19,1575420030,19.40,201.0,63.0,1,0,0,14.4
Status,1732152235000,28,3,1,14,1575420030,0.00,55.0,51.0,0,0,0,0.0
Status,1732152235000,28,4,1,13,1575420030,32.40,232.0,46.0,1,0,0,27.400002
Status,1732152235000,28,5,2,138,1575420030,0.00,156.0,43.0,0,0,0,0.0
Status,1732152235000,28,6,1,30,1575420030,27.90,133.0,34.0,1,0,0,22.9
Status,1732152235000,28,7,1,15,1575420030,23.30,272.0,29.0,1,0,0,18.3
Status,1732152235000,28,8,1,24,1575420030,0.00,313.0,19.0,0,0,0,0.0
Status,1732152235000,28,9,1,2,1575420030,0.00,46.0,16.0,0,0,0,0.0
Status,1732152235000,28,10,1,6,1575420030,0.00,161.0,14.0,0,0,0,0.0
Status,1732152235000,28,11,1,21,1575420030,0.00,32.0,3.0,0,0,0,0.0
Status,1732152235000,28,12,1,7,1575420030,30.20,133.0,2.0,0,0,0,25.2
Status,1732152235000,28,13,3,20,1602000000,0.00,109.0,55.0,0,0,0,0.0
Status,1732152235000,28,14,3,9,1602000000,0.00,83.0,32.0,0,0,0,0.0
Status,1732152235000,28,15,3,11,1602000000,0.00,313.0,30.0,0,0,0,0.0
Status,1732152235000,28,16,3,8,1602000000,24.60,244.0,21.0,1,0,0,19.6
Status,1732152235000,28,17,3,19,1602000000,0.00,31.0,21.0,0,0,0,0.0
Status,1732152235000,28,18,3,17,1602000000,26.00,0.0,0.0,0,0,0,21.0
Status,1732152235000,28,19,6,21,1575420030,0.00,348.0,68.0,0,0,0,0.0
Status,1732152235000,28,20,6,19,1575420030,0.00,241.0,45.0,0,0,0,0.0
Status,1732152235000,28,21,6,27,1575420030,0.00,66.0,33.0,0,0,0,0.0
Status,1732152235000,28,22,6,13,1575420030,0.00,118.0,30.0,0,0,0,0.0
Status,1732152235000,28,23,6,4,1575420030,21.90,310.0,24.0,1,0,0,16.9
Status,1732152235000,28,24,6,15,1575420030,0.00,60.0,24.0,0,0,0,0.0
Status,1732152235000,28,25,6,29,1575420030,0.00,191.0,23.0,0,0,0,0.0
Status,1732152235000,28,26,6,26,1575420030,0.00,167.0,8.0,0,0,0,0.0
Status,1732152235000,28,27,6,6,1575420030,0.00,326.0,6.0,0,0,0,0.0
Fix,GPS,37.4252450000,-122.1584150000,23.2,0.0,5.2,0.0,1732152236000,1.6,65.7,31120091000000,46.0,0,,,
Raw,1732152236001,28901000000,,106.43122336624322,-1416187425100000000,0.0,106.43122336624322,1070.0804490211733,0.0,0,15,0.0,16431,350653925471588,797,18.26099967956543,527.9352301174027,0.14999,16,0.0,0.0,1575420030,,,,0,0.0,1,6.0,18.26099967956543,0.0,0.0,0.0,66.7128,C,31120091000000,
Raw,1732152236001,28901000000,,106.43122336624322,-1416187425100000000,0.0,106.43122336624322,1070.0804490211733,0.0,0,19,0.0,16431,350653931873955,797,14.427000045776367,-32.63847759880568,0.14999,16,0.0,0.0,1575420030,,,,0,0.0,1,6.0,14.427000045776367,0.0,0.0,0.0,66.7128,C,31120091000000,
Raw,1732152236001,28901000000,,106.43122336624322,-1416187425100000000,0.0,106.43122336624322,1070.0804490211733,0.0,0,13,0.0,16431,350653929245938,487,27.35700035095215,721.9330324402338,0.14999,16,0.0,0.0,1575420030,,,,0,13.226537146933396,1,6.0,27.35700035095215,0.0,0.0,0.0,66.7128,C,31120091000000,
Raw,1732152236001,28901000000,,106.43122336624322,-1416187425100000000,0.0,106.43122336624322,1070.0804490211733,0.0,0,30,0.0,16431,350653926213082,396,22.94300079345703,854.4245375419332,0.14999,16,0.0,0.0,1575420030,,,,0,7.043303059366289,1,6.0,22.94300079345703,0.0,0.0,0.0,66.7128,C,31120091000000,
Raw,1732152236001,28901000000,,106.43122336624322,-1416187425100000000,0.0,106.43122336624322,1070.0804490211733,0.0,0,4,0.0,16431,350653912571459,797,16.899999618530273,84.40288629554145,0.14999,16,0.0,0.0,1575420030,,,,0,0.0,6,6.0,16.899999618530273,0.0,0.0,-49.71013395787133,66.7128,C,31120091000000,
Raw,1732152236001,28901000000,,106.43122336624322,-1416187425100000000,0.0,106.43122336624322,1070.0804490211733,0.0,0,7,0.0,16431,350653917096437,316,25.21299934387207,968.1749962947988,0.14999,16,0.0,0.0,1575420030,,,,0,10.333221880654373,1,6.0,25.21299934387207,0.0,0.0,0.0,66.7128,C,31120091000000,
Raw,1732152236001,28901000000,,106.43122336624322,-1416187425100000000,0.0,106.43122336624322,1070.0804490211733,0.0,0,8,0.0,17,698843,487,5.0,928.7787196792167,0.14999,16,0.0,0.0,1605374980,,,,0,0.3013213985971124,3,6.0,18.0,0.0,0.0,79.8034678053334,66.7128,C,31120091000000,
Fix,FLP,37.4252198000,-122.1584585000,5.400000095367432,0.42712632,5.371,0.000000012519579,1732152236243,1.6,65.7,31120091000000,13.137751,0,,,
Status,1732152236000,28,0,1,17,1575420030,0.00,72.0,77.0,0,0,0,0.0
Status,1732152236000,28,1,1,22,1575420030,0.00,19.0,65.0,0,0,0,0.0
Status,1732152236000,28,2,1,19,1575420030,19.30,201.0,63.0,1,0,0,14.299999
Status,1732152236000,28,3,1,14,1575420030,0.00,55.0,51.0,0,0,0,0.0
Status,1732152236000,28,4,1,13,1575420030,27.50,232.0,46.0,1,0,0,22.5
Status,1732152236000,28,5,2,138,1575420030,0.00,156.0,43.0,0,0,0,0.0
Status,1732152236000,28,6,1,30,1575420030,26.10,133.0,34.0,1,0,0,21.1
Status,1732152236000,28,7,1,15,1575420030,23.30,272.0,29.0,1,0,0,18.3
Status,1732152236000,28,8,1,24,1575420030,0.00,313.0,19.0,0,0,0,0.0
Status,1732152236000,28,9,1,2,1575420030,0.00,46.0,16.0,0,0,0,0.0
Status,1732152236000,28,10,1,6,1575420030,0.00,161.0,14.0,0,0,0,0.0
Status,1732152236000,28,11,1,21,1575420030,0.00,32.0,3.0,0,0,0,0.0
Status,1732152236000,28,12,1,7,1575420030,30.70,133.0,2.0,0,0,0,25.7
Status,1732152236000,28,13,3,20,1602000000,0.00,109.0,55.0,0,0,0,0.0
Status,1732152236000,28,14,3,9,1602000000,0.00,83.0,32.0,0,0,0,0.0
Status,1732152236000,28,15,3,11,1602000000,0.00,313.0,30.0,0,0,0,0.0
Status,1732152236000,28,16,3,8,1602000000,0.00,244.0,21.0,0,0,0,0.0
Status,1732152236000,28,17,3,19,1602000000,0.00,31.0,21.0,0,0,0,0.0
Status,1732152236000,28,18,3,17,1602000000,24.70,0.0,0.0,0,0,0,19.7
Status,1732152236000,28,19,6,21,1575420030,0.00,348.0,68.0,0,0,0,0.0
Status,1732152236000,28,20,6,19,1575420030,0.00,241.0,45.0,0,0,0,0.0
Status,1732152236000,28,21,6,27,1575420030,0.00,66.0,33.0,0,0,0,0.0
Status,1732152236000,28,22,6,13,1575420030,0.00,118.0,30.0,0,0,0,0.0
Status,1732152236000,28,23,6,4,1575420030,21.90,310.0,24.0,1,0,0,16.9
Status,1732152236000,28,24,6,15,1575420030,0.00,60.0,24.0,0,0,0,0.0
Status,1732152236000,28,25,6,29,1575420030,0.00,191.0,23.0,0,0,0,0.0
Status,1732152236000,28,26,6,26,1575420030,0.00,167.0,8.0,0,0,0,0.0
Status,1732152236000,28,27,6,6,1575420030,0.00,326.0,6.0,0,0,0,0.0
Fix,GPS,37.4252650000,-122.1584000000,23.2,0.0,5.2,0.0,1732152237000,2.9,127.0,31121091000000,46.1,0,,,
Raw,1732152237001,29901000000,,106.52126164816544,-1416187425100000000,0.0,106.52126164816544,1062.4520683151356,0.0,0,15,0.0,16431,350654925469831,797,18.26099967956543,525.6491043725146,0.14999,16,0.0,0.0,1575420030,,,,0,0.0,1,6.0,18.26099967956543,0.0,0.0,0.0,66.7128,C,31121091000000,
Raw,1732152237001,29901000000,,106.52126164816544,-1416187425100000000,0.0,106.52126164816544,1062.4520683151356,0.0,0,19,0.0,16431,350654931874066,797,14.319999694824219,-34.853893634221414,0.14999,16,0.0,0.0,1575420030,,,,0,0.0,1,6.0,14.319999694824219,0.0,0.0,0.0,66.7128,C,31121091000000,
Raw,1732152237001,29901000000,,106.52126164816544,-1416187425100000000,0.0,106.52126164816544,1062.4520683151356,0.0,0,13,0.0,16431,350654929243527,487,22.533000946044922,720.3638994327229,0.14999,16,0.0,0.0,1575420030,,,,0,6.424829097136257,1,6.0,22.533000946044922,0.0,0.0,0.0,66.7128,C,31121091000000,
Raw,1732152237001,29901000000,,106.52126164816544,-1416187425100000000,0.0,106.52126164816544,1062.4520683151356,0.0,0,30,0.0,16431,350654926210237,487,21.099000930786133,852.6009517888372,0.14999,16,0.0,0.0,1575420030,,,,0,4.084850188786498,1,6.0,21.099000930786133,0.0,0.0,0.0,66.7128,C,31121091000000,
Raw,1732152237001,29901000000,,106.52126164816544,-1416187425100000000,0.0,106.52126164816544,1062.4520683151356,0.0,0,4,0.0,16431,350654912571180,797,16.899999618530273,82.39650990386504,0.14999,16,0.0,0.0,1575420030,,,,0,0.0,6,6.0,16.899999618530273,0.0,0.0,-49.71013395787133,66.7128,C,31121091000000,
Raw,1732152237001,29901000000,,106.52126164816544,-1416187425100000000,0.0,106.52126164816544,1062.4520683151356,0.0,0,7,0.0,16431,350654917093203,396,25.68400001525879,966.4638399089322,0.14999,16,0.0,0.0,1575420030,,,,0,11.001696990393366,1,6.0,25.68400001525879,0.0,0.0,0.0,66.7128,C,31121091000000,
Fix,FLP,37.4252433000,-122.1584313000,5.400000095367432,0.47429386,5.328,0.00000001817196,1732152237243,2.9,127.0,31121091000000,13.201125,0,,,
Status,1732152237000,28,0,1,17,1575420030,0.00,72.0,77.0,0,0,0,0.0
Status,1732152237000,28,1,1,22,1575420030,0.00,19.0,65.0,0,0,0,0.0
Status,1732152237000,28,2,1,19,1575420030,21.00,201.0,63.0,1,0,0,16.0
Status,1732152237000,28,3,1,14,1575420030,0.00,55.0,51.0,0,0,0,0.0
Status,1732152237000,28,4,1,13,1575420030,25.70,232.0,46.0,1,0,0,20.7
Status,1732152237000,28,5,2,138,1575420030,0.00,156.0,43.0,0,0,0,0.0
Status,1732152237000,28,6,1,30,1575420030,25.70,133.0,34.0,1,0,0,20.7
Status,1732152237000,28,7,1,15,1575420030,22.40,272.0,29.0,1,0,0,17.4
Status,1732152237000,28,8,1,24,1575420030,0.00,313.0,19.0,0,0,0,0.0
Status,1732152237000,28,9,1,2,1575420030,0.00,46.0,16.0,0,0,0,0.0
Status,1732152237000,28,10,1,6,1575420030,0.00,161.0,14.0,0,0,0,0.0
Status,1732152237000,28,11,1,21,1575420030,0.00,32.0,3.0,0,0,0,0.0
Status,1732152237000,28,12,1,7,1575420030,28.90,133.0,2.0,0,0,0,23.9
Status,1732152237000,28,13,3,20,1602000000,0.00,109.0,55.0,0,0,0,0.0
Status,1732152237000,28,14,3,9,1602000000,0.00,83.0,32.0,0,0,0,0.0
Status,1732152237000,28,15,3,11,1602000000,0.00,313.0,30.0,0,0,0,0.0
Status,1732152237000,28,16,3,8,1602000000,0.00,244.0,21.0,0,0,0,0.0
Status,1732152237000,28,17,3,19,1602000000,0.00,31.0,21.0,0,0,0,0.0
Status,1732152237000,28,18,3,17,1602000000,24.60,0.0,0.0,0,0,0,19.6
Status,1732152237000,28,19,6,21,1575420030,0.00,348.0,68.0,0,0,0,0.0
Status,1732152237000,28,20,6,19,1575420030,0.00,241.0,45.0,0,0,0,0.0
Status,1732152237000,28,21,6,27,1575420030,0.00,66.0,33.0,0,0,0,0.0
Status,1732152237000,28,22,6,13,1575420030,0.00,118.0,30.0,0,0,0,0.0
Status,1732152237000,28,23,6,4,1575420030,18.20,310.0,24.0,1,0,0,13.200001
Status,1732152237000,28,24,6,15,1575420030,0.00,60.0,24.0,0,0,0,0.0
Status,1732152237000,28,25,6,29,1575420030,0.00,191.0,23.0,0,0,0,0.0
Status,1732152237000,28,26,6,26,1575420030,0.00,167.0,8.0,0,0,0,0.0
Status,1732152237000,28,27,6,6,1575420030,0.00,326.0,6.0,0,0,0,0.0
Fix,GPS,37.4252866667,-122.1583833333,23.2,0.0,5.2,0.0,1732152238000,3.4,98.2,31122091000000,46.3,0,,,
Fix,FLP,37.4252662000,-122.1584090000,5.400000095367432,0.5214532,5.285,0.00000003027888,1732152238243,3.4,98.2,31122091000000,11.609564,0,,,
Raw,1732152238001,30901000000,,107.17148793778767,-1416187425100000000,0.0,107.17148793778767,1061.3858296872352,0.0,0,15,0.0,16431,350655925468081,797,17.384000778198242,526.1875574163946,0.14999,16,0.0,0.0,1575420030,,,,0,0.0,1,6.0,17.384000778198242,0.0,0.0,0.0,66.7128,C,31122091000000,
Raw,1732152238001,30901000000,,107.17148793778767,-1416187425100000000,0.0,107.17148793778767,1061.3858296872352,0.0,0,19,0.0,16431,350655931874185,797,16.016000747680664,-35.48479892636052,0.14999,16,0.0,0.0,1575420030,,,,0,0.0,1,6.0,16.016000747680664,0.0,0.0,0.0,66.7128,C,31122091000000,
Raw,1732152238001,30901000000,,107.17148793778767,-1416187425100000000,0.0,107.17148793778767,1061.3858296872352,0.0,0,13,0.0,16431,350655929241117,487,20.71500015258789,721.324938230454,0.14999,16,0.0,0.0,1575420030,,,,0,3.476589459803618,1,6.0,20.71500015258789,0.0,0.0,0.0,66.7128,C,31122091000000,
Raw,1732152238001,30901000000,,107.17148793778767,-1416187425100000000,0.0,107.17148793778767,1061.3858296872352,0.0,0,30,0.0,16431,350655926207392,487,20.71500015258789,852.8446726402776,0.14999,16,0.0,0.0,1575420030,,,,0,3.476589459803618,1,6.0,20.71500015258789,0.0,0.0,0.0,66.7128,C,31122091000000,
Raw,1732152238001,30901000000,,107.17148793778767,-1416187425100000000,0.0,107.17148793778767,1061.3858296872352,0.0,0,4,0.0,16431,350655912570906,1797,13.199999809265137,82.08523851525443,0.14999,16,0.0,0.0,1575420030,,,,0,0.0,6,6.0,13.199999809265137,0.0,0.0,-49.71013395787133,66.7128,C,31122091000000,
Raw,1732152238001,30901000000,,107.17148793778767,-1416187425100000000,0.0,107.17148793778767,1061.3858296872352,0.0,0,7,0.0,16431,350655917089977,396,23.893999099731445,966.3025362878492,0.14999,16,0.0,0.0,1575420030,,,,0,8.471325680503552,1,6.0,23.893999099731445,0.0,0.0,0.0,66.7128,C,31122091000000,
Fix,FLP,37.4252763000,-122.1583985000,5.400000095367432,0.5365209,5.233,0.000000010438784,1732152238797,3.4,98.2,31122644000000,11.069223,0,,,
Fix,NLP,37.4257118000,-122.1580963000,5.400000095367432,,52.4,,1732152238796,,,31122644000000,12.293134,0,,,
Status,1732152238000,28,0,1,17,1575420030,0.00,72.0,77.0,0,0,0,0.0
Status,1732152238000,28,1,1,22,1575420030,0.00,19.0,65.0,0,0,0,0.0
Status,1732152238000,28,2,1,19,1575420030,21.00,201.0,63.0,1,0,0,16.0
Status,1732152238000,28,3,1,14,1575420030,0.00,55.0,51.0,0,0,0,0.0
Status,1732152238000,28,4,1,13,1575420030,25.70,232.0,46.0,1,0,0,20.7
Status,1732152238000,28,5,2,138,1575420030,0.00,156.0,43.0,0,0,0,0.0
Status,1732152238000,28,6,1,30,1575420030,25.70,133.0,34.0,1,0,0,20.7
Status,1732152238000,28,7,1,15,1575420030,27.00,272.0,29.0,1,0,0,22.0
Status,1732152238000,28,8,1,24,1575420030,0.00,313.0,19.0,0,0,0,0.0
Status,1732152238000,28,9,1,2,1575420030,0.00,46.0,16.0,0,0,0,0.0
Status,1732152238000,28,10,1,6,1575420030,0.00,161.0,14.0,0,0,0,0.0
Status,1732152238000,28,11,1,21,1575420030,0.00,32.0,3.0,0,0,0,0.0
Status,1732152238000,28,12,1,7,1575420030,28.70,133.0,2.0,0,0,0,23.7
Status,1732152238000,28,13,3,20,1602000000,0.00,109.0,55.0,0,0,0,0.0
Status,1732152238000,28,14,3,9,1602000000,0.00,83.0,32.0,0,0,0,0.0
Status,1732152238000,28,15,3,11,1602000000,0.00,313.0,30.0,0,0,0,0.0
Status,1732152238000,28,16,3,8,1602000000,0.00,244.0,21.0,0,0,0,0.0
Status,1732152238000,28,17,3,19,1602000000,0.00,31.0,21.0,0,0,0,0.0
Status,1732152238000,28,18,3,17,1602000000,23.60,0.0,0.0,0,0,0,18.6
Status,1732152238000,28,19,6,21,1575420030,0.00,348.0,68.0,0,0,0,0.0
Status,1732152238000,28,20,6,19,1575420030,0.00,241.0,45.0,0,0,0,0.0
Status,1732152238000,28,21,6,27,1575420030,0.00,66.0,33.0,0,0,0,0.0
Status,1732152238000,28,22,6,13,1575420030,0.00,118.0,30.0,0,0,0,0.0
Status,1732152238000,28,23,6,4,1575420030,18.20,310.0,24.0,1,0,0,13.200001
Status,1732152238000,28,24,6,15,1575420030,0.00,60.0,24.0,0,0,0,0.0
Status,1732152238000,28,25,6,29,1575420030,0.00,191.0,23.0,0,0,0,0.0
Status,1732152238000,28,26,6,26,1575420030,0.00,167.0,8.0,0,0,0,0.0
Status,1732152238000,28,27,6,6,1575420030,0.00,326.0,6.0,0,0,0,0.0
Fix,GPS,37.4253083333,-122.1583666667,23.2,0.0,5.3,0.0,1732152239000,3.7,78.3,31123091000000,46.7,0,,,
Raw,1732152239001,31901000000,,107.91023193631212,-1416187425100000000,0.0,107.91023193631212,1059.2717270943367,0.0,0,15,0.0,16431,350656925466274,396,22.017000198364258,526.4548791432701,0.14999,16,0.0,0.0,1575420030,,,,0,5.6193823448414575,1,6.0,22.017000198364258,0.0,0.0,0.0,66.7128,C,31123091000000,
Raw,1732152239001,31901000000,,107.91023193631212,-1416187425100000000,0.0,107.91023193631212,1059.2717270943367,0.0,0,19,0.0,16431,350656931874304,1797,16.016000747680664,-36.13819009194553,0.14999,16,0.0,0.0,1575420030,,,,0,0.0,1,6.0,16.016000747680664,0.0,0.0,0.0,66.7128,C,31123091000000,
Raw,1732152239001,31901000000,,107.91023193631212,-1416187425100000000,0.0,107.91023193631212,1059.2717270943367,0.0,0,13,0.0,16431,350656929238712,797,20.71500015258789,720.353121080162,0.14999,16,0.0,0.0,1575420030,,,,0,3.476589459803618,1,6.0,20.71500015258789,0.0,0.0,0.0,66.7128,C,31123091000000,
Raw,1732152239001,31901000000,,107.91023193631212,-1416187425100000000,0.0,107.91023193631212,1059.2717270943367,0.0,0,30,0.0,16431,350656926204547,487,20.71500015258789,852.5047828672814,0.14999,16,0.0,0.0,1575420030,,,,0,3.476589459803618,1,6.0,20.71500015258789,0.0,0.0,0.0,66.7128,C,31123091000000,
Raw,1732152239001,31901000000,,107.91023193631212,-1416187425100000000,0.0,107.91023193631212,1059.2717270943367,0.0,0,4,0.0,16431,350656912570633,1837,13.199999809265137,81.63993459587643,0.14999,16,0.0,0.0,1575420030,,,,0,0.0,6,6.0,13.199999809265137,0.0,0.0,-49.71013395787133,66.7128,C,31123091000000,
Raw,1732152239001,31901000000,,107.91023193631212,-1416187425100000000,0.0,107.91023193631212,1059.2717270943367,0.0,0,7,0.0,16431,350656917086758,487,23.701000213623047,965.7710520064006,0.14999,16,0.0,0.0,1575420030,,,,0,8.162003155162516,1,6.0,23.701000213623047,0.0,0.0,0.0,66.7128,C,31123091000000,
Fix,FLP,37.4252894000,-122.1583870000,5.400000095367432,0.5635282,5.242,0.0000000081070555,1732152239243,3.7,78.3,31123091000000,11.737432,0,,,
Status,1732152239000,28,0,1,17,1575420030,0.00,72.0,77.0,0,0,0,0.0
Status,1732152239000,28,1,1,22,1575420030,0.00,19.0,65.0,0,0,0,0.0
Status,1732152239000,28,2,1,19,1575420030,21.00,201.0,63.0,1,0,0,16.0
Status,1732152239000,28,3,1,14,1575420030,0.00,55.0,51.0,0,0,0,0.0
Status,1732152239000,28,4,1,13,1575420030,25.70,232.0,46.0,1,0,0,20.7
Status,1732152239000,28,5,2,138,1575420030,0.00,156.0,43.0,0,0,0,0.0
Status,1732152239000,28,6,1,30,1575420030,25.70,133.0,34.0,1,0,0,20.7
Status,1732152239000,28,7,1,15,1575420030,27.00,272.0,29.0,1,0,0,22.0
Status,1732152239000,28,8,1,24,1575420030,0.00,313.0,19.0,0,0,0,0.0
Status,1732152239000,28,9,1,2,1575420030,0.00,46.0,16.0,0,0,0,0.0
Status,1732152239000,28,10,1,6,1575420030,0.00,161.0,14.0,0,0,0,0.0
Status,1732152239000,28,11,1,21,1575420030,0.00,32.0,3.0,0,0,0,0.0
Status,1732152239000,28,12,1,7,1575420030,26.10,133.0,2.0,0,0,0,21.1
Status,1732152239000,28,13,3,20,1602000000,0.00,109.0,55.0,0,0,0,0.0
Status,1732152239000,28,14,3,9,1602000000,0.00,83.0,32.0,0,0,0,0.0
Status,1732152239000,28,15,3,11,1602000000,0.00,313.0,30.0,0,0,0,0.0
Status,1732152239000,28,16,3,8,1602000000,0.00,244.0,21.0,0,0,0,0.0
Status,1732152239000,28,17,3,19,1602000000,0.00,31.0,21.0,0,0,0,0.0
Status,1732152239000,28,18,3,17,1602000000,24.70,0.0,0.0,0,0,0,19.7
Status,1732152239000,28,19,6,21,1575420030,0.00,348.0,68.0,0,0,0,0.0
Status,1732152239000,28,20,6,19,1575420030,0.00,241.0,45.0,0,0,0,0.0
Status,1732152239000,28,21,6,27,1575420030,0.00,66.0,33.0,0,0,0,0.0
Status,1732152239000,28,22,6,13,1575420030,0.00,118.0,30.0,0,0,0,0.0
Status,1732152239000,28,23,6,4,1575420030,18.20,310.0,24.0,1,0,0,13.200001
Status,1732152239000,28,24,6,15,1575420030,0.00,60.0,24.0,0,0,0,0.0
Status,1732152239000,28,25,6,29,1575420030,0.00,191.0,23.0,0,0,0,0.0
Status,1732152239000,28,26,6,26,1575420030,0.00,167.0,8.0,0,0,0,0.0
Status,1732152239000,28,27,6,6,1575420030,0.00,326.0,6.0,0,0,0,0.0
Fix,GPS,37.4253333333,-122.1583500000,23.2,0.0,5.4,0.0,1732152240000,4.0,68.0,31124091000000,47.2,0,,,
Raw,1732152240001,32901000000,,108.94410706978628,-1416187425100000000,0.0,108.94410706978628,1059.250815528824,0.0,0,15,0.0,16431,350657925464518,487,22.017000198364258,526.7577880169628,0.14999,16,0.0,0.0,1575420030,,,,0,5.6193823448414575,1,6.0,22.017000198364258,0.0,0.0,0.0,66.7128,C,31124091000000,
Raw,1732152240001,32901000000,,108.94410706978628,-1416187425100000000,0.0,108.94410706978628,1059.250815528824,0.0,0,19,0.0,16431,350657931874425,1797,16.016000747680664,-36.244579865067664,0.14999,16,0.0,0.0,1575420030,,,,0,0.0,1,6.0,16.016000747680664,0.0,0.0,0.0,66.7128,C,31124091000000,
Raw,1732152240001,32901000000,,108.94410706978628,-1416187425100000000,0.0,108.94410706978628,1059.250815528824,0.0,0,13,0.0,16431,350657929236308,797,20.71500015258789,720.7023489948166,0.14999,16,0.0,0.0,1575420030,,,,0,3.476589459803618,1,6.0,20.71500015258789,0.0,0.0,0.0,66.7128,C,31124091000000,
Raw,1732152240001,32901000000,,108.94410706978628,-1416187425100000000,0.0,108.94410706978628,1059.250815528824,0.0,0,30,0.0,16431,350657926201702,797,20.71500015258789,853.247002524661,0.14999,16,0.0,0.0,1575420030,,,,0,3.476589459803618,1,6.0,20.71500015258789,0.0,0.0,0.0,66.7128,C,31124091000000,
Raw,1732152240001,32901000000,,108.94410706978628,-1416187425100000000,0.0,108.94410706978628,1059.250815528824,0.0,0,4,0.0,16431,350657912570360,1837,13.199999809265137,81.97376154555725,0.14999,16,0.0,0.0,1575420030,,,,0,0.0,6,6.0,13.199999809265137,0.0,0.0,-49.71013395787133,66.7128,C,31124091000000,
Raw,1732152240001,32901000000,,108.94410706978628,-1416187425100000000,0.0,108.94410706978628,1059.250815528824,0.0,0,7,0.0,16431,350657917083538,487,21.14699935913086,966.3908072786493,0.14999,16,0.0,0.0,1575420030,,,,0,4.168369001869222,1,6.0,21.14699935913086,0.0,0.0,0.0,66.7128,C,31124091000000,
Fix,FLP,37.4253112000,-122.1583715000,5.400000095367432,0.60921943,5.242,0.0000000036643044,1732152240243,4.0,68.0,31124091000000,11.948099,0,,,
Status,1732152240000,28,0,1,17,1575420030,0.00,72.0,77.0,0,0,0,0.0
Status,1732152240000,28,1,1,22,1575420030,0.00,19.0,65.0,0,0,0,0.0
Status,1732152240000,28,2,1,19,1575420030,17.40,201.0,63.0,1,0,0,12.4
Status,1732152240000,28,3,1,14,1575420030,0.00,55.0,51.0,0,0,0,0.0
Status,1732152240000,28,4,1,13,1575420030,20.80,232.0,46.0,1,0,0,15.799999
Status,1732152240000,28,5,2,138,1575420030,0.00,156.0,43.0,0,0,0,0.0
Status,1732152240000,28,6,1,30,1575420030,25.60,133.0,34.0,1,0,0,20.6
Status,1732152240000,28,7,1,15,1575420030,26.90,272.0,29.0,1,0,0,21.9
Status,1732152240000,28,8,1,24,1575420030,0.00,313.0,19.0,0,0,0,0.0
Status,1732152240000,28,9,1,2,1575420030,0.00,46.0,16.0,0,0,0,0.0
Status,1732152240000,28,10,1,6,1575420030,0.00,161.0,14.0,0,0,0,0.0
Status,1732152240000,28,11,1,21,1575420030,0.00,32.0,3.0,0,0,0,0.0
Status,1732152240000,28,12,1,7,1575420030,26.10,133.0,2.0,0,0,0,21.1
Status,1732152240000,28,13,3,20,1602000000,0.00,109.0,55.0,0,0,0,0.0
Status,1732152240000,28,14,3,9,1602000000,0.00,83.0,32.0,0,0,0,0.0
Status,1732152240000,28,15,3,11,1602000000,0.00,313.0,30.0,0,0,0,0.0
Status,1732152240000,28,16,3,8,1602000000,0.00,244.0,21.0,0,0,0,0.0
Status,1732152240000,28,17,3,19,1602000000,0.00,31.0,21.0,0,0,0,0.0
Status,1732152240000,28,18,3,17,1602000000,23.90,0.0,0.0,0,0,0,18.9
Status,1732152240000,28,19,6,21,1575420030,0.00,348.0,68.0,0,0,0,0.0
Status,1732152240000,28,20,6,19,1575420030,0.00,241.0,45.0,0,0,0,0.0
Status,1732152240000,28,21,6,27,1575420030,0.00,66.0,33.0,0,0,0,0.0
Status,1732152240000,28,22,6,13,1575420030,0.00,118.0,30.0,0,0,0,0.0
Status,1732152240000,28,23,6,4,1575420030,18.20,310.0,24.0,1,0,0,13.200001
Status,1732152240000,28,24,6,15,1575420030,0.00,60.0,24.0,0,0,0,0.0
Status,1732152240000,28,25,6,29,1575420030,0.00,191.0,23.0,0,0,0,0.0
Status,1732152240000,28,26,6,26,1575420030,0.00,167.0,8.0,0,0,0,0.0
Status,1732152240000,28,27,6,6,1575420030,0.00,326.0,6.0,0,0,0,0.0
Fix,GPS,37.4253666667,-122.1583283333,23.2,0.0,5.4,0.0,1732152241000,3.7,48.5,31125091000000,47.6,0,,,
Raw,1732152241001,33901000000,,109.31886787803579,-1416187425100000000,0.0,109.31886787803579,1060.5270474267638,0.0,0,15,0.0,16431,350658925462761,487,21.9060001373291,527.5251881359285,0.14999,16,0.0,0.0,1575420030,,,,0,1.9019608002851363,1,6.0,21.9060001373291,0.0,0.0,0.0,66.7128,C,31125091000000,
Raw,1732152241001,33901000000,,109.31886787803579,-1416187425100000000,0.0,109.31886787803579,1060.5270474267638,0.0,0,19,0.0,16431,350658931874544,797,12.399999618530273,-35.79560573080902,0.14999,16,0.0,0.0,1575420030,,,,0,0.0,1,6.0,12.399999618530273,0.0,0.0,0.0,66.7128,C,31125091000000,
Raw,1732152241001,33901000000,,109.31886787803579,-1416187425100000000,0.0,109.31886787803579,1060.5270474267638,0.0,0,13,0.0,16431,350658929233898,797,15.795000076293945,721.5449188312109,0.14999,16,0.0,0.0,1575420030,,,,0,0.0,1,6.0,15.795000076293945,0.0,0.0,0.0,66.7128,C,31125091000000,
Raw,1732152241001,33901000000,,109.31886787803579,-1416187425100000000,0.0,109.31886787803579,1060.5270474267638,0.0,0,30,0.0,16431,350658926198828,487,20.610000610351562,853.3867494406222,0.14999,16,0.0,0.0,1575420030,,,,0,0.0,1,6.0,20.610000610351562,0.0,0.0,0.0,66.7128,C,31125091000000,
Raw,1732152241001,33901000000,,109.31886787803579,-1416187425100000000,0.0,109.31886787803579,1060.5270474267638,0.0,0,4,0.0,16431,350658912570085,1797,13.199999809265137,82.78397309506093,0.14999,16,0.0,0.0,1575420030,,,,0,0.0,6,6.0,13.199999809265137,0.0,0.0,-49.71013395787133,66.7128,C,31125091000000,
Raw,1732152241001,33901000000,,109.31886787803579,-1416187425100000000,0.0,109.31886787803579,1060.5270474267638,0.0,0,7,0.0,16431,350658917080315,797,21.14699935913086,966.1211626309633,0.14999,16,0.0,0.0,1575420030,,,,0,4.168369001869222,1,6.0,21.14699935913086,0.0,0.0,0.0,66.7128,C,31125091000000,
Fix,FLP,37.4253395000,-122.1583524000,5.400000095367432,0.6732228,5.271,0.0000000014253974,1732152241243,3.7,48.5,31125091000000,12.696162,0,,,
Status,1732152241000,28,0,1,17,1575420030,0.00,72.0,77.0,0,0,0,0.0
Status,1732152241000,28,1,1,22,1575420030,0.00,19.0,65.0,0,0,0,0.0
Status,1732152241000,28,2,1,19,1575420030,17.40,201.0,63.0,1,0,0,12.4
Status,1732152241000,28,3,1,14,1575420030,0.00,55.0,51.0,0,0,0,0.0
Status,1732152241000,28,4,1,13,1575420030,20.80,232.0,46.0,1,0,0,15.799999
Status,1732152241000,28,5,2,138,1575420030,0.00,156.0,43.0,0,0,0,0.0
Status,1732152241000,28,6,1,30,1575420030,25.60,133.0,34.0,1,0,0,20.6
Status,1732152241000,28,7,1,15,1575420030,26.80,272.0,29.0,1,0,0,21.8
Status,1732152241000,28,8,1,24,1575420030,0.00,313.0,19.0,0,0,0,0.0
Status,1732152241000,28,9,1,2,1575420030,0.00,46.0,16.0,0,0,0,0.0
Status,1732152241000,28,10,1,6,1575420030,0.00,161.0,14.0,0,0,0,0.0
Status,1732152241000,28,11,1,21,1575420030,0.00,32.0,3.0,0,0,0,0.0
Status,1732152241000,28,12,1,7,1575420030,26.10,133.0,2.0,0,0,0,21.1
Status,1732152241000,28,13,3,20,1602000000,0.00,109.0,55.0,0,0,0,0.0
Status,1732152241000,28,14,3,9,1602000000,0.00,83.0,32.0,0,0,0,0.0
Status,1732152241000,28,15,3,11,1602000000,0.00,313.0,30.0,0,0,0,0.0
Status,1732152241000,28,16,3,8,1602000000,0.00,244.0,21.0,0,0,0,0.0
Status,1732152241000,28,17,3,19,1602000000,0.00,31.0,21.0,0,0,0,0.0
Status,1732152241000,28,18,3,17,1602000000,23.60,0.0,0.0,0,0,0,18.6
Status,1732152241000,28,19,6,21,1575420030,0.00,348.0,68.0,0,0,0,0.0
Status,1732152241000,28,20,6,19,1575420030,0.00,241.0,45.0,0,0,0,0.0
Status,1732152241000,28,21,6,27,1575420030,0.00,66.0,33.0,0,0,0,0.0
Status,1732152241000,28,22,6,13,1575420030,0.00,118.0,30.0,0,0,0,0.0
Status,1732152241000,28,23,6,4,1575420030,18.30,310.0,24.0,1,0,0,13.299999
Status,1732152241000,28,24,6,15,1575420030,0.00,60.0,24.0,0,0,0,0.0
Status,1732152241000,28,25,6,29,1575420030,0.00,191.0,23.0,0,0,0,0.0
Status,1732152241000,28,26,6,26,1575420030,0.00,167.0,8.0,0,0,0,0.0
Status,1732152241000,28,27,6,6,1575420030,0.00,326.0,6.0,0,0,0,0.0
Fix,GPS,37.4253950000,-122.1583100000,23.099999999999998,0.0,5.4,0.0,1732152242000,3.6,44.6,31126091000000,47.6,0,,,
Raw,1732152242001,34901000000,,107.87490883419,-1416187425100000000,0.0,107.87490883419,1063.9549565957154,0.0,0,15,0.0,16431,350659925460999,487,21.801000595092773,529.0831246651327,0.14999,16,0.0,0.0,1575420030,,,,0,1.9019608002851363,1,6.0,21.801000595092773,0.0,0.0,0.0,66.7128,C,31126091000000,
Raw,1732152242001,34901000000,,107.87490883419,-1416187425100000000,0.0,107.87490883419,1063.9549565957154,0.0,0,19,0.0,16431,350659931874663,797,12.399999618530273,-34.997589515560605,0.14999,16,0.0,0.0,1575420030,,,,0,0.0,1,6.0,12.399999618530273,0.0,0.0,0.0,66.7128,C,31126091000000,
Raw,1732152242001,34901000000,,107.87490883419,-1416187425100000000,0.0,107.87490883419,1063.9549565957154,0.0,0,13,0.0,16431,350659929231490,487,15.795000076293945,721.8912663240606,0.14999,16,0.0,0.0,1575420030,,,,0,0.0,1,6.0,15.795000076293945,0.0,0.0,0.0,66.7128,C,31126091000000,
Raw,1732152242001,34901000000,,107.87490883419,-1416187425100000000,0.0,107.87490883419,1063.9549565957154,0.0,0,30,0.0,16431,350659926195974,487,20.58300018310547,854.8657066622685,0.14999,16,0.0,0.0,1575420030,,,,0,2.4253654874912196,1,6.0,20.58300018310547,0.0,0.0,0.0,66.7128,C,31126091000000,
Raw,1732152242001,34901000000,,107.87490883419,-1416187425100000000,0.0,107.87490883419,1063.9549565957154,0.0,0,4,0.0,16431,350659912569799,797,13.3100004196167,84.24873727055488,0.14999,16,0.0,0.0,1575420030,,,,0,0.0,6,6.0,13.3100004196167,0.0,0.0,-49.71013395787133,66.7128,C,31126091000000,
Raw,1732152242001,34901000000,,107.87490883419,-1416187425100000000,0.0,107.87490883419,1063.9549565957154,0.0,0,7,0.0,16431,350659917077092,487,21.14699935913086,967.0691001553231,0.14999,16,0.0,0.0,1575420030,,,,0,4.168369001869222,1,6.0,21.14699935913086,0.0,0.0,0.0,66.7128,C,31126091000000,
Fix,FLP,37.4253685000,-122.1583333000,5.400000095367432,0.73766994,5.3,0.0000000005420683,1732152242244,3.6,44.6,31126091000000,12.219055,0,,,
Status,1732152242000,28,0,1,17,1575420030,0.00,72.0,77.0,0,0,0,0.0
Status,1732152242000,28,1,1,22,1575420030,0.00,19.0,65.0,0,0,0,0.0
Status,1732152242000,28,2,1,19,1575420030,19.10,201.0,63.0,1,0,0,14.1
Status,1732152242000,28,3,1,14,1575420030,0.00,55.0,51.0,0,0,0,0.0
Status,1732152242000,28,4,1,13,1575420030,20.80,232.0,46.0,1,0,0,15.799999
Status,1732152242000,28,5,2,138,1575420030,0.00,156.0,43.0,0,0,0,0.0
Status,1732152242000,28,6,1,30,1575420030,25.60,133.0,34.0,1,0,0,20.6
Status,1732152242000,28,7,1,15,1575420030,26.70,272.0,29.0,1,0,0,21.7
Status,1732152242000,28,8,1,24,1575420030,0.00,313.0,19.0,0,0,0,0.0
Status,1732152242000,28,9,1,2,1575420030,0.00,46.0,16.0,0,0,0,0.0
Status,1732152242000,28,10,1,6,1575420030,0.00,161.0,14.0,0,0,0,0.0
Status,1732152242000,28,11,1,21,1575420030,0.00,32.0,3.0,0,0,0,0.0
Status,1732152242000,28,12,1,7,1575420030,26.20,133.0,2.0,0,0,0,21.2
Status,1732152242000,28,13,3,20,1602000000,0.00,109.0,55.0,0,0,0,0.0
Status,1732152242000,28,14,3,9,1602000000,0.00,83.0,32.0,0,0,0,0.0
Status,1732152242000,28,15,3,11,1602000000,0.00,313.0,30.0,0,0,0,0.0
Status,1732152242000,28,16,3,8,1602000000,0.00,244.0,21.0,0,0,0,0.0
Status,1732152242000,28,17,3,19,1602000000,0.00,31.0,21.0,0,0,0,0.0
Status,1732152242000,28,18,3,17,1602000000,26.90,0.0,0.0,0,0,0,21.9
Status,1732152242000,28,19,6,21,1575420030,0.00,348.0,68.0,0,0,0,0.0
Status,1732152242000,28,20,6,19,1575420030,0.00,241.0,45.0,0,0,0,0.0
Status,1732152242000,28,21,6,27,1575420030,0.00,66.0,33.0,0,0,0,0.0
Status,1732152242000,28,22,6,13,1575420030,0.00,118.0,30.0,0,0,0,0.0
Status,1732152242000,28,23,6,4,1575420030,18.40,310.0,24.0,1,0,0,13.4
Status,1732152242000,28,24,6,15,1575420030,0.00,60.0,24.0,0,0,0,0.0
Status,1732152242000,28,25,6,29,1575420030,0.00,191.0,23.0,0,0,0,0.0
Status,1732152242000,28,26,6,26,1575420030,0.00,167.0,8.0,0,0,0,0.0
Status,1732152242000,28,27,6,6,1575420030,0.00,326.0,6.0,0,0,0,0.0
Fix,GPS,37.4254066667,-122.1583133333,23.099999999999998,0.0,5.3,0.0,1732152243000,3.5,53.8,31127091000000,48.1,0,,,
Raw,1732152243001,35901000000,,106.55609485856144,-1416187425100000000,0.0,106.55609485856144,1067.488969890153,0.0,0,15,0.0,16431,350660925459221,487,21.746000289916992,529.5722388709972,0.14999,16,0.0,0.0,1575420030,,,,0,3.476589459803618,1,6.0,21.746000289916992,0.0,0.0,0.0,66.7128,C,31127091000000,
Raw,1732152243001,35901000000,,106.55609485856144,-1416187425100000000,0.0,106.55609485856144,1067.488969890153,0.0,0,19,0.0,16431,350660931874763,797,14.100000381469727,-33.760820017619864,0.14999,16,0.0,0.0,1575420030,,,,0,0.0,1,6.0,14.100000381469727,0.0,0.0,0.0,66.7128,C,31127091000000,
Raw,1732152243001,35901000000,,106.55609485856144,-1416187425100000000,0.0,106.55609485856144,1067.488969890153,0.0,0,13,0.0,16431,350660929229082,487,15.795000076293945,722.5609179353193,0.14999,16,0.0,0.0,1575420030,,,,0,0.0,1,6.0,15.795000076293945,0.0,0.0,0.0,66.7128,C,31127091000000,
Raw,1732152243001,35901000000,,106.55609485856144,-1416187425100000000,0.0,106.55609485856144,1067.488969890153,0.0,0,30,0.0,16431,350660926193072,487,20.56100082397461,856.2528620534828,0.14999,16,0.0,0.0,1575420030,,,,0,2.5263653422240506,1,6.0,20.56100082397461,0.0,0.0,0.0,66.7128,C,31127091000000,
Raw,1732152243001,35901000000,,106.55609485856144,-1416187425100000000,0.0,106.55609485856144,1067.488969890153,0.0,0,4,0.0,16431,350660912569515,487,13.413999557495117,85.73243325065464,0.14999,16,0.0,0.0,1575420030,,,,0,0.0,6,6.0,13.413999557495117,0.0,0.0,-49.71013395787133,66.7128,C,31127091000000,
Raw,1732152243001,35901000000,,106.55609485856144,-1416187425100000000,0.0,106.55609485856144,1067.488969890153,0.0,0,7,0.0,16431,350660917073864,487,21.150999069213867,967.8620524032045,0.14999,16,0.0,0.0,1575420030,,,,0,4.3330353484228965,1,6.0,21.150999069213867,0.0,0.0,0.0,66.7128,C,31127091000000,
Fix,FLP,37.4253901000,-122.1583241000,5.400000095367432,0.7763763,5.314,0.00000000030426459,1732152243244,3.5,53.8,31127091000000,11.836854,0,,,
Fix,NLP,37.4257088000,-122.1580944000,5.400000095367432,,19.861,,1732152243380,,,31127228000000,18.653606,0,,,
Status,1732152243000,27,0,1,17,1575420030,0.00,72.0,77.0,0,0,0,0.0
Status,1732152243000,27,1,1,22,1575420030,0.00,19.0,65.0,0,0,0,0.0
Status,1732152243000,27,2,1,19,1575420030,19.10,201.0,63.0,1,0,0,14.1
Status,1732152243000,27,3,1,14,1575420030,0.00,55.0,51.0,0,0,0,0.0
Status,1732152243000,27,4,1,13,1575420030,26.20,232.0,46.0,1,0,0,21.2
Status,1732152243000,27,5,1,30,1575420030,25.50,133.0,34.0,1,0,0,20.5
Status,1732152243000,27,6,1,15,1575420030,26.70,272.0,29.0,1,0,0,21.7
Status,1732152243000,27,7,1,24,1575420030,0.00,313.0,19.0,0,0,0,0.0
Status,1732152243000,27,8,1,2,1575420030,0.00,46.0,16.0,0,0,0,0.0
Status,1732152243000,27,9,1,6,1575420030,25.00,161.0,14.0,1,0,0,20.0
Status,1732152243000,27,10,1,21,1575420030,0.00,32.0,3.0,0,0,0,0.0
Status,1732152243000,27,11,1,7,1575420030,26.20,133.0,2.0,0,0,0,21.2
Status,1732152243000,27,12,3,20,1602000000,0.00,109.0,55.0,0,0,0,0.0
Status,1732152243000,27,13,3,9,1602000000,0.00,83.0,32.0,0,0,0,0.0
Status,1732152243000,27,14,3,11,1602000000,0.00,313.0,30.0,0,0,0,0.0
Status,1732152243000,27,15,3,8,1602000000,0.00,244.0,21.0,0,0,0,0.0
Status,1732152243000,27,16,3,19,1602000000,0.00,31.0,21.0,0,0,0,0.0
Status,1732152243000,27,17,3,17,1602000000,25.80,0.0,0.0,0,0,0,20.8
Status,1732152243000,27,18,6,21,1575420030,0.00,348.0,68.0,0,0,0,0.0
Status,1732152243000,27,19,6,19,1575420030,0.00,241.0,45.0,0,0,0,0.0
Status,1732152243000,27,20,6,27,1575420030,0.00,66.0,33.0,0,0,0,0.0
Status,1732152243000,27,21,6,13,1575420030,0.00,118.0,30.0,0,0,0,0.0
Status,1732152243000,27,22,6,4,1575420030,18.50,310.0,24.0,1,0,0,13.5
Status,1732152243000,27,23,6,15,1575420030,0.00,60.0,24.0,0,0,0,0.0
Status,1732152243000,27,24,6,29,1575420030,0.00,191.0,23.0,0,0,0,0.0
Status,1732152243000,27,25,6,26,1575420030,0.00,167.0,8.0,0,0,0,0.0
Status,1732152243000,27,26,6,6,1575420030,0.00,326.0,6.0,0,0,0,0.0
Fix,GPS,37.4254233333,-122.1583066667,23.099999999999998,0.0,5.3,0.0,1732152244000,3.4,76.1,31128091000000,48.4,0,,,
Fix,FLP,37.4254111000,-122.1583149000,5.400000095367432,0.800999,5.342,0.000000000651632,1732152244243,3.4,76.1,31128091000000,15.340379,0,,,
Raw,1732152244001,36901000000,,105.02673559861601,-1416187425100000000,0.0,105.02673559861601,1070.6802215877071,0.0,0,15,0.0,16431,350661925457455,487,21.711000442504883,530.1249081902378,0.14999,16,0.0,0.0,1575420030,,,,0,4.000520500763228,1,6.0,21.711000442504883,0.0,0.0,0.0,66.7128,C,31128091000000,
Raw,1732152244001,36901000000,,105.02673559861601,-1416187425100000000,0.0,105.02673559861601,1070.6802215877071,0.0,0,19,0.0,16431,350661931874876,1797,14.100000381469727,-33.89777942860853,0.14999,16,0.0,0.0,1575420030,,,,0,0.0,1,6.0,14.100000381469727,0.0,0.0,0.0,66.7128,C,31128091000000,
Raw,1732152244001,36901000000,,105.02673559861601,-1416187425100000000,0.0,105.02673559861601,1070.6802215877071,0.0,0,13,0.0,16431,350661929226608,487,21.239999771118164,723.053377147151,0.14999,16,0.0,0.0,1575420030,,,,0,4.3330353484228965,1,6.0,21.239999771118164,0.0,0.0,0.0,66.7128,C,31128091000000,
Raw,1732152244001,36901000000,,105.02673559861601,-1416187425100000000,0.0,105.02673559861601,1070.6802215877071,0.0,0,30,0.0,16431,350661926190214,797,20.540000915527344,856.999634635651,0.14999,16,0.0,0.0,1575420030,,,,0,2.5263653422240506,1,6.0,20.540000915527344,0.0,0.0,0.0,66.7128,C,31128091000000,
Raw,1732152244001,36901000000,,105.02673559861601,-1416187425100000000,0.0,105.02673559861601,1070.6802215877071,0.0,0,4,0.0,16431,350661912569227,396,13.512999534606934,86.91459088033989,0.14999,16,0.0,0.0,1575420030,,,,0,0.0,6,6.0,13.512999534606934,0.0,0.0,-49.71013395787133,66.7128,C,31128091000000,
Raw,1732152244001,36901000000,,105.02673559861601,-1416187425100000000,0.0,105.02673559861601,1070.6802215877071,0.0,0,7,0.0,16431,350661917070634,797,21.155000686645508,968.7274797803744,0.14999,16,0.0,0.0,1575420030,,,,0,4.3330353484228965,1,6.0,21.155000686645508,0.0,0.0,0.0,66.7128,C,31128091000000,
Raw,1732152244001,36901000000,,105.02673559861601,-1416187425100000000,0.0,105.02673559861601,1070.6802215877071,0.0,0,6,0.0,16431,350661920130577,487,19.976999282836914,-337.5485011113681,0.14999,16,0.0,0.0,1575420030,,,,0,2.2197727025998084,1,6.0,19.976999282836914,0.0,0.0,0.0,66.7128,C,31128091000000,
Status,1732152244000,27,0,1,17,1575420030,0.00,72.0,77.0,0,0,0,0.0
Status,1732152244000,27,1,1,22,1575420030,0.00,19.0,65.0,0,0,0,0.0
Status,1732152244000,27,2,1,19,1575420030,19.10,201.0,63.0,1,0,0,14.1
Status,1732152244000,27,3,1,14,1575420030,0.00,55.0,51.0,0,0,0,0.0
Status,1732152244000,27,4,1,13,1575420030,26.20,232.0,46.0,1,0,0,21.2
Status,1732152244000,27,5,1,30,1575420030,25.50,133.0,34.0,1,0,0,20.5
Status,1732152244000,27,6,1,15,1575420030,26.70,272.0,29.0,1,0,0,21.7
Status,1732152244000,27,7,1,24,1575420030,0.00,313.0,19.0,0,0,0,0.0
Status,1732152244000,27,8,1,2,1575420030,0.00,46.0,16.0,0,0,0,0.0
Status,1732152244000,27,9,1,6,1575420030,31.20,161.0,14.0,1,0,0,26.2
Status,1732152244000,27,10,1,21,1575420030,0.00,32.0,3.0,0,0,0,0.0
Status,1732152244000,27,11,1,7,1575420030,26.20,133.0,2.0,0,0,0,21.2
Status,1732152244000,27,12,3,20,1602000000,0.00,109.0,55.0,0,0,0,0.0
Status,1732152244000,27,13,3,9,1602000000,0.00,83.0,32.0,0,0,0,0.0
Status,1732152244000,27,14,3,11,1602000000,0.00,313.0,30.0,0,0,0,0.0
Status,1732152244000,27,15,3,8,1602000000,0.00,244.0,21.0,0,0,0,0.0
Status,1732152244000,27,16,3,19,1602000000,0.00,31.0,21.0,0,0,0,0.0
Status,1732152244000,27,17,3,17,1602000000,29.70,0.0,0.0,0,0,0,24.7
Status,1732152244000,27,18,6,21,1575420030,0.00,348.0,68.0,0,0,0,0.0
Status,1732152244000,27,19,6,19,1575420030,0.00,241.0,45.0,0,0,0,0.0
Status,1732152244000,27,20,6,27,1575420030,0.00,66.0,33.0,0,0,0,0.0
Status,1732152244000,27,21,6,13,1575420030,0.00,118.0,30.0,0,0,0,0.0
Status,1732152244000,27,22,6,4,1575420030,18.60,310.0,24.0,1,0,0,13.6
Status,1732152244000,27,23,6,15,1575420030,0.00,60.0,24.0,0,0,0,0.0
Status,1732152244000,27,24,6,29,1575420030,0.00,191.0,23.0,0,0,0,0.0
Status,1732152244000,27,25,6,26,1575420030,0.00,167.0,8.0,0,0,0,0.0
Status,1732152244000,27,26,6,6,1575420030,0.00,326.0,6.0,0,0,0,0.0
Fix,GPS,37.4254383333,-122.1583016667,23.099999999999998,0.0,5.2,0.0,1732152245000,3.3,105.1,31129091000000,49.1,0,,,
Fix,FLP,37.4254275000,-122.1583089000,5.400000095367432,0.81986976,5.328,0.0000000022304594,1732152245244,3.3,105.1,31129091000000,18.241478,0,,,
Raw,1732152245001,37901000000,,103.70001337083727,-1416187425100000000,0.0,103.70001337083727,1074.7160098120398,0.0,0,15,0.0,16431,350662925455680,487,21.660999298095703,530.9415542303866,0.14999,16,0.0,0.0,1575420030,,,,0,3.476589459803618,1,6.0,21.660999298095703,0.0,0.0,0.0,66.7128,C,31129091000000,
Raw,1732152245001,37901000000,,103.70001337083727,-1416187425100000000,0.0,103.70001337083727,1074.7160098120398,0.0,0,19,0.0,16431,350662931874987,1797,14.100000381469727,-32.89088617407754,0.14999,16,0.0,0.0,1575420030,,,,0,0.0,1,6.0,14.100000381469727,0.0,0.0,0.0,66.7128,C,31129091000000,
Raw,1732152245001,37901000000,,103.70001337083727,-1416187425100000000,0.0,103.70001337083727,1074.7160098120398,0.0,0,13,0.0,16431,350662929224207,487,21.249000549316406,724.3832957695938,0.14999,16,0.0,0.0,1575420030,,,,0,4.653288753350356,1,6.0,21.249000549316406,0.0,0.0,0.0,66.7128,C,31129091000000,
Raw,1732152245001,37901000000,,103.70001337083727,-1416187425100000000,0.0,103.70001337083727,1074.7160098120398,0.0,0,30,0.0,16431,350662926187353,797,20.520000457763672,857.7414826257008,0.14999,16,0.0,0.0,1575420030,,,,0,2.5263653422240506,1,6.0,20.520000457763672,0.0,0.0,0.0,66.7128,C,31129091000000,
Raw,1732152245001,37901000000,,103.70001337083727,-1416187425100000000,0.0,103.70001337083727,1074.7160098120398,0.0,0,4,0.0,16431,350662912568935,316,13.607000350952148,87.95851149259069,0.14999,16,0.0,0.0,1575420030,,,,0,0.0,6,6.0,13.607000350952148,0.0,0.0,-49.71013395787133,66.7128,C,31129091000000,
Raw,1732152245001,37901000000,,103.70001337083727,-1416187425100000000,0.0,103.70001337083727,1074.7160098120398,0.0,0,7,0.0,16431,350662917067402,797,21.159000396728516,969.1352917578706,0.14999,16,0.0,0.0,1575420030,,,,0,4.3330353484228965,1,6.0,21.159000396728516,0.0,0.0,0.0,66.7128,C,31129091000000,
Raw,1732152245001,37901000000,,103.70001337083727,-1416187425100000000,0.0,103.70001337083727,1074.7160098120398,0.0,0,6,0.0,16431,350662920131716,316,26.225000381469727,-336.49282651981605,0.14999,16,0.0,0.0,1575420030,,,,0,11.727454192115943,1,6.0,26.225000381469727,0.0,0.0,0.0,66.7128,C,31129091000000,
Status,1732152245000,27,0,1,17,1575420030,0.00,72.0,77.0,0,0,0,0.0
Status,1732152245000,27,1,1,22,1575420030,0.00,19.0,65.0,0,0,0,0.0
Status,1732152245000,27,2,1,19,1575420030,19.20,201.0,63.0,1,0,0,14.200001
Status,1732152245000,27,3,1,14,1575420030,0.00,55.0,51.0,0,0,0,0.0
Status,1732152245000,27,4,1,13,1575420030,26.20,232.0,46.0,1,0,0,21.2
Status,1732152245000,27,5,1,30,1575420030,22.40,133.0,34.0,1,0,0,17.4
Status,1732152245000,27,6,1,15,1575420030,26.60,272.0,29.0,1,0,0,21.6
Status,1732152245000,27,7,1,24,1575420030,0.00,313.0,19.0,0,0,0,0.0
Status,1732152245000,27,8,1,2,1575420030,0.00,46.0,16.0,0,0,0,0.0
Status,1732152245000,27,9,1,6,1575420030,0.00,161.0,14.0,0,0,0,0.0
Status,1732152245000,27,10,1,21,1575420030,0.00,32.0,3.0,0,0,0,0.0
Status,1732152245000,27,11,1,7,1575420030,21.00,133.0,2.0,0,0,0,16.0
Status,1732152245000,27,12,3,20,1602000000,0.00,109.0,55.0,0,0,0,0.0
Status,1732152245000,27,13,3,9,1602000000,0.00,83.0,32.0,0,0,0,0.0
Status,1732152245000,27,14,3,11,1602000000,0.00,313.0,30.0,0,0,0,0.0
Status,1732152245000,27,15,3,8,1602000000,0.00,244.0,21.0,0,0,0,0.0
Status,1732152245000,27,16,3,19,1602000000,0.00,31.0,21.0,0,0,0,0.0
Status,1732152245000,27,17,3,17,1602000000,25.10,0.0,0.0,0,0,0,20.1
Status,1732152245000,27,18,6,21,1575420030,0.00,348.0,68.0,0,0,0,0.0
Status,1732152245000,27,19,6,19,1575420030,0.00,241.0,45.0,0,0,0,0.0
Status,1732152245000,27,20,6,27,1575420030,0.00,66.0,33.0,0,0,0,0.0
Status,1732152245000,27,21,6,13,1575420030,0.00,118.0,30.0,0,0,0,0.0
Status,1732152245000,27,22,6,4,1575420030,26.60,310.0,24.0,1,0,0,21.6
Status,1732152245000,27,23,6,15,1575420030,0.00,60.0,24.0,0,0,0,0.0
Status,1732152245000,27,24,6,29,1575420030,0.00,191.0,23.0,0,0,0,0.0
Status,1732152245000,27,25,6,26,1575420030,0.00,167.0,8.0,0,0,0,0.0
Status,1732152245000,27,26,6,6,1575420030,0.00,326.0,6.0,0,0,0,0.0
Fix,GPS,37.4254516667,-122.1582933333,23.000000000000004,0.0,5.2,0.0,1732152246000,3.4,130.1,31130091000000,49.5,0,,,
Raw,1732152246001,38901000000,,103.87208624907842,-1416187425100000000,0.0,103.87208624907842,1076.8940009785588,0.0,0,15,0.0,16431,350663925453922,487,21.621000289916992,531.7042155908988,0.14999,16,0.0,0.0,1575420030,,,,0,3.742504807842275,1,6.0,21.621000289916992,0.0,0.0,0.0,66.7128,C,31130091000000,
Raw,1732152246001,38901000000,,103.87208624907842,-1416187425100000000,0.0,103.87208624907842,1076.8940009785588,0.0,0,19,0.0,16431,350663931875096,1797,14.199999809265137,-32.103555394557546,0.14999,16,0.0,0.0,1575420030,,,,0,0.0,1,6.0,14.199999809265137,0.0,0.0,0.0,66.7128,C,31130091000000,
Raw,1732152246001,38901000000,,103.87208624907842,-1416187425100000000,0.0,103.87208624907842,1076.8940009785588,0.0,0,13,0.0,16431,350663929221785,487,21.2189998626709,724.7992379699267,0.14999,16,0.0,0.0,1575420030,,,,0,3.3861106246026926,1,6.0,21.2189998626709,0.0,0.0,0.0,66.7128,C,31130091000000,
