# 
# Header Description:
# 
# Version: v3.1.0.3 Platform: 13 Manufacturer: samsung Model: SM-S135DL GNSS Hardware Model Name: MediaTek,MT6631,MTK_MNLD_default,MNL_VER_default
# 
# Raw,utcTimeMillis,TimeNanos,LeapSecond,TimeUncertaintyNanos,FullBiasNanos,BiasNanos,BiasUncertaintyNanos,DriftNanosPerSecond,DriftUncertaintyNanosPerSecond,HardwareClockDiscontinuityCount,Svid,TimeOffsetNanos,State,ReceivedSvTimeNanos,ReceivedSvTimeUncertaintyNanos,Cn0DbHz,PseudorangeRateMetersPerSecond,PseudorangeRateUncertaintyMetersPerSecond,AccumulatedDeltaRangeState,AccumulatedDeltaRangeMeters,AccumulatedDeltaRangeUncertaintyMeters,CarrierFrequencyHz,CarrierCycles,CarrierPhase,CarrierPhaseUncertainty,MultipathIndicator,SnrInDb,ConstellationType,AgcDb,BasebandCn0DbHz,FullInterSignalBiasNanos,FullInterSignalBiasUncertaintyNanos,SatelliteInterSignalBiasNanos,SatelliteInterSignalBiasUncertaintyNanos,CodeType,ChipsetElapsedRealtimeNanos,IsFullTracking
# 
# UncalAccel,utcTimeMillis,elapsedRealtimeNanos,UncalAccelXMps2,UncalAccelYMps2,UncalAccelZMps2,BiasXMps2,BiasYMps2,BiasZMps2
# 
# Accel,utcTimeMillis,elapsedRealtimeNanos,AccelXMps2,AccelYMps2,AccelZMps2
# 
# UncalGyro,utcTimeMillis,elapsedRealtimeNanos,UncalGyroXRadPerSec,UncalGyroYRadPerSec,UncalGyroZRadPerSec,DriftXRadPerSec,DriftYRadPerSec,DriftZRadPerSec
# 
# Gyro,utcTimeMillis,elapsedRealtimeNanos,GyroXRadPerSec,GyroYRadPerSec,GyroZRadPerSec
# 
# UncalMag,utcTimeMillis,elapsedRealtimeNanos,UncalMagXMicroT,UncalMagYMicroT,UncalMagZMicroT,BiasXMicroT,BiasYMicroT,BiasZMicroT
# 
# Mag,utcTimeMillis,elapsedRealtimeNanos,MagXMicroT,MagYMicroT,MagZMicroT
# 
# Pressure,utcTimeMillis,elapsedRealtimeNanos,PressureHpa
# 
# OrientationDeg,utcTimeMillis,elapsedRealtimeNanos,yawDeg,rollDeg,pitchDeg
# 
# Fix,Provider,LatitudeDegrees,LongitudeDegrees,AltitudeMeters,SpeedMps,AccuracyMeters,BearingDegrees,UnixTimeMillis,SpeedAccuracyMps,BearingAccuracyDegrees,elapsedRealtimeNanos,VerticalAccuracyMeters,MockLocation,NumberOfUsedSignals,VerticalSpeedAccuracyMps,SolutionType
# 
# Nav,Svid,Type,Status,MessageId,Sub-messageId,Data(Bytes)
# 
# Status,UnixTimeMillis,SignalCount,SignalIndex,ConstellationType,Svid,CarrierFrequencyHz,Cn0DbHz,AzimuthDegrees,ElevationDegrees,UsedInFix,HasAlmanacData,HasEphemerisData,BasebandCn0DbHz
# 
# Agc,utcTimeMillis,TimeNanos,LeapSecond,TimeUncertaintyNanos,FullBiasNanos,BiasNanos,BiasUncertaintyNanos,DriftNanosPerSecond,DriftUncertaintyNanosPerSecond,HardwareClockDiscontinuityCount,AgcDb,CarrierFrequencyHz,ConstellationType
# 
Fix,FLP,37.4255608000,-122.1582073000,3.4573480507032226,0.10598022,20.784,0.00000000089635666,1732151149469,1.5,45.0,30033317000000,11.162743,0,,,
Status,,26,0,1,17,1575420030,0.00,117.0,80.0,0,0,0,0.0
Status,,26,1,1,22,1575420030,0.00,0.0,68.0,0,0,0,0.0
Status,,26,2,1,14,1575420030,0.00,45.0,57.0,0,0,0,0.0
Status,,26,3,1,19,1575420030,0.00,198.0,55.0,0,0,0,0.0
Status,,26,4,1,13,1575420030,24.20,242.0,51.0,1,0,0,19.2
Status,,26,5,1,30,1575420030,30.60,127.0,42.0,1,0,0,25.6
Status,,26,6,1,15,1575420030,24.90,282.0,31.0,1,0,0,19.9
Status,,26,7,1,2,1575420030,0.00,52.0,19.0,0,0,0,0.0
Status,,26,8,1,24,1575420030,0.00,312.0,11.0,0,0,0,0.0
Status,,26,9,1,7,1575420030,0.00,129.0,9.0,0,0,0,0.0
Status,,26,10,1,21,1575420030,0.00,37.0,7.0,0,0,0,0.0
Status,,26,11,1,6,1575420030,0.00,164.0,7.0,0,0,0,0.0
Status,,26,12,3,20,1602000000,0.00,123.0,48.0,0,0,0,0.0
Status,,26,13,3,9,1602000000,0.00,73.0,37.0,0,0,0,0.0
Status,,26,14,3,19,1602000000,0.00,38.0,28.0,0,0,0,0.0
Status,,26,15,3,8,1602000000,0.00,252.0,27.0,0,0,0,0.0
Status,,26,16,3,11,1602000000,24.40,305.0,24.0,0,0,0,19.4
Status,,26,17,6,21,1575420030,0.00,331.0,67.0,0,0,0,0.0
Status,,26,18,6,19,1575420030,0.00,249.0,49.0,0,0,0,0.0
Status,,26,19,6,27,1575420030,0.00,60.0,37.0,0,0,0,0.0
Status,,26,20,6,29,1575420030,0.00,192.0,30.0,0,0,0,0.0
Status,,26,21,6,13,1575420030,0.00,124.0,25.0,0,0,0,0.0
Status,,26,22,6,15,1575420030,0.00,67.0,23.0,0,0,0,0.0
Status,,26,23,6,4,1575420030,0.00,315.0,21.0,0,0,0,0.0
Status,,26,24,6,6,1575420030,0.00,329.0,2.0,0,0,0,0.0
Status,,26,25,6,26,1575420030,0.00,169.0,2.0,0,0,0,0.0
Fix,FLP,37.4255770000,-122.1581954000,2.7020029191845873,0.14198594,23.978,0.0000000005916341,1732151150241,1.5,45.0,30034089000000,9.439034,0,,,
Fix,GPS,37.4255183333,-122.1582466667,-0.6999999999999993,0.0,41.5,0.0,1732151150000,2.4,179.9,30034089000000,64.6,0,,,
Status,1732151150000,26,0,1,17,1575420030,0.00,117.0,80.0,0,0,0,0.0
Status,1732151150000,26,1,1,22,1575420030,0.00,0.0,68.0,0,0,0,0.0
Status,1732151150000,26,2,1,14,1575420030,0.00,45.0,57.0,0,0,0,0.0
Status,1732151150000,26,3,1,19,1575420030,23.30,198.0,55.0,1,0,0,18.3
Status,1732151150000,26,4,1,13,1575420030,24.20,242.0,51.0,1,0,0,19.2
Status,1732151150000,26,5,1,30,1575420030,28.90,127.0,42.0,1,0,0,23.9
Status,1732151150000,26,6,1,15,1575420030,25.50,282.0,31.0,1,0,0,20.5
Status,1732151150000,26,7,1,2,1575420030,0.00,52.0,19.0,0,0,0,0.0
Status,1732151150000,26,8,1,24,1575420030,0.00,312.0,11.0,0,0,0,0.0
Status,1732151150000,26,9,1,7,1575420030,0.00,129.0,9.0,0,0,0,0.0
Status,1732151150000,26,10,1,21,1575420030,0.00,37.0,7.0,0,0,0,0.0
Status,1732151150000,26,11,1,6,1575420030,0.00,164.0,7.0,0,0,0,0.0
Status,1732151150000,26,12,3,20,1602000000,0.00,123.0,48.0,0,0,0,0.0
Status,1732151150000,26,13,3,9,1602000000,0.00,73.0,37.0,0,0,0,0.0
Status,1732151150000,26,14,3,19,1602000000,0.00,38.0,28.0,0,0,0,0.0
Status,1732151150000,26,15,3,8,1602000000,0.00,252.0,27.0,0,0,0,0.0
Status,1732151150000,26,16,3,11,1602000000,0.00,305.0,24.0,0,0,0,0.0
Status,1732151150000,26,17,6,21,1575420030,0.00,331.0,67.0,0,0,0,0.0
Status,1732151150000,26,18,6,19,1575420030,0.00,249.0,49.0,0,0,0,0.0
Status,1732151150000,26,19,6,27,1575420030,0.00,60.0,37.0,0,0,0,0.0
Status,1732151150000,26,20,6,29,1575420030,0.00,192.0,30.0,0,0,0,0.0
Status,1732151150000,26,21,6,13,1575420030,0.00,124.0,25.0,0,0,0,0.0
Status,1732151150000,26,22,6,15,1575420030,0.00,67.0,23.0,0,0,0,0.0
Status,1732151150000,26,23,6,4,1575420030,0.00,315.0,21.0,0,0,0,0.0
Status,1732151150000,26,24,6,6,1575420030,0.00,329.0,2.0,0,0,0,0.0
Status,1732151150000,26,25,6,26,1575420030,0.00,169.0,2.0,0,0,0,0.0
Fix,GPS,37.4255200000,-122.1582466667,-0.6999999999999993,0.0,6.4,0.0,1732151151000,2.4,179.9,30035089000000,59.3,0,,,
Fix,FLP,37.4255401000,-122.1582271000,3.290434147101762,0.032669414,21.049,,1732151151241,2.4,,30035089000000,11.095774,0,,,
Raw,1732151150999,19947000000,,705926.4896517177,-1416186349052999936,0.0,117.15534134699327,1429.1827991955386,0.0,0,19,0.0,16431,349568929749219,487,18.31999969482422,-24.255056393614044,0.14999,16,0.0,0.0,1575420030,,,,0,0.0,1,6.0,18.31999969482422,0.0,0.0,0.0,66.7128,C,30035089000000,
Raw,1732151150999,19947000000,,705926.4896517177,-1416186349052999936,0.0,117.15534134699327,1429.1827991955386,0.0,0,15,0.0,16431,349568925326299,797,20.51799964904785,505.59542193206806,0.14999,16,0.0,0.0,1575420030,,,,0,3.1449189352620266,1,6.0,20.51799964904785,0.0,0.0,0.0,66.7128,C,30035089000000,
Raw,1732151150999,19947000000,,705926.4896517177,-1416186349052999936,0.0,117.15534134699327,1429.1827991955386,0.0,0,30,0.0,16431,349568927342976,396,23.854000091552734,884.117598011407,0.14999,16,0.0,0.0,1575420030,,,,0,8.372064753262627,1,6.0,23.854000091552734,0.0,0.0,0.0,66.7128,C,30035089000000,
Raw,1732151150999,19947000000,,705926.4896517177,-1416186349052999936,0.0,117.15534134699327,1429.1827991955386,0.0,0,13,0.0,16431,349568929825937,487,19.24799919128418,711.4987973682604,0.14999,16,0.0,0.0,1575420030,,,,0,0.9620295467606645,1,6.0,19.24799919128418,0.0,0.0,0.0,66.7128,C,30035089000000,
Status,1732151151000,26,0,1,17,1575420030,0.00,117.0,80.0,0,0,0,0.0
Status,1732151151000,26,1,1,22,1575420030,0.00,0.0,68.0,0,0,0,0.0
Status,1732151151000,26,2,1,14,1575420030,0.00,45.0,57.0,0,0,0,0.0
Status,1732151151000,26,3,1,19,1575420030,26.10,198.0,55.0,1,0,0,21.1
Status,1732151151000,26,4,1,13,1575420030,25.40,242.0,51.0,1,0,0,20.4
Status,1732151151000,26,5,1,30,1575420030,28.50,127.0,42.0,1,0,0,23.5
Status,1732151151000,26,6,1,15,1575420030,25.50,282.0,31.0,1,0,0,20.5
Status,1732151151000,26,7,1,2,1575420030,0.00,52.0,19.0,0,0,0,0.0
Status,1732151151000,26,8,1,24,1575420030,0.00,312.0,11.0,0,0,0,0.0
Status,1732151151000,26,9,1,7,1575420030,30.80,129.0,9.0,1,0,0,25.8
Status,1732151151000,26,10,1,21,1575420030,0.00,37.0,7.0,0,0,0,0.0
Status,1732151151000,26,11,1,6,1575420030,0.00,164.0,7.0,0,0,0,0.0
Status,1732151151000,26,12,3,20,1602000000,0.00,123.0,48.0,0,0,0,0.0
Status,1732151151000,26,13,3,9,1602000000,0.00,73.0,37.0,0,0,0,0.0
Status,1732151151000,26,14,3,19,1602000000,0.00,38.0,28.0,0,0,0,0.0
Status,1732151151000,26,15,3,8,1602000000,0.00,252.0,27.0,0,0,0,0.0
Status,1732151151000,26,16,3,11,1602000000,23.80,305.0,24.0,0,0,0,18.8
Status,1732151151000,26,17,6,21,1575420030,0.00,331.0,67.0,0,0,0,0.0
Status,1732151151000,26,18,6,19,1575420030,0.00,249.0,49.0,0,0,0,0.0
Status,1732151151000,26,19,6,27,1575420030,0.00,60.0,37.0,0,0,0,0.0
Status,1732151151000,26,20,6,29,1575420030,0.00,192.0,30.0,0,0,0,0.0
Status,1732151151000,26,21,6,13,1575420030,0.00,124.0,25.0,0,0,0,0.0
Status,1732151151000,26,22,6,15,1575420030,0.00,67.0,23.0,0,0,0,0.0
Status,1732151151000,26,23,6,4,1575420030,0.00,315.0,21.0,0,0,0,0.0
Status,1732151151000,26,24,6,6,1575420030,0.00,329.0,2.0,0,0,0,0.0
Status,1732151151000,26,25,6,26,1575420030,0.00,169.0,2.0,0,0,0,0.0
Fix,GPS,37.4255183333,-122.1582250000,-0.6999999999999993,0.0,6.4,0.0,1732151152000,2.4,179.9,30036089000000,49.6,0,,,
Fix,FLP,37.4255296000,-122.1582261000,3.395308372487256,0.00086358434,17.935,,1732151152241,2.4,,30036089000000,11.97737,0,,,
Raw,1732151151999,20947000000,,705907.3618356336,-1416186349052999936,0.0,100.04304161990407,1428.0812439041113,0.0,0,19,0.0,16431,349569929749338,487,21.143999099731445,-24.432574001954514,0.14999,16,0.0,0.0,1575420030,,,,0,4.183274920571898,1,6.0,21.143999099731445,0.0,0.0,0.0,66.7128,C,30036089000000,
Raw,1732151151999,20947000000,,705907.3618356336,-1416186349052999936,0.0,100.04304161990407,1428.0812439041113,0.0,0,7,0.0,16431,349569918701737,316,25.847000122070312,1036.1136470739443,0.14999,16,0.0,0.0,1575420030,,,,0,11.222393120088405,1,6.0,25.847000122070312,0.0,0.0,0.0,66.7128,C,30036089000000,
Raw,1732151151999,20947000000,,705907.3618356336,-1416186349052999936,0.0,100.04304161990407,1428.0812439041113,0.0,0,15,0.0,16431,349569925324612,1797,20.51799964904785,505.9702484340547,0.14999,16,0.0,0.0,1575420030,,,,0,3.1449189352620266,1,6.0,20.51799964904785,0.0,0.0,0.0,66.7128,C,30036089000000,
Raw,1732151151999,20947000000,,705907.3618356336,-1416186349052999936,0.0,100.04304161990407,1428.0812439041113,0.0,0,30,0.0,16431,349569927340055,396,23.496000289916992,884.7574233194586,0.14999,16,0.0,0.0,1575420030,,,,0,7.8533500713746305,1,6.0,23.496000289916992,0.0,0.0,0.0,66.7128,C,30036089000000,
Raw,1732151151999,20947000000,,705907.3618356336,-1416186349052999936,0.0,100.04304161990407,1428.0812439041113,0.0,0,13,0.0,16431,349569929823579,487,20.368999481201172,711.650530555604,0.14999,16,0.0,0.0,1575420030,,,,0,2.8647046464057326,1,6.0,20.368999481201172,0.0,0.0,0.0,66.7128,C,30036089000000,
Raw,1732151151999,20947000000,,705907.3618356336,-1416186349052999936,0.0,100.04304161990407,1428.0812439041113,0.0,0,11,0.0,17,984180,487,18.0,-50.266993443668134,0.14999,16,0.0,0.0,1602000000,,,,0,2.355240493004013,3,6.0,18.0,0.0,0.0,-9.278575228483438,66.7128,C,30036089000000,
Status,1732151152000,26,0,1,17,1575420030,0.00,117.0,80.0,0,0,0,0.0
Status,1732151152000,26,1,1,22,1575420030,0.00,0.0,68.0,0,0,0,0.0
Status,1732151152000,26,2,1,14,1575420030,0.00,45.0,57.0,0,0,0,0.0
Status,1732151152000,26,3,1,19,1575420030,25.00,198.0,55.0,1,0,0,20.0
Status,1732151152000,26,4,1,13,1575420030,25.40,242.0,51.0,1,0,0,20.4
Status,1732151152000,26,5,1,30,1575420030,28.30,127.0,42.0,1,0,0,23.3
Status,1732151152000,26,6,1,15,1575420030,18.50,282.0,31.0,1,0,0,13.5
Status,1732151152000,26,7,1,2,1575420030,0.00,52.0,19.0,0,0,0,0.0
Status,1732151152000,26,8,1,24,1575420030,0.00,312.0,11.0,0,0,0,0.0
Status,1732151152000,26,9,1,7,1575420030,30.00,129.0,9.0,1,0,0,25.0
Status,1732151152000,26,10,1,21,1575420030,0.00,37.0,7.0,0,0,0,0.0
Status,1732151152000,26,11,1,6,1575420030,0.00,164.0,7.0,0,0,0,0.0
Status,1732151152000,26,12,3,20,1602000000,0.00,123.0,48.0,0,0,0,0.0
Status,1732151152000,26,13,3,9,1602000000,0.00,73.0,37.0,0,0,0,0.0
Status,1732151152000,26,14,3,19,1602000000,0.00,38.0,28.0,0,0,0,0.0
Status,1732151152000,26,15,3,8,1602000000,0.00,252.0,27.0,0,0,0,0.0
Status,1732151152000,26,16,3,11,1602000000,23.90,305.0,24.0,0,0,0,18.9
Status,1732151152000,26,17,6,21,1575420030,0.00,331.0,67.0,0,0,0,0.0
Status,1732151152000,26,18,6,19,1575420030,0.00,249.0,49.0,0,0,0,0.0
Status,1732151152000,26,19,6,27,1575420030,0.00,60.0,37.0,0,0,0,0.0
Status,1732151152000,26,20,6,29,1575420030,0.00,192.0,30.0,0,0,0,0.0
Status,1732151152000,26,21,6,13,1575420030,0.00,124.0,25.0,0,0,0,0.0
Status,1732151152000,26,22,6,15,1575420030,0.00,67.0,23.0,0,0,0,0.0
Status,1732151152000,26,23,6,4,1575420030,0.00,315.0,21.0,0,0,0,0.0
Status,1732151152000,26,24,6,6,1575420030,0.00,329.0,2.0,0,0,0,0.0
Status,1732151152000,26,25,6,26,1575420030,0.00,169.0,2.0,0,0,0,0.0
Fix,GPS,37.4255233333,-122.1582083333,-0.6999999999999993,0.0,6.4,0.0,1732151153000,2.4,179.9,30037089000000,46.4,0,,,
Raw,1732151152999,21947000000,,705894.3319881649,-1416186349052999936,0.0,101.11844939218464,1429.369381768475,0.0,0,19,0.0,16431,349570929749386,797,20.049999237060547,-23.745918610362757,0.14999,16,0.0,0.0,1575420030,,,,0,2.3766049143730514,1,6.0,20.049999237060547,0.0,0.0,0.0,66.7128,C,30037089000000,
Raw,1732151152999,21947000000,,705894.3319881649,-1416186349052999936,0.0,101.11844939218464,1429.369381768475,0.0,0,7,0.0,16431,349570918698270,316,25.020000457763672,1036.3328378816257,0.14999,16,0.0,0.0,1575420030,,,,0,10.05996331112305,1,6.0,25.020000457763672,0.0,0.0,0.0,66.7128,C,30037089000000,
Raw,1732151152999,21947000000,,705894.3319881649,-1416186349052999936,0.0,101.11844939218464,1429.369381768475,0.0,0,15,0.0,16431,349570925322923,797,13.5,506.4474692853694,0.14999,16,0.0,0.0,1575420030,,,,0,0.0,1,6.0,13.5,0.0,0.0,0.0,66.7128,C,30037089000000,
Raw,1732151152999,21947000000,,705894.3319881649,-1416186349052999936,0.0,101.11844939218464,1429.369381768475,0.0,0,30,0.0,16431,349570927337104,487,23.332000732421875,884.9846978915605,0.14999,16,0.0,0.0,1575420030,,,,0,7.636868096152174,1,6.0,23.332000732421875,0.0,0.0,0.0,66.7128,C,30037089000000,
Raw,1732151152999,21947000000,,705894.3319881649,-1416186349052999936,0.0,101.11844939218464,1429.369381768475,0.0,0,13,0.0,16431,349570929821204,487,20.368999481201172,712.5638101014707,0.14999,16,0.0,0.0,1575420030,,,,0,2.8647046464057326,1,6.0,20.368999481201172,0.0,0.0,0.0,66.7128,C,30037089000000,
Raw,1732151152999,21947000000,,705894.3319881649,-1416186349052999936,0.0,101.11844939218464,1429.369381768475,0.0,0,11,0.0,17,984369,487,20.0,-47.15516604852394,0.14999,16,0.0,0.0,1602000000,,,,0,2.501225267834001,3,6.0,20.0,0.0,0.0,-9.278575228483438,66.7128,C,30037089000000,
Fix,FLP,37.4255268000,-122.1582186000,3.2074873050223376,0.0073539526,16.287,,1732151153241,2.4,,30037089000000,11.338813,0,,,
Status,1732151153000,26,0,1,17,1575420030,0.00,117.0,80.0,0,0,0,0.0
Status,1732151153000,26,1,1,22,1575420030,0.00,0.0,68.0,0,0,0,0.0
Status,1732151153000,26,2,1,14,1575420030,0.00,45.0,57.0,0,0,0,0.0
Status,1732151153000,26,3,1,19,1575420030,25.00,198.0,55.0,1,0,0,20.0
Status,1732151153000,26,4,1,13,1575420030,25.40,242.0,51.0,1,0,0,20.4
Status,1732151153000,26,5,1,30,1575420030,26.90,127.0,42.0,1,0,0,21.9
Status,1732151153000,26,6,1,15,1575420030,18.50,282.0,31.0,1,0,0,13.5
Status,1732151153000,26,7,1,2,1575420030,0.00,52.0,19.0,0,0,0,0.0
Status,1732151153000,26,8,1,24,1575420030,0.00,312.0,11.0,0,0,0,0.0
Status,1732151153000,26,9,1,7,1575420030,26.90,129.0,9.0,1,0,0,21.9
Status,1732151153000,26,10,1,21,1575420030,0.00,37.0,7.0,0,0,0,0.0
Status,1732151153000,26,11,1,6,1575420030,0.00,164.0,7.0,0,0,0,0.0
Status,1732151153000,26,12,3,20,1602000000,0.00,123.0,48.0,0,0,0,0.0
Status,1732151153000,26,13,3,9,1602000000,0.00,73.0,37.0,0,0,0,0.0
Status,1732151153000,26,14,3,19,1602000000,0.00,38.0,28.0,0,0,0,0.0
Status,1732151153000,26,15,3,8,1602000000,0.00,252.0,27.0,0,0,0,0.0
Status,1732151153000,26,16,3,11,1602000000,23.90,305.0,24.0,0,0,0,18.9
Status,1732151153000,26,17,6,21,1575420030,0.00,331.0,67.0,0,0,0,0.0
Status,1732151153000,26,18,6,19,1575420030,0.00,249.0,49.0,0,0,0,0.0
Status,1732151153000,26,19,6,27,1575420030,0.00,60.0,37.0,0,0,0,0.0
Status,1732151153000,26,20,6,29,1575420030,0.00,192.0,30.0,0,0,0,0.0
Status,1732151153000,26,21,6,13,1575420030,29.90,124.0,25.0,1,0,0,24.9
Status,1732151153000,26,22,6,15,1575420030,0.00,67.0,23.0,0,0,0,0.0
Status,1732151153000,26,23,6,4,1575420030,0.00,315.0,21.0,0,0,0,0.0
Status,1732151153000,26,24,6,6,1575420030,0.00,329.0,2.0,0,0,0,0.0
Status,1732151153000,26,25,6,26,1575420030,0.00,169.0,2.0,0,0,0,0.0
Fix,GPS,37.4255300000,-122.1581850000,-0.8000000000000007,0.0,6.5,0.0,1732151154000,2.4,179.9,30038089000000,46.6,0,,,
Fix,FLP,37.4255281000,-122.1582051000,3.052748114161976,0.0030291772,13.627,,1732151154242,2.4,,30038089000000,11.214651,0,,,
Raw,1732151153999,22947000000,,988934.6724326201,-1416186349052999936,0.0,101.07864727999517,1428.6414368974267,0.0,0,19,0.0,16431,349571929749465,797,20.049999237060547,-23.997026349980715,0.14999,16,0.0,0.0,1575420030,,,,0,2.3766049143730514,1,6.0,20.049999237060547,0.0,0.0,0.0,66.7128,C,30038089000000,
Raw,1732151153999,22947000000,,988934.6724326201,-1416186349052999936,0.0,101.07864727999517,1428.6414368974267,0.0,0,7,0.0,16431,349571918694812,396,21.881999969482422,1036.544967010043,0.14999,16,0.0,0.0,1575420030,,,,0,5.399004539087793,1,6.0,21.881999969482422,0.0,0.0,0.0,66.7128,C,30038089000000,
Raw,1732151153999,22947000000,,988934.6724326201,-1416186349052999936,0.0,101.07864727999517,1428.6414368974267,0.0,0,15,0.0,16431,349571925321233,1797,13.5,507.1934985328782,0.14999,16,0.0,0.0,1575420030,,,,0,0.0,1,6.0,13.5,0.0,0.0,0.0,66.7128,C,30038089000000,
Raw,1732151153999,22947000000,,988934.6724326201,-1416186349052999936,0.0,101.07864727999517,1428.6414368974267,0.0,0,13,0.0,16431,349571912285134,316,24.899999618530273,-45.52548475461448,0.14999,16,0.0,0.0,1575420030,,,,0,10.927302672156205,6,6.0,24.899999618530273,0.0,0.0,-24.466354731180033,66.7128,C,30038089000000,
Raw,1732151153999,22947000000,,988934.6724326201,-1416186349052999936,0.0,101.07864727999517,1428.6414368974267,0.0,0,30,0.0,16431,349571927334155,396,21.922000885009766,884.833429288379,0.14999,16,0.0,0.0,1575420030,,,,0,5.469621916990458,1,6.0,21.922000885009766,0.0,0.0,0.0,66.7128,C,30038089000000,
Raw,1732151153999,22947000000,,988934.6724326201,-1416186349052999936,0.0,101.07864727999517,1428.6414368974267,0.0,0,13,0.0,16431,349571929818813,487,20.365999221801758,712.4271294409793,0.14999,16,0.0,0.0,1575420030,,,,0,2.7692543491808337,1,6.0,20.365999221801758,0.0,0.0,0.0,66.7128,C,30038089000000,
Raw,1732151153999,22947000000,,988934.6724326201,-1416186349052999936,0.0,101.07864727999517,1428.6414368974267,0.0,0,11,0.0,17,984531,797,17.0,-49.445987463859566,0.14999,16,0.0,0.0,1602000000,,,,0,2.501225267834001,3,6.0,17.0,0.0,0.0,-9.278575228483438,66.7128,C,30038089000000,
Fix,FLP,37.4255287000,-122.1581985000,2.9692932171509954,0.00088860345,9.078,,1732151154625,2.4,,30038473000000,11.057511,0,,,
Fix,NLP,37.4257170000,-122.1580989000,5.400000095367432,,92.9,,1732151154626,,,30038473000000,16.594904,0,,,
Status,1732151154000,26,0,1,17,1575420030,0.00,117.0,80.0,0,0,0,0.0
Status,1732151154000,26,1,1,22,1575420030,0.00,0.0,68.0,0,0,0,0.0
Status,1732151154000,26,2,1,14,1575420030,0.00,45.0,57.0,0,0,0,0.0
Status,1732151154000,26,3,1,19,1575420030,25.00,198.0,55.0,1,0,0,20.0
Status,1732151154000,26,4,1,13,1575420030,25.30,242.0,51.0,1,0,0,20.3
Status,1732151154000,26,5,1,30,1575420030,27.80,127.0,42.0,1,0,0,22.8
Status,1732151154000,26,6,1,15,1575420030,18.50,282.0,31.0,1,0,0,13.5
Status,1732151154000,26,7,1,2,1575420030,0.00,52.0,19.0,0,0,0,0.0
Status,1732151154000,26,8,1,24,1575420030,0.00,312.0,11.0,0,0,0,0.0
Status,1732151154000,26,9,1,7,1575420030,28.80,129.0,9.0,1,0,0,23.8
Status,1732151154000,26,10,1,21,1575420030,0.00,37.0,7.0,0,0,0,0.0
Status,1732151154000,26,11,1,6,1575420030,0.00,164.0,7.0,0,0,0,0.0
Status,1732151154000,26,12,3,20,1602000000,0.00,123.0,48.0,0,0,0,0.0
Status,1732151154000,26,13,3,9,1602000000,0.00,73.0,37.0,0,0,0,0.0
Status,1732151154000,26,14,3,19,1602000000,0.00,38.0,28.0,0,0,0,0.0
Status,1732151154000,26,15,3,8,1602000000,0.00,252.0,27.0,0,0,0,0.0
Status,1732151154000,26,16,3,11,1602000000,20.80,305.0,24.0,0,0,0,15.799999
Status,1732151154000,26,17,6,21,1575420030,0.00,331.0,67.0,0,0,0,0.0
Status,1732151154000,26,18,6,19,1575420030,0.00,249.0,49.0,0,0,0,0.0
Status,1732151154000,26,19,6,27,1575420030,0.00,60.0,37.0,0,0,0,0.0
Status,1732151154000,26,20,6,29,1575420030,0.00,192.0,30.0,0,0,0,0.0
Status,1732151154000,26,21,6,13,1575420030,29.90,124.0,25.0,1,0,0,24.9
Status,1732151154000,26,22,6,15,1575420030,0.00,67.0,23.0,0,0,0,0.0
Status,1732151154000,26,23,6,4,1575420030,0.00,315.0,21.0,0,0,0,0.0
Status,1732151154000,26,24,6,6,1575420030,0.00,329.0,2.0,0,0,0,0.0
Status,1732151154000,26,25,6,26,1575420030,0.00,169.0,2.0,0,0,0,0.0
Fix,GPS,37.4255416667,-122.1581500000,-0.8000000000000007,0.0,6.5,0.0,1732151155000,2.3,179.9,30039089000000,46.9,0,,,
Fix,FLP,37.4255330000,-122.1581833000,3.124032408011357,0.01850433,8.71,,1732151155241,2.3,,30039089000000,11.340949,0,,,
Raw,1732151154999,23947000000,,703087.4422464623,-1416186349052999936,0.0,101.23663418055288,1426.675528930499,0.0,0,19,0.0,16431,349572929749530,487,20.01799964904785,-24.313547539623112,0.14999,16,0.0,0.0,1575420030,,,,0,1.3095114681491191,1,6.0,20.01799964904785,0.0,0.0,0.0,66.7128,C,30039089000000,
Raw,1732151154999,23947000000,,703087.4422464623,-1416186349052999936,0.0,101.23663418055288,1426.675528930499,0.0,0,7,0.0,16431,349572918691352,396,23.791000366210938,1036.0893957806825,0.14999,16,0.0,0.0,1575420030,,,,0,8.321565252652553,1,6.0,23.791000366210938,0.0,0.0,0.0,66.7128,C,30039089000000,
Raw,1732151154999,23947000000,,703087.4422464623,-1416186349052999936,0.0,101.23663418055288,1426.675528930499,0.0,0,15,0.0,16431,349572925319541,1797,13.5,506.8655950312642,0.14999,16,0.0,0.0,1575420030,,,,0,0.0,1,6.0,13.5,0.0,0.0,0.0,66.7128,C,30039089000000,
Raw,1732151154999,23947000000,,703087.4422464623,-1416186349052999936,0.0,101.23663418055288,1426.675528930499,0.0,0,13,0.0,16431,349572912285287,316,24.899999618530273,-46.132185211907895,0.14999,16,0.0,0.0,1575420030,,,,0,10.927302672156205,6,6.0,24.899999618530273,0.0,0.0,-24.00592215022907,66.7128,C,30039089000000,
Raw,1732151154999,23947000000,,703087.4422464623,-1416186349052999936,0.0,101.23663418055288,1426.675528930499,0.0,0,30,0.0,16431,349572927331200,396,22.77199935913086,884.6370031046408,0.14999,16,0.0,0.0,1575420030,,,,0,6.77332078647699,1,6.0,22.77199935913086,0.0,0.0,0.0,66.7128,C,30039089000000,
Raw,1732151154999,23947000000,,703087.4422464623,-1416186349052999936,0.0,101.23663418055288,1426.675528930499,0.0,0,13,0.0,16431,349572929816383,487,20.329999923706055,711.8532286255305,0.14999,16,0.0,0.0,1575420030,,,,0,1.6436253382061734,1,6.0,20.329999923706055,0.0,0.0,0.0,66.7128,C,30039089000000,
Raw,1732151154999,23947000000,,703087.4422464623,-1416186349052999936,0.0,101.23663418055288,1426.675528930499,0.0,0,11,0.0,17,984708,487,19.0,-47.52359076867843,0.14999,16,0.0,0.0,1602000000,,,,0,0.0,3,6.0,19.0,0.0,0.0,-9.278575228483438,66.7128,C,30039089000000,
Status,1732151155000,26,0,1,17,1575420030,0.00,117.0,80.0,0,0,0,0.0
Status,1732151155000,26,1,1,22,1575420030,0.00,0.0,68.0,0,0,0,0.0
Status,1732151155000,26,2,1,14,1575420030,0.00,45.0,57.0,0,0,0,0.0
Status,1732151155000,26,3,1,19,1575420030,25.00,198.0,55.0,1,0,0,20.0
Status,1732151155000,26,4,1,13,1575420030,25.30,242.0,51.0,1,0,0,20.3
Status,1732151155000,26,5,1,30,1575420030,26.80,127.0,42.0,1,0,0,21.8
Status,1732151155000,26,6,1,15,1575420030,0.00,282.0,31.0,0,0,0,0.0
Status,1732151155000,26,7,1,2,1575420030,0.00,52.0,19.0,0,0,0,0.0
Status,1732151155000,26,8,1,24,1575420030,0.00,312.0,11.0,0,0,0,0.0
Status,1732151155000,26,9,1,7,1575420030,27.00,129.0,9.0,1,0,0,22.0
Status,1732151155000,26,10,1,21,1575420030,23.10,37.0,7.0,1,0,0,18.1
Status,1732151155000,26,11,1,6,1575420030,0.00,164.0,7.0,0,0,0,0.0
Status,1732151155000,26,12,3,20,1602000000,0.00,123.0,48.0,0,0,0,0.0
Status,1732151155000,26,13,3,9,1602000000,0.00,73.0,37.0,0,0,0,0.0
Status,1732151155000,26,14,3,19,1602000000,0.00,38.0,28.0,0,0,0,0.0
Status,1732151155000,26,15,3,8,1602000000,0.00,252.0,27.0,0,0,0,0.0
Status,1732151155000,26,16,3,11,1602000000,20.90,305.0,24.0,0,0,0,15.9
Status,1732151155000,26,17,6,21,1575420030,0.00,331.0,67.0,0,0,0,0.0
Status,1732151155000,26,18,6,19,1575420030,0.00,249.0,49.0,0,0,0,0.0
Status,1732151155000,26,19,6,27,1575420030,0.00,60.0,37.0,0,0,0,0.0
Status,1732151155000,26,20,6,29,1575420030,0.00,192.0,30.0,0,0,0,0.0
Status,1732151155000,26,21,6,13,1575420030,28.60,124.0,25.0,1,0,0,23.6
Status,1732151155000,26,22,6,15,1575420030,0.00,67.0,23.0,0,0,0,0.0
Status,1732151155000,26,23,6,4,1575420030,0.00,315.0,21.0,0,0,0,0.0
Status,1732151155000,26,24,6,6,1575420030,0.00,329.0,2.0,0,0,0,0.0
Status,1732151155000,26,25,6,26,1575420030,0.00,169.0,2.0,0,0,0,0.0
Fix,GPS,37.4252916667,-122.1582250000,-0.8999999999999986,0.0,6.1,0.0,1732151156000,2.1,70.7,30040089000000,46.9,0,,,
Raw,1732151155999,24947000000,,703012.4424444326,-1416186349052999936,0.0,95.51367450043935,1427.520496859458,0.0,0,19,0.0,16431,349573929749612,797,19.988000869750977,-24.474293659711577,0.14999,16,0.0,0.0,1575420030,,,,0,1.3095114681491191,1,6.0,19.988000869750977,0.0,0.0,0.0,66.7128,C,30040089000000,
Raw,1732151155999,24947000000,,703012.4424444326,-1416186349052999936,0.0,95.51367450043935,1427.520496859458,0.0,0,7,0.0,16431,349573918687893,487,22.000999450683594,1036.1847284507464,0.14999,16,0.0,0.0,1575420030,,,,0,5.53966979371187,1,6.0,22.000999450683594,0.0,0.0,0.0,66.7128,C,30040089000000,
Raw,1732151155999,24947000000,,703012.4424444326,-1416186349052999936,0.0,95.51367450043935,1427.520496859458,0.0,0,13,0.0,16431,349573912285436,316,23.600000381469727,-46.098177651241784,0.14999,16,0.0,0.0,1575420030,,,,0,9.279658331169598,6,6.0,23.600000381469727,0.0,0.0,-19.431473330490505,66.7128,C,30040089000000,
Raw,1732151155999,24947000000,,703012.4424444326,-1416186349052999936,0.0,95.51367450043935,1427.520496859458,0.0,0,30,0.0,16431,349573927328250,396,21.757999420166016,884.5901730211006,0.14999,16,0.0,0.0,1575420030,,,,0,5.183640870759897,1,6.0,21.757999420166016,0.0,0.0,0.0,66.7128,C,30040089000000,
Raw,1732151155999,24947000000,,703012.4424444326,-1416186349052999936,0.0,95.51367450043935,1427.520496859458,0.0,0,13,0.0,16431,349573929814008,487,20.29599952697754,712.4102185774786,0.14999,16,0.0,0.0,1575420030,,,,0,1.6436253382061734,1,6.0,20.29599952697754,0.0,0.0,0.0,66.7128,C,30040089000000,
Raw,1732151155999,24947000000,,703012.4424444326,-1416186349052999936,0.0,95.51367450043935,1427.520496859458,0.0,0,11,0.0,17,984894,487,18.0,-50.30523395591631,0.14999,16,0.0,0.0,1602000000,,,,0,0.0,3,6.0,18.0,0.0,0.0,-9.278575228483438,66.7128,C,30040089000000,
Raw,1732151155999,24947000000,,703012.4424444326,-1416186349052999936,0.0,95.51367450043935,1427.520496859458,0.0,0,21,0.0,16431,349573916286465,487,18.097999572753906,899.9961555038448,0.14999,16,0.0,0.0,1575420030,,,,0,0.0,1,6.0,18.097999572753906,0.0,0.0,0.0,66.7128,C,30040089000000,
Fix,FLP,37.4254350000,-122.1581990000,3.124032408011357,0.7238745,6.4,180.0,1732151156241,2.1,70.7,30040089000000,11.619472,0,,,
Status,1732151156000,26,0,1,17,1575420030,0.00,117.0,80.0,0,0,0,0.0
Status,1732151156000,26,1,1,22,1575420030,0.00,0.0,68.0,0,0,0,0.0
Status,1732151156000,26,2,1,14,1575420030,0.00,45.0,57.0,0,0,0,0.0
Status,1732151156000,26,3,1,19,1575420030,25.00,198.0,55.0,1,0,0,20.0
Status,1732151156000,26,4,1,13,1575420030,25.20,242.0,51.0,1,0,0,20.2
Status,1732151156000,26,5,1,30,1575420030,27.20,127.0,42.0,1,0,0,22.2
Status,1732151156000,26,6,1,15,1575420030,0.00,282.0,31.0,0,0,0,0.0
Status,1732151156000,26,7,1,2,1575420030,0.00,52.0,19.0,0,0,0,0.0
Status,1732151156000,26,8,1,24,1575420030,0.00,312.0,11.0,0,0,0,0.0
Status,1732151156000,26,9,1,7,1575420030,26.90,129.0,9.0,1,0,0,21.9
Status,1732151156000,26,10,1,21,1575420030,0.00,37.0,7.0,0,0,0,0.0
Status,1732151156000,26,11,1,6,1575420030,0.00,164.0,7.0,0,0,0,0.0
Status,1732151156000,26,12,3,20,1602000000,0.00,123.0,48.0,0,0,0,0.0
Status,1732151156000,26,13,3,9,1602000000,0.00,73.0,37.0,0,0,0,0.0
Status,1732151156000,26,14,3,19,1602000000,0.00,38.0,28.0,0,0,0,0.0
Status,1732151156000,26,15,3,8,1602000000,0.00,252.0,27.0,0,0,0,0.0
Status,1732151156000,26,16,3,11,1602000000,21.00,305.0,24.0,0,0,0,16.0
Status,1732151156000,26,17,6,21,1575420030,0.00,331.0,67.0,0,0,0,0.0
Status,1732151156000,26,18,6,19,1575420030,0.00,249.0,49.0,0,0,0,0.0
Status,1732151156000,26,19,6,27,1575420030,0.00,60.0,37.0,0,0,0,0.0
Status,1732151156000,26,20,6,29,1575420030,0.00,192.0,30.0,0,0,0,0.0
Status,1732151156000,26,21,6,13,1575420030,28.30,124.0,25.0,1,0,0,23.3
Status,1732151156000,26,22,6,15,1575420030,0.00,67.0,23.0,0,0,0,0.0
Status,1732151156000,26,23,6,4,1575420030,0.00,315.0,21.0,0,0,0,0.0
Status,1732151156000,26,24,6,6,1575420030,0.00,329.0,2.0,0,0,0,0.0
Status,1732151156000,26,25,6,26,1575420030,0.00,169.0,2.0,0,0,0,0.0
Fix,GPS,37.4252866667,-122.1582100000,-0.8000000000000007,0.0,6.1,0.0,1732151157000,2.1,66.9,30041089000000,47.5,0,,,
Raw,1732151156999,25947000000,,702958.7594728618,-1416186349052999936,0.0,96.10431214192113,1426.6008644462036,0.0,0,19,0.0,16431,349574929749694,797,19.959999084472656,-25.18993910301871,0.14999,16,0.0,0.0,1575420030,,,,0,1.3095114681491191,1,6.0,19.959999084472656,0.0,0.0,0.0,66.7128,C,30041089000000,
Raw,1732151156999,25947000000,,702958.7594728618,-1416186349052999936,0.0,96.10431214192113,1426.6008644462036,0.0,0,7,0.0,16431,349574918684432,487,21.895000457763672,1036.275972780184,0.14999,16,0.0,0.0,1575420030,,,,0,2.0700122747488092,1,6.0,21.895000457763672,0.0,0.0,0.0,66.7128,C,30041089000000,
Raw,1732151156999,25947000000,,702958.7594728618,-1416186349052999936,0.0,96.10431214192113,1426.6008644462036,0.0,0,13,0.0,16431,349574912285592,316,23.299999237060547,-46.102405367116944,0.14999,16,0.0,0.0,1575420030,,,,0,8.95621017497835,6,6.0,23.299999237060547,0.0,0.0,-19.431473330490505,66.7128,C,30041089000000,
Raw,1732151156999,25947000000,,702958.7594728618,-1416186349052999936,0.0,96.10431214192113,1426.6008644462036,0.0,0,30,0.0,16431,349574927325298,487,22.243999481201172,884.4970703550147,0.14999,16,0.0,0.0,1575420030,,,,0,5.948492998562763,1,6.0,22.243999481201172,0.0,0.0,0.0,66.7128,C,30041089000000,
Raw,1732151156999,25947000000,,702958.7594728618,-1416186349052999936,0.0,96.10431214192113,1426.6008644462036,0.0,0,13,0.0,16431,349574929811666,487,20.246000289916992,712.239483897905,0.14999,16,0.0,0.0,1575420030,,,,0,1.0794082200426236,1,6.0,20.246000289916992,0.0,0.0,0.0,66.7128,C,30041089000000,
Raw,1732151156999,25947000000,,702958.7594728618,-1416186349052999936,0.0,96.10431214192113,1426.6008644462036,0.0,0,11,0.0,17,985058,487,19.0,-51.00946245746162,0.14999,16,0.0,0.0,1602000000,,,,0,0.9176003468815042,3,6.0,19.0,0.0,0.0,-9.278575228483438,66.7128,C,30041089000000,
Fix,FLP,37.4253686000,-122.1582032000,3.3958371554436217,1.1181703,6.357,180.0,1732151157242,2.1,66.9,30041089000000,12.338171,0,,,
Status,1732151157000,26,0,1,17,1575420030,0.00,117.0,80.0,0,0,0,0.0
Status,1732151157000,26,1,1,22,1575420030,0.00,0.0,68.0,0,0,0,0.0
Status,1732151157000,26,2,1,14,1575420030,0.00,45.0,57.0,0,0,0,0.0
Status,1732151157000,26,3,1,19,1575420030,24.90,198.0,55.0,1,0,0,19.9
Status,1732151157000,26,4,1,13,1575420030,25.20,242.0,51.0,1,0,0,20.2
Status,1732151157000,26,5,1,30,1575420030,27.30,127.0,42.0,1,0,0,22.3
Status,1732151157000,26,6,1,15,1575420030,0.00,282.0,31.0,0,0,0,0.0
Status,1732151157000,26,7,1,2,1575420030,0.00,52.0,19.0,0,0,0,0.0
Status,1732151157000,26,8,1,24,1575420030,0.00,312.0,11.0,0,0,0,0.0
Status,1732151157000,26,9,1,7,1575420030,26.80,129.0,9.0,1,0,0,21.8
Status,1732151157000,26,10,1,21,1575420030,0.00,37.0,7.0,0,0,0,0.0
Status,1732151157000,26,11,1,6,1575420030,0.00,164.0,7.0,0,0,0,0.0
Status,1732151157000,26,12,3,20,1602000000,0.00,123.0,48.0,0,0,0,0.0
Status,1732151157000,26,13,3,9,1602000000,0.00,73.0,37.0,0,0,0,0.0
Status,1732151157000,26,14,3,19,1602000000,0.00,38.0,28.0,0,0,0,0.0
Status,1732151157000,26,15,3,8,1602000000,23.10,252.0,27.0,1,0,0,18.1
Status,1732151157000,26,16,3,11,1602000000,21.10,305.0,24.0,0,0,0,16.1
Status,1732151157000,26,17,6,21,1575420030,0.00,331.0,67.0,0,0,0,0.0
Status,1732151157000,26,18,6,19,1575420030,0.00,249.0,49.0,0,0,0,0.0
Status,1732151157000,26,19,6,27,1575420030,0.00,60.0,37.0,0,0,0,0.0
Status,1732151157000,26,20,6,29,1575420030,0.00,192.0,30.0,0,0,0,0.0
Status,1732151157000,26,21,6,13,1575420030,0.00,124.0,25.0,0,0,0,0.0
Status,1732151157000,26,22,6,15,1575420030,0.00,67.0,23.0,0,0,0,0.0
Status,1732151157000,26,23,6,4,1575420030,0.00,315.0,21.0,0,0,0,0.0
Status,1732151157000,26,24,6,6,1575420030,0.00,329.0,2.0,0,0,0,0.0
Status,1732151157000,26,25,6,26,1575420030,0.00,169.0,2.0,0,0,0,0.0
Fix,GPS,37.4252783333,-122.1581966667,-0.8000000000000007,0.0,6.1,0.0,1732151158000,2.1,63.6,30042089000000,48.0,0,,,
Fix,FLP,37.4253246000,-122.1582007000,3.124032408011357,1.1709589,6.314,180.0,1732151158241,2.1,63.6,30042089000000,11.834309,0,,,
Raw,1732151157999,26947000000,,702903.2523226452,-1416186349052999936,0.0,96.70201185893526,1426.2566747416884,0.0,0,19,0.0,16431,349575929749790,797,19.865999221801758,-24.77757420073397,0.14999,16,0.0,0.0,1575420030,,,,0,0.0,1,6.0,19.865999221801758,0.0,0.0,0.0,66.7128,C,30042089000000,
Raw,1732151157999,26947000000,,702903.2523226452,-1416186349052999936,0.0,96.70201185893526,1426.2566747416884,0.0,0,7,0.0,16431,349575918680975,487,21.844999313354492,1035.629643293863,0.14999,16,0.0,0.0,1575420030,,,,0,3.765603610061402,1,6.0,21.844999313354492,0.0,0.0,0.0,66.7128,C,30042089000000,
Raw,1732151157999,26947000000,,702903.2523226452,-1416186349052999936,0.0,96.70201185893526,1426.2566747416884,0.0,0,30,0.0,16431,349575927322346,396,22.320999145507812,884.4938182658799,0.14999,16,0.0,0.0,1575420030,,,,0,8.321565252652553,1,6.0,22.320999145507812,0.0,0.0,0.0,66.7128,C,30042089000000,
Raw,1732151157999,26947000000,,702903.2523226452,-1416186349052999936,0.0,96.70201185893526,1426.2566747416884,0.0,0,13,0.0,16431,349575929809294,797,20.18899917602539,712.5627880163141,0.14999,16,0.0,0.0,1575420030,,,,0,0.7224036010983799,1,6.0,20.18899917602539,0.0,0.0,0.0,66.7128,C,30042089000000,
Raw,1732151157999,26947000000,,702903.2523226452,-1416186349052999936,0.0,96.70201185893526,1426.2566747416884,0.0,0,8,0.0,17,45430,487,5.0,939.4392070440974,0.14999,16,0.0,0.0,1605374980,,,,0,1.0573227640948248,3,6.0,18.0,0.0,0.0,-9.278575228483438,66.7128,C,30042089000000,
Raw,1732151157999,26947000000,,702903.2523226452,-1416186349052999936,0.0,96.70201185893526,1426.2566747416884,0.0,0,11,0.0,17,985221,797,18.100000381469727,-49.054673261463336,0.14999,16,0.0,0.0,1602000000,,,,0,0.9176003468815042,3,6.0,18.100000381469727,0.0,0.0,-9.278575228483438,66.7128,C,30042089000000,
Status,1732151158000,26,0,1,17,1575420030,0.00,117.0,80.0,0,0,0,0.0
Status,1732151158000,26,1,1,22,1575420030,0.00,0.0,68.0,0,0,0,0.0
Status,1732151158000,26,2,1,14,1575420030,0.00,45.0,57.0,0,0,0,0.0
Status,1732151158000,26,3,1,19,1575420030,24.80,198.0,55.0,1,0,0,19.8
Status,1732151158000,26,4,1,13,1575420030,25.10,242.0,51.0,1,0,0,20.1
Status,1732151158000,26,5,1,30,1575420030,27.30,127.0,42.0,1,0,0,22.3
Status,1732151158000,26,6,1,15,1575420030,22.70,282.0,31.0,1,0,0,17.7
Status,1732151158000,26,7,1,2,1575420030,0.00,52.0,19.0,0,0,0,0.0
Status,1732151158000,26,8,1,24,1575420030,0.00,312.0,11.0,0,0,0,0.0
Status,1732151158000,26,9,1,7,1575420030,26.90,129.0,9.0,1,0,0,21.9
Status,1732151158000,26,10,1,21,1575420030,0.00,37.0,7.0,0,0,0,0.0
Status,1732151158000,26,11,1,6,1575420030,0.00,164.0,7.0,0,0,0,0.0
Status,1732151158000,26,12,3,20,1602000000,0.00,123.0,48.0,0,0,0,0.0
Status,1732151158000,26,13,3,9,1602000000,0.00,73.0,37.0,0,0,0,0.0
Status,1732151158000,26,14,3,19,1602000000,0.00,38.0,28.0,0,0,0,0.0
Status,1732151158000,26,15,3,8,1602000000,24.30,252.0,27.0,1,0,0,19.3
Status,1732151158000,26,16,3,11,1602000000,26.10,305.0,24.0,0,0,0,21.1
Status,1732151158000,26,17,6,21,1575420030,0.00,331.0,67.0,0,0,0,0.0
Status,1732151158000,26,18,6,19,1575420030,0.00,249.0,49.0,0,0,0,0.0
Status,1732151158000,26,19,6,27,1575420030,0.00,60.0,37.0,0,0,0,0.0
Status,1732151158000,26,20,6,29,1575420030,0.00,192.0,30.0,0,0,0,0.0
Status,1732151158000,26,21,6,13,1575420030,0.00,124.0,25.0,0,0,0,0.0
Status,1732151158000,26,22,6,15,1575420030,0.00,67.0,23.0,0,0,0,0.0
Status,1732151158000,26,23,6,4,1575420030,0.00,315.0,21.0,0,0,0,0.0
Status,1732151158000,26,24,6,6,1575420030,0.00,329.0,2.0,0,0,0,0.0
Status,1732151158000,26,25,6,26,1575420030,0.00,169.0,2.0,0,0,0,0.0
Fix,GPS,37.4252716667,-122.1581833333,-0.8000000000000007,0.0,6.2,0.0,1732151159000,2.1,61.4,30043089000000,48.4,0,,,
Fix,FLP,37.4252972000,-122.1581941000,2.821193972166138,1.0227071,6.285,180.0,1732151159241,2.1,61.4,30043089000000,10.845921,0,,,
Raw,1732151158999,27947000000,,702845.5561580538,-1416186349052999936,0.0,97.324167988874,1426.6385068506527,0.0,0,19,0.0,16431,349576929749872,797,19.777000427246094,-24.56614194855981,0.14999,16,0.0,0.0,1575420030,,,,0,0.0,1,6.0,19.777000427246094,0.0,0.0,0.0,66.7128,C,30043089000000,
Raw,1732151158999,27947000000,,702845.5561580538,-1416186349052999936,0.0,97.324167988874,1426.6385068506527,0.0,0,7,0.0,16431,349576918677524,396,21.86400032043457,1035.9568963776499,0.14999,16,0.0,0.0,1575420030,,,,0,5.948492998562763,1,6.0,21.86400032043457,0.0,0.0,0.0,66.7128,C,30043089000000,
Raw,1732151158999,27947000000,,702845.5561580538,-1416186349052999936,0.0,97.324167988874,1426.6385068506527,0.0,0,15,0.0,16431,349576925312781,797,17.714000701904297,506.5019185491681,0.14999,16,0.0,0.0,1575420030,,,,0,0.0,1,6.0,17.714000701904297,0.0,0.0,0.0,66.7128,C,30043089000000,
Raw,1732151158999,27947000000,,702845.5561580538,-1416186349052999936,0.0,97.324167988874,1426.6385068506527,0.0,0,30,0.0,16431,349576927319396,396,22.332000732421875,885.092946001331,0.14999,16,0.0,0.0,1575420030,,,,0,6.402336728402396,1,6.0,22.332000732421875,0.0,0.0,0.0,66.7128,C,30043089000000,
Raw,1732151158999,27947000000,,702845.5561580538,-1416186349052999936,0.0,97.324167988874,1426.6385068506527,0.0,0,13,0.0,16431,349576929806917,797,20.135000228881836,712.3903808337568,0.14999,16,0.0,0.0,1575420030,,,,0,0.7224036010983799,1,6.0,20.135000228881836,0.0,0.0,0.0,66.7128,C,30043089000000,
Raw,1732151158999,27947000000,,702845.5561580538,-1416186349052999936,0.0,97.324167988874,1426.6385068506527,0.0,0,8,0.0,17,42297,797,5.0,939.1690315797595,0.14999,16,0.0,0.0,1605374980,,,,0,3.03240583822336,3,6.0,17.0,0.0,0.0,8.315166346245045,66.7128,C,30043089000000,
Raw,1732151158999,27947000000,,702845.5561580538,-1416186349052999936,0.0,97.324167988874,1426.6385068506527,0.0,0,11,0.0,17,985408,396,19.299999237060547,-45.916301376933006,0.14999,16,0.0,0.0,1602000000,,,,0,5.887619234637436,3,6.0,19.299999237060547,0.0,0.0,8.315166346245045,66.7128,C,30043089000000,
Fix,FLP,37.4252880000,-122.1581908000,2.5814426008590194,0.8419388,6.242,180.0,1732151159512,2.1,61.4,30043359000000,10.803619,0,,,
Fix,NLP,37.4256394000,-122.1581053000,-0.4000000059604645,,24.334,,1732151159512,,,30043359000000,40.119537,0,,,
Status,1732151159000,27,0,1,17,1575420030,0.00,117.0,80.0,0,0,0,0.0
Status,1732151159000,27,1,1,22,1575420030,0.00,0.0,68.0,0,0,0,0.0
Status,1732151159000,27,2,1,14,1575420030,0.00,45.0,57.0,0,0,0,0.0
Status,1732151159000,27,3,1,19,1575420030,24.70,198.0,55.0,1,0,0,19.7
Status,1732151159000,27,4,1,13,1575420030,19.50,242.0,51.0,1,0,0,14.5
Status,1732151159000,27,5,2,133,1575420030,0.00,191.0,45.0,0,0,0,0.0
Status,1732151159000,27,6,1,30,1575420030,27.40,127.0,42.0,1,0,0,22.4
Status,1732151159000,27,7,1,15,1575420030,22.90,282.0,31.0,1,0,0,17.9
Status,1732151159000,27,8,1,2,1575420030,0.00,52.0,19.0,0,0,0,0.0
Status,1732151159000,27,9,1,24,1575420030,0.00,312.0,11.0,0,0,0,0.0
Status,1732151159000,27,10,1,7,1575420030,30.10,129.0,9.0,1,0,0,25.1
Status,1732151159000,27,11,1,21,1575420030,0.00,37.0,7.0,0,0,0,0.0
Status,1732151159000,27,12,1,6,1575420030,0.00,164.0,7.0,0,0,0,0.0
Status,1732151159000,27,13,3,20,1602000000,0.00,123.0,48.0,0,0,0,0.0
Status,1732151159000,27,14,3,9,1602000000,0.00,73.0,37.0,0,0,0,0.0
Status,1732151159000,27,15,3,19,1602000000,0.00,38.0,28.0,0,0,0,0.0
Status,1732151159000,27,16,3,8,1602000000,19.40,252.0,27.0,1,0,0,14.4
Status,1732151159000,27,17,3,11,1602000000,31.00,305.0,24.0,0,0,0,26.0
Status,1732151159000,27,18,6,21,1575420030,0.00,331.0,67.0,0,0,0,0.0
Status,1732151159000,27,19,6,19,1575420030,0.00,249.0,49.0,0,0,0,0.0
Status,1732151159000,27,20,6,27,1575420030,0.00,60.0,37.0,0,0,0,0.0
Status,1732151159000,27,21,6,29,1575420030,0.00,192.0,30.0,0,0,0,0.0
Status,1732151159000,27,22,6,13,1575420030,0.00,124.0,25.0,0,0,0,0.0
Status,1732151159000,27,23,6,15,1575420030,0.00,67.0,23.0,0,0,0,0.0
Status,1732151159000,27,24,6,4,1575420030,0.00,315.0,21.0,0,0,0,0.0
Status,1732151159000,27,25,6,6,1575420030,0.00,329.0,2.0,0,0,0,0.0
Status,1732151159000,27,26,6,26,1575420030,0.00,169.0,2.0,0,0,0,0.0
Fix,GPS,37.4252666667,-122.1581750000,-0.8000000000000007,0.0,6.2,0.0,1732151160000,2.1,60.7,30044089000000,48.8,0,,,
Raw,1732151159999,28947000000,,702785.1497851891,-1416186349052999936,0.0,97.65913304716425,1426.347833504149,0.0,0,19,0.0,16431,349577929749954,487,19.69300079345703,-24.104112999346007,0.14999,16,0.0,0.0,1575420030,,,,0,0.0,1,6.0,19.69300079345703,0.0,0.0,0.0,66.7128,C,30044089000000,
Raw,1732151159999,28947000000,,702785.1497851891,-1416186349052999936,0.0,97.65913304716425,1426.347833504149,0.0,0,7,0.0,16431,349577918674068,316,25.075000762939453,1035.9457463577594,0.14999,16,0.0,0.0,1575420030,,,,0,10.14249019929799,1,6.0,25.075000762939453,0.0,0.0,0.0,66.7128,C,30044089000000,
Raw,1732151159999,28947000000,,702785.1497851891,-1416186349052999936,0.0,97.65913304716425,1426.347833504149,0.0,0,15,0.0,16431,349577925311041,487,17.871000289916992,506.6530013186848,0.14999,16,0.0,0.0,1575420030,,,,0,0.0,1,6.0,17.871000289916992,0.0,0.0,0.0,66.7128,C,30044089000000,
Raw,1732151159999,28947000000,,702785.1497851891,-1416186349052999936,0.0,97.65913304716425,1426.347833504149,0.0,0,30,0.0,16431,349577927316444,316,22.429000854492188,885.0950830884767,0.14999,16,0.0,0.0,1575420030,,,,0,9.00316104409806,1,6.0,22.429000854492188,0.0,0.0,0.0,66.7128,C,30044089000000,
Raw,1732151159999,28947000000,,702785.1497851891,-1416186349052999936,0.0,97.65913304716425,1426.347833504149,0.0,0,13,0.0,16431,349577929804540,797,14.5,711.9559946421882,0.14999,16,0.0,0.0,1575420030,,,,0,0.0,1,6.0,14.5,0.0,0.0,0.0,66.7128,C,30044089000000,
Raw,1732151159999,28947000000,,702785.1497851891,-1416186349052999936,0.0,97.65913304716425,1426.347833504149,0.0,0,8,0.0,17,39192,487,5.0,939.8177991898724,0.14999,16,0.0,0.0,1605374980,,,,0,0.0,3,6.0,18.0,0.0,0.0,11.22232197358583,66.7128,C,30044089000000,
Raw,1732151159999,28947000000,,702785.1497851891,-1416186349052999936,0.0,97.65913304716425,1426.347833504149,0.0,0,11,0.0,17,985623,316,14.399999618530273,-48.78603023635068,0.14999,16,0.0,0.0,1602000000,,,,0,12.272715550041042,3,6.0,14.399999618530273,0.0,0.0,11.22232197358583,66.7128,C,30044089000000,
Fix,FLP,37.4252777000,-122.1581857000,2.28524143237492,0.67821264,6.2,180.0,1732151160242,2.1,60.7,30044089000000,10.103991,0,,,
Status,1732151160000,27,0,1,17,1575420030,0.00,117.0,80.0,0,0,0,0.0
Status,1732151160000,27,1,1,22,1575420030,0.00,0.0,68.0,0,0,0,0.0
Status,1732151160000,27,2,1,14,1575420030,0.00,45.0,57.0,0,0,0,0.0
Status,1732151160000,27,3,1,19,1575420030,24.70,198.0,55.0,1,0,0,19.7
Status,1732151160000,27,4,1,13,1575420030,0.00,242.0,51.0,0,0,0,0.0
Status,1732151160000,27,5,2,133,1575420030,0.00,191.0,45.0,0,0,0,0.0
Status,1732151160000,27,6,1,30,1575420030,30.90,127.0,42.0,1,0,0,25.9
Status,1732151160000,27,7,1,15,1575420030,25.50,282.0,31.0,1,0,0,20.5
Status,1732151160000,27,8,1,2,1575420030,0.00,52.0,19.0,0,0,0,0.0
Status,1732151160000,27,9,1,24,1575420030,0.00,312.0,11.0,0,0,0,0.0
Status,1732151160000,27,10,1,7,1575420030,27.50,129.0,9.0,1,0,0,22.5
Status,1732151160000,27,11,1,21,1575420030,0.00,37.0,7.0,0,0,0,0.0
Status,1732151160000,27,12,1,6,1575420030,0.00,164.0,7.0,0,0,0,0.0
Status,1732151160000,27,13,3,20,1602000000,0.00,123.0,48.0,0,0,0,0.0
Status,1732151160000,27,14,3,9,1602000000,0.00,73.0,37.0,0,0,0,0.0
Status,1732151160000,27,15,3,19,1602000000,0.00,38.0,28.0,0,0,0,0.0
Status,1732151160000,27,16,3,8,1602000000,19.50,252.0,27.0,1,0,0,14.5
Status,1732151160000,27,17,3,11,1602000000,31.00,305.0,24.0,0,0,0,26.0
Status,1732151160000,27,18,6,21,1575420030,0.00,331.0,67.0,0,0,0,0.0
Status,1732151160000,27,19,6,19,1575420030,0.00,249.0,49.0,0,0,0,0.0
Status,1732151160000,27,20,6,27,1575420030,0.00,60.0,37.0,0,0,0,0.0
Status,1732151160000,27,21,6,29,1575420030,0.00,192.0,30.0,0,0,0,0.0
Status,1732151160000,27,22,6,13,1575420030,29.50,124.0,25.0,1,0,0,24.5
Status,1732151160000,27,23,6,15,1575420030,0.00,67.0,23.0,0,0,0,0.0
Status,1732151160000,27,24,6,4,1575420030,0.00,315.0,21.0,0,0,0,0.0
Status,1732151160000,27,25,6,6,1575420030,0.00,329.0,2.0,0,0,0,0.0
Status,1732151160000,27,26,6,26,1575420030,0.00,169.0,2.0,0,0,0,0.0
Fix,FLP,37.4252671000,-122.1581872000,2.3310853247309247,0.53997165,6.157,180.0,1732151161241,2.1,62.6,30045089000000,10.191486,0,,,
Fix,GPS,37.4252583333,-122.1581900000,-0.8000000000000007,0.0,6.2,0.0,1732151161000,2.1,62.6,30045089000000,49.0,0,,,
Raw,1732151160999,29947000000,,702737.2520658942,-1416186349052999936,0.0,98.34811168099142,1424.1035366141962,0.0,0,19,0.0,16431,349578929750033,487,19.70199966430664,-24.518429155111587,0.14999,16,0.0,0.0,1575420030,,,,0,2.0700122747488092,1,6.0,19.70199966430664,0.0,0.0,0.0,66.7128,C,30045089000000,
Raw,1732151160999,29947000000,,702737.2520658942,-1416186349052999936,0.0,98.34811168099142,1424.1035366141962,0.0,0,7,0.0,16431,349578918670612,396,22.509000778198242,1035.6884596487855,0.14999,16,0.0,0.0,1575420030,,,,0,6.338935792612265,1,6.0,22.509000778198242,0.0,0.0,0.0,66.7128,C,30045089000000,
Raw,1732151160999,29947000000,,702737.2520658942,-1416186349052999936,0.0,98.34811168099142,1424.1035366141962,0.0,0,15,0.0,16431,349578925309376,487,20.51799964904785,506.4850076856675,0.14999,16,0.0,0.0,1575420030,,,,0,3.1449189352620266,1,6.0,20.51799964904785,0.0,0.0,0.0,66.7128,C,30045089000000,
Raw,1732151160999,29947000000,,702737.2520658942,-1416186349052999936,0.0,98.34811168099142,1424.1035366141962,0.0,0,13,0.0,16431,349578912286199,316,24.5,-46.3468695532168,0.14999,16,0.0,0.0,1575420030,,,,0,10.504454641153913,6,6.0,24.5,0.0,0.0,-14.645708657047676,66.7128,C,30045089000000,
Raw,1732151160999,29947000000,,702737.2520658942,-1416186349052999936,0.0,98.34811168099142,1424.1035366141962,0.0,0,30,0.0,16431,349578927313492,316,25.871999740600586,884.4555365309225,0.14999,16,0.0,0.0,1575420030,,,,0,11.258584379273778,1,6.0,25.871999740600586,0.0,0.0,0.0,66.7128,C,30045089000000,
Raw,1732151160999,29947000000,,702737.2520658942,-1416186349052999936,0.0,98.34811168099142,1424.1035366141962,0.0,0,8,0.0,17,36081,797,5.0,936.8457778990755,0.14999,16,0.0,0.0,1605374980,,,,0,0.0,3,6.0,17.0,0.0,0.0,19.123580287877054,66.7128,C,30045089000000,
Raw,1732151160999,29947000000,,702737.2520658942,-1416186349052999936,0.0,98.34811168099142,1424.1035366141962,0.0,0,11,0.0,17,985797,316,14.510000228881836,-48.24732787085692,0.14999,16,0.0,0.0,1602000000,,,,0,11.560269706991495,3,6.0,14.510000228881836,0.0,0.0,19.123580287877054,66.7128,C,30045089000000,
Status,1732151161000,27,0,1,17,1575420030,0.00,117.0,80.0,0,0,0,0.0
Status,1732151161000,27,1,1,22,1575420030,0.00,0.0,68.0,0,0,0,0.0
Status,1732151161000,27,2,1,14,1575420030,0.00,45.0,57.0,0,0,0,0.0
Status,1732151161000,27,3,1,19,1575420030,24.70,198.0,55.0,1,0,0,19.7
Status,1732151161000,27,4,1,13,1575420030,0.00,242.0,51.0,0,0,0,0.0
Status,1732151161000,27,5,2,133,1575420030,0.00,191.0,45.0,0,0,0,0.0
Status,1732151161000,27,6,1,30,1575420030,29.40,127.0,42.0,1,0,0,24.4
Status,1732151161000,27,7,1,15,1575420030,25.10,282.0,31.0,1,0,0,20.1
Status,1732151161000,27,8,1,2,1575420030,0.00,52.0,19.0,0,0,0,0.0
Status,1732151161000,27,9,1,24,1575420030,0.00,312.0,11.0,0,0,0,0.0
Status,1732151161000,27,10,1,7,1575420030,27.50,129.0,9.0,1,0,0,22.5
Status,1732151161000,27,11,1,21,1575420030,0.00,37.0,7.0,0,0,0,0.0
Status,1732151161000,27,12,1,6,1575420030,0.00,164.0,7.0,0,0,0,0.0
Status,1732151161000,27,13,3,20,1602000000,0.00,123.0,48.0,0,0,0,0.0
Status,1732151161000,27,14,3,9,1602000000,0.00,73.0,37.0,0,0,0,0.0
Status,1732151161000,27,15,3,19,1602000000,0.00,38.0,28.0,0,0,0,0.0
Status,1732151161000,27,16,3,8,1602000000,19.60,252.0,27.0,1,0,0,14.6
Status,1732151161000,27,17,3,11,1602000000,24.60,305.0,24.0,0,0,0,19.6
Status,1732151161000,27,18,6,21,1575420030,0.00,331.0,67.0,0,0,0,0.0
Status,1732151161000,27,19,6,19,1575420030,0.00,249.0,49.0,0,0,0,0.0
Status,1732151161000,27,20,6,27,1575420030,0.00,60.0,37.0,0,0,0,0.0
Status,1732151161000,27,21,6,29,1575420030,0.00,192.0,30.0,0,0,0,0.0
Status,1732151161000,27,22,6,13,1575420030,23.70,124.0,25.0,1,0,0,18.7
Status,1732151161000,27,23,6,15,1575420030,0.00,67.0,23.0,0,0,0,0.0
Status,1732151161000,27,24,6,4,1575420030,0.00,315.0,21.0,0,0,0,0.0
Status,1732151161000,27,25,6,6,1575420030,0.00,329.0,2.0,0,0,0,0.0
Status,1732151161000,27,26,6,26,1575420030,0.00,169.0,2.0,0,0,0,0.0
Fix,GPS,37.4252533333,-122.1581866667,-0.8000000000000007,0.0,6.3,0.0,1732151162000,2.1,62.3,30046089000000,49.2,0,,,
Fix,FLP,37.4252592000,-122.1581870000,2.7902210587689176,0.41775936,6.185,180.0,1732151162242,2.1,62.3,30046089000000,11.664066,0,,,
Raw,1732151161999,30947000000,,702711.2444903468,-1416186349052999936,0.0,98.95672262281452,1421.6159528989022,0.0,0,19,0.0,16431,349579929750090,797,19.739999771118164,-25.061806791110044,0.14999,16,0.0,0.0,1575420030,,,,0,3.052514982527123,1,6.0,19.739999771118164,0.0,0.0,0.0,66.7128,C,30046089000000,
Raw,1732151161999,30947000000,,702711.2444903468,-1416186349052999936,0.0,98.95672262281452,1421.6159528989022,0.0,0,7,0.0,16431,349579918667157,396,22.531999588012695,1034.9634296054037,0.14999,16,0.0,0.0,1575420030,,,,0,7.07081183814139,1,6.0,22.531999588012695,0.0,0.0,0.0,66.7128,C,30046089000000,
Raw,1732151161999,30947000000,,702711.2444903468,-1416186349052999936,0.0,98.95672262281452,1421.6159528989022,0.0,0,15,0.0,16431,349579925307706,487,20.106000900268555,505.6324028313717,0.14999,16,0.0,0.0,1575420030,,,,0,2.476443825523032,1,6.0,20.106000900268555,0.0,0.0,0.0,66.7128,C,30046089000000,
Raw,1732151161999,30947000000,,702711.2444903468,-1416186349052999936,0.0,98.95672262281452,1421.6159528989022,0.0,0,13,0.0,16431,349579912286377,487,18.700000762939453,-47.006300312909175,0.14999,16,0.0,0.0,1575420030,,,,0,2.1734169440706137,6,6.0,18.700000762939453,0.0,0.0,-14.826761288268377,66.7128,C,30046089000000,
Raw,1732151161999,30947000000,,702711.2444903468,-1416186349052999936,0.0,98.95672262281452,1421.6159528989022,0.0,0,30,0.0,16431,349579927310542,396,24.400999069213867,883.7229802241146,0.14999,16,0.0,0.0,1575420030,,,,0,9.18846705115859,1,6.0,24.400999069213867,0.0,0.0,0.0,66.7128,C,30046089000000,
Raw,1732151161999,30947000000,,702711.2444903468,-1416186349052999936,0.0,98.95672262281452,1421.6159528989022,0.0,0,8,0.0,17,32951,487,5.0,939.6862220062612,0.14999,16,0.0,0.0,1605374980,,,,0,0.0,3,6.0,19.0,0.0,0.0,23.0592787216983,66.7128,C,30046089000000,
Raw,1732151161999,30947000000,,702711.2444903468,-1416186349052999936,0.0,98.95672262281452,1421.6159528989022,0.0,0,11,0.0,17,985968,487,14.61400032043457,-49.34894702417602,0.14999,16,0.0,0.0,1602000000,,,,0,3.5489866570277653,3,6.0,14.61400032043457,0.0,0.0,23.0592787216983,66.7128,C,30046089000000,
Status,1732151162000,27,0,1,17,1575420030,0.00,117.0,80.0,0,0,0,0.0
Status,1732151162000,27,1,1,22,1575420030,0.00,0.0,68.0,0,0,0,0.0
Status,1732151162000,27,2,1,14,1575420030,0.00,45.0,57.0,0,0,0,0.0
Status,1732151162000,27,3,1,19,1575420030,24.80,198.0,55.0,1,0,0,19.8
Status,1732151162000,27,4,1,13,1575420030,0.00,242.0,51.0,0,0,0,0.0
Status,1732151162000,27,5,2,133,1575420030,0.00,191.0,45.0,0,0,0,0.0
Status,1732151162000,27,6,1,30,1575420030,29.40,127.0,42.0,1,0,0,24.4
Status,1732151162000,27,7,1,15,1575420030,25.10,282.0,31.0,1,0,0,20.1
Status,1732151162000,27,8,1,2,1575420030,0.00,52.0,19.0,0,0,0,0.0
Status,1732151162000,27,9,1,24,1575420030,0.00,312.0,11.0,0,0,0,0.0
Status,1732151162000,27,10,1,7,1575420030,27.40,129.0,9.0,1,0,0,22.4
Status,1732151162000,27,11,1,21,1575420030,0.00,37.0,7.0,0,0,0,0.0
Status,1732151162000,27,12,1,6,1575420030,0.00,164.0,7.0,0,0,0,0.0
Status,1732151162000,27,13,3,20,1602000000,0.00,123.0,48.0,0,0,0,0.0
Status,1732151162000,27,14,3,9,1602000000,0.00,73.0,37.0,0,0,0,0.0
Status,1732151162000,27,15,3,19,1602000000,0.00,38.0,28.0,0,0,0,0.0
Status,1732151162000,27,16,3,8,1602000000,24.40,252.0,27.0,1,0,0,19.4
Status,1732151162000,27,17,3,11,1602000000,24.60,305.0,24.0,0,0,0,19.6
Status,1732151162000,27,18,6,21,1575420030,0.00,331.0,67.0,0,0,0,0.0
Status,1732151162000,27,19,6,19,1575420030,0.00,249.0,49.0,0,0,0,0.0
Status,1732151162000,27,20,6,27,1575420030,0.00,60.0,37.0,0,0,0,0.0
Status,1732151162000,27,21,6,29,1575420030,0.00,192.0,30.0,0,0,0,0.0
Status,1732151162000,27,22,6,13,1575420030,21.70,124.0,25.0,1,0,0,16.7
Status,1732151162000,27,23,6,15,1575420030,0.00,67.0,23.0,0,0,0,0.0
Status,1732151162000,27,24,6,4,1575420030,0.00,315.0,21.0,0,0,0,0.0
Status,1732151162000,27,25,6,6,1575420030,0.00,329.0,2.0,0,0,0,0.0
Status,1732151162000,27,26,6,26,1575420030,0.00,169.0,2.0,0,0,0,0.0
Fix,GPS,37.4252516667,-122.1582016667,-0.8000000000000007,0.0,6.3,0.0,1732151163000,2.1,67.6,30047089000000,49.6,0,,,
Raw,1732151162999,31947000000,,99.8349585186782,-1416186349052999936,0.0,99.8349585186782,1418.097364084236,0.0,0,19,0.0,16431,349580929750172,797,19.775999069213867,-25.39124342045897,0.14999,16,0.0,0.0,1575420030,,,,0,3.052514982527123,1,6.0,19.775999069213867,0.0,0.0,0.0,66.7128,C,30047089000000,
Raw,1732151162999,31947000000,,99.8349585186782,-1416186349052999936,0.0,99.8349585186782,1418.097364084236,0.0,0,7,0.0,16431,349580918663705,487,22.44099998474121,1034.163787345588,0.14999,16,0.0,0.0,1575420030,,,,0,3.5050073750290016,1,6.0,22.44099998474121,0.0,0.0,0.0,66.7128,C,30047089000000,
Raw,1732151162999,31947000000,,99.8349585186782,-1416186349052999936,0.0,99.8349585186782,1418.097364084236,0.0,0,15,0.0,16431,349580925306019,487,20.106000900268555,504.7322245588763,0.14999,16,0.0,0.0,1575420030,,,,0,2.476443825523032,1,6.0,20.106000900268555,0.0,0.0,0.0,66.7128,C,30047089000000,
Raw,1732151162999,31947000000,,99.8349585186782,-1416186349052999936,0.0,99.8349585186782,1418.097364084236,0.0,0,13,0.0,16431,349580912286525,487,16.700000762939453,-47.65639293094324,0.14999,16,0.0,0.0,1575420030,,,,0,0.0,6,6.0,16.700000762939453,0.0,0.0,-15.357383945192984,66.7128,C,30047089000000,
Raw,1732151162999,31947000000,,99.8349585186782,-1416186349052999936,0.0,99.8349585186782,1418.097364084236,0.0,0,30,0.0,16431,349580927307595,797,24.400999069213867,882.9359746535082,0.14999,16,0.0,0.0,1575420030,,,,0,9.18846705115859,1,6.0,24.400999069213867,0.0,0.0,0.0,66.7128,C,30047089000000,
Raw,1732151162999,31947000000,,99.8349585186782,-1416186349052999936,0.0,99.8349585186782,1418.097364084236,0.0,0,8,0.0,17,29815,487,5.0,935.4843233401725,0.14999,16,0.0,0.0,1605374980,,,,0,3.2238821121618733,3,6.0,18.0,0.0,0.0,28.794812103266146,66.7128,C,30047089000000,
Raw,1732151162999,31947000000,,99.8349585186782,-1416186349052999936,0.0,99.8349585186782,1418.097364084236,0.0,0,11,0.0,17,986145,487,19.399999618530273,-51.23456520996673,0.14999,16,0.0,0.0,1602000000,,,,0,3.935089760935498,3,6.0,19.399999618530273,0.0,0.0,28.794812103266146,66.7128,C,30047089000000,
Fix,FLP,37.4252545000,-122.1581925000,2.873672660292095,0.30638817,6.214,180.0,1732151163241,2.1,67.6,30047089000000,11.737214,0,,,
Status,1732151163000,27,0,1,17,1575420030,0.00,117.0,80.0,0,0,0,0.0
Status,1732151163000,27,1,1,22,1575420030,0.00,0.0,68.0,0,0,0,0.0
Status,1732151163000,27,2,1,14,1575420030,0.00,45.0,57.0,0,0,0,0.0
Status,1732151163000,27,3,1,19,1575420030,21.50,198.0,55.0,1,0,0,16.5
Status,1732151163000,27,4,1,13,1575420030,0.00,242.0,51.0,0,0,0,0.0
Status,1732151163000,27,5,2,133,1575420030,0.00,191.0,45.0,0,0,0,0.0
Status,1732151163000,27,6,1,30,1575420030,29.40,127.0,42.0,1,0,0,24.4
Status,1732151163000,27,7,1,15,1575420030,24.10,282.0,31.0,1,0,0,19.1
Status,1732151163000,27,8,1,2,1575420030,0.00,52.0,19.0,0,0,0,0.0
Status,1732151163000,27,9,1,24,1575420030,0.00,312.0,11.0,0,0,0,0.0
Status,1732151163000,27,10,1,7,1575420030,27.50,129.0,9.0,1,0,0,22.5
Status,1732151163000,27,11,1,21,1575420030,0.00,37.0,7.0,0,0,0,0.0
Status,1732151163000,27,12,1,6,1575420030,0.00,164.0,7.0,0,0,0,0.0
Status,1732151163000,27,13,3,20,1602000000,0.00,123.0,48.0,0,0,0,0.0
Status,1732151163000,27,14,3,9,1602000000,0.00,73.0,37.0,0,0,0,0.0
Status,1732151163000,27,15,3,19,1602000000,0.00,38.0,28.0,0,0,0,0.0
Status,1732151163000,27,16,3,8,1602000000,21.50,252.0,27.0,1,0,0,16.5
Status,1732151163000,27,17,3,11,1602000000,24.60,305.0,24.0,0,0,0,19.6
Status,1732151163000,27,18,6,21,1575420030,0.00,331.0,67.0,0,0,0,0.0
Status,1732151163000,27,19,6,19,1575420030,0.00,249.0,49.0,0,0,0,0.0
Status,1732151163000,27,20,6,27,1575420030,0.00,60.0,37.0,0,0,0,0.0
Status,1732151163000,27,21,6,29,1575420030,0.00,192.0,30.0,0,0,0,0.0
Status,1732151163000,27,22,6,13,1575420030,0.00,124.0,25.0,0,0,0,0.0
Status,1732151163000,27,23,6,15,1575420030,0.00,67.0,23.0,0,0,0,0.0
Status,1732151163000,27,24,6,4,1575420030,0.00,315.0,21.0,0,0,0,0.0
Status,1732151163000,27,25,6,6,1575420030,0.00,329.0,2.0,0,0,0,0.0
Status,1732151163000,27,26,6,26,1575420030,0.00,169.0,2.0,0,0,0,0.0
Fix,GPS,37.4252533333,-122.1582133333,-0.8000000000000007,0.0,6.4,0.0,1732151164000,2.1,74.8,30048089000000,50.0,0,,,
Raw,1732151163999,32947000000,,100.88653337659468,-1416186349052999936,0.0,100.88653337659468,1415.4624503124317,0.0,0,19,0.0,16431,349581929750262,797,16.46299934387207,-25.9583148487248,0.14999,16,0.0,0.0,1575420030,,,,0,0.0,1,6.0,16.46299934387207,0.0,0.0,0.0,66.7128,C,30048089000000,
Raw,1732151163999,32947000000,,100.88653337659468,-1416186349052999936,0.0,100.88653337659468,1415.4624503124317,0.0,0,7,0.0,16431,349581918660251,396,22.533000946044922,1034.0394646238085,0.14999,16,0.0,0.0,1575420030,,,,0,9.00316104409806,1,6.0,22.533000946044922,0.0,0.0,0.0,66.7128,C,30048089000000,
Raw,1732151163999,32947000000,,100.88653337659468,-1416186349052999936,0.0,100.88653337659468,1415.4624503124317,0.0,0,15,0.0,16431,349581925304345,797,19.05699920654297,503.6126696450347,0.14999,16,0.0,0.0,1575420030,,,,0,0.6000651049047407,1,6.0,19.05699920654297,0.0,0.0,0.0,66.7128,C,30048089000000,
Raw,1732151163999,32947000000,,100.88653337659468,-1416186349052999936,0.0,100.88653337659468,1415.4624503124317,0.0,0,30,0.0,16431,349581927304650,797,24.400999069213867,882.4298566673106,0.14999,16,0.0,0.0,1575420030,,,,0,9.18846705115859,1,6.0,24.400999069213867,0.0,0.0,0.0,66.7128,C,30048089000000,
Raw,1732151163999,32947000000,,100.88653337659468,-1416186349052999936,0.0,100.88653337659468,1415.4624503124317,0.0,0,8,0.0,17,26691,797,5.0,935.2641162033598,0.14999,16,0.0,0.0,1605374980,,,,0,0.0,3,6.0,16.0,0.0,0.0,31.447217509688677,66.7128,C,30048089000000,
