# 
# Header Description:
# 
# Version: v3.1.0.3 Platform: 13 Manufacturer: samsung Model: SM-S135DL GNSS Hardware Model Name: MediaTek,MT6631,MTK_MNLD_default,MNL_VER_default
# 
# Raw,utcTimeMillis,TimeNanos,LeapSecond,TimeUncertaintyNanos,FullBiasNanos,BiasNanos,BiasUncertaintyNanos,DriftNanosPerSecond,DriftUncertaintyNanosPerSecond,HardwareClockDiscontinuityCount,Svid,TimeOffsetNanos,State,ReceivedSvTimeNanos,ReceivedSvTimeUncertaintyNanos,Cn0DbHz,PseudorangeRateMetersPerSecond,PseudorangeRateUncertaintyMetersPerSecond,AccumulatedDeltaRangeState,AccumulatedDeltaRangeMeters,AccumulatedDeltaRangeUncertaintyMeters,CarrierFrequencyHz,CarrierCycles,CarrierPhase,CarrierPhaseUncertainty,MultipathIndicator,SnrInDb,ConstellationType,AgcDb,BasebandCn0DbHz,FullInterSignalBiasNanos,FullInterSignalBiasUncertaintyNanos,SatelliteInterSignalBiasNanos,SatelliteInterSignalBiasUncertaintyNanos,CodeType,ChipsetElapsedRealtimeNanos,IsFullTracking
# 
# UncalAccel,utcTimeMillis,elapsedRealtimeNanos,UncalAccelXMps2,UncalAccelYMps2,UncalAccelZMps2,BiasXMps2,BiasYMps2,BiasZMps2
# 
# Accel,utcTimeMillis,elapsedRealtimeNanos,AccelXMps2,AccelYMps2,AccelZMps2
# 
# UncalGyro,utcTimeMillis,elapsedRealtimeNanos,UncalGyroXRadPerSec,UncalGyroYRadPerSec,UncalGyroZRadPerSec,DriftXRadPerSec,DriftYRadPerSec,DriftZRadPerSec
# 
# Gyro,utcTimeMillis,elapsedRealtimeNanos,GyroXRadPerSec,GyroYRadPerSec,GyroZRadPerSec
# 
# UncalMag,utcTimeMillis,elapsedRealtimeNanos,UncalMagXMicroT,UncalMagYMicroT,UncalMagZMicroT,BiasXMicroT,BiasYMicroT,BiasZMicroT
# 
# Mag,utcTimeMillis,elapsedRealtimeNanos,MagXMicroT,MagYMicroT,MagZMicroT
# 
# Pressure,utcTimeMillis,elapsedRealtimeNanos,PressureHpa
# 
# OrientationDeg,utcTimeMillis,elapsedRealtimeNanos,yawDeg,rollDeg,pitchDeg
# 
# Fix,Provider,LatitudeDegrees,LongitudeDegrees,AltitudeMeters,SpeedMps,AccuracyMeters,BearingDegrees,UnixTimeMillis,SpeedAccuracyMps,BearingAccuracyDegrees,elapsedRealtimeNanos,VerticalAccuracyMeters,MockLocation,NumberOfUsedSignals,VerticalSpeedAccuracyMps,SolutionType
# 
# Nav,Svid,Type,Status,MessageId,Sub-messageId,Data(Bytes)
# 
# Status,UnixTimeMillis,SignalCount,SignalIndex,ConstellationType,Svid,CarrierFrequencyHz,Cn0DbHz,AzimuthDegrees,ElevationDegrees,UsedInFix,HasAlmanacData,HasEphemerisData,BasebandCn0DbHz
# 
# Agc,utcTimeMillis,TimeNanos,LeapSecond,TimeUncertaintyNanos,FullBiasNanos,BiasNanos,BiasUncertaintyNanos,DriftNanosPerSecond,DriftUncertaintyNanosPerSecond,HardwareClockDiscontinuityCount,AgcDb,CarrierFrequencyHz,ConstellationType
# 
Fix,FLP,37.4255363000,-122.1582571000,5.400000095367432,0.21291783,6.457,0.000000047951875,1732151992245,1.9,179.9,30876093000000,14.990732,0,,,
Status,,27,0,1,17,1575420030,0.00,80.0,79.0,0,0,0,0.0
Status,,27,1,1,22,1575420030,0.00,15.0,66.0,0,0,0,0.0
Status,,27,2,1,19,1575420030,0.00,200.0,62.0,0,0,0,0.0
Status,,27,3,1,14,1575420030,0.00,53.0,52.0,0,0,0,0.0
Status,,27,4,1,13,1575420030,31.10,234.0,47.0,1,0,0,26.1
Status,,27,5,2,135,1575420030,0.00,197.0,45.0,0,0,0,0.0
Status,,27,6,1,30,1575420030,0.00,132.0,36.0,0,0,0,0.0
Status,,27,7,1,15,1575420030,23.50,274.0,30.0,1,0,0,18.5
Status,,27,8,1,2,1575420030,0.00,47.0,17.0,0,0,0,0.0
Status,,27,9,1,24,1575420030,0.00,313.0,17.0,0,0,0,0.0
Status,,27,10,1,6,1575420030,21.10,162.0,12.0,1,0,0,16.1
Status,,27,11,1,21,1575420030,0.00,33.0,4.0,0,0,0,0.0
Status,,27,12,1,7,1575420030,30.20,132.0,4.0,0,0,0,25.2
Status,,27,13,3,20,1602000000,0.00,113.0,54.0,0,0,0,0.0
Status,,27,14,3,9,1602000000,0.00,81.0,33.0,0,0,0,0.0
Status,,27,15,3,11,1602000000,0.00,311.0,28.0,0,0,0,0.0
Status,,27,16,3,19,1602000000,0.00,33.0,23.0,0,0,0,0.0
Status,,27,17,3,8,1602000000,23.50,246.0,22.0,1,0,0,18.5
Status,,27,18,6,21,1575420030,0.00,345.0,68.0,0,0,0,0.0
Status,,27,19,6,19,1575420030,0.00,242.0,46.0,0,0,0,0.0
Status,,27,20,6,27,1575420030,0.00,65.0,34.0,0,0,0,0.0
Status,,27,21,6,13,1575420030,0.00,120.0,29.0,0,0,0,0.0
Status,,27,22,6,15,1575420030,0.00,61.0,24.0,0,0,0,0.0
Status,,27,23,6,29,1575420030,0.00,191.0,24.0,0,0,0,0.0
Status,,27,24,6,4,1575420030,18.00,311.0,23.0,1,0,0,13.0
Status,,27,25,6,26,1575420030,0.00,167.0,6.0,0,0,0,0.0
Status,,27,26,6,6,1575420030,0.00,327.0,5.0,0,0,0,0.0
Fix,GPS,37.4255200000,-122.1582683333,23.8,0.0,5.9,0.0,1732151993000,1.9,160.4,30877093000000,70.8,0,,,
Raw,1732151992999,17927000000,,702517.1518824532,-1416187193072999936,0.0,136.9009299843368,1125.6616803401546,0.0,0,6,0.0,16431,350410918854736,797,16.059999465942383,-321.2645939374934,0.14999,16,0.0,0.0,1575420030,,,,0,0.0,1,6.0,16.059999465942383,0.0,0.0,0.0,66.7128,C,30877093000000,
Raw,1732151992999,17927000000,,702517.1518824532,-1416187193072999936,0.0,136.9009299843368,1125.6616803401546,0.0,0,7,0.0,16431,350410916884707,316,25.218000411987305,976.206820206109,0.14999,16,0.0,0.0,1575420030,,,,0,10.34977694850861,1,6.0,25.218000411987305,0.0,0.0,0.0,66.7128,C,30877093000000,
Raw,1732151992999,17927000000,,702517.1518824532,-1416187193072999936,0.0,136.9009299843368,1125.6616803401546,0.0,0,15,0.0,16431,350410924895817,487,18.509000778198242,517.6568630318156,0.14999,16,0.0,0.0,1575420030,,,,0,0.0,1,6.0,18.509000778198242,0.0,0.0,0.0,66.7128,C,30877093000000,
Raw,1732151992999,17927000000,,702517.1518824532,-1416187193072999936,0.0,136.9009299843368,1125.6616803401546,0.0,0,13,0.0,16431,350410928828589,396,26.06399917602539,713.686384812366,0.14999,16,0.0,0.0,1575420030,,,,0,11.496397365288892,1,6.0,26.06399917602539,0.0,0.0,0.0,66.7128,C,30877093000000,
Raw,1732151992999,17927000000,,702517.1518824532,-1416187193072999936,0.0,136.9009299843368,1125.6616803401546,0.0,0,4,0.0,16431,350410911640210,797,13.0,83.55481113682619,0.14999,16,0.0,0.0,1575420030,,,,0,0.0,6,6.0,13.0,0.0,0.0,-10.452285985442069,66.7128,C,30877093000000,
Raw,1732151992999,17927000000,,702517.1518824532,-1416187193072999936,0.0,136.9009299843368,1125.6616803401546,0.0,0,8,0.0,17,450316,396,5.0,923.737571950095,0.14999,16,0.0,0.0,1605374980,,,,0,3.1219099426333767,3,6.0,21.0,0.0,0.0,91.50004669133358,66.7128,C,30877093000000,
Fix,FLP,37.4255299000,-122.1582619000,5.400000095367432,0.17296496,6.314,0.0,1732151993245,1.9,160.4,30877093000000,14.423391,0,,,
Status,1732151993000,27,0,1,17,1575420030,0.00,80.0,79.0,0,0,0,0.0
Status,1732151993000,27,1,1,22,1575420030,0.00,15.0,66.0,0,0,0,0.0
Status,1732151993000,27,2,1,19,1575420030,0.00,200.0,62.0,0,0,0,0.0
Status,1732151993000,27,3,1,14,1575420030,0.00,53.0,52.0,0,0,0,0.0
Status,1732151993000,27,4,1,13,1575420030,30.40,234.0,47.0,1,0,0,25.4
Status,1732151993000,27,5,2,135,1575420030,0.00,197.0,45.0,0,0,0,0.0
Status,1732151993000,27,6,1,30,1575420030,26.90,132.0,36.0,1,0,0,21.9
Status,1732151993000,27,7,1,15,1575420030,28.70,274.0,30.0,1,0,0,23.7
Status,1732151993000,27,8,1,2,1575420030,0.00,47.0,17.0,0,0,0,0.0
Status,1732151993000,27,9,1,24,1575420030,0.00,313.0,17.0,0,0,0,0.0
Status,1732151993000,27,10,1,6,1575420030,21.20,162.0,12.0,1,0,0,16.2
Status,1732151993000,27,11,1,21,1575420030,0.00,33.0,4.0,0,0,0,0.0
Status,1732151993000,27,12,1,7,1575420030,33.70,132.0,4.0,0,0,0,28.7
Status,1732151993000,27,13,3,20,1602000000,0.00,113.0,54.0,0,0,0,0.0
Status,1732151993000,27,14,3,9,1602000000,0.00,81.0,33.0,0,0,0,0.0
Status,1732151993000,27,15,3,11,1602000000,0.00,311.0,28.0,0,0,0,0.0
Status,1732151993000,27,16,3,19,1602000000,0.00,33.0,23.0,0,0,0,0.0
Status,1732151993000,27,17,3,8,1602000000,23.60,246.0,22.0,1,0,0,18.6
Status,1732151993000,27,18,6,21,1575420030,0.00,345.0,68.0,0,0,0,0.0
Status,1732151993000,27,19,6,19,1575420030,0.00,242.0,46.0,0,0,0,0.0
Status,1732151993000,27,20,6,27,1575420030,0.00,65.0,34.0,0,0,0,0.0
Status,1732151993000,27,21,6,13,1575420030,0.00,120.0,29.0,0,0,0,0.0
Status,1732151993000,27,22,6,15,1575420030,0.00,61.0,24.0,0,0,0,0.0
Status,1732151993000,27,23,6,29,1575420030,0.00,191.0,24.0,0,0,0,0.0
Status,1732151993000,27,24,6,4,1575420030,18.00,311.0,23.0,1,0,0,13.0
Status,1732151993000,27,25,6,26,1575420030,0.00,167.0,6.0,0,0,0,0.0
Status,1732151993000,27,26,6,6,1575420030,0.00,327.0,5.0,0,0,0,0.0
Fix,GPS,37.4255066667,-122.1582550000,23.8,0.0,5.8,0.0,1732151994000,1.8,170.3,30878093000000,66.8,0,,,
Raw,1732151993999,18927000000,,702478.4792951662,-1416187193072999936,0.0,134.00916910959882,1126.563578981991,0.0,0,6,0.0,16431,350411918855807,487,16.159000396728516,-320.92145207536237,0.14999,16,0.0,0.0,1575420030,,,,0,0.0,1,6.0,16.159000396728516,0.0,0.0,0.0,66.7128,C,30878093000000,
Raw,1732151993999,18927000000,,702478.4792951662,-1416187193072999936,0.0,134.00916910959882,1126.563578981991,0.0,0,7,0.0,16431,350411916881448,235,28.72800064086914,976.0318578106602,0.14999,16,0.0,0.0,1575420030,,,,0,14.9873008703204,1,6.0,28.72800064086914,0.0,0.0,0.0,66.7128,C,30878093000000,
Raw,1732151993999,18927000000,,702478.4792951662,-1416187193072999936,0.0,134.00916910959882,1126.563578981991,0.0,0,15,0.0,16431,350411924893995,396,23.68000030517578,517.0517886190896,0.14999,16,0.0,0.0,1575420030,,,,0,8.14875417213085,1,6.0,23.68000030517578,0.0,0.0,0.0,66.7128,C,30878093000000,
Raw,1732151993999,18927000000,,702478.4792951662,-1416187193072999936,0.0,134.00916910959882,1126.563578981991,0.0,0,13,0.0,16431,350411928826064,316,25.40999984741211,713.3100251826444,0.14999,16,0.0,0.0,1575420030,,,,0,10.599747858488074,1,6.0,25.40999984741211,0.0,0.0,0.0,66.7128,C,30878093000000,
Raw,1732151993999,18927000000,,702478.4792951662,-1416187193072999936,0.0,134.00916910959882,1126.563578981991,0.0,0,4,0.0,16431,350411911639932,487,13.0,83.16089022577702,0.14999,16,0.0,0.0,1575420030,,,,0,0.0,6,6.0,13.0,0.0,0.0,-12.280199916771375,66.7128,C,30878093000000,
Raw,1732151993999,18927000000,,702478.4792951662,-1416187193072999936,0.0,134.00916910959882,1126.563578981991,0.0,0,8,0.0,17,447229,487,5.0,924.5906808412005,0.14999,16,0.0,0.0,1605374980,,,,0,4.16602731832385,3,6.0,20.0,0.0,0.0,86.26051699233648,66.7128,C,30878093000000,
Raw,1732151993999,18927000000,,702478.4792951662,-1416187193072999936,0.0,134.00916910959882,1126.563578981991,0.0,0,30,0.0,16431,350411925903620,396,21.924999237060547,854.0887361095635,0.14999,16,0.0,0.0,1575420030,,,,0,5.420058931507606,1,6.0,21.924999237060547,0.0,0.0,0.0,66.7128,C,30878093000000,
Fix,FLP,37.4255202000,-122.1582589000,5.400000095367432,0.124595515,6.185,0.00000007373625,1732151994245,1.8,170.3,30878093000000,11.201504,0,,,
Status,1732151994000,27,0,1,17,1575420030,0.00,80.0,79.0,0,0,0,0.0
Status,1732151994000,27,1,1,22,1575420030,0.00,15.0,66.0,0,0,0,0.0
Status,1732151994000,27,2,1,19,1575420030,0.00,200.0,62.0,0,0,0,0.0
Status,1732151994000,27,3,1,14,1575420030,0.00,53.0,52.0,0,0,0,0.0
Status,1732151994000,27,4,1,13,1575420030,28.90,234.0,47.0,1,0,0,23.9
Status,1732151994000,27,5,2,135,1575420030,0.00,197.0,45.0,0,0,0,0.0
Status,1732151994000,27,6,1,30,1575420030,30.70,132.0,36.0,1,0,0,25.7
Status,1732151994000,27,7,1,15,1575420030,28.70,274.0,30.0,1,0,0,23.7
Status,1732151994000,27,8,1,2,1575420030,0.00,47.0,17.0,0,0,0,0.0
Status,1732151994000,27,9,1,24,1575420030,0.00,313.0,17.0,0,0,0,0.0
Status,1732151994000,27,10,1,6,1575420030,21.20,162.0,12.0,1,0,0,16.2
Status,1732151994000,27,11,1,21,1575420030,0.00,33.0,4.0,0,0,0,0.0
Status,1732151994000,27,12,1,7,1575420030,32.30,132.0,4.0,0,0,0,27.3
Status,1732151994000,27,13,3,20,1602000000,0.00,113.0,54.0,0,0,0,0.0
Status,1732151994000,27,14,3,9,1602000000,0.00,81.0,33.0,0,0,0,0.0
Status,1732151994000,27,15,3,11,1602000000,0.00,311.0,28.0,0,0,0,0.0
Status,1732151994000,27,16,3,19,1602000000,0.00,33.0,23.0,0,0,0,0.0
Status,1732151994000,27,17,3,8,1602000000,23.50,246.0,22.0,1,0,0,18.5
Status,1732151994000,27,18,6,21,1575420030,0.00,345.0,68.0,0,0,0,0.0
Status,1732151994000,27,19,6,19,1575420030,0.00,242.0,46.0,0,0,0,0.0
Status,1732151994000,27,20,6,27,1575420030,0.00,65.0,34.0,0,0,0,0.0
Status,1732151994000,27,21,6,13,1575420030,0.00,120.0,29.0,0,0,0,0.0
Status,1732151994000,27,22,6,15,1575420030,0.00,61.0,24.0,0,0,0,0.0
Status,1732151994000,27,23,6,29,1575420030,0.00,191.0,24.0,0,0,0,0.0
Status,1732151994000,27,24,6,4,1575420030,18.10,311.0,23.0,1,0,0,13.1
Status,1732151994000,27,25,6,26,1575420030,0.00,167.0,6.0,0,0,0,0.0
Status,1732151994000,27,26,6,6,1575420030,0.00,327.0,5.0,0,0,0,0.0
Fix,GPS,37.4255150000,-122.1582050000,23.8,0.0,5.7,0.0,1732151995000,1.8,179.9,30879093000000,66.6,0,,,
Raw,1732151994999,19927000000,,702425.786592003,-1416187193072999936,0.0,131.61882832211737,1122.3039484948551,0.0,0,6,0.0,16431,350412918856888,487,16.22800064086914,-321.99222565218287,0.14999,16,0.0,0.0,1575420030,,,,0,0.0,1,6.0,16.22800064086914,0.0,0.0,0.0,66.7128,C,30879093000000,
Raw,1732151994999,19927000000,,702425.786592003,-1416187193072999936,0.0,131.61882832211737,1122.3039484948551,0.0,0,7,0.0,16431,350412916878193,235,27.256999969482422,974.5866293991827,0.14999,16,0.0,0.0,1575420030,,,,0,13.083108408014152,1,6.0,27.256999969482422,0.0,0.0,0.0,66.7128,C,30879093000000,
Raw,1732151994999,19927000000,,702425.786592003,-1416187193072999936,0.0,131.61882832211737,1122.3039484948551,0.0,0,15,0.0,16431,350412924892272,487,23.68000030517578,515.6295106652201,0.14999,16,0.0,0.0,1575420030,,,,0,8.14875417213085,1,6.0,23.68000030517578,0.0,0.0,0.0,66.7128,C,30879093000000,
Raw,1732151994999,19927000000,,702425.786592003,-1416187193072999936,0.0,131.61882832211737,1122.3039484948551,0.0,0,13,0.0,16431,350412928823734,396,23.881000518798828,712.251841836617,0.14999,16,0.0,0.0,1575420030,,,,0,8.416858469986714,1,6.0,23.881000518798828,0.0,0.0,0.0,66.7128,C,30879093000000,
Raw,1732151994999,19927000000,,702425.786592003,-1416187193072999936,0.0,131.61882832211737,1122.3039484948551,0.0,0,4,0.0,16431,350412911639649,487,13.100000381469727,81.27226268998622,0.14999,16,0.0,0.0,1575420030,,,,0,0.0,6,6.0,13.100000381469727,0.0,0.0,-11.762152200935185,66.7128,C,30879093000000,
Raw,1732151994999,19927000000,,702425.786592003,-1416187193072999936,0.0,131.61882832211737,1122.3039484948551,0.0,0,8,0.0,17,444144,487,5.0,922.9686250412992,0.14999,16,0.0,0.0,1605374980,,,,0,1.3238920834175727,3,6.0,18.0,0.0,0.0,80.92275253967449,66.7128,C,30879093000000,
Raw,1732151994999,19927000000,,702425.786592003,-1416187193072999936,0.0,131.61882832211737,1122.3039484948551,0.0,0,30,0.0,16431,350412925900852,316,25.652000427246094,853.1166402087741,0.14999,16,0.0,0.0,1575420030,,,,0,10.961712300343997,1,6.0,25.652000427246094,0.0,0.0,0.0,66.7128,C,30879093000000,
Fix,FLP,37.4255183000,-122.1582352000,5.400000095367432,0.108295836,6.0,0.00000085870533,1732151995245,1.8,179.9,30879093000000,10.939984,0,,,
Fix,NLP,37.4256152000,-122.1580598000,5.400000095367432,,39.568,,1732151995383,,,30879231000000,78.27498,0,,,
Status,1732151995000,27,0,1,17,1575420030,0.00,80.0,79.0,0,0,0,0.0
Status,1732151995000,27,1,1,22,1575420030,0.00,15.0,66.0,0,0,0,0.0
Status,1732151995000,27,2,1,19,1575420030,0.00,200.0,62.0,0,0,0,0.0
Status,1732151995000,27,3,1,14,1575420030,0.00,53.0,52.0,0,0,0,0.0
Status,1732151995000,27,4,1,13,1575420030,31.60,234.0,47.0,1,0,0,26.6
Status,1732151995000,27,5,2,135,1575420030,0.00,197.0,45.0,0,0,0,0.0
Status,1732151995000,27,6,1,30,1575420030,30.90,132.0,36.0,1,0,0,25.9
Status,1732151995000,27,7,1,15,1575420030,25.00,274.0,30.0,1,0,0,20.0
Status,1732151995000,27,8,1,2,1575420030,21.80,47.0,17.0,1,0,0,16.8
Status,1732151995000,27,9,1,24,1575420030,0.00,313.0,17.0,0,0,0,0.0
Status,1732151995000,27,10,1,6,1575420030,25.90,162.0,12.0,1,0,0,20.9
Status,1732151995000,27,11,1,21,1575420030,0.00,33.0,4.0,0,0,0,0.0
Status,1732151995000,27,12,1,7,1575420030,31.30,132.0,4.0,0,0,0,26.3
Status,1732151995000,27,13,3,20,1602000000,0.00,113.0,54.0,0,0,0,0.0
Status,1732151995000,27,14,3,9,1602000000,0.00,81.0,33.0,0,0,0,0.0
Status,1732151995000,27,15,3,11,1602000000,0.00,311.0,28.0,0,0,0,0.0
Status,1732151995000,27,16,3,19,1602000000,0.00,33.0,23.0,0,0,0,0.0
Status,1732151995000,27,17,3,8,1602000000,23.60,246.0,22.0,1,0,0,18.6
Status,1732151995000,27,18,6,21,1575420030,0.00,345.0,68.0,0,0,0,0.0
Status,1732151995000,27,19,6,19,1575420030,0.00,242.0,46.0,0,0,0,0.0
Status,1732151995000,27,20,6,27,1575420030,0.00,65.0,34.0,0,0,0,0.0
Status,1732151995000,27,21,6,13,1575420030,0.00,120.0,29.0,0,0,0,0.0
Status,1732151995000,27,22,6,15,1575420030,0.00,61.0,24.0,0,0,0,0.0
Status,1732151995000,27,23,6,29,1575420030,0.00,191.0,24.0,0,0,0,0.0
Status,1732151995000,27,24,6,4,1575420030,18.20,311.0,23.0,1,0,0,13.200001
Status,1732151995000,27,25,6,26,1575420030,0.00,167.0,6.0,0,0,0,0.0
Status,1732151995000,27,26,6,6,1575420030,0.00,327.0,5.0,0,0,0,0.0
Fix,GPS,37.4254550000,-122.1582550000,23.8,0.0,5.4,0.0,1732151996000,1.6,179.9,30880093000000,62.5,0,,,
Raw,1732151995999,20927000000,,702377.1592012498,-1416187193072999936,0.0,115.20179311230216,1115.6155783734446,0.0,0,2,0.0,16431,350413918684793,797,16.81999969482422,678.5442167055581,0.14999,16,0.0,0.0,1575420030,,,,0,0.0,1,6.0,16.81999969482422,0.0,0.0,0.0,66.7128,C,30880093000000,
Raw,1732151995999,20927000000,,702377.1592012498,-1416187193072999936,0.0,115.20179311230216,1115.6155783734446,0.0,0,6,0.0,16431,350413918857933,487,20.9060001373291,-323.95983249553154,0.14999,16,0.0,0.0,1575420030,,,,0,3.7840866911427025,1,6.0,20.9060001373291,0.0,0.0,0.0,66.7128,C,30880093000000,
Raw,1732151995999,20927000000,,702377.1592012498,-1416187193072999936,0.0,115.20179311230216,1115.6155783734446,0.0,0,7,0.0,16431,350413916874945,316,26.288999557495117,973.1954785841743,0.14999,16,0.0,0.0,1575420030,,,,0,11.823519735279913,1,6.0,26.288999557495117,0.0,0.0,0.0,66.7128,C,30880093000000,
Raw,1732151995999,20927000000,,702377.1592012498,-1416187193072999936,0.0,115.20179311230216,1115.6155783734446,0.0,0,15,0.0,16431,350413924890568,487,19.993999481201172,513.684993654728,0.14999,16,0.0,0.0,1575420030,,,,0,2.209458031624222,1,6.0,19.993999481201172,0.0,0.0,0.0,66.7128,C,30880093000000,
Raw,1732151995999,20927000000,,702377.1592012498,-1416187193072999936,0.0,115.20179311230216,1115.6155783734446,0.0,0,13,0.0,16431,350413928821375,316,26.576000213623047,710.6061918176073,0.14999,16,0.0,0.0,1575420030,,,,0,12.207296157722402,1,6.0,26.576000213623047,0.0,0.0,0.0,66.7128,C,30880093000000,
Raw,1732151995999,20927000000,,702377.1592012498,-1416187193072999936,0.0,115.20179311230216,1115.6155783734446,0.0,0,4,0.0,16431,350413911639382,487,13.194999694824219,78.91833088663877,0.14999,16,0.0,0.0,1575420030,,,,0,0.0,6,6.0,13.194999694824219,0.0,0.0,-23.5707569616232,66.7128,C,30880093000000,
Raw,1732151995999,20927000000,,702377.1592012498,-1416187193072999936,0.0,115.20179311230216,1115.6155783734446,0.0,0,8,0.0,17,441062,487,5.0,924.1769832098468,0.14999,16,0.0,0.0,1605374980,,,,0,2.210977606442315,3,6.0,20.0,0.0,0.0,77.07077158324813,66.7128,C,30880093000000,
Raw,1732151995999,20927000000,,702377.1592012498,-1416187193072999936,0.0,115.20179311230216,1115.6155783734446,0.0,0,30,0.0,16431,350413925897947,396,25.937000274658203,851.5625132696993,0.14999,16,0.0,0.0,1575420030,,,,0,11.34695901878019,1,6.0,25.937000274658203,0.0,0.0,0.0,66.7128,C,30880093000000,
Fix,FLP,37.4254915000,-122.1582374000,5.400000095367432,0.009921272,5.828,,1732151996246,1.6,,30880093000000,17.35042,0,,,
Status,1732151996000,27,0,1,17,1575420030,0.00,80.0,79.0,0,0,0,0.0
Status,1732151996000,27,1,1,22,1575420030,0.00,15.0,66.0,0,0,0,0.0
Status,1732151996000,27,2,1,19,1575420030,0.00,200.0,62.0,0,0,0,0.0
Status,1732151996000,27,3,1,14,1575420030,0.00,53.0,52.0,0,0,0,0.0
Status,1732151996000,27,4,1,13,1575420030,26.80,234.0,47.0,1,0,0,21.8
Status,1732151996000,27,5,2,135,1575420030,0.00,197.0,45.0,0,0,0,0.0
Status,1732151996000,27,6,1,30,1575420030,26.10,132.0,36.0,1,0,0,21.1
Status,1732151996000,27,7,1,15,1575420030,25.00,274.0,30.0,1,0,0,20.0
Status,1732151996000,27,8,1,2,1575420030,21.80,47.0,17.0,1,0,0,16.8
Status,1732151996000,27,9,1,24,1575420030,0.00,313.0,17.0,0,0,0,0.0
Status,1732151996000,27,10,1,6,1575420030,25.90,162.0,12.0,1,0,0,20.9
Status,1732151996000,27,11,1,21,1575420030,0.00,33.0,4.0,0,0,0,0.0
Status,1732151996000,27,12,1,7,1575420030,29.10,132.0,4.0,0,0,0,24.1
Status,1732151996000,27,13,3,20,1602000000,0.00,113.0,54.0,0,0,0,0.0
Status,1732151996000,27,14,3,9,1602000000,0.00,81.0,33.0,0,0,0,0.0
Status,1732151996000,27,15,3,11,1602000000,0.00,311.0,28.0,0,0,0,0.0
Status,1732151996000,27,16,3,19,1602000000,0.00,33.0,23.0,0,0,0,0.0
Status,1732151996000,27,17,3,8,1602000000,23.60,246.0,22.0,1,0,0,18.6
Status,1732151996000,27,18,6,21,1575420030,0.00,345.0,68.0,0,0,0,0.0
Status,1732151996000,27,19,6,19,1575420030,0.00,242.0,46.0,0,0,0,0.0
Status,1732151996000,27,20,6,27,1575420030,0.00,65.0,34.0,0,0,0,0.0
Status,1732151996000,27,21,6,13,1575420030,0.00,120.0,29.0,0,0,0,0.0
Status,1732151996000,27,22,6,15,1575420030,0.00,61.0,24.0,0,0,0,0.0
Status,1732151996000,27,23,6,29,1575420030,0.00,191.0,24.0,0,0,0,0.0
Status,1732151996000,27,24,6,4,1575420030,22.00,311.0,23.0,1,0,0,17.0
Status,1732151996000,27,25,6,26,1575420030,0.00,167.0,6.0,0,0,0,0.0
Status,1732151996000,27,26,6,6,1575420030,0.00,327.0,5.0,0,0,0,0.0
Fix,GPS,37.4254083333,-122.1582983333,23.8,0.0,5.2,0.0,1732151997000,1.6,179.9,30881093000000,62.7,0,,,
Raw,1732151996999,21927000000,,702341.9786130844,-1416187193072999936,0.0,113.88028155106484,1110.4028754973103,0.0,0,2,0.0,16431,350414918682532,797,16.81999969482422,677.1214741675267,0.14999,16,0.0,0.0,1575420030,,,,0,0.0,1,6.0,16.81999969482422,0.0,0.0,0.0,66.7128,C,30881093000000,
Raw,1732151996999,21927000000,,702341.9786130844,-1416187193072999936,0.0,113.88028155106484,1110.4028754973103,0.0,0,6,0.0,16431,350414918859022,797,20.863000869750977,-325.1000149461706,0.14999,16,0.0,0.0,1575420030,,,,0,2.316692599066384,1,6.0,20.863000869750977,0.0,0.0,0.0,66.7128,C,30881093000000,
Raw,1732151996999,21927000000,,702341.9786130844,-1416187193072999936,0.0,113.88028155106484,1110.4028754973103,0.0,0,7,0.0,16431,350414916871699,396,24.108999252319336,971.5673898464922,0.14999,16,0.0,0.0,1575420030,,,,0,8.778822911842637,1,6.0,24.108999252319336,0.0,0.0,0.0,66.7128,C,30881093000000,
Raw,1732151996999,21927000000,,702341.9786130844,-1416187193072999936,0.0,113.88028155106484,1110.4028754973103,0.0,0,15,0.0,16431,350414924888856,487,19.993999481201172,512.2112397756973,0.14999,16,0.0,0.0,1575420030,,,,0,2.209458031624222,1,6.0,19.993999481201172,0.0,0.0,0.0,66.7128,C,30881093000000,
Raw,1732151996999,21927000000,,702341.9786130844,-1416187193072999936,0.0,113.88028155106484,1110.4028754973103,0.0,0,13,0.0,16431,350414928819008,487,21.84000015258789,709.7330058849302,0.14999,16,0.0,0.0,1575420030,,,,0,5.345180108830114,1,6.0,21.84000015258789,0.0,0.0,0.0,66.7128,C,30881093000000,
Raw,1732151996999,21927000000,,702341.9786130844,-1416187193072999936,0.0,113.88028155106484,1110.4028754973103,0.0,0,4,0.0,16431,350414911639127,487,17.0,77.59628696574359,0.14999,16,0.0,0.0,1575420030,,,,0,0.0,6,6.0,17.0,0.0,0.0,-36.6771529301439,66.7128,C,30881093000000,
Raw,1732151996999,21927000000,,702341.9786130844,-1416187193072999936,0.0,113.88028155106484,1110.4028754973103,0.0,0,8,0.0,17,437984,487,5.0,920.162556955057,0.14999,16,0.0,0.0,1605374980,,,,0,1.689667797663767,3,6.0,19.0,0.0,0.0,74.65089239732612,66.7128,C,30881093000000,
Raw,1732151996999,21927000000,,702341.9786130844,-1416187193072999936,0.0,113.88028155106484,1110.4028754973103,0.0,0,30,0.0,16431,350414925895099,487,21.10300064086914,850.804683584473,0.14999,16,0.0,0.0,1575420030,,,,0,4.136861659397004,1,6.0,21.10300064086914,0.0,0.0,0.0,66.7128,C,30881093000000,
Fix,FLP,37.4254523000,-122.1582653000,5.400000095367432,0.11011804,5.685,180.0,1732151997245,1.6,179.9,30881093000000,16.406336,0,,,
Status,1732151997000,27,0,1,17,1575420030,0.00,80.0,79.0,0,0,0,0.0
Status,1732151997000,27,1,1,22,1575420030,0.00,15.0,66.0,0,0,0,0.0
Status,1732151997000,27,2,1,19,1575420030,0.00,200.0,62.0,0,0,0,0.0
Status,1732151997000,27,3,1,14,1575420030,0.00,53.0,52.0,0,0,0,0.0
Status,1732151997000,27,4,1,13,1575420030,25.00,234.0,47.0,1,0,0,20.0
Status,1732151997000,27,5,2,135,1575420030,0.00,197.0,45.0,0,0,0,0.0
Status,1732151997000,27,6,1,30,1575420030,28.00,132.0,36.0,1,0,0,23.0
Status,1732151997000,27,7,1,15,1575420030,24.90,274.0,30.0,1,0,0,19.9
Status,1732151997000,27,8,1,2,1575420030,21.90,47.0,17.0,1,0,0,16.9
Status,1732151997000,27,9,1,24,1575420030,0.00,313.0,17.0,0,0,0,0.0
Status,1732151997000,27,10,1,6,1575420030,25.80,162.0,12.0,1,0,0,20.8
Status,1732151997000,27,11,1,21,1575420030,0.00,33.0,4.0,0,0,0,0.0
Status,1732151997000,27,12,1,7,1575420030,31.50,132.0,4.0,0,0,0,26.5
Status,1732151997000,27,13,3,20,1602000000,0.00,113.0,54.0,0,0,0,0.0
Status,1732151997000,27,14,3,9,1602000000,0.00,81.0,33.0,0,0,0,0.0
Status,1732151997000,27,15,3,11,1602000000,0.00,311.0,28.0,0,0,0,0.0
Status,1732151997000,27,16,3,19,1602000000,0.00,33.0,23.0,0,0,0,0.0
Status,1732151997000,27,17,3,8,1602000000,23.50,246.0,22.0,1,0,0,18.5
Status,1732151997000,27,18,6,21,1575420030,0.00,345.0,68.0,0,0,0,0.0
Status,1732151997000,27,19,6,19,1575420030,0.00,242.0,46.0,0,0,0,0.0
Status,1732151997000,27,20,6,27,1575420030,0.00,65.0,34.0,0,0,0,0.0
Status,1732151997000,27,21,6,13,1575420030,0.00,120.0,29.0,0,0,0,0.0
Status,1732151997000,27,22,6,15,1575420030,0.00,61.0,24.0,0,0,0,0.0
Status,1732151997000,27,23,6,29,1575420030,0.00,191.0,24.0,0,0,0,0.0
Status,1732151997000,27,24,6,4,1575420030,22.00,311.0,23.0,1,0,0,17.0
Status,1732151997000,27,25,6,26,1575420030,0.00,167.0,6.0,0,0,0,0.0
Status,1732151997000,27,26,6,6,1575420030,0.00,327.0,5.0,0,0,0,0.0
Fix,GPS,37.4253350000,-122.1583633333,23.8,0.0,4.9,0.0,1732151998000,1.5,179.9,30882093000000,63.2,0,,,
Raw,1732151997999,22927000000,,702308.8306811241,-1416187193072999936,0.0,112.09796638022725,1106.9889857501375,0.0,0,2,0.0,16431,350415918680267,797,16.885000228881836,677.1539486004579,0.14999,16,0.0,0.0,1575420030,,,,0,0.0,1,6.0,16.885000228881836,0.0,0.0,0.0,66.7128,C,30882093000000,
Raw,1732151997999,22927000000,,702308.8306811241,-1416187193072999936,0.0,112.09796638022725,1106.9889857501375,0.0,0,6,0.0,16431,350415918860107,797,20.82200050354004,-326.3926739188126,0.14999,16,0.0,0.0,1575420030,,,,0,2.316692599066384,1,6.0,20.82200050354004,0.0,0.0,0.0,66.7128,C,30882093000000,
Raw,1732151997999,22927000000,,702308.8306811241,-1416187193072999936,0.0,112.09796638022725,1106.9889857501375,0.0,0,7,0.0,16431,350415916868455,316,26.503999710083008,971.4309879364981,0.14999,16,0.0,0.0,1575420030,,,,0,12.104300212105777,1,6.0,26.503999710083008,0.0,0.0,0.0,66.7128,C,30882093000000,
Raw,1732151997999,22927000000,,702308.8306811241,-1416187193072999936,0.0,112.09796638022725,1106.9889857501375,0.0,0,15,0.0,16431,350415924887134,797,19.94099998474121,510.93349395465896,0.14999,16,0.0,0.0,1575420030,,,,0,0.418366424102512,1,6.0,19.94099998474121,0.0,0.0,0.0,66.7128,C,30882093000000,
Raw,1732151997999,22927000000,,702308.8306811241,-1416187193072999936,0.0,112.09796638022725,1106.9889857501375,0.0,0,13,0.0,16431,350415928816642,487,19.993999481201172,709.0948995382785,0.14999,16,0.0,0.0,1575420030,,,,0,2.209458031624222,1,6.0,19.993999481201172,0.0,0.0,0.0,66.7128,C,30882093000000,
Raw,1732151997999,22927000000,,702308.8306811241,-1416187193072999936,0.0,112.09796638022725,1106.9889857501375,0.0,0,4,0.0,16431,350415911638869,797,17.0,77.50313784124147,0.14999,16,0.0,0.0,1575420030,,,,0,0.0,6,6.0,17.0,0.0,0.0,-36.6771529301439,66.7128,C,30882093000000,
Raw,1732151997999,22927000000,,702308.8306811241,-1416187193072999936,0.0,112.09796638022725,1106.9889857501375,0.0,0,8,0.0,17,434912,487,5.0,919.4317245734611,0.14999,16,0.0,0.0,1605374980,,,,0,1.689667797663767,3,6.0,18.0,0.0,0.0,74.12459311539286,66.7128,C,30882093000000,
Raw,1732151997999,22927000000,,702308.8306811241,-1416187193072999936,0.0,112.09796638022725,1106.9889857501375,0.0,0,30,0.0,16431,350415925892259,487,23.040000915527344,849.8355610223211,0.14999,16,0.0,0.0,1575420030,,,,0,7.169837711157431,1,6.0,23.040000915527344,0.0,0.0,0.0,66.7128,C,30882093000000,
Fix,FLP,37.4253936000,-122.1583126000,5.400000095367432,0.27219874,5.514,180.0,1732151998246,1.5,179.9,30882093000000,15.16548,0,,,
Status,1732151998000,27,0,1,17,1575420030,0.00,80.0,79.0,0,0,0,0.0
Status,1732151998000,27,1,1,22,1575420030,0.00,15.0,66.0,0,0,0,0.0
Status,1732151998000,27,2,1,19,1575420030,0.00,200.0,62.0,0,0,0,0.0
Status,1732151998000,27,3,1,14,1575420030,0.00,53.0,52.0,0,0,0,0.0
Status,1732151998000,27,4,1,13,1575420030,25.00,234.0,47.0,1,0,0,20.0
Status,1732151998000,27,5,2,135,1575420030,0.00,197.0,45.0,0,0,0,0.0
Status,1732151998000,27,6,1,30,1575420030,28.00,132.0,36.0,1,0,0,23.0
Status,1732151998000,27,7,1,15,1575420030,24.90,274.0,30.0,1,0,0,19.9
Status,1732151998000,27,8,1,2,1575420030,21.90,47.0,17.0,1,0,0,16.9
Status,1732151998000,27,9,1,24,1575420030,0.00,313.0,17.0,0,0,0,0.0
Status,1732151998000,27,10,1,6,1575420030,25.80,162.0,12.0,1,0,0,20.8
Status,1732151998000,27,11,1,21,1575420030,0.00,33.0,4.0,0,0,0,0.0
Status,1732151998000,27,12,1,7,1575420030,31.20,132.0,4.0,0,0,0,26.2
Status,1732151998000,27,13,3,20,1602000000,0.00,113.0,54.0,0,0,0,0.0
Status,1732151998000,27,14,3,9,1602000000,0.00,81.0,33.0,0,0,0,0.0
Status,1732151998000,27,15,3,11,1602000000,0.00,311.0,28.0,0,0,0,0.0
Status,1732151998000,27,16,3,19,1602000000,0.00,33.0,23.0,0,0,0,0.0
Status,1732151998000,27,17,3,8,1602000000,23.40,246.0,22.0,1,0,0,18.4
Status,1732151998000,27,18,6,21,1575420030,0.00,345.0,68.0,0,0,0,0.0
Status,1732151998000,27,19,6,19,1575420030,0.00,242.0,46.0,0,0,0,0.0
Status,1732151998000,27,20,6,27,1575420030,0.00,65.0,34.0,0,0,0,0.0
Status,1732151998000,27,21,6,13,1575420030,0.00,120.0,29.0,0,0,0,0.0
Status,1732151998000,27,22,6,15,1575420030,0.00,61.0,24.0,0,0,0,0.0
Status,1732151998000,27,23,6,29,1575420030,0.00,191.0,24.0,0,0,0,0.0
Status,1732151998000,27,24,6,4,1575420030,17.20,311.0,23.0,1,0,0,12.200001
Status,1732151998000,27,25,6,26,1575420030,0.00,167.0,6.0,0,0,0,0.0
Status,1732151998000,27,26,6,6,1575420030,0.00,327.0,5.0,0,0,0,0.0
Fix,GPS,37.4252933333,-122.1584000000,23.900000000000002,0.0,4.8,0.0,1732151999000,1.4,179.9,30883093000000,63.7,0,,,
Raw,1732151998999,23927000000,,702275.2657940447,-1416187193072999936,0.0,111.5383064376346,1103.8595530615673,0.0,0,2,0.0,16431,350416918678009,797,16.94700050354004,676.3559323852094,0.14999,16,0.0,0.0,1575420030,,,,0,0.0,1,6.0,16.94700050354004,0.0,0.0,0.0,66.7128,C,30883093000000,
Raw,1732151998999,23927000000,,702275.2657940447,-1416187193072999936,0.0,111.5383064376346,1103.8595530615673,0.0,0,6,0.0,16431,350416918861198,1797,20.783000946044922,-327.25122545038334,0.14999,16,0.0,0.0,1575420030,,,,0,2.316692599066384,1,6.0,20.783000946044922,0.0,0.0,0.0,66.7128,C,30883093000000,
Raw,1732151998999,23927000000,,702275.2657940447,-1416187193072999936,0.0,111.5383064376346,1103.8595530615673,0.0,0,7,0.0,16431,350416916865209,396,26.21500015258789,970.7631946618878,0.14999,16,0.0,0.0,1575420030,,,,0,11.715842038463862,1,6.0,26.21500015258789,0.0,0.0,0.0,66.7128,C,30883093000000,
Raw,1732151998999,23927000000,,702275.2657940447,-1416187193072999936,0.0,111.5383064376346,1103.8595530615673,0.0,0,15,0.0,16431,350416924885431,487,19.889999389648438,510.40140571379965,0.14999,16,0.0,0.0,1575420030,,,,0,0.418366424102512,1,6.0,19.889999389648438,0.0,0.0,0.0,66.7128,C,30883093000000,
Raw,1732151998999,23927000000,,702275.2657940447,-1416187193072999936,0.0,111.5383064376346,1103.8595530615673,0.0,0,13,0.0,16431,350416928814278,797,19.993999481201172,708.3230394113566,0.14999,16,0.0,0.0,1575420030,,,,0,2.209458031624222,1,6.0,19.993999481201172,0.0,0.0,0.0,66.7128,C,30883093000000,
Raw,1732151998999,23927000000,,702275.2657940447,-1416187193072999936,0.0,111.5383064376346,1103.8595530615673,0.0,0,4,0.0,16431,350416911638603,797,12.199999809265137,77.74723036001163,0.14999,16,0.0,0.0,1575420030,,,,0,0.0,6,6.0,12.199999809265137,0.0,0.0,-45.460795188125125,66.7128,C,30883093000000,
Raw,1732151998999,23927000000,,702275.2657940447,-1416187193072999936,0.0,111.5383064376346,1103.8595530615673,0.0,0,8,0.0,17,431842,797,5.0,918.9702470084883,0.14999,16,0.0,0.0,1605374980,,,,0,0.0,3,6.0,17.0,0.0,0.0,73.84847548663151,66.7128,C,30883093000000,
Raw,1732151998999,23927000000,,702275.2657940447,-1416187193072999936,0.0,111.5383064376346,1103.8595530615673,0.0,0,30,0.0,16431,350416925889426,797,23.040000915527344,849.2849358733938,0.14999,16,0.0,0.0,1575420030,,,,0,7.169837711157431,1,6.0,23.040000915527344,0.0,0.0,0.0,66.7128,C,30883093000000,
Fix,FLP,37.4253432000,-122.1583545000,5.400000095367432,0.38832963,5.357,180.0,1732151999245,1.4,179.9,30883093000000,15.38563,0,,,
Status,1732151999000,27,0,1,17,1575420030,0.00,80.0,79.0,0,0,0,0.0
Status,1732151999000,27,1,1,22,1575420030,0.00,15.0,66.0,0,0,0,0.0
Status,1732151999000,27,2,1,19,1575420030,0.00,200.0,62.0,0,0,0,0.0
Status,1732151999000,27,3,1,14,1575420030,0.00,53.0,52.0,0,0,0,0.0
Status,1732151999000,27,4,1,13,1575420030,25.00,234.0,47.0,1,0,0,20.0
Status,1732151999000,27,5,2,135,1575420030,0.00,197.0,45.0,0,0,0,0.0
Status,1732151999000,27,6,1,30,1575420030,28.00,132.0,36.0,1,0,0,23.0
Status,1732151999000,27,7,1,15,1575420030,24.90,274.0,30.0,1,0,0,19.9
Status,1732151999000,27,8,1,2,1575420030,22.00,47.0,17.0,1,0,0,17.0
Status,1732151999000,27,9,1,24,1575420030,0.00,313.0,17.0,0,0,0,0.0
Status,1732151999000,27,10,1,6,1575420030,17.70,162.0,12.0,1,0,0,12.700001
Status,1732151999000,27,11,1,21,1575420030,0.00,33.0,4.0,0,0,0,0.0
Status,1732151999000,27,12,1,7,1575420030,31.90,132.0,4.0,0,0,0,26.9
Status,1732151999000,27,13,3,20,1602000000,0.00,113.0,54.0,0,0,0,0.0
Status,1732151999000,27,14,3,9,1602000000,0.00,81.0,33.0,0,0,0,0.0
Status,1732151999000,27,15,3,11,1602000000,0.00,311.0,28.0,0,0,0,0.0
Status,1732151999000,27,16,3,19,1602000000,0.00,33.0,23.0,0,0,0,0.0
Status,1732151999000,27,17,3,8,1602000000,0.00,246.0,22.0,0,0,0,0.0
Status,1732151999000,27,18,6,21,1575420030,0.00,345.0,68.0,0,0,0,0.0
Status,1732151999000,27,19,6,19,1575420030,0.00,242.0,46.0,0,0,0,0.0
Status,1732151999000,27,20,6,27,1575420030,0.00,65.0,34.0,0,0,0,0.0
Status,1732151999000,27,21,6,13,1575420030,0.00,120.0,29.0,0,0,0,0.0
Status,1732151999000,27,22,6,15,1575420030,0.00,61.0,24.0,0,0,0,0.0
Status,1732151999000,27,23,6,29,1575420030,0.00,191.0,24.0,0,0,0,0.0
Status,1732151999000,27,24,6,4,1575420030,17.20,311.0,23.0,1,0,0,12.200001
Status,1732151999000,27,25,6,26,1575420030,0.00,167.0,6.0,0,0,0,0.0
Status,1732151999000,27,26,6,6,1575420030,0.00,327.0,5.0,0,0,0,0.0
Fix,GPS,37.4252600000,-122.1584250000,23.900000000000002,0.0,4.6,0.0,1732152000000,1.4,179.9,30884093000000,64.4,0,,,
Raw,1732151999999,24927000000,,702244.6195927984,-1416187193072999936,0.0,111.48986441682088,1102.6879748327801,0.0,0,2,0.0,16431,350417918675751,797,17.006000518798828,676.7912477451022,0.14999,16,0.0,0.0,1575420030,,,,0,0.0,1,6.0,17.006000518798828,0.0,0.0,0.0,66.7128,C,30884093000000,
Raw,1732151999999,24927000000,,702244.6195927984,-1416187193072999936,0.0,111.48986441682088,1102.6879748327801,0.0,0,6,0.0,16431,350417918862322,1797,12.699999809265137,-327.78243098133464,0.14999,16,0.0,0.0,1575420030,,,,0,0.0,1,6.0,12.699999809265137,0.0,0.0,0.0,66.7128,C,30884093000000,
Raw,1732151999999,24927000000,,702244.6195927984,-1416187193072999936,0.0,111.48986441682088,1102.6879748327801,0.0,0,7,0.0,16431,350417916861971,316,26.878000259399414,971.0416664086538,0.14999,16,0.0,0.0,1575420030,,,,0,12.607484691518673,1,6.0,26.878000259399414,0.0,0.0,0.0,66.7128,C,30884093000000,
Raw,1732151999999,24927000000,,702244.6195927984,-1416187193072999936,0.0,111.48986441682088,1102.6879748327801,0.0,0,15,0.0,16431,350417924883752,487,19.920000076293945,510.75732364038856,0.14999,16,0.0,0.0,1575420030,,,,0,3.1300011305850903,1,6.0,19.920000076293945,0.0,0.0,0.0,66.7128,C,30884093000000,
Raw,1732151999999,24927000000,,702244.6195927984,-1416187193072999936,0.0,111.48986441682088,1102.6879748327801,0.0,0,13,0.0,16431,350417928811915,797,19.993999481201172,708.1946748073668,0.14999,16,0.0,0.0,1575420030,,,,0,2.209458031624222,1,6.0,19.993999481201172,0.0,0.0,0.0,66.7128,C,30884093000000,
Raw,1732151999999,24927000000,,702244.6195927984,-1416187193072999936,0.0,111.48986441682088,1102.6879748327801,0.0,0,4,0.0,16431,350417911638342,1797,12.199999809265137,78.44206243285645,0.14999,16,0.0,0.0,1575420030,,,,0,0.0,6,6.0,12.199999809265137,0.0,0.0,-45.460795188125125,66.7128,C,30884093000000,
Raw,1732151999999,24927000000,,702244.6195927984,-1416187193072999936,0.0,111.48986441682088,1102.6879748327801,0.0,0,30,0.0,16431,350417925886593,487,23.040000915527344,849.4534870074057,0.14999,16,0.0,0.0,1575420030,,,,0,7.169837711157431,1,6.0,23.040000915527344,0.0,0.0,0.0,66.7128,C,30884093000000,
Fix,FLP,37.4253008000,-122.1583882000,5.400000095367432,0.46761635,5.185,180.0,1732152000246,1.4,179.9,30884093000000,17.767015,0,,,
Fix,NLP,37.4256476000,-122.1580650000,5.400000095367432,,30.589,,1732152000252,,,30884100000000,62.775528,0,,,
Status,1732152000000,27,0,1,17,1575420030,0.00,80.0,79.0,0,0,0,0.0
Status,1732152000000,27,1,1,22,1575420030,0.00,15.0,66.0,0,0,0,0.0
Status,1732152000000,27,2,1,19,1575420030,0.00,200.0,62.0,0,0,0,0.0
Status,1732152000000,27,3,1,14,1575420030,0.00,53.0,52.0,0,0,0,0.0
Status,1732152000000,27,4,1,13,1575420030,24.90,234.0,47.0,1,0,0,19.9
Status,1732152000000,27,5,2,138,1575420030,0.00,156.0,43.0,0,0,0,0.0
Status,1732152000000,27,6,1,30,1575420030,27.90,132.0,36.0,1,0,0,22.9
Status,1732152000000,27,7,1,15,1575420030,25.00,274.0,30.0,1,0,0,20.0
Status,1732152000000,27,8,1,2,1575420030,18.20,47.0,17.0,1,0,0,13.200001
Status,1732152000000,27,9,1,24,1575420030,0.00,313.0,17.0,0,0,0,0.0
Status,1732152000000,27,10,1,6,1575420030,17.70,162.0,12.0,1,0,0,12.700001
Status,1732152000000,27,11,1,21,1575420030,0.00,33.0,4.0,0,0,0,0.0
Status,1732152000000,27,12,1,7,1575420030,30.70,132.0,4.0,0,0,0,25.7
Status,1732152000000,27,13,3,20,1602000000,0.00,113.0,54.0,0,0,0,0.0
Status,1732152000000,27,14,3,9,1602000000,0.00,81.0,33.0,0,0,0,0.0
Status,1732152000000,27,15,3,11,1602000000,0.00,311.0,28.0,0,0,0,0.0
Status,1732152000000,27,16,3,19,1602000000,0.00,33.0,23.0,0,0,0,0.0
Status,1732152000000,27,17,3,8,1602000000,0.00,246.0,22.0,0,0,0,0.0
Status,1732152000000,27,18,6,21,1575420030,0.00,345.0,68.0,0,0,0,0.0
Status,1732152000000,27,19,6,19,1575420030,0.00,242.0,46.0,0,0,0,0.0
Status,1732152000000,27,20,6,27,1575420030,0.00,65.0,34.0,0,0,0,0.0
Status,1732152000000,27,21,6,13,1575420030,0.00,120.0,29.0,0,0,0,0.0
Status,1732152000000,27,22,6,15,1575420030,0.00,61.0,24.0,0,0,0,0.0
Status,1732152000000,27,23,6,29,1575420030,0.00,191.0,24.0,0,0,0,0.0
Status,1732152000000,27,24,6,4,1575420030,0.00,311.0,23.0,0,0,0,0.0
Status,1732152000000,27,25,6,26,1575420030,0.00,167.0,6.0,0,0,0,0.0
Status,1732152000000,27,26,6,6,1575420030,0.00,327.0,5.0,0,0,0,0.0
Fix,GPS,37.4252633333,-122.1584233333,23.900000000000002,0.0,4.6,0.0,1732152001000,1.4,168.4,30885093000000,64.6,0,,,
Raw,1732152000999,25927000000,,702211.8886159571,-1416187193072999936,0.0,111.92577898184233,1102.9641436275795,0.0,0,2,0.0,16431,350418918673492,1797,13.199999809265137,677.4258697105381,0.14999,16,0.0,0.0,1575420030,,,,0,0.0,1,6.0,13.199999809265137,0.0,0.0,0.0,66.7128,C,30885093000000,
Raw,1732152000999,25927000000,,702211.8886159571,-1416187193072999936,0.0,111.92577898184233,1102.9641436275795,0.0,0,6,0.0,16431,350418918863415,797,12.699999809265137,-327.7343000621405,0.14999,16,0.0,0.0,1575420030,,,,0,0.0,1,6.0,12.699999809265137,0.0,0.0,0.0,66.7128,C,30885093000000,
Raw,1732152000999,25927000000,,702211.8886159571,-1416187193072999936,0.0,111.92577898184233,1102.9641436275795,0.0,0,7,0.0,16431,350418916858728,316,25.679000854492188,971.737241816158,0.14999,16,0.0,0.0,1575420030,,,,0,11.001015035448619,1,6.0,25.679000854492188,0.0,0.0,0.0,66.7128,C,30885093000000,
Raw,1732152000999,25927000000,,702211.8886159571,-1416187193072999936,0.0,111.92577898184233,1102.9641436275795,0.0,0,15,0.0,16431,350418924882054,487,19.986000061035156,510.40163800588067,0.14999,16,0.0,0.0,1575420030,,,,0,4.392347420125583,1,6.0,19.986000061035156,0.0,0.0,0.0,66.7128,C,30885093000000,
Raw,1732152000999,25927000000,,702211.8886159571,-1416187193072999936,0.0,111.92577898184233,1102.9641436275795,0.0,0,13,0.0,16431,350418928809551,797,19.91200065612793,708.064962909307,0.14999,16,0.0,0.0,1575420030,,,,0,0.0,1,6.0,19.91200065612793,0.0,0.0,0.0,66.7128,C,30885093000000,
Raw,1732152000999,25927000000,,702211.8886159571,-1416187193072999936,0.0,111.92577898184233,1102.9641436275795,0.0,0,30,0.0,16431,350418925883737,487,22.934999465942383,850.039234718988,0.14999,16,0.0,0.0,1575420030,,,,0,3.873632738237588,1,6.0,22.934999465942383,0.0,0.0,0.0,66.7128,C,30885093000000,
Fix,FLP,37.4252747000,-122.1584101000,5.400000095367432,0.46295685,4.871,180.0,1732152001245,1.4,168.4,30885093000000,14.463388,0,,,
Status,1732152001000,27,0,1,17,1575420030,0.00,80.0,79.0,0,0,0,0.0
Status,1732152001000,27,1,1,22,1575420030,0.00,15.0,66.0,0,0,0,0.0
Status,1732152001000,27,2,1,19,1575420030,0.00,200.0,62.0,0,0,0,0.0
Status,1732152001000,27,3,1,14,1575420030,0.00,53.0,52.0,0,0,0,0.0
Status,1732152001000,27,4,1,13,1575420030,24.80,234.0,47.0,1,0,0,19.8
Status,1732152001000,27,5,2,138,1575420030,0.00,156.0,43.0,0,0,0,0.0
Status,1732152001000,27,6,1,30,1575420030,27.90,132.0,36.0,1,0,0,22.9
Status,1732152001000,27,7,1,15,1575420030,25.00,274.0,30.0,1,0,0,20.0
Status,1732152001000,27,8,1,2,1575420030,18.20,47.0,17.0,1,0,0,13.200001
Status,1732152001000,27,9,1,24,1575420030,0.00,313.0,17.0,0,0,0,0.0
Status,1732152001000,27,10,1,6,1575420030,21.90,162.0,12.0,1,0,0,16.9
Status,1732152001000,27,11,1,21,1575420030,0.00,33.0,4.0,0,0,0,0.0
Status,1732152001000,27,12,1,7,1575420030,30.60,132.0,4.0,0,0,0,25.6
Status,1732152001000,27,13,3,20,1602000000,0.00,113.0,54.0,0,0,0,0.0
Status,1732152001000,27,14,3,9,1602000000,0.00,81.0,33.0,0,0,0,0.0
Status,1732152001000,27,15,3,11,1602000000,0.00,311.0,28.0,0,0,0,0.0
Status,1732152001000,27,16,3,19,1602000000,0.00,33.0,23.0,0,0,0,0.0
Status,1732152001000,27,17,3,8,1602000000,0.00,246.0,22.0,0,0,0,0.0
Status,1732152001000,27,18,6,21,1575420030,0.00,345.0,68.0,0,0,0,0.0
Status,1732152001000,27,19,6,19,1575420030,0.00,242.0,46.0,0,0,0,0.0
Status,1732152001000,27,20,6,27,1575420030,0.00,65.0,34.0,0,0,0,0.0
Status,1732152001000,27,21,6,13,1575420030,0.00,120.0,29.0,0,0,0,0.0
Status,1732152001000,27,22,6,15,1575420030,0.00,61.0,24.0,0,0,0,0.0
Status,1732152001000,27,23,6,29,1575420030,0.00,191.0,24.0,0,0,0,0.0
Status,1732152001000,27,24,6,4,1575420030,0.00,311.0,23.0,0,0,0,0.0
Status,1732152001000,27,25,6,26,1575420030,0.00,167.0,6.0,0,0,0,0.0
Status,1732152001000,27,26,6,6,1575420030,0.00,327.0,5.0,0,0,0,0.0
Fix,GPS,37.4252650000,-122.1584166667,23.8,0.0,4.6,0.0,1732152002000,2.8,179.9,30886093000000,65.4,0,,,
Raw,1732152001999,26927000000,,702195.5752469263,-1416187193072999936,0.0,112.78001018312627,1105.5516306757465,0.0,0,2,0.0,16431,350419918671232,1797,13.199999809265137,677.9993988586572,0.14999,16,0.0,0.0,1575420030,,,,0,0.0,1,6.0,13.199999809265137,0.0,0.0,0.0,66.7128,C,30886093000000,
Raw,1732152001999,26927000000,,702195.5752469263,-1416187193072999936,0.0,112.78001018312627,1105.5516306757465,0.0,0,6,0.0,16431,350419918864507,797,16.916000366210938,-326.89405314655676,0.14999,16,0.0,0.0,1575420030,,,,0,0.0,1,6.0,16.916000366210938,0.0,0.0,0.0,66.7128,C,30886093000000,
Raw,1732152001999,26927000000,,702195.5752469263,-1416187193072999936,0.0,112.78001018312627,1105.5516306757465,0.0,0,7,0.0,16431,350419916855489,396,25.57200050354004,972.3057069969102,0.14999,16,0.0,0.0,1575420030,,,,0,7.928148291523977,1,6.0,25.57200050354004,0.0,0.0,0.0,66.7128,C,30886093000000,
Raw,1732152001999,26927000000,,702195.5752469263,-1416187193072999936,0.0,112.78001018312627,1105.5516306757465,0.0,0,15,0.0,16431,350419924880347,487,19.992000579833984,512.1310060909018,0.14999,16,0.0,0.0,1575420030,,,,0,2.4226193952653525,1,6.0,19.992000579833984,0.0,0.0,0.0,66.7128,C,30886093000000,
Raw,1732152001999,26927000000,,702195.5752469263,-1416187193072999936,0.0,112.78001018312627,1105.5516306757465,0.0,0,13,0.0,16431,350419928807189,797,19.833999633789062,708.0887496184068,0.14999,16,0.0,0.0,1575420030,,,,0,0.0,1,6.0,19.833999633789062,0.0,0.0,0.0,66.7128,C,30886093000000,
Raw,1732152001999,26927000000,,702195.5752469263,-1416187193072999936,0.0,112.78001018312627,1105.5516306757465,0.0,0,30,0.0,16431,350419925880922,487,22.850000381469727,850.6272124345487,0.14999,16,0.0,0.0,1575420030,,,,0,4.392347420125583,1,6.0,22.850000381469727,0.0,0.0,0.0,66.7128,C,30886093000000,
Fix,FLP,37.4252680000,-122.1584132000,5.400000095367432,0.46198958,4.757,180.0,1732152002245,2.8,179.9,30886093000000,24.947803,0,,,
Status,1732152002000,27,0,1,17,1575420030,0.00,80.0,79.0,0,0,0,0.0
Status,1732152002000,27,1,1,22,1575420030,0.00,15.0,66.0,0,0,0,0.0
Status,1732152002000,27,2,1,19,1575420030,0.00,200.0,62.0,0,0,0,0.0
Status,1732152002000,27,3,1,14,1575420030,0.00,53.0,52.0,0,0,0,0.0
Status,1732152002000,27,4,1,13,1575420030,24.80,234.0,47.0,1,0,0,19.8
Status,1732152002000,27,5,2,138,1575420030,0.00,156.0,43.0,0,0,0,0.0
Status,1732152002000,27,6,1,30,1575420030,25.00,132.0,36.0,1,0,0,20.0
Status,1732152002000,27,7,1,15,1575420030,25.10,274.0,30.0,1,0,0,20.1
Status,1732152002000,27,8,1,2,1575420030,18.20,47.0,17.0,1,0,0,13.200001
Status,1732152002000,27,9,1,24,1575420030,0.00,313.0,17.0,0,0,0,0.0
Status,1732152002000,27,10,1,6,1575420030,21.90,162.0,12.0,1,0,0,16.9
Status,1732152002000,27,11,1,21,1575420030,0.00,33.0,4.0,0,0,0,0.0
Status,1732152002000,27,12,1,7,1575420030,30.50,132.0,4.0,0,0,0,25.5
Status,1732152002000,27,13,3,20,1602000000,0.00,113.0,54.0,0,0,0,0.0
Status,1732152002000,27,14,3,9,1602000000,0.00,81.0,33.0,0,0,0,0.0
Status,1732152002000,27,15,3,11,1602000000,0.00,311.0,28.0,0,0,0,0.0
Status,1732152002000,27,16,3,19,1602000000,0.00,33.0,23.0,0,0,0,0.0
Status,1732152002000,27,17,3,8,1602000000,0.00,246.0,22.0,0,0,0,0.0
Status,1732152002000,27,18,6,21,1575420030,0.00,345.0,68.0,0,0,0,0.0
Status,1732152002000,27,19,6,19,1575420030,0.00,242.0,46.0,0,0,0,0.0
Status,1732152002000,27,20,6,27,1575420030,0.00,65.0,34.0,0,0,0,0.0
Status,1732152002000,27,21,6,13,1575420030,0.00,120.0,29.0,0,0,0,0.0
Status,1732152002000,27,22,6,15,1575420030,0.00,61.0,24.0,0,0,0,0.0
Status,1732152002000,27,23,6,29,1575420030,0.00,191.0,24.0,0,0,0,0.0
Status,1732152002000,27,24,6,4,1575420030,0.00,311.0,23.0,0,0,0,0.0
Status,1732152002000,27,25,6,26,1575420030,0.00,167.0,6.0,0,0,0,0.0
Status,1732152002000,27,26,6,6,1575420030,0.00,327.0,5.0,0,0,0,0.0
Fix,GPS,37.4252683333,-122.1584150000,23.8,0.0,4.7,0.0,1732152003000,3.3,154.9,30887093000000,66.3,0,,,
Raw,1732152002999,27927000000,,702180.7212208121,-1416187193072999936,0.0,113.75556911450184,1109.140112470705,0.0,0,2,0.0,16431,350420918668969,1797,13.199999809265137,678.9448276285416,0.14999,16,0.0,0.0,1575420030,,,,0,0.0,1,6.0,13.199999809265137,0.0,0.0,0.0,66.7128,C,30887093000000,
Raw,1732152002999,27927000000,,702180.7212208121,-1416187193072999936,0.0,113.75556911450184,1109.140112470705,0.0,0,6,0.0,16431,350420918865596,797,16.916000366210938,-326.42370814084126,0.14999,16,0.0,0.0,1575420030,,,,0,0.0,1,6.0,16.916000366210938,0.0,0.0,0.0,66.7128,C,30887093000000,
Raw,1732152002999,27927000000,,702180.7212208121,-1416187193072999936,0.0,113.75556911450184,1109.140112470705,0.0,0,7,0.0,16431,350420916852245,396,25.469999313354492,973.0937346526733,0.14999,16,0.0,0.0,1575420030,,,,0,7.928148291523977,1,6.0,25.469999313354492,0.0,0.0,0.0,66.7128,C,30887093000000,
Raw,1732152002999,27927000000,,702180.7212208121,-1416187193072999936,0.0,113.75556911450184,1109.140112470705,0.0,0,15,0.0,16431,350420924878640,396,20.06399917602539,513.2467514146141,0.14999,16,0.0,0.0,1575420030,,,,0,4.640532579761982,1,6.0,20.06399917602539,0.0,0.0,0.0,66.7128,C,30887093000000,
Raw,1732152002999,27927000000,,702180.7212208121,-1416187193072999936,0.0,113.75556911450184,1109.140112470705,0.0,0,13,0.0,16431,350420928804825,797,19.760000228881836,709.1495810941583,0.14999,16,0.0,0.0,1575420030,,,,0,0.0,1,6.0,19.760000228881836,0.0,0.0,0.0,66.7128,C,30887093000000,
Raw,1732152002999,27927000000,,702180.7212208121,-1416187193072999936,0.0,113.75556911450184,1109.140112470705,0.0,0,30,0.0,16431,350420925878081,487,19.993999481201172,852.4584173679033,0.14999,16,0.0,0.0,1575420030,,,,0,2.209458031624222,1,6.0,19.993999481201172,0.0,0.0,0.0,66.7128,C,30887093000000,
Fix,FLP,37.4252660000,-122.1584140000,5.400000095367432,0.45026347,4.685,180.0,1732152003245,3.3,154.9,30887093000000,22.871798,0,,,
Status,1732152003000,27,0,1,17,1575420030,0.00,80.0,79.0,0,0,0,0.0
Status,1732152003000,27,1,1,22,1575420030,0.00,15.0,66.0,0,0,0,0.0
Status,1732152003000,27,2,1,19,1575420030,0.00,200.0,62.0,0,0,0,0.0
Status,1732152003000,27,3,1,14,1575420030,0.00,53.0,52.0,0,0,0,0.0
Status,1732152003000,27,4,1,13,1575420030,24.70,234.0,47.0,1,0,0,19.7
Status,1732152003000,27,5,2,138,1575420030,0.00,156.0,43.0,0,0,0,0.0
Status,1732152003000,27,6,1,30,1575420030,25.00,132.0,36.0,1,0,0,20.0
Status,1732152003000,27,7,1,15,1575420030,25.10,274.0,30.0,1,0,0,20.1
Status,1732152003000,27,8,1,2,1575420030,17.50,47.0,17.0,1,0,0,12.5
Status,1732152003000,27,9,1,24,1575420030,0.00,313.0,17.0,0,0,0,0.0
Status,1732152003000,27,10,1,6,1575420030,21.90,162.0,12.0,1,0,0,16.9
Status,1732152003000,27,11,1,21,1575420030,0.00,33.0,4.0,0,0,0,0.0
Status,1732152003000,27,12,1,7,1575420030,25.80,132.0,4.0,0,0,0,20.8
Status,1732152003000,27,13,3,20,1602000000,0.00,113.0,54.0,0,0,0,0.0
Status,1732152003000,27,14,3,9,1602000000,0.00,81.0,33.0,0,0,0,0.0
Status,1732152003000,27,15,3,11,1602000000,0.00,311.0,28.0,0,0,0,0.0
Status,1732152003000,27,16,3,19,1602000000,0.00,33.0,23.0,0,0,0,0.0
Status,1732152003000,27,17,3,8,1602000000,0.00,246.0,22.0,0,0,0,0.0
Status,1732152003000,27,18,6,21,1575420030,0.00,345.0,68.0,0,0,0,0.0
Status,1732152003000,27,19,6,19,1575420030,0.00,242.0,46.0,0,0,0,0.0
Status,1732152003000,27,20,6,27,1575420030,0.00,65.0,34.0,0,0,0,0.0
Status,1732152003000,27,21,6,13,1575420030,0.00,120.0,29.0,0,0,0,0.0
Status,1732152003000,27,22,6,15,1575420030,0.00,61.0,24.0,0,0,0,0.0
Status,1732152003000,27,23,6,29,1575420030,0.00,191.0,24.0,0,0,0,0.0
Status,1732152003000,27,24,6,4,1575420030,0.00,311.0,23.0,0,0,0,0.0
Status,1732152003000,27,25,6,26,1575420030,0.00,167.0,6.0,0,0,0,0.0
Status,1732152003000,27,26,6,6,1575420030,0.00,327.0,5.0,0,0,0,0.0
Fix,GPS,37.4252716667,-122.1584150000,23.8,0.0,4.7,0.0,1732152004000,3.7,179.9,30888093000000,67.3,0,,,
Fix,FLP,37.4252668000,-122.1584145000,5.400000095367432,0.43230358,4.657,180.0,1732152004245,3.7,179.9,30888093000000,21.930716,0,,,
Raw,1732152003999,28927000000,,702168.8901193105,-1416187193072999936,0.0,114.79716799545011,1112.763789377744,0.0,0,2,0.0,16431,350421918666701,1797,12.5,680.8464170624552,0.14999,16,0.0,0.0,1575420030,,,,0,0.0,1,6.0,12.5,0.0,0.0,0.0,66.7128,C,30888093000000,
Raw,1732152003999,28927000000,,702168.8901193105,-1416187193072999936,0.0,114.79716799545011,1112.763789377744,0.0,0,6,0.0,16431,350421918866684,797,16.916000366210938,-325.4072909109871,0.14999,16,0.0,0.0,1575420030,,,,0,0.0,1,6.0,16.916000366210938,0.0,0.0,0.0,66.7128,C,30888093000000,
Raw,1732152003999,28927000000,,702168.8901193105,-1416187193072999936,0.0,114.79716799545011,1112.763789377744,0.0,0,7,0.0,16431,350421916848996,487,20.80699920654297,973.8215522010275,0.14999,16,0.0,0.0,1575420030,,,,0,3.60217659445211,1,6.0,20.80699920654297,0.0,0.0,0.0,66.7128,C,30888093000000,
Raw,1732152003999,28927000000,,702168.8901193105,-1416187193072999936,0.0,114.79716799545011,1112.763789377744,0.0,0,15,0.0,16431,350421924876927,396,20.134000778198242,514.4779923610257,0.14999,16,0.0,0.0,1575420030,,,,0,4.721709709299334,1,6.0,20.134000778198242,0.0,0.0,0.0,66.7128,C,30888093000000,
Raw,1732152003999,28927000000,,702168.8901193105,-1416187193072999936,0.0,114.79716799545011,1112.763789377744,0.0,0,13,0.0,16431,350421928802454,797,19.68199920654297,710.5483975478413,0.14999,16,0.0,0.0,1575420030,,,,0,0.0,1,6.0,19.68199920654297,0.0,0.0,0.0,66.7128,C,30888093000000,
Raw,1732152003999,28927000000,,702168.8901193105,-1416187193072999936,0.0,114.79716799545011,1112.763789377744,0.0,0,30,0.0,16431,350421925875212,797,19.959999084472656,852.700001132198,0.14999,16,0.0,0.0,1575420030,,,,0,1.0573227640948248,1,6.0,19.959999084472656,0.0,0.0,0.0,66.7128,C,30888093000000,
Status,1732152004000,27,0,1,17,1575420030,0.00,80.0,79.0,0,0,0,0.0
Status,1732152004000,27,1,1,22,1575420030,0.00,15.0,66.0,0,0,0,0.0
Status,1732152004000,27,2,1,19,1575420030,0.00,200.0,62.0,0,0,0,0.0
Status,1732152004000,27,3,1,14,1575420030,0.00,53.0,52.0,0,0,0,0.0
Status,1732152004000,27,4,1,13,1575420030,24.60,234.0,47.0,1,0,0,19.6
Status,1732152004000,27,5,2,138,1575420030,0.00,156.0,43.0,0,0,0,0.0
Status,1732152004000,27,6,1,30,1575420030,24.90,132.0,36.0,1,0,0,19.9
Status,1732152004000,27,7,1,15,1575420030,27.80,274.0,30.0,1,0,0,22.8
Status,1732152004000,27,8,1,2,1575420030,17.50,47.0,17.0,1,0,0,12.5
Status,1732152004000,27,9,1,24,1575420030,0.00,313.0,17.0,0,0,0,0.0
Status,1732152004000,27,10,1,6,1575420030,21.80,162.0,12.0,1,0,0,16.8
Status,1732152004000,27,11,1,21,1575420030,0.00,33.0,4.0,0,0,0,0.0
Status,1732152004000,27,12,1,7,1575420030,25.80,132.0,4.0,0,0,0,20.8
Status,1732152004000,27,13,3,20,1602000000,0.00,113.0,54.0,0,0,0,0.0
Status,1732152004000,27,14,3,9,1602000000,0.00,81.0,33.0,0,0,0,0.0
Status,1732152004000,27,15,3,11,1602000000,0.00,311.0,28.0,0,0,0,0.0
Status,1732152004000,27,16,3,19,1602000000,0.00,33.0,23.0,0,0,0,0.0
Status,1732152004000,27,17,3,8,1602000000,0.00,246.0,22.0,0,0,0,0.0
Status,1732152004000,27,18,6,21,1575420030,0.00,345.0,68.0,0,0,0,0.0
Status,1732152004000,27,19,6,19,1575420030,0.00,242.0,46.0,0,0,0,0.0
Status,1732152004000,27,20,6,27,1575420030,0.00,65.0,34.0,0,0,0,0.0
Status,1732152004000,27,21,6,13,1575420030,0.00,120.0,29.0,0,0,0,0.0
Status,1732152004000,27,22,6,15,1575420030,0.00,61.0,24.0,0,0,0,0.0
Status,1732152004000,27,23,6,29,1575420030,0.00,191.0,24.0,0,0,0,0.0
Status,1732152004000,27,24,6,4,1575420030,28.40,311.0,23.0,1,0,0,23.4
Status,1732152004000,27,25,6,26,1575420030,0.00,167.0,6.0,0,0,0,0.0
Status,1732152004000,27,26,6,6,1575420030,0.00,327.0,5.0,0,0,0,0.0
Fix,GPS,37.4252750000,-122.1584166667,23.8,0.0,4.7,0.0,1732152005000,3.4,179.9,30889093000000,66.5,0,,,
Raw,1732152004999,29927000000,,702133.0319790767,-1416187193072999936,0.0,115.27172674676294,1116.311565067549,0.0,0,2,0.0,16431,350422918664428,1797,12.5,682.1094355655549,0.14999,16,0.0,0.0,1575420030,,,,0,0.0,1,6.0,12.5,0.0,0.0,0.0,66.7128,C,30889093000000,
Raw,1732152004999,29927000000,,702133.0319790767,-1416187193072999936,0.0,115.27172674676294,1116.311565067549,0.0,0,6,0.0,16431,350422918867755,797,16.81999969482422,-324.4872284363536,0.14999,16,0.0,0.0,1575420030,,,,0,0.0,1,6.0,16.81999969482422,0.0,0.0,0.0,66.7128,C,30889093000000,
Raw,1732152004999,29927000000,,702133.0319790767,-1416187193072999936,0.0,115.27172674676294,1116.311565067549,0.0,0,7,0.0,16431,350422916845747,797,20.80699920654297,974.6298357262585,0.14999,16,0.0,0.0,1575420030,,,,0,3.60217659445211,1,6.0,20.80699920654297,0.0,0.0,0.0,66.7128,C,30889093000000,
Raw,1732152004999,29927000000,,702133.0319790767,-1416187193072999936,0.0,115.27172674676294,1116.311565067549,0.0,0,15,0.0,16431,350422924875207,487,22.81800079345703,515.4424226231403,0.14999,16,0.0,0.0,1575420030,,,,0,6.85959438759248,1,6.0,22.81800079345703,0.0,0.0,0.0,66.7128,C,30889093000000,
Raw,1732152004999,29927000000,,702133.0319790767,-1416187193072999936,0.0,115.27172674676294,1116.311565067549,0.0,0,13,0.0,16431,350422928800082,396,19.607999801635742,712.1931183985268,0.14999,16,0.0,0.0,1575420030,,,,0,0.0,1,6.0,19.607999801635742,0.0,0.0,0.0,66.7128,C,30889093000000,
Raw,1732152004999,29927000000,,702133.0319790767,-1416187193072999936,0.0,115.27172674676294,1116.311565067549,0.0,0,4,0.0,16431,350422911637023,396,23.399999618530273,81.00935451265079,0.14999,16,0.0,0.0,1575420030,,,,0,8.97908284030371,6,6.0,23.399999618530273,0.0,0.0,-45.460795188125125,66.7128,C,30889093000000,
Raw,1732152004999,29927000000,,702133.0319790767,-1416187193072999936,0.0,115.27172674676294,1116.311565067549,0.0,0,30,0.0,16431,350422925872365,797,19.92799949645996,854.2026521461117,0.14999,16,0.0,0.0,1575420030,,,,0,1.0573227640948248,1,6.0,19.92799949645996,0.0,0.0,0.0,66.7128,C,30889093000000,
Fix,FLP,37.4252689000,-122.1584156000,5.400000095367432,0.4096737,4.642,180.0,1732152005246,3.4,179.9,30889093000000,21.80187,0,,,
Fix,FLP,37.4252707000,-122.1584160000,5.400000095367432,0.39727625,4.666,180.0,1732152005434,3.4,179.9,30889282000000,14.814894,0,,,
Fix,NLP,37.4257100000,-122.1580822000,5.400000095367432,,20.569,,1732152005434,,,30889282000000,11.537861,0,,,
Status,1732152005000,27,0,1,17,1575420030,0.00,80.0,79.0,0,0,0,0.0
Status,1732152005000,27,1,1,22,1575420030,0.00,15.0,66.0,0,0,0,0.0
Status,1732152005000,27,2,1,19,1575420030,0.00,200.0,62.0,0,0,0,0.0
Status,1732152005000,27,3,1,14,1575420030,0.00,53.0,52.0,0,0,0,0.0
Status,1732152005000,27,4,1,13,1575420030,31.00,234.0,47.0,1,0,0,26.0
Status,1732152005000,27,5,2,138,1575420030,0.00,156.0,43.0,0,0,0,0.0
Status,1732152005000,27,6,1,30,1575420030,24.90,132.0,36.0,1,0,0,19.9
Status,1732152005000,27,7,1,15,1575420030,24.60,274.0,30.0,1,0,0,19.6
Status,1732152005000,27,8,1,2,1575420030,16.50,47.0,17.0,1,0,0,11.5
Status,1732152005000,27,9,1,24,1575420030,0.00,313.0,17.0,0,0,0,0.0
Status,1732152005000,27,10,1,6,1575420030,23.50,162.0,12.0,1,0,0,18.5
Status,1732152005000,27,11,1,21,1575420030,0.00,33.0,4.0,0,0,0,0.0
Status,1732152005000,27,12,1,7,1575420030,21.90,132.0,4.0,0,0,0,16.9
Status,1732152005000,27,13,3,20,1602000000,0.00,113.0,54.0,0,0,0,0.0
Status,1732152005000,27,14,3,9,1602000000,0.00,81.0,33.0,0,0,0,0.0
Status,1732152005000,27,15,3,11,1602000000,0.00,311.0,28.0,0,0,0,0.0
Status,1732152005000,27,16,3,19,1602000000,0.00,33.0,23.0,0,0,0,0.0
Status,1732152005000,27,17,3,8,1602000000,23.40,246.0,22.0,1,0,0,18.4
Status,1732152005000,27,18,6,21,1575420030,0.00,345.0,68.0,0,0,0,0.0
Status,1732152005000,27,19,6,19,1575420030,0.00,242.0,46.0,0,0,0,0.0
Status,1732152005000,27,20,6,27,1575420030,0.00,65.0,34.0,0,0,0,0.0
Status,1732152005000,27,21,6,13,1575420030,0.00,120.0,29.0,0,0,0,0.0
Status,1732152005000,27,22,6,15,1575420030,0.00,61.0,24.0,0,0,0,0.0
Status,1732152005000,27,23,6,29,1575420030,0.00,191.0,24.0,0,0,0,0.0
Status,1732152005000,27,24,6,4,1575420030,28.40,311.0,23.0,1,0,0,23.4
Status,1732152005000,27,25,6,26,1575420030,0.00,167.0,6.0,0,0,0,0.0
Status,1732152005000,27,26,6,6,1575420030,0.00,327.0,5.0,0,0,0,0.0
Fix,GPS,37.4252916667,-122.1584116667,23.8,0.0,4.7,0.0,1732152006000,3.2,150.3,30890093000000,63.4,0,,,
Raw,1732152005999,30927000000,,702091.6491835162,-1416187193072999936,0.0,111.09619506038929,1119.6883593352559,0.0,0,2,0.0,16431,350423918662151,1797,11.5,682.9873137982693,0.14999,16,0.0,0.0,1575420030,,,,0,0.0,1,6.0,11.5,0.0,0.0,0.0,66.7128,C,30890093000000,
Raw,1732152005999,30927000000,,702091.6491835162,-1416187193072999936,0.0,111.09619506038929,1119.6883593352559,0.0,0,6,0.0,16431,350423918868849,797,18.507999420166016,-323.21510408367664,0.14999,16,0.0,0.0,1575420030,,,,0,0.0,1,6.0,18.507999420166016,0.0,0.0,0.0,66.7128,C,30890093000000,
Raw,1732152005999,30927000000,,702091.6491835162,-1416187193072999936,0.0,111.09619506038929,1119.6883593352559,0.0,0,7,0.0,16431,350423916842502,797,16.916000366210938,975.539956099823,0.14999,16,0.0,0.0,1575420030,,,,0,0.0,1,6.0,16.916000366210938,0.0,0.0,0.0,66.7128,C,30890093000000,
Raw,1732152005999,30927000000,,702091.6491835162,-1416187193072999936,0.0,111.09619506038929,1119.6883593352559,0.0,0,15,0.0,16431,350423924873487,487,19.579999923706055,516.5748465182722,0.14999,16,0.0,0.0,1575420030,,,,0,1.5366658792327086,1,6.0,19.579999923706055,0.0,0.0,0.0,66.7128,C,30890093000000,
Raw,1732152005999,30927000000,,702091.6491835162,-1416187193072999936,0.0,111.09619506038929,1119.6883593352559,0.0,0,13,0.0,16431,350423928797686,316,26.011999130249023,712.5745419956154,0.14999,16,0.0,0.0,1575420030,,,,0,11.45927812230947,1,6.0,26.011999130249023,0.0,0.0,0.0,66.7128,C,30890093000000,
