# 
# Header Description:
# 
# Version: v3.1.0.3 Platform: 13 Manufacturer: samsung Model: SM-S135DL GNSS Hardware Model Name: MediaTek,MT6631,MTK_MNLD_default,MNL_VER_default
# 
# Raw,utcTimeMillis,TimeNanos,LeapSecond,TimeUncertaintyNanos,FullBiasNanos,BiasNanos,BiasUncertaintyNanos,DriftNanosPerSecond,DriftUncertaintyNanosPerSecond,HardwareClockDiscontinuityCount,Svid,TimeOffsetNanos,State,ReceivedSvTimeNanos,ReceivedSvTimeUncertaintyNanos,Cn0DbHz,PseudorangeRateMetersPerSecond,PseudorangeRateUncertaintyMetersPerSecond,AccumulatedDeltaRangeState,AccumulatedDeltaRangeMeters,AccumulatedDeltaRangeUncertaintyMeters,CarrierFrequencyHz,CarrierCycles,CarrierPhase,CarrierPhaseUncertainty,MultipathIndicator,SnrInDb,ConstellationType,AgcDb,BasebandCn0DbHz,FullInterSignalBiasNanos,FullInterSignalBiasUncertaintyNanos,SatelliteInterSignalBiasNanos,SatelliteInterSignalBiasUncertaintyNanos,CodeType,ChipsetElapsedRealtimeNanos,IsFullTracking
# 
# UncalAccel,utcTimeMillis,elapsedRealtimeNanos,UncalAccelXMps2,UncalAccelYMps2,UncalAccelZMps2,BiasXMps2,BiasYMps2,BiasZMps2
# 
# Accel,utcTimeMillis,elapsedRealtimeNanos,AccelXMps2,AccelYMps2,AccelZMps2
# 
# UncalGyro,utcTimeMillis,elapsedRealtimeNanos,UncalGyroXRadPerSec,UncalGyroYRadPerSec,UncalGyroZRadPerSec,DriftXRadPerSec,DriftYRadPerSec,DriftZRadPerSec
# 
# Gyro,utcTimeMillis,elapsedRealtimeNanos,GyroXRadPerSec,GyroYRadPerSec,GyroZRadPerSec
# 
# UncalMag,utcTimeMillis,elapsedRealtimeNanos,UncalMagXMicroT,UncalMagYMicroT,UncalMagZMicroT,BiasXMicroT,BiasYMicroT,BiasZMicroT
# 
# Mag,utcTimeMillis,elapsedRealtimeNanos,MagXMicroT,MagYMicroT,MagZMicroT
# 
# Pressure,utcTimeMillis,elapsedRealtimeNanos,PressureHpa
# 
# OrientationDeg,utcTimeMillis,elapsedRealtimeNanos,yawDeg,rollDeg,pitchDeg
# 
# Fix,Provider,LatitudeDegrees,LongitudeDegrees,AltitudeMeters,SpeedMps,AccuracyMeters,BearingDegrees,UnixTimeMillis,SpeedAccuracyMps,BearingAccuracyDegrees,elapsedRealtimeNanos,VerticalAccuracyMeters,MockLocation,NumberOfUsedSignals,VerticalSpeedAccuracyMps,SolutionType
# 
# Nav,Svid,Type,Status,MessageId,Sub-messageId,Data(Bytes)
# 
# Status,UnixTimeMillis,SignalCount,SignalIndex,ConstellationType,Svid,CarrierFrequencyHz,Cn0DbHz,AzimuthDegrees,ElevationDegrees,UsedInFix,HasAlmanacData,HasEphemerisData,BasebandCn0DbHz
# 
# Agc,utcTimeMillis,TimeNanos,LeapSecond,TimeUncertaintyNanos,FullBiasNanos,BiasNanos,BiasUncertaintyNanos,DriftNanosPerSecond,DriftUncertaintyNanosPerSecond,HardwareClockDiscontinuityCount,AgcDb,CarrierFrequencyHz,ConstellationType
# 
Fix,FLP,37.4254579000,-122.1582656000,5.400000095367432,0.42914137,6.15,0.000000000039896877,1732151954314,2.4,86.0,30838161000000,11.717499,0,,,
Status,,27,0,1,17,1575420030,0.00,82.0,79.0,0,0,0,0.0
Status,,27,1,1,22,1575420030,0.00,14.0,66.0,0,0,0,0.0
Status,,27,2,1,19,1575420030,0.00,200.0,61.0,0,0,0,0.0
Status,,27,3,1,14,1575420030,0.00,53.0,52.0,0,0,0,0.0
Status,,27,4,1,13,1575420030,29.90,234.0,47.0,1,0,0,24.9
Status,,27,5,2,133,1575420030,0.00,191.0,45.0,0,0,0,0.0
Status,,27,6,1,30,1575420030,27.80,131.0,36.0,1,0,0,22.8
Status,,27,7,1,15,1575420030,21.30,274.0,30.0,1,0,0,16.3
Status,,27,8,1,2,1575420030,0.00,47.0,17.0,0,0,0,0.0
Status,,27,9,1,24,1575420030,0.00,313.0,17.0,0,0,0,0.0
Status,,27,10,1,6,1575420030,18.40,162.0,12.0,1,0,0,13.4
Status,,27,11,1,21,1575420030,0.00,33.0,4.0,0,0,0,0.0
Status,,27,12,1,7,1575420030,29.50,132.0,4.0,0,0,0,24.5
Status,,27,13,3,20,1602000000,0.00,113.0,53.0,0,0,0,0.0
Status,,27,14,3,9,1602000000,0.00,81.0,33.0,0,0,0,0.0
Status,,27,15,3,11,1602000000,0.00,311.0,28.0,0,0,0,0.0
Status,,27,16,3,19,1602000000,0.00,33.0,23.0,0,0,0,0.0
Status,,27,17,3,8,1602000000,25.40,246.0,22.0,1,0,0,20.4
Status,,27,18,6,21,1575420030,0.00,344.0,68.0,0,0,0,0.0
Status,,27,19,6,19,1575420030,0.00,243.0,46.0,0,0,0,0.0
Status,,27,20,6,27,1575420030,0.00,64.0,34.0,0,0,0,0.0
Status,,27,21,6,13,1575420030,0.00,120.0,29.0,0,0,0,0.0
Status,,27,22,6,29,1575420030,0.00,191.0,25.0,0,0,0,0.0
Status,,27,23,6,15,1575420030,0.00,62.0,24.0,0,0,0,0.0
Status,,27,24,6,4,1575420030,0.00,311.0,23.0,0,0,0,0.0
Status,,27,25,6,26,1575420030,0.00,167.0,6.0,0,0,0,0.0
Status,,27,26,6,6,1575420030,0.00,327.0,5.0,0,0,0,0.0
Fix,GPS,37.4254783333,-122.1582466667,23.8,0.0,6.3,0.0,1732151955000,2.4,86.5,30839091000000,52.0,0,,,
Fix,FLP,37.4254675000,-122.1582594000,5.400000095367432,0.40849924,6.171,0.00000000005852221,1732151955243,2.4,86.5,30839091000000,12.057868,0,,,
Raw,1732151955000,20976000000,,694697.83617772,-1416187152024000000,0.0,180.47159471815775,1134.8932846564533,0.0,0,13,0.0,16431,350372928918750,797,24.885000228881836,712.9124805151308,0.14999,16,0.0,0.0,1575420030,,,,0,9.892519289318528,1,6.0,24.885000228881836,0.0,0.0,0.0,66.7128,C,30839091000000,
Raw,1732151955000,20976000000,,694697.83617772,-1416187152024000000,0.0,180.47159471815775,1134.8932846564533,0.0,0,6,0.0,16431,350372918813995,797,13.399999618530273,-318.121124579856,0.14999,16,0.0,0.0,1575420030,,,,0,0.0,1,6.0,13.399999618530273,0.0,0.0,0.0,66.7128,C,30839091000000,
Raw,1732151955000,20976000000,,694697.83617772,-1416187152024000000,0.0,180.47159471815775,1134.8932846564533,0.0,0,7,0.0,16431,350372917008380,396,24.45800018310547,978.0348659671613,0.14999,16,0.0,0.0,1575420030,,,,0,9.279658331169598,1,6.0,24.45800018310547,0.0,0.0,0.0,66.7128,C,30839091000000,
Raw,1732151955000,20976000000,,694697.83617772,-1416187152024000000,0.0,180.47159471815775,1134.8932846564533,0.0,0,30,0.0,16431,350372926014646,487,22.77199935913086,854.7280968334529,0.14999,16,0.0,0.0,1575420030,,,,0,6.77332078647699,1,6.0,22.77199935913086,0.0,0.0,0.0,66.7128,C,30839091000000,
Raw,1732151955000,20976000000,,694697.83617772,-1416187152024000000,0.0,180.47159471815775,1134.8932846564533,0.0,0,15,0.0,16431,350372924961054,797,16.29599952697754,516.2097762836897,0.14999,16,0.0,0.0,1575420030,,,,0,0.0,1,6.0,16.29599952697754,0.0,0.0,0.0,66.7128,C,30839091000000,
Raw,1732151955000,20976000000,,694697.83617772,-1416187152024000000,0.0,180.47159471815775,1134.8932846564533,0.0,0,8,0.0,17,567352,487,5.0,923.5051462806392,0.14999,16,0.0,0.0,1605374980,,,,0,4.819663633612494,3,6.0,20.0,0.0,0.0,104.92349648749075,66.7128,C,30839091000000,
Status,1732151955000,27,0,1,17,1575420030,0.00,82.0,79.0,0,0,0,0.0
Status,1732151955000,27,1,1,22,1575420030,0.00,14.0,66.0,0,0,0,0.0
Status,1732151955000,27,2,1,19,1575420030,0.00,200.0,61.0,0,0,0,0.0
Status,1732151955000,27,3,1,14,1575420030,0.00,53.0,52.0,0,0,0,0.0
Status,1732151955000,27,4,1,13,1575420030,29.90,234.0,47.0,1,0,0,24.9
Status,1732151955000,27,5,2,133,1575420030,0.00,191.0,45.0,0,0,0,0.0
Status,1732151955000,27,6,1,30,1575420030,32.10,131.0,36.0,1,0,0,27.099998
Status,1732151955000,27,7,1,15,1575420030,21.30,274.0,30.0,1,0,0,16.3
Status,1732151955000,27,8,1,2,1575420030,0.00,47.0,17.0,0,0,0,0.0
Status,1732151955000,27,9,1,24,1575420030,0.00,313.0,17.0,0,0,0,0.0
Status,1732151955000,27,10,1,6,1575420030,22.20,162.0,12.0,1,0,0,17.2
Status,1732151955000,27,11,1,21,1575420030,0.00,33.0,4.0,0,0,0,0.0
Status,1732151955000,27,12,1,7,1575420030,28.90,132.0,4.0,0,0,0,23.9
Status,1732151955000,27,13,3,20,1602000000,0.00,113.0,53.0,0,0,0,0.0
Status,1732151955000,27,14,3,9,1602000000,0.00,81.0,33.0,0,0,0,0.0
Status,1732151955000,27,15,3,11,1602000000,0.00,311.0,28.0,0,0,0,0.0
Status,1732151955000,27,16,3,19,1602000000,0.00,33.0,23.0,0,0,0,0.0
Status,1732151955000,27,17,3,8,1602000000,24.50,246.0,22.0,1,0,0,19.5
Status,1732151955000,27,18,6,21,1575420030,0.00,344.0,68.0,0,0,0,0.0
Status,1732151955000,27,19,6,19,1575420030,0.00,243.0,46.0,0,0,0,0.0
Status,1732151955000,27,20,6,27,1575420030,0.00,64.0,34.0,0,0,0,0.0
Status,1732151955000,27,21,6,13,1575420030,0.00,120.0,29.0,0,0,0,0.0
Status,1732151955000,27,22,6,29,1575420030,0.00,191.0,25.0,0,0,0,0.0
Status,1732151955000,27,23,6,15,1575420030,0.00,62.0,24.0,0,0,0,0.0
Status,1732151955000,27,24,6,4,1575420030,0.00,311.0,23.0,0,0,0,0.0
Status,1732151955000,27,25,6,26,1575420030,0.00,167.0,6.0,0,0,0,0.0
Status,1732151955000,27,26,6,6,1575420030,0.00,327.0,5.0,0,0,0,0.0
Fix,GPS,37.4254783333,-122.1582500000,23.8,0.0,6.4,0.0,1732151956000,2.4,102.4,30840091000000,51.9,0,,,
Fix,FLP,37.4254736000,-122.1582561000,5.400000095367432,0.34202382,6.214,0.00000000004610532,1732151956243,2.4,102.4,30840091000000,12.64015,0,,,
Raw,1732151956000,21976000000,,694673.3921838688,-1416187152024000000,0.0,180.95878885866628,1134.572613348868,0.0,0,13,0.0,16431,350373928916374,487,24.885000228881836,711.7252821472867,0.14999,16,0.0,0.0,1575420030,,,,0,9.892519289318528,1,6.0,24.885000228881836,0.0,0.0,0.0,66.7128,C,30840091000000,
Raw,1732151956000,21976000000,,694673.3921838688,-1416187152024000000,0.0,180.95878885866628,1134.572613348868,0.0,0,6,0.0,16431,350373918815058,797,17.214000701904297,-318.18254260608626,0.14999,16,0.0,0.0,1575420030,,,,0,0.0,1,6.0,17.214000701904297,0.0,0.0,0.0,66.7128,C,30840091000000,
Raw,1732151956000,21976000000,,694673.3921838688,-1416187152024000000,0.0,180.95878885866628,1134.572613348868,0.0,0,7,0.0,16431,350373917005120,396,23.885000228881836,978.1498970056986,0.14999,16,0.0,0.0,1575420030,,,,0,8.422272347614618,1,6.0,23.885000228881836,0.0,0.0,0.0,66.7128,C,30840091000000,
Raw,1732151956000,21976000000,,694673.3921838688,-1416187152024000000,0.0,180.95878885866628,1134.572613348868,0.0,0,30,0.0,16431,350373926011786,316,27.072999954223633,854.8489816324327,0.14999,16,0.0,0.0,1575420030,,,,0,12.869254126345867,1,6.0,27.072999954223633,0.0,0.0,0.0,66.7128,C,30840091000000,
Raw,1732151956000,21976000000,,694673.3921838688,-1416187152024000000,0.0,180.95878885866628,1134.572613348868,0.0,0,15,0.0,16431,350373924959333,797,16.327999114990234,516.0427118189967,0.14999,16,0.0,0.0,1575420030,,,,0,0.0,1,6.0,16.327999114990234,0.0,0.0,0.0,66.7128,C,30840091000000,
Raw,1732151956000,21976000000,,694673.3921838688,-1416187152024000000,0.0,180.95878885866628,1134.572613348868,0.0,0,8,0.0,17,564289,487,5.0,924.1884722778544,0.14999,16,0.0,0.0,1605374980,,,,0,3.3686502906402596,3,6.0,20.0,0.0,0.0,104.92349648749075,66.7128,C,30840091000000,
Status,1732151956000,27,0,1,17,1575420030,0.00,82.0,79.0,0,0,0,0.0
Status,1732151956000,27,1,1,22,1575420030,0.00,14.0,66.0,0,0,0,0.0
Status,1732151956000,27,2,1,19,1575420030,0.00,200.0,61.0,0,0,0,0.0
Status,1732151956000,27,3,1,14,1575420030,0.00,53.0,52.0,0,0,0,0.0
Status,1732151956000,27,4,1,13,1575420030,30.00,234.0,47.0,1,0,0,25.0
Status,1732151956000,27,5,2,133,1575420030,0.00,191.0,45.0,0,0,0,0.0
Status,1732151956000,27,6,1,30,1575420030,30.70,131.0,36.0,1,0,0,25.7
Status,1732151956000,27,7,1,15,1575420030,24.00,274.0,30.0,1,0,0,19.0
Status,1732151956000,27,8,1,2,1575420030,0.00,47.0,17.0,0,0,0,0.0
Status,1732151956000,27,9,1,24,1575420030,0.00,313.0,17.0,0,0,0,0.0
Status,1732151956000,27,10,1,6,1575420030,22.20,162.0,12.0,1,0,0,17.2
Status,1732151956000,27,11,1,21,1575420030,0.00,33.0,4.0,0,0,0,0.0
Status,1732151956000,27,12,1,7,1575420030,31.00,132.0,4.0,0,0,0,26.0
Status,1732151956000,27,13,3,20,1602000000,0.00,113.0,53.0,0,0,0,0.0
Status,1732151956000,27,14,3,9,1602000000,0.00,81.0,33.0,0,0,0,0.0
Status,1732151956000,27,15,3,11,1602000000,0.00,311.0,28.0,0,0,0,0.0
Status,1732151956000,27,16,3,19,1602000000,0.00,33.0,23.0,0,0,0,0.0
Status,1732151956000,27,17,3,8,1602000000,28.00,246.0,22.0,1,0,0,23.0
Status,1732151956000,27,18,6,21,1575420030,0.00,344.0,68.0,0,0,0,0.0
Status,1732151956000,27,19,6,19,1575420030,0.00,243.0,46.0,0,0,0,0.0
Status,1732151956000,27,20,6,27,1575420030,0.00,64.0,34.0,0,0,0,0.0
Status,1732151956000,27,21,6,13,1575420030,0.00,120.0,29.0,0,0,0,0.0
Status,1732151956000,27,22,6,29,1575420030,0.00,191.0,25.0,0,0,0,0.0
Status,1732151956000,27,23,6,15,1575420030,0.00,62.0,24.0,0,0,0,0.0
Status,1732151956000,27,24,6,4,1575420030,0.00,311.0,23.0,0,0,0,0.0
Status,1732151956000,27,25,6,26,1575420030,0.00,167.0,6.0,0,0,0,0.0
Status,1732151956000,27,26,6,6,1575420030,0.00,327.0,5.0,0,0,0,0.0
Fix,GPS,37.4254700000,-122.1582616667,23.8,0.0,6.4,0.0,1732151957000,2.3,133.2,30841091000000,51.7,0,,,
Raw,1732151957000,22976000000,,694636.0225813286,-1416187152024000000,0.0,180.1853198076594,1129.6782649973982,0.0,0,13,0.0,16431,350374928914025,316,24.990999221801758,710.537061694286,0.14999,16,0.0,0.0,1575420030,,,,0,12.778775291144944,1,6.0,24.990999221801758,0.0,0.0,0.0,66.7128,C,30841091000000,
Raw,1732151957000,22976000000,,694636.0225813286,-1416187152024000000,0.0,180.1853198076594,1129.6782649973982,0.0,0,6,0.0,16431,350374918816123,797,17.214000701904297,-319.79827340505636,0.14999,16,0.0,0.0,1575420030,,,,0,0.0,1,6.0,17.214000701904297,0.0,0.0,0.0,66.7128,C,30841091000000,
Raw,1732151957000,22976000000,,694636.0225813286,-1416187152024000000,0.0,180.1853198076594,1129.6782649973982,0.0,0,7,0.0,16431,350374917001877,316,25.968000411987305,977.6893082673873,0.14999,16,0.0,0.0,1575420030,,,,0,11.36626207608983,1,6.0,25.968000411987305,0.0,0.0,0.0,66.7128,C,30841091000000,
Raw,1732151957000,22976000000,,694636.0225813286,-1416187152024000000,0.0,180.1853198076594,1129.6782649973982,0.0,0,30,0.0,16431,350374926008941,316,25.749000549316406,854.1732904270666,0.14999,16,0.0,0.0,1575420030,,,,0,11.076100994375066,1,6.0,25.749000549316406,0.0,0.0,0.0,66.7128,C,30841091000000,
Raw,1732151957000,22976000000,,694636.0225813286,-1416187152024000000,0.0,180.1853198076594,1129.6782649973982,0.0,0,15,0.0,16431,350374924957594,797,18.993000030517578,514.3414046173667,0.14999,16,0.0,0.0,1575420030,,,,0,0.4759788568790446,1,6.0,18.993000030517578,0.0,0.0,0.0,66.7128,C,30841091000000,
Raw,1732151957000,22976000000,,694636.0225813286,-1416187152024000000,0.0,180.1853198076594,1129.6782649973982,0.0,0,8,0.0,17,561210,487,5.0,921.6191154658009,0.14999,16,0.0,0.0,1605374980,,,,0,8.442137561281848,3,6.0,18.0,0.0,0.0,104.92349648749075,66.7128,C,30841091000000,
Fix,FLP,37.4254732000,-122.1582581000,5.400000095367432,0.20499909,6.257,0.0,1732151957244,2.3,133.2,30841091000000,13.297232,0,,,
Status,1732151957000,27,0,1,17,1575420030,0.00,82.0,79.0,0,0,0,0.0
Status,1732151957000,27,1,1,22,1575420030,0.00,14.0,66.0,0,0,0,0.0
Status,1732151957000,27,2,1,19,1575420030,18.90,200.0,61.0,1,0,0,13.9
Status,1732151957000,27,3,1,14,1575420030,0.00,53.0,52.0,0,0,0,0.0
Status,1732151957000,27,4,1,13,1575420030,29.50,234.0,47.0,1,0,0,24.5
Status,1732151957000,27,5,2,133,1575420030,0.00,191.0,45.0,0,0,0,0.0
Status,1732151957000,27,6,1,30,1575420030,28.60,131.0,36.0,1,0,0,23.6
Status,1732151957000,27,7,1,15,1575420030,24.00,274.0,30.0,1,0,0,19.0
Status,1732151957000,27,8,1,2,1575420030,0.00,47.0,17.0,0,0,0,0.0
Status,1732151957000,27,9,1,24,1575420030,0.00,313.0,17.0,0,0,0,0.0
Status,1732151957000,27,10,1,6,1575420030,22.20,162.0,12.0,1,0,0,17.2
Status,1732151957000,27,11,1,21,1575420030,0.00,33.0,4.0,0,0,0,0.0
Status,1732151957000,27,12,1,7,1575420030,30.30,132.0,4.0,0,0,0,25.3
Status,1732151957000,27,13,3,20,1602000000,0.00,113.0,53.0,0,0,0,0.0
Status,1732151957000,27,14,3,9,1602000000,0.00,81.0,33.0,0,0,0,0.0
Status,1732151957000,27,15,3,11,1602000000,0.00,311.0,28.0,0,0,0,0.0
Status,1732151957000,27,16,3,19,1602000000,0.00,33.0,23.0,0,0,0,0.0
Status,1732151957000,27,17,3,8,1602000000,0.00,246.0,22.0,0,0,0,0.0
Status,1732151957000,27,18,6,21,1575420030,0.00,344.0,68.0,0,0,0,0.0
Status,1732151957000,27,19,6,19,1575420030,0.00,243.0,46.0,0,0,0,0.0
Status,1732151957000,27,20,6,27,1575420030,0.00,64.0,34.0,0,0,0,0.0
Status,1732151957000,27,21,6,13,1575420030,0.00,120.0,29.0,0,0,0,0.0
Status,1732151957000,27,22,6,29,1575420030,0.00,191.0,25.0,0,0,0,0.0
Status,1732151957000,27,23,6,15,1575420030,0.00,62.0,24.0,0,0,0,0.0
Status,1732151957000,27,24,6,4,1575420030,0.00,311.0,23.0,0,0,0,0.0
Status,1732151957000,27,25,6,26,1575420030,0.00,167.0,6.0,0,0,0,0.0
Status,1732151957000,27,26,6,6,1575420030,0.00,327.0,5.0,0,0,0,0.0
Fix,GPS,37.4254766667,-122.1582583333,23.8,0.0,6.5,0.0,1732151958000,2.3,135.5,30842091000000,50.1,0,,,
Fix,FLP,37.4254754000,-122.1582582000,5.400000095367432,0.1559221,6.314,0.0,1732151958243,2.3,135.5,30842091000000,11.647613,0,,,
Raw,1732151958000,23976000000,,694620.438883756,-1416187152024000000,0.0,177.28271769264472,1128.2072822979062,0.0,0,13,0.0,16431,350375928911650,316,24.45800018310547,711.148315076368,0.14999,16,0.0,0.0,1575420030,,,,0,9.279658331169598,1,6.0,24.45800018310547,0.0,0.0,0.0,66.7128,C,30842091000000,
Raw,1732151958000,23976000000,,694620.438883756,-1416187152024000000,0.0,177.28271769264472,1128.2072822979062,0.0,0,6,0.0,16431,350375918817190,797,17.214000701904297,-320.51196759488266,0.14999,16,0.0,0.0,1575420030,,,,0,0.0,1,6.0,17.214000701904297,0.0,0.0,0.0,66.7128,C,30842091000000,
Raw,1732151958000,23976000000,,694620.438883756,-1416187152024000000,0.0,177.28271769264472,1128.2072822979062,0.0,0,7,0.0,16431,350375916998619,487,25.341999053955078,976.7673874561054,0.14999,16,0.0,0.0,1575420030,,,,0,10.504454641153913,1,6.0,25.341999053955078,0.0,0.0,0.0,66.7128,C,30842091000000,
Raw,1732151958000,23976000000,,694620.438883756,-1416187152024000000,0.0,177.28271769264472,1128.2072822979062,0.0,0,30,0.0,16431,350375926006092,487,23.59600067138672,852.9945474909729,0.14999,16,0.0,0.0,1575420030,,,,0,8.012242727311518,1,6.0,23.59600067138672,0.0,0.0,0.0,66.7128,C,30842091000000,
Raw,1732151958000,23976000000,,694620.438883756,-1416187152024000000,0.0,177.28271769264472,1128.2072822979062,0.0,0,15,0.0,16431,350375924955879,487,18.958999633789062,513.8467154015569,0.14999,16,0.0,0.0,1575420030,,,,0,0.0,1,6.0,18.958999633789062,0.0,0.0,0.0,66.7128,C,30842091000000,
Raw,1732151958000,23976000000,,694620.438883756,-1416187152024000000,0.0,177.28271769264472,1128.2072822979062,0.0,0,19,0.0,16431,350375930841429,797,13.899999618530273,-40.357659598227144,0.14999,16,0.0,0.0,1575420030,,,,0,0.0,1,6.0,13.899999618530273,0.0,0.0,0.0,66.7128,C,30842091000000,
Fix,FLP,37.4254765000,-122.1582582000,5.900000095367432,0.11186924,6.357,0.0,1732151959163,2.3,135.5,30843011000000,13.101289,0,,,
Fix,NLP,37.4257421000,-122.1580522000,5.900000095367432,,26.343,,1732151959163,,,30843011000000,22.459476,0,,,
Status,1732151958000,26,0,1,17,1575420030,0.00,82.0,79.0,0,0,0,0.0
Status,1732151958000,26,1,1,22,1575420030,0.00,14.0,66.0,0,0,0,0.0
Status,1732151958000,26,2,1,19,1575420030,23.40,200.0,61.0,1,0,0,18.4
Status,1732151958000,26,3,1,14,1575420030,0.00,53.0,52.0,0,0,0,0.0
Status,1732151958000,26,4,1,13,1575420030,29.40,234.0,47.0,1,0,0,24.4
Status,1732151958000,26,5,1,30,1575420030,26.50,131.0,36.0,1,0,0,21.5
Status,1732151958000,26,6,1,15,1575420030,23.90,274.0,30.0,1,0,0,18.9
Status,1732151958000,26,7,1,2,1575420030,0.00,47.0,17.0,0,0,0,0.0
Status,1732151958000,26,8,1,24,1575420030,0.00,313.0,17.0,0,0,0,0.0
Status,1732151958000,26,9,1,6,1575420030,19.40,162.0,12.0,1,0,0,14.4
Status,1732151958000,26,10,1,21,1575420030,0.00,33.0,4.0,0,0,0,0.0
Status,1732151958000,26,11,1,7,1575420030,25.00,132.0,4.0,0,0,0,20.0
Status,1732151958000,26,12,3,20,1602000000,0.00,113.0,53.0,0,0,0,0.0
Status,1732151958000,26,13,3,9,1602000000,0.00,81.0,33.0,0,0,0,0.0
Status,1732151958000,26,14,3,11,1602000000,0.00,311.0,28.0,0,0,0,0.0
Status,1732151958000,26,15,3,19,1602000000,0.00,33.0,23.0,0,0,0,0.0
Status,1732151958000,26,16,3,8,1602000000,22.10,246.0,22.0,1,0,0,17.1
Status,1732151958000,26,17,6,21,1575420030,0.00,344.0,68.0,0,0,0,0.0
Status,1732151958000,26,18,6,19,1575420030,0.00,243.0,46.0,0,0,0,0.0
Status,1732151958000,26,19,6,27,1575420030,0.00,64.0,34.0,0,0,0,0.0
Status,1732151958000,26,20,6,13,1575420030,0.00,120.0,29.0,0,0,0,0.0
Status,1732151958000,26,21,6,29,1575420030,0.00,191.0,25.0,0,0,0,0.0
Status,1732151958000,26,22,6,15,1575420030,0.00,62.0,24.0,0,0,0,0.0
Status,1732151958000,26,23,6,4,1575420030,0.00,311.0,23.0,0,0,0,0.0
Status,1732151958000,26,24,6,26,1575420030,0.00,167.0,6.0,0,0,0,0.0
Status,1732151958000,26,25,6,6,1575420030,0.00,327.0,5.0,0,0,0,0.0
Fix,GPS,37.4254850000,-122.1582533333,23.8,0.0,6.5,0.0,1732151959000,2.3,133.4,30843091000000,53.3,0,,,
Raw,1732151959000,24976000000,,694595.9427705149,-1416187152024000000,0.0,174.89072272530885,1124.8272732684093,0.0,0,13,0.0,16431,350376928909281,487,24.43000030517578,710.0402353913305,0.14999,16,0.0,0.0,1575420030,,,,0,9.234182365309529,1,6.0,24.43000030517578,0.0,0.0,0.0,66.7128,C,30843091000000,
Raw,1732151959000,24976000000,,694595.9427705149,-1416187152024000000,0.0,174.89072272530885,1124.8272732684093,0.0,0,6,0.0,16431,350376918818262,797,14.399999618530273,-321.1239178532079,0.14999,16,0.0,0.0,1575420030,,,,0,0.0,1,6.0,14.399999618530273,0.0,0.0,0.0,66.7128,C,30843091000000,
Raw,1732151959000,24976000000,,694595.9427705149,-1416187152024000000,0.0,174.89072272530885,1124.8272732684093,0.0,0,7,0.0,16431,350376916995364,487,19.996000289916992,975.4063416948014,0.14999,16,0.0,0.0,1575420030,,,,0,2.2756050596402195,1,6.0,19.996000289916992,0.0,0.0,0.0,66.7128,C,30843091000000,
Raw,1732151959000,24976000000,,694595.9427705149,-1416187152024000000,0.0,174.89072272530885,1124.8272732684093,0.0,0,30,0.0,16431,350376926003248,487,21.49799919128418,852.9525490827185,0.14999,16,0.0,0.0,1575420030,,,,0,4.7361999956595975,1,6.0,21.49799919128418,0.0,0.0,0.0,66.7128,C,30843091000000,
Raw,1732151959000,24976000000,,694595.9427705149,-1416187152024000000,0.0,174.89072272530885,1124.8272732684093,0.0,0,15,0.0,16431,350376924954152,797,18.892000198364258,512.528039715837,0.14999,16,0.0,0.0,1575420030,,,,0,0.0,1,6.0,18.892000198364258,0.0,0.0,0.0,66.7128,C,30843091000000,
Raw,1732151959000,24976000000,,694595.9427705149,-1416187152024000000,0.0,174.89072272530885,1124.8272732684093,0.0,0,8,0.0,17,555045,797,5.0,926.423187188416,0.14999,16,0.0,0.0,1605374980,,,,0,0.0,3,6.0,16.0,0.0,0.0,104.83463391741063,66.7128,C,30843091000000,
Raw,1732151959000,24976000000,,694595.9427705149,-1416187152024000000,0.0,174.89072272530885,1124.8272732684093,0.0,0,19,0.0,16431,350376930841558,797,18.389999389648438,-42.00612035141757,0.14999,16,0.0,0.0,1575420030,,,,0,0.0,1,6.0,18.389999389648438,0.0,0.0,0.0,66.7128,C,30843091000000,
Status,1732151959000,26,0,1,17,1575420030,0.00,82.0,79.0,0,0,0,0.0
Status,1732151959000,26,1,1,22,1575420030,0.00,14.0,66.0,0,0,0,0.0
Status,1732151959000,26,2,1,19,1575420030,23.40,200.0,61.0,1,0,0,18.4
Status,1732151959000,26,3,1,14,1575420030,0.00,53.0,52.0,0,0,0,0.0
Status,1732151959000,26,4,1,13,1575420030,29.40,234.0,47.0,1,0,0,24.4
Status,1732151959000,26,5,1,30,1575420030,25.00,131.0,36.0,1,0,0,20.0
Status,1732151959000,26,6,1,15,1575420030,23.80,274.0,30.0,1,0,0,18.8
Status,1732151959000,26,7,1,2,1575420030,0.00,47.0,17.0,0,0,0,0.0
Status,1732151959000,26,8,1,24,1575420030,0.00,313.0,17.0,0,0,0,0.0
Status,1732151959000,26,9,1,6,1575420030,19.40,162.0,12.0,1,0,0,14.4
Status,1732151959000,26,10,1,21,1575420030,0.00,33.0,4.0,0,0,0,0.0
Status,1732151959000,26,11,1,7,1575420030,29.30,132.0,4.0,0,0,0,24.3
Status,1732151959000,26,12,3,20,1602000000,0.00,113.0,53.0,0,0,0,0.0
Status,1732151959000,26,13,3,9,1602000000,0.00,81.0,33.0,0,0,0,0.0
Status,1732151959000,26,14,3,11,1602000000,0.00,311.0,28.0,0,0,0,0.0
Status,1732151959000,26,15,3,19,1602000000,0.00,33.0,23.0,0,0,0,0.0
Status,1732151959000,26,16,3,8,1602000000,20.80,246.0,22.0,1,0,0,15.799999
Status,1732151959000,26,17,6,21,1575420030,0.00,344.0,68.0,0,0,0,0.0
Status,1732151959000,26,18,6,19,1575420030,0.00,243.0,46.0,0,0,0,0.0
Status,1732151959000,26,19,6,27,1575420030,0.00,64.0,34.0,0,0,0,0.0
Status,1732151959000,26,20,6,13,1575420030,0.00,120.0,29.0,0,0,0,0.0
Status,1732151959000,26,21,6,29,1575420030,0.00,191.0,25.0,0,0,0,0.0
Status,1732151959000,26,22,6,15,1575420030,0.00,62.0,24.0,0,0,0,0.0
Status,1732151959000,26,23,6,4,1575420030,0.00,311.0,23.0,0,0,0,0.0
Status,1732151959000,26,24,6,26,1575420030,0.00,167.0,6.0,0,0,0,0.0
Status,1732151959000,26,25,6,6,1575420030,0.00,327.0,5.0,0,0,0,0.0
Fix,GPS,37.4254966667,-122.1582466667,23.8,0.0,6.5,0.0,1732151960000,2.3,123.8,30844091000000,57.3,0,,,
Raw,1732151960000,25976000000,,694567.7982999826,-1416187152024000000,0.0,132.30831593436127,1122.622960906667,0.0,0,13,0.0,16431,350377928906911,797,24.43000030517578,709.8386058649768,0.14999,16,0.0,0.0,1575420030,,,,0,9.234182365309529,1,6.0,24.43000030517578,0.0,0.0,0.0,66.7128,C,30844091000000,
Raw,1732151960000,25976000000,,694567.7982999826,-1416187152024000000,0.0,132.30831593436127,1122.622960906667,0.0,0,6,0.0,16431,350377918819333,797,14.399999618530273,-321.37516496807444,0.14999,16,0.0,0.0,1575420030,,,,0,0.0,1,6.0,14.399999618530273,0.0,0.0,0.0,66.7128,C,30844091000000,
Raw,1732151960000,25976000000,,694567.7982999826,-1416187152024000000,0.0,132.30831593436127,1122.622960906667,0.0,0,7,0.0,16431,350377916992105,396,24.312999725341797,975.0972073933366,0.14999,16,0.0,0.0,1575420030,,,,0,9.049859487970895,1,6.0,24.312999725341797,0.0,0.0,0.0,66.7128,C,30844091000000,
Raw,1732151960000,25976000000,,694567.7982999826,-1416187152024000000,0.0,132.30831593436127,1122.622960906667,0.0,0,30,0.0,16431,350377926000403,487,20.049999237060547,852.3678234562927,0.14999,16,0.0,0.0,1575420030,,,,0,2.3766049143730514,1,6.0,20.049999237060547,0.0,0.0,0.0,66.7128,C,30844091000000,
Raw,1732151960000,25976000000,,694567.7982999826,-1416187152024000000,0.0,132.30831593436127,1122.622960906667,0.0,0,15,0.0,16431,350377924952443,797,18.82900047302246,512.0007366918475,0.14999,16,0.0,0.0,1575420030,,,,0,0.0,1,6.0,18.82900047302246,0.0,0.0,0.0,66.7128,C,30844091000000,
Raw,1732151960000,25976000000,,694567.7982999826,-1416187152024000000,0.0,132.30831593436127,1122.622960906667,0.0,0,8,0.0,17,551964,797,5.0,923.9822161521938,0.14999,16,0.0,0.0,1605374980,,,,0,0.0,3,6.0,16.0,0.0,0.0,104.74854489955173,66.7128,C,30844091000000,
Raw,1732151960000,25976000000,,694567.7982999826,-1416187152024000000,0.0,132.30831593436127,1122.622960906667,0.0,0,19,0.0,16431,350377930841701,797,18.389999389648438,-43.70078399952938,0.14999,16,0.0,0.0,1575420030,,,,0,0.0,1,6.0,18.389999389648438,0.0,0.0,0.0,66.7128,C,30844091000000,
Fix,FLP,37.4254863000,-122.1582535000,5.900000095367432,0.16299412,6.442,0.0000000003655348,1732151960243,2.3,123.8,30844091000000,18.724659,0,,,
Status,1732151960000,26,0,1,17,1575420030,0.00,82.0,79.0,0,0,0,0.0
Status,1732151960000,26,1,1,22,1575420030,0.00,14.0,66.0,0,0,0,0.0
Status,1732151960000,26,2,1,19,1575420030,23.40,200.0,61.0,1,0,0,18.4
Status,1732151960000,26,3,1,14,1575420030,0.00,53.0,52.0,0,0,0,0.0
Status,1732151960000,26,4,1,13,1575420030,19.70,234.0,47.0,1,0,0,14.700001
Status,1732151960000,26,5,1,30,1575420030,25.00,131.0,36.0,1,0,0,20.0
Status,1732151960000,26,6,1,15,1575420030,23.90,274.0,30.0,1,0,0,18.9
Status,1732151960000,26,7,1,2,1575420030,0.00,47.0,17.0,0,0,0,0.0
Status,1732151960000,26,8,1,24,1575420030,0.00,313.0,17.0,0,0,0,0.0
Status,1732151960000,26,9,1,6,1575420030,19.40,162.0,12.0,1,0,0,14.4
Status,1732151960000,26,10,1,21,1575420030,0.00,33.0,4.0,0,0,0,0.0
Status,1732151960000,26,11,1,7,1575420030,29.60,132.0,4.0,0,0,0,24.6
Status,1732151960000,26,12,3,20,1602000000,0.00,113.0,53.0,0,0,0,0.0
Status,1732151960000,26,13,3,9,1602000000,0.00,81.0,33.0,0,0,0,0.0
Status,1732151960000,26,14,3,11,1602000000,0.00,311.0,28.0,0,0,0,0.0
Status,1732151960000,26,15,3,19,1602000000,0.00,33.0,23.0,0,0,0,0.0
Status,1732151960000,26,16,3,8,1602000000,20.80,246.0,22.0,1,0,0,15.799999
Status,1732151960000,26,17,6,21,1575420030,0.00,344.0,68.0,0,0,0,0.0
Status,1732151960000,26,18,6,19,1575420030,0.00,243.0,46.0,0,0,0,0.0
Status,1732151960000,26,19,6,27,1575420030,0.00,64.0,34.0,0,0,0,0.0
Status,1732151960000,26,20,6,13,1575420030,0.00,120.0,29.0,0,0,0,0.0
Status,1732151960000,26,21,6,29,1575420030,0.00,191.0,25.0,0,0,0,0.0
Status,1732151960000,26,22,6,15,1575420030,0.00,62.0,24.0,0,0,0,0.0
Status,1732151960000,26,23,6,4,1575420030,0.00,311.0,23.0,0,0,0,0.0
Status,1732151960000,26,24,6,26,1575420030,0.00,167.0,6.0,0,0,0,0.0
Status,1732151960000,26,25,6,6,1575420030,0.00,327.0,5.0,0,0,0,0.0
Fix,GPS,37.4255016667,-122.1582433333,23.8,0.0,6.5,0.0,1732151961000,2.2,125.3,30845091000000,57.1,0,,,
Fix,FLP,37.4254934000,-122.1582499000,5.900000095367432,0.18683074,6.471,0.00000000027276437,1732151961243,2.2,125.3,30845091000000,20.360765,0,,,
Raw,1732151961000,26976000000,,694538.7156804325,-1416187152024000000,0.0,130.80961626179453,1120.908888240985,0.0,0,13,0.0,16431,350378928904547,797,14.699999809265137,709.4858935691063,0.14999,16,0.0,0.0,1575420030,,,,0,0.0,1,6.0,14.699999809265137,0.0,0.0,0.0,66.7128,C,30845091000000,
Raw,1732151961000,26976000000,,694538.7156804325,-1416187152024000000,0.0,130.80961626179453,1120.908888240985,0.0,0,6,0.0,16431,350378918820402,1797,14.364999771118164,-321.8162411715773,0.14999,16,0.0,0.0,1575420030,,,,0,0.0,1,6.0,14.364999771118164,0.0,0.0,0.0,66.7128,C,30845091000000,
Raw,1732151961000,26976000000,,694538.7156804325,-1416187152024000000,0.0,130.80961626179453,1120.908888240985,0.0,0,7,0.0,16431,350378916988853,396,24.631999969482422,974.7289779864518,0.14999,16,0.0,0.0,1575420030,,,,0,9.503533859305676,1,6.0,24.631999969482422,0.0,0.0,0.0,66.7128,C,30845091000000,
Raw,1732151961000,26976000000,,694538.7156804325,-1416187152024000000,0.0,130.80961626179453,1120.908888240985,0.0,0,30,0.0,16431,350378925997560,487,20.049999237060547,852.6050401294636,0.14999,16,0.0,0.0,1575420030,,,,0,2.3766049143730514,1,6.0,20.049999237060547,0.0,0.0,0.0,66.7128,C,30845091000000,
Raw,1732151961000,26976000000,,694538.7156804325,-1416187152024000000,0.0,130.80961626179453,1120.908888240985,0.0,0,15,0.0,16431,350378924950723,487,18.895000457763672,512.0568584586298,0.14999,16,0.0,0.0,1575420030,,,,0,2.5751481790332758,1,6.0,18.895000457763672,0.0,0.0,0.0,66.7128,C,30845091000000,
Raw,1732151961000,26976000000,,694538.7156804325,-1416187152024000000,0.0,130.80961626179453,1120.908888240985,0.0,0,8,0.0,17,548885,797,5.0,921.8986827873197,0.14999,16,0.0,0.0,1605374980,,,,0,0.0,3,6.0,17.0,0.0,0.0,104.66110587825048,66.7128,C,30845091000000,
Raw,1732151961000,26976000000,,694538.7156804325,-1416187152024000000,0.0,130.80961626179453,1120.908888240985,0.0,0,19,0.0,16431,350378930841847,1797,18.389999389648438,-44.22214034624404,0.14999,16,0.0,0.0,1575420030,,,,0,0.0,1,6.0,18.389999389648438,0.0,0.0,0.0,66.7128,C,30845091000000,
Status,1732151961000,26,0,1,17,1575420030,0.00,82.0,79.0,0,0,0,0.0
Status,1732151961000,26,1,1,22,1575420030,0.00,14.0,66.0,0,0,0,0.0
Status,1732151961000,26,2,1,19,1575420030,17.90,200.0,61.0,1,0,0,12.9
Status,1732151961000,26,3,1,14,1575420030,0.00,53.0,52.0,0,0,0,0.0
Status,1732151961000,26,4,1,13,1575420030,19.70,234.0,47.0,1,0,0,14.700001
Status,1732151961000,26,5,1,30,1575420030,24.10,131.0,36.0,1,0,0,19.1
Status,1732151961000,26,6,1,15,1575420030,24.00,274.0,30.0,1,0,0,19.0
Status,1732151961000,26,7,1,2,1575420030,0.00,47.0,17.0,0,0,0,0.0
Status,1732151961000,26,8,1,24,1575420030,0.00,313.0,17.0,0,0,0,0.0
Status,1732151961000,26,9,1,6,1575420030,19.30,162.0,12.0,1,0,0,14.299999
Status,1732151961000,26,10,1,21,1575420030,0.00,33.0,4.0,0,0,0,0.0
Status,1732151961000,26,11,1,7,1575420030,32.10,132.0,4.0,0,0,0,27.099998
Status,1732151961000,26,12,3,20,1602000000,0.00,113.0,53.0,0,0,0,0.0
Status,1732151961000,26,13,3,9,1602000000,0.00,81.0,33.0,0,0,0,0.0
Status,1732151961000,26,14,3,11,1602000000,0.00,311.0,28.0,0,0,0,0.0
Status,1732151961000,26,15,3,19,1602000000,0.00,33.0,23.0,0,0,0,0.0
Status,1732151961000,26,16,3,8,1602000000,21.00,246.0,22.0,1,0,0,16.0
Status,1732151961000,26,17,6,21,1575420030,0.00,344.0,68.0,0,0,0,0.0
Status,1732151961000,26,18,6,19,1575420030,0.00,243.0,46.0,0,0,0,0.0
Status,1732151961000,26,19,6,27,1575420030,0.00,64.0,34.0,0,0,0,0.0
Status,1732151961000,26,20,6,13,1575420030,0.00,120.0,29.0,0,0,0,0.0
Status,1732151961000,26,21,6,29,1575420030,0.00,191.0,25.0,0,0,0,0.0
Status,1732151961000,26,22,6,15,1575420030,0.00,62.0,24.0,0,0,0,0.0
Status,1732151961000,26,23,6,4,1575420030,0.00,311.0,23.0,0,0,0,0.0
Status,1732151961000,26,24,6,26,1575420030,0.00,167.0,6.0,0,0,0,0.0
Status,1732151961000,26,25,6,6,1575420030,0.00,327.0,5.0,0,0,0,0.0
Fix,GPS,37.4255083333,-122.1582400000,23.8,0.0,6.5,0.0,1732151962000,2.2,121.5,30846091000000,57.2,0,,,
Raw,1732151962000,27976000000,,694513.6983732927,-1416187152024000000,0.0,130.55861355557664,1120.8524596972252,0.0,0,13,0.0,16431,350379928902181,797,14.699999809265137,709.9931265572931,0.14999,16,0.0,0.0,1575420030,,,,0,0.0,1,6.0,14.699999809265137,0.0,0.0,0.0,66.7128,C,30846091000000,
Raw,1732151962000,27976000000,,694513.6983732927,-1416187152024000000,0.0,130.55861355557664,1120.8524596972252,0.0,0,6,0.0,16431,350379918821476,797,14.331000328063965,-321.8667879284144,0.14999,16,0.0,0.0,1575420030,,,,0,0.0,1,6.0,14.331000328063965,0.0,0.0,0.0,66.7128,C,30846091000000,
Raw,1732151962000,27976000000,,694513.6983732927,-1416187152024000000,0.0,130.55861355557664,1120.8524596972252,0.0,0,7,0.0,16431,350379916985598,396,27.114999771118164,975.4946126856015,0.14999,16,0.0,0.0,1575420030,,,,0,12.89920549960376,1,6.0,27.114999771118164,0.0,0.0,0.0,66.7128,C,30846091000000,
Raw,1732151962000,27976000000,,694513.6983732927,-1416187152024000000,0.0,130.55861355557664,1120.8524596972252,0.0,0,30,0.0,16431,350379925994717,797,19.05699920654297,852.6368176861517,0.14999,16,0.0,0.0,1575420030,,,,0,0.6000651049047407,1,6.0,19.05699920654297,0.0,0.0,0.0,66.7128,C,30846091000000,
Raw,1732151962000,27976000000,,694513.6983732927,-1416187152024000000,0.0,130.55861355557664,1120.8524596972252,0.0,0,15,0.0,16431,350379924949014,797,18.95800018310547,512.2662929989069,0.14999,16,0.0,0.0,1575420030,,,,0,2.5751481790332758,1,6.0,18.95800018310547,0.0,0.0,0.0,66.7128,C,30846091000000,
Raw,1732151962000,27976000000,,694513.6983732927,-1416187152024000000,0.0,130.55861355557664,1120.8524596972252,0.0,0,8,0.0,17,545808,797,5.0,923.8864739187969,0.14999,16,0.0,0.0,1605374980,,,,0,0.0,3,6.0,16.0,0.0,0.0,104.56273627412146,66.7128,C,30846091000000,
Raw,1732151962000,27976000000,,694513.6983732927,-1416187152024000000,0.0,130.55861355557664,1120.8524596972252,0.0,0,19,0.0,16431,350379930841985,1797,12.899999618530273,-43.714396315479064,0.14999,16,0.0,0.0,1575420030,,,,0,0.0,1,6.0,12.899999618530273,0.0,0.0,0.0,66.7128,C,30846091000000,
Fix,FLP,37.4255005000,-122.1582463000,5.900000095367432,0.20162445,6.485,0.00000000023256216,1732151962243,2.2,121.5,30846091000000,21.660484,0,,,
Status,1732151962000,26,0,1,17,1575420030,0.00,82.0,79.0,0,0,0,0.0
Status,1732151962000,26,1,1,22,1575420030,0.00,14.0,66.0,0,0,0,0.0
Status,1732151962000,26,2,1,19,1575420030,17.90,200.0,61.0,1,0,0,12.9
Status,1732151962000,26,3,1,14,1575420030,0.00,53.0,52.0,0,0,0,0.0
Status,1732151962000,26,4,1,13,1575420030,19.70,234.0,47.0,1,0,0,14.700001
Status,1732151962000,26,5,1,30,1575420030,24.10,131.0,36.0,1,0,0,19.1
Status,1732151962000,26,6,1,15,1575420030,23.90,274.0,30.0,1,0,0,18.9
Status,1732151962000,26,7,1,2,1575420030,0.00,47.0,17.0,0,0,0,0.0
Status,1732151962000,26,8,1,24,1575420030,0.00,313.0,17.0,0,0,0,0.0
Status,1732151962000,26,9,1,6,1575420030,19.30,162.0,12.0,1,0,0,14.299999
Status,1732151962000,26,10,1,21,1575420030,0.00,33.0,4.0,0,0,0,0.0
Status,1732151962000,26,11,1,7,1575420030,26.80,132.0,4.0,0,0,0,21.8
Status,1732151962000,26,12,3,20,1602000000,0.00,113.0,53.0,0,0,0,0.0
Status,1732151962000,26,13,3,9,1602000000,0.00,81.0,33.0,0,0,0,0.0
Status,1732151962000,26,14,3,11,1602000000,0.00,311.0,28.0,0,0,0,0.0
Status,1732151962000,26,15,3,19,1602000000,0.00,33.0,23.0,0,0,0,0.0
Status,1732151962000,26,16,3,8,1602000000,20.80,246.0,22.0,1,0,0,15.799999
Status,1732151962000,26,17,6,21,1575420030,0.00,344.0,68.0,0,0,0,0.0
Status,1732151962000,26,18,6,19,1575420030,0.00,243.0,46.0,0,0,0,0.0
Status,1732151962000,26,19,6,27,1575420030,0.00,64.0,34.0,0,0,0,0.0
Status,1732151962000,26,20,6,13,1575420030,0.00,120.0,29.0,0,0,0,0.0
Status,1732151962000,26,21,6,29,1575420030,0.00,191.0,25.0,0,0,0,0.0
Status,1732151962000,26,22,6,15,1575420030,0.00,62.0,24.0,0,0,0,0.0
Status,1732151962000,26,23,6,4,1575420030,0.00,311.0,23.0,0,0,0,0.0
Status,1732151962000,26,24,6,26,1575420030,0.00,167.0,6.0,0,0,0,0.0
Status,1732151962000,26,25,6,6,1575420030,0.00,327.0,5.0,0,0,0,0.0
Fix,GPS,37.4255150000,-122.1582400000,23.8,0.0,6.5,0.0,1732151963000,2.2,120.3,30847091000000,57.5,0,,,
Raw,1732151963000,28976000000,,694490.8700805275,-1416187152024000000,0.0,130.65008970152616,1122.170170153231,0.0,0,13,0.0,16431,350380928899812,1797,14.699999809265137,710.3730634850629,0.14999,16,0.0,0.0,1575420030,,,,0,0.0,1,6.0,14.699999809265137,0.0,0.0,0.0,66.7128,C,30847091000000,
Raw,1732151963000,28976000000,,694490.8700805275,-1416187152024000000,0.0,130.65008970152616,1122.170170153231,0.0,0,6,0.0,16431,350380918822549,797,14.298999786376953,-321.5006026918429,0.14999,16,0.0,0.0,1575420030,,,,0,0.0,1,6.0,14.298999786376953,0.0,0.0,0.0,66.7128,C,30847091000000,
Raw,1732151963000,28976000000,,694490.8700805275,-1416187152024000000,0.0,130.65008970152616,1122.170170153231,0.0,0,7,0.0,16431,350380916982342,487,21.757999420166016,976.081475399173,0.14999,16,0.0,0.0,1575420030,,,,0,5.183640870759897,1,6.0,21.757999420166016,0.0,0.0,0.0,66.7128,C,30847091000000,
Raw,1732151963000,28976000000,,694490.8700805275,-1416187152024000000,0.0,130.65008970152616,1122.170170153231,0.0,0,30,0.0,16431,350380925991871,797,19.05699920654297,853.615324848378,0.14999,16,0.0,0.0,1575420030,,,,0,0.6000651049047407,1,6.0,19.05699920654297,0.0,0.0,0.0,66.7128,C,30847091000000,
Raw,1732151963000,28976000000,,694490.8700805275,-1416187152024000000,0.0,130.65008970152616,1122.170170153231,0.0,0,15,0.0,16431,350380924947312,797,18.902999877929688,512.6856266636232,0.14999,16,0.0,0.0,1575420030,,,,0,0.0,1,6.0,18.902999877929688,0.0,0.0,0.0,66.7128,C,30847091000000,
Raw,1732151963000,28976000000,,694490.8700805275,-1416187152024000000,0.0,130.65008970152616,1122.170170153231,0.0,0,8,0.0,17,542728,487,5.0,923.4207107490912,0.14999,16,0.0,0.0,1605374980,,,,0,0.0,3,6.0,18.0,0.0,0.0,104.48024324782266,66.7128,C,30847091000000,
Raw,1732151963000,28976000000,,694490.8700805275,-1416187152024000000,0.0,130.65008970152616,1122.170170153231,0.0,0,19,0.0,16431,350380930842131,1797,12.899999618530273,-43.69288606877358,0.14999,16,0.0,0.0,1575420030,,,,0,0.0,1,6.0,12.899999618530273,0.0,0.0,0.0,66.7128,C,30847091000000,
Fix,FLP,37.4255075000,-122.1582440000,5.900000095367432,0.2092964,6.5,0.0000000001308353,1732151963244,2.2,120.3,30847091000000,21.291077,0,,,
Status,1732151963000,26,0,1,17,1575420030,0.00,82.0,79.0,0,0,0,0.0
Status,1732151963000,26,1,1,22,1575420030,0.00,14.0,66.0,0,0,0,0.0
Status,1732151963000,26,2,1,19,1575420030,16.20,200.0,61.0,1,0,0,11.200001
Status,1732151963000,26,3,1,14,1575420030,0.00,53.0,52.0,0,0,0,0.0
Status,1732151963000,26,4,1,13,1575420030,19.60,234.0,47.0,1,0,0,14.6
Status,1732151963000,26,5,1,30,1575420030,24.00,131.0,36.0,1,0,0,19.0
Status,1732151963000,26,6,1,15,1575420030,23.90,274.0,30.0,1,0,0,18.9
Status,1732151963000,26,7,1,2,1575420030,0.00,47.0,17.0,0,0,0,0.0
Status,1732151963000,26,8,1,24,1575420030,0.00,313.0,17.0,0,0,0,0.0
Status,1732151963000,26,9,1,6,1575420030,19.20,162.0,12.0,1,0,0,14.200001
Status,1732151963000,26,10,1,21,1575420030,0.00,33.0,4.0,0,0,0,0.0
Status,1732151963000,26,11,1,7,1575420030,27.30,132.0,4.0,0,0,0,22.3
Status,1732151963000,26,12,3,20,1602000000,0.00,113.0,53.0,0,0,0,0.0
Status,1732151963000,26,13,3,9,1602000000,0.00,81.0,33.0,0,0,0,0.0
Status,1732151963000,26,14,3,11,1602000000,0.00,311.0,28.0,0,0,0,0.0
Status,1732151963000,26,15,3,19,1602000000,0.00,33.0,23.0,0,0,0,0.0
Status,1732151963000,26,16,3,8,1602000000,21.70,246.0,22.0,1,0,0,16.7
Status,1732151963000,26,17,6,21,1575420030,0.00,344.0,68.0,0,0,0,0.0
Status,1732151963000,26,18,6,19,1575420030,0.00,243.0,46.0,0,0,0,0.0
Status,1732151963000,26,19,6,27,1575420030,0.00,64.0,34.0,0,0,0,0.0
Status,1732151963000,26,20,6,13,1575420030,0.00,120.0,29.0,0,0,0,0.0
Status,1732151963000,26,21,6,29,1575420030,0.00,191.0,25.0,0,0,0,0.0
Status,1732151963000,26,22,6,15,1575420030,0.00,62.0,24.0,0,0,0,0.0
Status,1732151963000,26,23,6,4,1575420030,0.00,311.0,23.0,0,0,0,0.0
Status,1732151963000,26,24,6,26,1575420030,0.00,167.0,6.0,0,0,0,0.0
Status,1732151963000,26,25,6,6,1575420030,0.00,327.0,5.0,0,0,0,0.0
Fix,GPS,37.4255116667,-122.1582416667,23.8,0.0,6.4,0.0,1732151964000,2.1,121.1,30848091000000,56.4,0,,,
Raw,1732151964000,29976000000,,694459.7026853824,-1416187152024000000,0.0,127.68474327218722,1126.301864604968,0.0,0,13,0.0,16431,350381928897425,487,14.619999885559082,711.457217085752,0.14999,16,0.0,0.0,1575420030,,,,0,0.0,1,6.0,14.619999885559082,0.0,0.0,0.0,66.7128,C,30848091000000,
Raw,1732151964000,29976000000,,694459.7026853824,-1416187152024000000,0.0,127.68474327218722,1126.301864604968,0.0,0,6,0.0,16431,350381918823614,1797,14.199999809265137,-320.3198155854359,0.14999,16,0.0,0.0,1575420030,,,,0,0.0,1,6.0,14.199999809265137,0.0,0.0,0.0,66.7128,C,30848091000000,
Raw,1732151964000,29976000000,,694459.7026853824,-1416187152024000000,0.0,127.68474327218722,1126.301864604968,0.0,0,7,0.0,16431,350381916979083,487,22.283000946044922,977.2098574120946,0.14999,16,0.0,0.0,1575420030,,,,0,6.014797821592301,1,6.0,22.283000946044922,0.0,0.0,0.0,66.7128,C,30848091000000,
Raw,1732151964000,29976000000,,694459.7026853824,-1416187152024000000,0.0,127.68474327218722,1126.301864604968,0.0,0,30,0.0,16431,350381925989021,487,19.0049991607666,854.5055610198044,0.14999,16,0.0,0.0,1575420030,,,,0,0.0,1,6.0,19.0049991607666,0.0,0.0,0.0,66.7128,C,30848091000000,
Raw,1732151964000,29976000000,,694459.7026853824,-1416187152024000000,0.0,127.68474327218722,1126.301864604968,0.0,0,15,0.0,16431,350381924945590,487,18.90399932861328,513.933220972541,0.14999,16,0.0,0.0,1575420030,,,,0,0.35009419492527893,1,6.0,18.90399932861328,0.0,0.0,0.0,66.7128,C,30848091000000,
Raw,1732151964000,29976000000,,694459.7026853824,-1416187152024000000,0.0,127.68474327218722,1126.301864604968,0.0,0,8,0.0,17,539643,487,5.0,923.5242947273186,0.14999,16,0.0,0.0,1605374980,,,,0,0.0,3,6.0,18.0,0.0,0.0,104.37988432526143,66.7128,C,30848091000000,
Raw,1732151964000,29976000000,,694459.7026853824,-1416187152024000000,0.0,127.68474327218722,1126.301864604968,0.0,0,19,0.0,16431,350381930842273,1797,11.199999809265137,-42.17708732307235,0.14999,16,0.0,0.0,1575420030,,,,0,0.0,1,6.0,11.199999809265137,0.0,0.0,0.0,66.7128,C,30848091000000,
Fix,FLP,37.4255101000,-122.1582431000,5.900000095367432,0.15431364,6.483,0.000000000065493985,1732151964243,2.1,121.1,30848091000000,21.299652,0,,,
Fix,NLP,37.4257195000,-122.1580963000,5.400000095367432,,18.055,,1732151964342,,,30848189000000,10.405684,0,,,
Status,1732151964000,26,0,1,17,1575420030,0.00,82.0,79.0,0,0,0,0.0
Status,1732151964000,26,1,1,22,1575420030,0.00,14.0,66.0,0,0,0,0.0
Status,1732151964000,26,2,1,19,1575420030,16.20,200.0,61.0,1,0,0,11.200001
Status,1732151964000,26,3,1,14,1575420030,0.00,53.0,52.0,0,0,0,0.0
Status,1732151964000,26,4,1,13,1575420030,23.50,234.0,47.0,1,0,0,18.5
Status,1732151964000,26,5,1,30,1575420030,24.00,131.0,36.0,1,0,0,19.0
Status,1732151964000,26,6,1,15,1575420030,28.90,274.0,30.0,1,0,0,23.9
Status,1732151964000,26,7,1,2,1575420030,0.00,47.0,17.0,0,0,0,0.0
Status,1732151964000,26,8,1,24,1575420030,0.00,313.0,17.0,0,0,0,0.0
Status,1732151964000,26,9,1,6,1575420030,19.20,162.0,12.0,1,0,0,14.200001
Status,1732151964000,26,10,1,21,1575420030,0.00,33.0,4.0,0,0,0,0.0
Status,1732151964000,26,11,1,7,1575420030,27.30,132.0,4.0,0,0,0,22.3
Status,1732151964000,26,12,3,20,1602000000,0.00,113.0,53.0,0,0,0,0.0
Status,1732151964000,26,13,3,9,1602000000,0.00,81.0,33.0,0,0,0,0.0
Status,1732151964000,26,14,3,11,1602000000,0.00,311.0,28.0,0,0,0,0.0
Status,1732151964000,26,15,3,19,1602000000,0.00,33.0,23.0,0,0,0,0.0
Status,1732151964000,26,16,3,8,1602000000,23.70,246.0,22.0,1,0,0,18.7
Status,1732151964000,26,17,6,21,1575420030,0.00,344.0,68.0,0,0,0,0.0
Status,1732151964000,26,18,6,19,1575420030,0.00,243.0,46.0,0,0,0,0.0
Status,1732151964000,26,19,6,27,1575420030,0.00,64.0,34.0,0,0,0,0.0
Status,1732151964000,26,20,6,13,1575420030,0.00,120.0,29.0,0,0,0,0.0
Status,1732151964000,26,21,6,29,1575420030,0.00,191.0,25.0,0,0,0,0.0
Status,1732151964000,26,22,6,15,1575420030,0.00,62.0,24.0,0,0,0,0.0
Status,1732151964000,26,23,6,4,1575420030,0.00,311.0,23.0,0,0,0,0.0
Status,1732151964000,26,24,6,26,1575420030,0.00,167.0,6.0,0,0,0,0.0
Status,1732151964000,26,25,6,6,1575420030,0.00,327.0,5.0,0,0,0,0.0
Fix,GPS,37.4255016667,-122.1582483333,23.8,0.0,6.4,0.0,1732151965000,2.1,138.7,30849091000000,52.3,0,,,
Fix,FLP,37.4255077000,-122.1582446000,5.400000095367432,0.04656287,6.457,,1732151965243,2.1,,30849091000000,15.442278,0,,,
Raw,1732151965000,30976000000,,694426.8674697614,-1416187152024000000,0.0,119.00288210193676,1130.141638846478,0.0,0,13,0.0,16431,350382928895044,797,18.458999633789062,712.6283408415871,0.14999,16,0.0,0.0,1575420030,,,,0,0.0,1,6.0,18.458999633789062,0.0,0.0,0.0,66.7128,C,30849091000000,
Raw,1732151965000,30976000000,,694426.8674697614,-1416187152024000000,0.0,119.00288210193676,1130.141638846478,0.0,0,6,0.0,16431,350382918824681,797,14.199999809265137,-319.57425092208916,0.14999,16,0.0,0.0,1575420030,,,,0,0.0,1,6.0,14.199999809265137,0.0,0.0,0.0,66.7128,C,30849091000000,
Raw,1732151965000,30976000000,,694426.8674697614,-1416187152024000000,0.0,119.00288210193676,1130.141638846478,0.0,0,7,0.0,16431,350382916975824,797,22.283000946044922,978.1177477816809,0.14999,16,0.0,0.0,1575420030,,,,0,6.014797821592301,1,6.0,22.283000946044922,0.0,0.0,0.0,66.7128,C,30849091000000,
Raw,1732151965000,30976000000,,694426.8674697614,-1416187152024000000,0.0,119.00288210193676,1130.141638846478,0.0,0,30,0.0,16431,350382925986169,487,18.954999923706055,855.3602100444134,0.14999,16,0.0,0.0,1575420030,,,,0,0.0,1,6.0,18.954999923706055,0.0,0.0,0.0,66.7128,C,30849091000000,
Raw,1732151965000,30976000000,,694426.8674697614,-1416187152024000000,0.0,119.00288210193676,1130.141638846478,0.0,0,15,0.0,16431,350382924943870,396,23.945999145507812,515.450738679642,0.14999,16,0.0,0.0,1575420030,,,,0,8.521825181113625,1,6.0,23.945999145507812,0.0,0.0,0.0,66.7128,C,30849091000000,
Raw,1732151965000,30976000000,,694426.8674697614,-1416187152024000000,0.0,119.00288210193676,1130.141638846478,0.0,0,8,0.0,17,536565,487,5.0,923.6926186919382,0.14999,16,0.0,0.0,1605374980,,,,0,2.1734169440706137,3,6.0,20.0,0.0,0.0,103.11521373478857,66.7128,C,30849091000000,
Raw,1732151965000,30976000000,,694426.8674697614,-1416187152024000000,0.0,119.00288210193676,1130.141638846478,0.0,0,19,0.0,16431,350382930842413,797,11.199999809265137,-40.71025574805703,0.14999,16,0.0,0.0,1575420030,,,,0,0.0,1,6.0,11.199999809265137,0.0,0.0,0.0,66.7128,C,30849091000000,
Status,1732151965000,26,0,1,17,1575420030,0.00,82.0,79.0,0,0,0,0.0
Status,1732151965000,26,1,1,22,1575420030,0.00,14.0,66.0,0,0,0,0.0
Status,1732151965000,26,2,1,19,1575420030,16.20,200.0,61.0,1,0,0,11.200001
Status,1732151965000,26,3,1,14,1575420030,0.00,53.0,52.0,0,0,0,0.0
Status,1732151965000,26,4,1,13,1575420030,23.50,234.0,47.0,1,0,0,18.5
Status,1732151965000,26,5,1,30,1575420030,24.00,131.0,36.0,1,0,0,19.0
Status,1732151965000,26,6,1,15,1575420030,28.90,274.0,30.0,1,0,0,23.9
Status,1732151965000,26,7,1,2,1575420030,0.00,47.0,17.0,0,0,0,0.0
Status,1732151965000,26,8,1,24,1575420030,0.00,313.0,17.0,0,0,0,0.0
Status,1732151965000,26,9,1,6,1575420030,23.00,162.0,12.0,1,0,0,18.0
Status,1732151965000,26,10,1,21,1575420030,0.00,33.0,4.0,0,0,0,0.0
Status,1732151965000,26,11,1,7,1575420030,27.30,132.0,4.0,0,0,0,22.3
Status,1732151965000,26,12,3,20,1602000000,0.00,113.0,53.0,0,0,0,0.0
Status,1732151965000,26,13,3,9,1602000000,0.00,81.0,33.0,0,0,0,0.0
Status,1732151965000,26,14,3,11,1602000000,0.00,311.0,28.0,0,0,0,0.0
Status,1732151965000,26,15,3,19,1602000000,0.00,33.0,23.0,0,0,0,0.0
Status,1732151965000,26,16,3,8,1602000000,24.30,246.0,22.0,1,0,0,19.3
Status,1732151965000,26,17,6,21,1575420030,0.00,344.0,68.0,0,0,0,0.0
Status,1732151965000,26,18,6,19,1575420030,0.00,243.0,46.0,0,0,0,0.0
Status,1732151965000,26,19,6,27,1575420030,0.00,64.0,34.0,0,0,0,0.0
Status,1732151965000,26,20,6,13,1575420030,0.00,120.0,29.0,0,0,0,0.0
Status,1732151965000,26,21,6,29,1575420030,0.00,191.0,25.0,0,0,0,0.0
Status,1732151965000,26,22,6,15,1575420030,0.00,62.0,24.0,0,0,0,0.0
Status,1732151965000,26,23,6,4,1575420030,0.00,311.0,23.0,0,0,0,0.0
Status,1732151965000,26,24,6,26,1575420030,0.00,167.0,6.0,0,0,0,0.0
Status,1732151965000,26,25,6,6,1575420030,0.00,327.0,5.0,0,0,0,0.0
Fix,GPS,37.4254883333,-122.1582666667,23.8,0.0,6.4,0.0,1732151966000,2.1,170.7,30850091000000,52.7,0,,,
Raw,1732151966000,31976000000,,694394.9182837681,-1416187152024000000,0.0,118.80273906401212,1131.433241276651,0.0,0,13,0.0,16431,350383928892674,487,18.541000366210938,713.1634488795002,0.14999,16,0.0,0.0,1575420030,,,,0,2.476443825523032,1,6.0,18.541000366210938,0.0,0.0,0.0,66.7128,C,30850091000000,
Raw,1732151966000,31976000000,,694394.9182837681,-1416187152024000000,0.0,118.80273906401212,1131.433241276651,0.0,0,6,0.0,16431,350383918825736,487,18.020000457763672,-319.18455772691516,0.14999,16,0.0,0.0,1575420030,,,,0,0.0,1,6.0,18.020000457763672,0.0,0.0,0.0,66.7128,C,30850091000000,
Raw,1732151966000,31976000000,,694394.9182837681,-1416187152024000000,0.0,118.80273906401212,1131.433241276651,0.0,0,7,0.0,16431,350383916972560,797,22.283000946044922,978.9288188118845,0.14999,16,0.0,0.0,1575420030,,,,0,6.014797821592301,1,6.0,22.283000946044922,0.0,0.0,0.0,66.7128,C,30850091000000,
Raw,1732151966000,31976000000,,694394.9182837681,-1416187152024000000,0.0,118.80273906401212,1131.433241276651,0.0,0,30,0.0,16431,350383925983287,797,18.99799919128418,855.606811317659,0.14999,16,0.0,0.0,1575420030,,,,0,1.9653617360752698,1,6.0,18.99799919128418,0.0,0.0,0.0,66.7128,C,30850091000000,
Raw,1732151966000,31976000000,,694394.9182837681,-1416187152024000000,0.0,118.80273906401212,1131.433241276651,0.0,0,15,0.0,16431,350383924942143,487,23.882999420166016,515.4899960413399,0.14999,16,0.0,0.0,1575420030,,,,0,6.651411562282947,1,6.0,23.882999420166016,0.0,0.0,0.0,66.7128,C,30850091000000,
Raw,1732151966000,31976000000,,694394.9182837681,-1416187152024000000,0.0,118.80273906401212,1131.433241276651,0.0,0,8,0.0,17,533486,487,5.0,922.9088089411961,0.14999,16,0.0,0.0,1605374980,,,,0,3.1219099426333767,3,6.0,20.0,0.0,0.0,101.75258994320987,66.7128,C,30850091000000,
Raw,1732151966000,31976000000,,694394.9182837681,-1416187152024000000,0.0,118.80273906401212,1131.433241276651,0.0,0,19,0.0,16431,350383930842548,797,11.199999809265137,-40.87453270777749,0.14999,16,0.0,0.0,1575420030,,,,0,0.0,1,6.0,11.199999809265137,0.0,0.0,0.0,66.7128,C,30850091000000,
Fix,FLP,37.4254998000,-122.1582524000,5.400000095367432,0.060818646,6.442,,1732151966243,2.1,,30850091000000,16.137058,0,,,
Status,1732151966000,26,0,1,17,1575420030,0.00,82.0,79.0,0,0,0,0.0
Status,1732151966000,26,1,1,22,1575420030,0.00,14.0,66.0,0,0,0,0.0
Status,1732151966000,26,2,1,19,1575420030,18.70,200.0,61.0,1,0,0,13.700001
Status,1732151966000,26,3,1,14,1575420030,0.00,53.0,52.0,0,0,0,0.0
Status,1732151966000,26,4,1,13,1575420030,23.60,234.0,47.0,1,0,0,18.6
Status,1732151966000,26,5,1,30,1575420030,24.00,131.0,36.0,1,0,0,19.0
Status,1732151966000,26,6,1,15,1575420030,29.00,274.0,30.0,1,0,0,24.0
Status,1732151966000,26,7,1,2,1575420030,0.00,47.0,17.0,0,0,0,0.0
Status,1732151966000,26,8,1,24,1575420030,0.00,313.0,17.0,0,0,0,0.0
Status,1732151966000,26,9,1,6,1575420030,23.00,162.0,12.0,1,0,0,18.0
Status,1732151966000,26,10,1,21,1575420030,0.00,33.0,4.0,0,0,0,0.0
Status,1732151966000,26,11,1,7,1575420030,25.60,132.0,4.0,0,0,0,20.6
Status,1732151966000,26,12,3,20,1602000000,0.00,113.0,53.0,0,0,0,0.0
Status,1732151966000,26,13,3,9,1602000000,0.00,81.0,33.0,0,0,0,0.0
Status,1732151966000,26,14,3,11,1602000000,0.00,311.0,28.0,0,0,0,0.0
Status,1732151966000,26,15,3,19,1602000000,0.00,33.0,23.0,0,0,0,0.0
Status,1732151966000,26,16,3,8,1602000000,25.10,246.0,22.0,1,0,0,20.1
Status,1732151966000,26,17,6,21,1575420030,0.00,344.0,68.0,0,0,0,0.0
Status,1732151966000,26,18,6,19,1575420030,0.00,243.0,46.0,0,0,0,0.0
Status,1732151966000,26,19,6,27,1575420030,0.00,64.0,34.0,0,0,0,0.0
Status,1732151966000,26,20,6,13,1575420030,0.00,120.0,29.0,0,0,0,0.0
Status,1732151966000,26,21,6,29,1575420030,0.00,191.0,25.0,0,0,0,0.0
Status,1732151966000,26,22,6,15,1575420030,0.00,62.0,24.0,0,0,0,0.0
Status,1732151966000,26,23,6,4,1575420030,0.00,311.0,23.0,0,0,0,0.0
Status,1732151966000,26,24,6,26,1575420030,0.00,167.0,6.0,0,0,0,0.0
Status,1732151966000,26,25,6,6,1575420030,0.00,327.0,5.0,0,0,0,0.0
Fix,GPS,37.4254716667,-122.1582850000,23.8,0.0,6.3,0.0,1732151967000,2.0,179.9,30851091000000,52.9,0,,,
Fix,FLP,37.4254873000,-122.1582646000,7.1970145848144025,0.17587245,6.414,180.0,1732151967243,2.0,179.9,30851091000000,12.709589,0,,,
Raw,1732151967000,32976000000,,694365.2623509294,-1416187152024000000,0.0,117.59307550985457,1132.4368046229201,0.0,0,13,0.0,16431,350384928890295,487,18.618999481201172,713.5418062211188,0.14999,16,0.0,0.0,1575420030,,,,0,2.476443825523032,1,6.0,18.618999481201172,0.0,0.0,0.0,66.7128,C,30851091000000,
Raw,1732151967000,32976000000,,694365.2623509294,-1416187152024000000,0.0,117.59307550985457,1132.4368046229201,0.0,0,6,0.0,16431,350384918826800,487,18.020000457763672,-319.0200949335299,0.14999,16,0.0,0.0,1575420030,,,,0,0.0,1,6.0,18.020000457763672,0.0,0.0,0.0,66.7128,C,30851091000000,
Raw,1732151967000,32976000000,,694365.2623509294,-1416187152024000000,0.0,117.59307550985457,1132.4368046229201,0.0,0,7,0.0,16431,350384916969254,797,20.621000289916992,978.7089775863762,0.14999,16,0.0,0.0,1575420030,,,,0,3.3268290319526184,1,6.0,20.621000289916992,0.0,0.0,0.0,66.7128,C,30851091000000,
Raw,1732151967000,32976000000,,694365.2623509294,-1416187152024000000,0.0,117.59307550985457,1132.4368046229201,0.0,0,30,0.0,16431,350384925980432,797,19.038999557495117,855.7441423959774,0.14999,16,0.0,0.0,1575420030,,,,0,1.9653617360752698,1,6.0,19.038999557495117,0.0,0.0,0.0,66.7128,C,30851091000000,
Raw,1732151967000,32976000000,,694365.2623509294,-1416187152024000000,0.0,117.59307550985457,1132.4368046229201,0.0,0,15,0.0,16431,350384924940434,316,23.961999893188477,515.5783134905562,0.14999,16,0.0,0.0,1575420030,,,,0,10.699213689356354,1,6.0,23.961999893188477,0.0,0.0,0.0,66.7128,C,30851091000000,
Raw,1732151967000,32976000000,,694365.2623509294,-1416187152024000000,0.0,117.59307550985457,1132.4368046229201,0.0,0,8,0.0,17,530409,487,5.0,923.4276406631275,0.14999,16,0.0,0.0,1605374980,,,,0,4.3748461253911595,3,6.0,19.0,0.0,0.0,99.80217389232112,66.7128,C,30851091000000,
Raw,1732151967000,32976000000,,694365.2623509294,-1416187152024000000,0.0,117.59307550985457,1132.4368046229201,0.0,0,19,0.0,16431,350384930842697,797,13.699999809265137,-40.62821018502922,0.14999,16,0.0,0.0,1575420030,,,,0,0.0,1,6.0,13.699999809265137,0.0,0.0,0.0,66.7128,C,30851091000000,
Status,1732151967000,26,0,1,17,1575420030,0.00,82.0,79.0,0,0,0,0.0
Status,1732151967000,26,1,1,22,1575420030,0.00,14.0,66.0,0,0,0,0.0
Status,1732151967000,26,2,1,19,1575420030,18.70,200.0,61.0,1,0,0,13.700001
Status,1732151967000,26,3,1,14,1575420030,0.00,53.0,52.0,0,0,0,0.0
Status,1732151967000,26,4,1,13,1575420030,23.60,234.0,47.0,1,0,0,18.6
Status,1732151967000,26,5,1,30,1575420030,21.00,131.0,36.0,1,0,0,16.0
Status,1732151967000,26,6,1,15,1575420030,29.00,274.0,30.0,1,0,0,24.0
Status,1732151967000,26,7,1,2,1575420030,0.00,47.0,17.0,0,0,0,0.0
Status,1732151967000,26,8,1,24,1575420030,0.00,313.0,17.0,0,0,0,0.0
Status,1732151967000,26,9,1,6,1575420030,24.90,162.0,12.0,1,0,0,19.9
Status,1732151967000,26,10,1,21,1575420030,0.00,33.0,4.0,0,0,0,0.0
Status,1732151967000,26,11,1,7,1575420030,25.60,132.0,4.0,0,0,0,20.6
Status,1732151967000,26,12,3,20,1602000000,0.00,113.0,53.0,0,0,0,0.0
Status,1732151967000,26,13,3,9,1602000000,0.00,81.0,33.0,0,0,0,0.0
Status,1732151967000,26,14,3,11,1602000000,0.00,311.0,28.0,0,0,0,0.0
Status,1732151967000,26,15,3,19,1602000000,0.00,33.0,23.0,0,0,0,0.0
Status,1732151967000,26,16,3,8,1602000000,0.00,246.0,22.0,0,0,0,0.0
Status,1732151967000,26,17,6,21,1575420030,0.00,344.0,68.0,0,0,0,0.0
Status,1732151967000,26,18,6,19,1575420030,0.00,243.0,46.0,0,0,0,0.0
Status,1732151967000,26,19,6,27,1575420030,0.00,64.0,34.0,0,0,0,0.0
Status,1732151967000,26,20,6,13,1575420030,0.00,120.0,29.0,0,0,0,0.0
Status,1732151967000,26,21,6,29,1575420030,0.00,191.0,25.0,0,0,0,0.0
Status,1732151967000,26,22,6,15,1575420030,0.00,62.0,24.0,0,0,0,0.0
Status,1732151967000,26,23,6,4,1575420030,0.00,311.0,23.0,0,0,0,0.0
Status,1732151967000,26,24,6,26,1575420030,0.00,167.0,6.0,0,0,0,0.0
Status,1732151967000,26,25,6,6,1575420030,0.00,327.0,5.0,0,0,0,0.0
Fix,GPS,37.4254733333,-122.1582883333,23.8,0.0,6.4,0.0,1732151968000,2.0,179.9,30852091000000,53.6,0,,,
Fix,FLP,37.4254806000,-122.1582733000,7.549351740111863,0.17699371,6.4,180.0,1732151968243,2.0,179.9,30852091000000,14.925238,0,,,
Raw,1732151968000,33976000000,,694357.1838454988,-1416187152024000000,0.0,118.72816100149852,1135.0699737486302,0.0,0,13,0.0,16431,350385928887934,797,18.591999053955078,714.6217785643489,0.14999,16,0.0,0.0,1575420030,,,,0,0.0,1,6.0,18.591999053955078,0.0,0.0,0.0,66.7128,C,30852091000000,
Raw,1732151968000,33976000000,,694357.1838454988,-1416187152024000000,0.0,118.72816100149852,1135.0699737486302,0.0,0,6,0.0,16431,350385918827850,487,19.888999938964844,-318.095758284605,0.14999,16,0.0,0.0,1575420030,,,,0,2.0700122747488092,1,6.0,19.888999938964844,0.0,0.0,0.0,66.7128,C,30852091000000,
Raw,1732151968000,33976000000,,694357.1838454988,-1416187152024000000,0.0,118.72816100149852,1135.0699737486302,0.0,0,7,0.0,16431,350385916965988,797,20.621000289916992,979.2766994324691,0.14999,16,0.0,0.0,1575420030,,,,0,3.3268290319526184,1,6.0,20.621000289916992,0.0,0.0,0.0,66.7128,C,30852091000000,
Raw,1732151968000,33976000000,,694357.1838454988,-1416187152024000000,0.0,118.72816100149852,1135.0699737486302,0.0,0,30,0.0,16431,350385925977547,797,16.045000076293945,855.8662351137787,0.14999,16,0.0,0.0,1575420030,,,,0,0.0,1,6.0,16.045000076293945,0.0,0.0,0.0,66.7128,C,30852091000000,
Raw,1732151968000,33976000000,,694357.1838454988,-1416187152024000000,0.0,118.72816100149852,1135.0699737486302,0.0,0,15,0.0,16431,350385924938720,396,24.003999710083008,516.3758186632263,0.14999,16,0.0,0.0,1575420030,,,,0,9.764783316090515,1,6.0,24.003999710083008,0.0,0.0,0.0,66.7128,C,30852091000000,
Raw,1732151968000,33976000000,,694357.1838454988,-1416187152024000000,0.0,118.72816100149852,1135.0699737486302,0.0,0,19,0.0,16431,350385930842831,1797,13.699999809265137,-40.257936607831226,0.14999,16,0.0,0.0,1575420030,,,,0,0.0,1,6.0,13.699999809265137,0.0,0.0,0.0,66.7128,C,30852091000000,
Status,1732151968000,26,0,1,17,1575420030,0.00,82.0,79.0,0,0,0,0.0
Status,1732151968000,26,1,1,22,1575420030,0.00,14.0,66.0,0,0,0,0.0
Status,1732151968000,26,2,1,19,1575420030,21.50,200.0,61.0,1,0,0,16.5
Status,1732151968000,26,3,1,14,1575420030,0.00,53.0,52.0,0,0,0,0.0
Status,1732151968000,26,4,1,13,1575420030,23.60,234.0,47.0,1,0,0,18.6
Status,1732151968000,26,5,1,30,1575420030,21.00,131.0,36.0,1,0,0,16.0
Status,1732151968000,26,6,1,15,1575420030,28.90,274.0,30.0,1,0,0,23.9
Status,1732151968000,26,7,1,2,1575420030,0.00,47.0,17.0,0,0,0,0.0
Status,1732151968000,26,8,1,24,1575420030,0.00,313.0,17.0,0,0,0,0.0
Status,1732151968000,26,9,1,6,1575420030,26.30,162.0,12.0,1,0,0,21.3
Status,1732151968000,26,10,1,21,1575420030,0.00,33.0,4.0,0,0,0,0.0
Status,1732151968000,26,11,1,7,1575420030,25.70,132.0,4.0,0,0,0,20.7
Status,1732151968000,26,12,3,20,1602000000,0.00,113.0,53.0,0,0,0,0.0
Status,1732151968000,26,13,3,9,1602000000,0.00,81.0,33.0,0,0,0,0.0
Status,1732151968000,26,14,3,11,1602000000,0.00,311.0,28.0,0,0,0,0.0
Status,1732151968000,26,15,3,19,1602000000,0.00,33.0,23.0,0,0,0,0.0
Status,1732151968000,26,16,3,8,1602000000,23.10,246.0,22.0,1,0,0,18.1
Status,1732151968000,26,17,6,21,1575420030,0.00,344.0,68.0,0,0,0,0.0
Status,1732151968000,26,18,6,19,1575420030,0.00,243.0,46.0,0,0,0,0.0
Status,1732151968000,26,19,6,27,1575420030,0.00,64.0,34.0,0,0,0,0.0
Status,1732151968000,26,20,6,13,1575420030,0.00,120.0,29.0,0,0,0,0.0
Status,1732151968000,26,21,6,29,1575420030,0.00,191.0,25.0,0,0,0,0.0
Status,1732151968000,26,22,6,15,1575420030,0.00,62.0,24.0,0,0,0,0.0
