# 
# Header Description:
# 
# Version: v3.1.0.3 Platform: 13 Manufacturer: samsung Model: SM-S135DL GNSS Hardware Model Name: MediaTek,MT6631,MTK_MNLD_default,MNL_VER_default
# 
# Raw,utcTimeMillis,TimeNanos,LeapSecond,TimeUncertaintyNanos,FullBiasNanos,BiasNanos,BiasUncertaintyNanos,DriftNanosPerSecond,DriftUncertaintyNanosPerSecond,HardwareClockDiscontinuityCount,Svid,TimeOffsetNanos,State,ReceivedSvTimeNanos,ReceivedSvTimeUncertaintyNanos,Cn0DbHz,PseudorangeRateMetersPerSecond,PseudorangeRateUncertaintyMetersPerSecond,AccumulatedDeltaRangeState,AccumulatedDeltaRangeMeters,AccumulatedDeltaRangeUncertaintyMeters,CarrierFrequencyHz,CarrierCycles,CarrierPhase,CarrierPhaseUncertainty,MultipathIndicator,SnrInDb,ConstellationType,AgcDb,BasebandCn0DbHz,FullInterSignalBiasNanos,FullInterSignalBiasUncertaintyNanos,SatelliteInterSignalBiasNanos,SatelliteInterSignalBiasUncertaintyNanos,CodeType,ChipsetElapsedRealtimeNanos,IsFullTracking
# 
# UncalAccel,utcTimeMillis,elapsedRealtimeNanos,UncalAccelXMps2,UncalAccelYMps2,UncalAccelZMps2,BiasXMps2,BiasYMps2,BiasZMps2
# 
# Accel,utcTimeMillis,elapsedRealtimeNanos,AccelXMps2,AccelYMps2,AccelZMps2
# 
# UncalGyro,utcTimeMillis,elapsedRealtimeNanos,UncalGyroXRadPerSec,UncalGyroYRadPerSec,UncalGyroZRadPerSec,DriftXRadPerSec,DriftYRadPerSec,DriftZRadPerSec
# 
# Gyro,utcTimeMillis,elapsedRealtimeNanos,GyroXRadPerSec,GyroYRadPerSec,GyroZRadPerSec
# 
# UncalMag,utcTimeMillis,elapsedRealtimeNanos,UncalMagXMicroT,UncalMagYMicroT,UncalMagZMicroT,BiasXMicroT,BiasYMicroT,BiasZMicroT
# 
# Mag,utcTimeMillis,elapsedRealtimeNanos,MagXMicroT,MagYMicroT,MagZMicroT
# 
# Pressure,utcTimeMillis,elapsedRealtimeNanos,PressureHpa
# 
# OrientationDeg,utcTimeMillis,elapsedRealtimeNanos,yawDeg,rollDeg,pitchDeg
# 
# Fix,Provider,LatitudeDegrees,LongitudeDegrees,AltitudeMeters,SpeedMps,AccuracyMeters,BearingDegrees,UnixTimeMillis,SpeedAccuracyMps,BearingAccuracyDegrees,elapsedRealtimeNanos,VerticalAccuracyMeters,MockLocation,NumberOfUsedSignals,VerticalSpeedAccuracyMps,SolutionType
# 
# Nav,Svid,Type,Status,MessageId,Sub-messageId,Data(Bytes)
# 
# Status,UnixTimeMillis,SignalCount,SignalIndex,ConstellationType,Svid,CarrierFrequencyHz,Cn0DbHz,AzimuthDegrees,ElevationDegrees,UsedInFix,HasAlmanacData,HasEphemerisData,BasebandCn0DbHz
# 
# Agc,utcTimeMillis,TimeNanos,LeapSecond,TimeUncertaintyNanos,FullBiasNanos,BiasNanos,BiasUncertaintyNanos,DriftNanosPerSecond,DriftUncertaintyNanosPerSecond,HardwareClockDiscontinuityCount,AgcDb,CarrierFrequencyHz,ConstellationType
# 
Fix,FLP,37.4255253000,-122.1581772000,3.4751591801451642,0.37546504,6.166,180.0,1732151111243,2.1,85.5,29995090000000,10.662804,0,,,
Status,,27,0,1,17,1575420030,0.00,119.0,79.0,0,0,0,0.0
Status,,27,1,1,22,1575420030,0.00,359.0,68.0,0,0,0,0.0
Status,,27,2,1,14,1575420030,0.00,45.0,57.0,0,0,0,0.0
Status,,27,3,1,19,1575420030,0.00,198.0,54.0,0,0,0,0.0
Status,,27,4,1,13,1575420030,27.40,243.0,52.0,1,0,0,22.4
Status,,27,5,2,133,1575420030,0.00,191.0,45.0,0,0,0,0.0
Status,,27,6,1,30,1575420030,25.20,127.0,42.0,1,0,0,20.2
Status,,27,7,1,15,1575420030,20.60,282.0,31.0,1,0,0,15.6
Status,,27,8,1,2,1575420030,0.00,53.0,19.0,0,0,0,0.0
Status,,27,9,1,24,1575420030,0.00,312.0,11.0,0,0,0,0.0
Status,,27,10,1,7,1575420030,27.00,129.0,9.0,1,0,0,22.0
Status,,27,11,1,21,1575420030,0.00,37.0,8.0,0,0,0,0.0
Status,,27,12,1,6,1575420030,0.00,165.0,7.0,0,0,0,0.0
Status,,27,13,3,20,1602000000,0.00,123.0,48.0,0,0,0,0.0
Status,,27,14,3,9,1602000000,0.00,73.0,37.0,0,0,0,0.0
Status,,27,15,3,8,1602000000,22.40,253.0,28.0,1,0,0,17.4
Status,,27,16,3,19,1602000000,0.00,38.0,28.0,0,0,0,0.0
Status,,27,17,3,11,1602000000,28.20,305.0,24.0,0,0,0,23.2
Status,,27,18,6,21,1575420030,0.00,331.0,67.0,0,0,0,0.0
Status,,27,19,6,19,1575420030,0.00,249.0,49.0,0,0,0,0.0
Status,,27,20,6,27,1575420030,0.00,60.0,37.0,0,0,0,0.0
Status,,27,21,6,29,1575420030,0.00,192.0,30.0,0,0,0,0.0
Status,,27,22,6,13,1575420030,0.00,124.0,24.0,0,0,0,0.0
Status,,27,23,6,15,1575420030,0.00,67.0,23.0,0,0,0,0.0
Status,,27,24,6,4,1575420030,0.00,315.0,20.0,0,0,0,0.0
Status,,27,25,6,26,1575420030,0.00,169.0,2.0,0,0,0,0.0
Status,,27,26,6,6,1575420030,0.00,329.0,1.0,0,0,0,0.0
Fix,GPS,37.4254716667,-122.1581683333,-0.5999999999999979,0.0,6.2,0.0,1732151112000,2.1,63.6,29996090000000,65.4,0,,,
Fix,FLP,37.4255000000,-122.1581738000,2.8440203933471615,0.5250712,6.166,180.0,1732151112242,2.1,63.6,29996090000000,8.819893,0,,,
Raw,1732151112000,17801000000,,704687.8723513451,-1416186312199000064,0.0,176.32504935261773,1418.7935556572684,0.0,0,13,0.0,16431,349529929917931,487,22.360000610351562,703.836782449986,0.14999,16,0.0,0.0,1575420030,,,,0,6.145908079088647,1,6.0,22.360000610351562,0.0,0.0,0.0,66.7128,C,29996090000000,
Raw,1732151112000,17801000000,,704687.8723513451,-1416186312199000064,0.0,176.32504935261773,1418.7935556572684,0.0,0,30,0.0,16431,349529927457529,396,20.246999740600586,879.1582549977644,0.14999,16,0.0,0.0,1575420030,,,,0,4.101331957750997,1,6.0,20.246999740600586,0.0,0.0,0.0,66.7128,C,29996090000000,
Raw,1732151112000,17801000000,,704687.8723513451,-1416186312199000064,0.0,176.32504935261773,1418.7935556572684,0.0,0,15,0.0,16431,349529925391299,797,15.560999870300293,499.15823669876835,0.14999,16,0.0,0.0,1575420030,,,,0,0.0,1,6.0,15.560999870300293,0.0,0.0,0.0,66.7128,C,29996090000000,
Raw,1732151112000,17801000000,,704687.8723513451,-1416186312199000064,0.0,176.32504935261773,1418.7935556572684,0.0,0,7,0.0,16431,349529918839480,396,22.04199981689453,1032.733425627298,0.14999,16,0.0,0.0,1575420030,,,,0,5.609157281417906,1,6.0,22.04199981689453,0.0,0.0,0.0,66.7128,C,29996090000000,
Raw,1732151112000,17801000000,,704687.8723513451,-1416186312199000064,0.0,176.32504935261773,1418.7935556572684,0.0,0,11,0.0,17,977614,396,17.363000869750977,-52.03368683449826,0.14999,16,0.0,0.0,1602000000,,,,0,8.736302488949088,3,6.0,17.363000869750977,0.0,0.0,-9.278575228483438,66.7128,C,29996090000000,
Raw,1732151112000,17801000000,,704687.8723513451,-1416186312199000064,0.0,176.32504935261773,1418.7935556572684,0.0,0,8,0.0,17,189048,797,5.0,929.6303696410514,0.14999,16,0.0,0.0,1605374980,,,,0,0.0,3,6.0,16.0,0.0,0.0,-9.278575228483438,66.7128,C,29996090000000,
Fix,GPS,37.4254600000,-122.1581733333,-0.5999999999999979,0.0,6.2,0.0,1732151113000,2.1,62.3,29997090000000,66.0,0,,,
Status,1732151113000,27,0,1,17,1575420030,0.00,119.0,79.0,0,0,0,0.0
Status,1732151113000,27,1,1,22,1575420030,0.00,359.0,68.0,0,0,0,0.0
Status,1732151113000,27,2,1,14,1575420030,0.00,45.0,57.0,0,0,0,0.0
Status,1732151113000,27,3,1,19,1575420030,0.00,198.0,54.0,0,0,0,0.0
Status,1732151113000,27,4,1,13,1575420030,27.40,243.0,52.0,1,0,0,22.4
Status,1732151113000,27,5,2,133,1575420030,0.00,191.0,45.0,0,0,0,0.0
Status,1732151113000,27,6,1,30,1575420030,25.30,127.0,42.0,1,0,0,20.3
Status,1732151113000,27,7,1,15,1575420030,20.60,282.0,31.0,1,0,0,15.6
Status,1732151113000,27,8,1,2,1575420030,0.00,53.0,19.0,0,0,0,0.0
Status,1732151113000,27,9,1,24,1575420030,0.00,312.0,11.0,0,0,0,0.0
Status,1732151113000,27,10,1,7,1575420030,25.80,129.0,9.0,1,0,0,20.8
Status,1732151113000,27,11,1,21,1575420030,0.00,37.0,8.0,0,0,0,0.0
Status,1732151113000,27,12,1,6,1575420030,0.00,165.0,7.0,0,0,0,0.0
Status,1732151113000,27,13,3,20,1602000000,0.00,123.0,48.0,0,0,0,0.0
Status,1732151113000,27,14,3,9,1602000000,0.00,73.0,37.0,0,0,0,0.0
Status,1732151113000,27,15,3,8,1602000000,0.00,253.0,28.0,0,0,0,0.0
Status,1732151113000,27,16,3,19,1602000000,0.00,38.0,28.0,0,0,0,0.0
Status,1732151113000,27,17,3,11,1602000000,29.60,305.0,24.0,0,0,0,24.6
Status,1732151113000,27,18,6,21,1575420030,0.00,331.0,67.0,0,0,0,0.0
Status,1732151113000,27,19,6,19,1575420030,0.00,249.0,49.0,0,0,0,0.0
Status,1732151113000,27,20,6,27,1575420030,0.00,60.0,37.0,0,0,0,0.0
Status,1732151113000,27,21,6,29,1575420030,0.00,192.0,30.0,0,0,0,0.0
Status,1732151113000,27,22,6,13,1575420030,0.00,124.0,24.0,0,0,0,0.0
Status,1732151113000,27,23,6,15,1575420030,0.00,67.0,23.0,0,0,0,0.0
Status,1732151113000,27,24,6,4,1575420030,0.00,315.0,20.0,0,0,0,0.0
Status,1732151113000,27,25,6,26,1575420030,0.00,169.0,2.0,0,0,0,0.0
Status,1732151113000,27,26,6,6,1575420030,0.00,329.0,1.0,0,0,0,0.0
Raw,1732151113000,18801000000,,704682.3476960184,-1416186312199000064,0.0,177.58605610456445,1418.1681958494294,0.0,0,13,0.0,16431,349530929915583,797,22.360000610351562,703.4452773765797,0.14999,16,0.0,0.0,1575420030,,,,0,6.145908079088647,1,6.0,22.360000610351562,0.0,0.0,0.0,66.7128,C,29997090000000,
Raw,1732151113000,18801000000,,704682.3476960184,-1416186312199000064,0.0,177.58605610456445,1418.1681958494294,0.0,0,30,0.0,16431,349530927454595,487,20.33799934387207,879.07518734958,0.14999,16,0.0,0.0,1575420030,,,,0,5.678093275313501,1,6.0,20.33799934387207,0.0,0.0,0.0,66.7128,C,29997090000000,
Raw,1732151113000,18801000000,,704682.3476960184,-1416186312199000064,0.0,177.58605610456445,1418.1681958494294,0.0,0,15,0.0,16431,349530925389693,797,15.630000114440918,498.810170244519,0.14999,16,0.0,0.0,1575420030,,,,0,0.0,1,6.0,15.630000114440918,0.0,0.0,0.0,66.7128,C,29997090000000,
Raw,1732151113000,18801000000,,704682.3476960184,-1416186312199000064,0.0,177.58605610456445,1418.1681958494294,0.0,0,7,0.0,16431,349530918836035,487,20.816999435424805,1032.5130269007952,0.14999,16,0.0,0.0,1575420030,,,,0,3.67960400020692,1,6.0,20.816999435424805,0.0,0.0,0.0,66.7128,C,29997090000000,
Raw,1732151113000,18801000000,,704682.3476960184,-1416186312199000064,0.0,177.58605610456445,1418.1681958494294,0.0,0,11,0.0,17,977793,316,24.0,-52.45981497994481,0.14999,16,0.0,0.0,1602000000,,,,0,10.575072019056577,3,6.0,24.0,0.0,0.0,-9.278575228483438,66.7128,C,29997090000000,
Fix,FLP,37.4254802000,-122.1581736000,3.413647582603459,0.54751235,6.166,180.0,1732151113243,2.1,62.3,29997090000000,11.066185,0,,,
Status,1732151113000,27,0,1,17,1575420030,0.00,119.0,79.0,0,0,0,0.0
Status,1732151113000,27,1,1,22,1575420030,0.00,359.0,68.0,0,0,0,0.0
Status,1732151113000,27,2,1,14,1575420030,0.00,45.0,57.0,0,0,0,0.0
Status,1732151113000,27,3,1,19,1575420030,0.00,198.0,54.0,0,0,0,0.0
Status,1732151113000,27,4,1,13,1575420030,27.40,243.0,52.0,1,0,0,22.4
Status,1732151113000,27,5,2,133,1575420030,0.00,191.0,45.0,0,0,0,0.0
Status,1732151113000,27,6,1,30,1575420030,28.90,127.0,42.0,1,0,0,23.9
Status,1732151113000,27,7,1,15,1575420030,20.70,282.0,31.0,1,0,0,15.700001
Status,1732151113000,27,8,1,2,1575420030,0.00,53.0,19.0,0,0,0,0.0
Status,1732151113000,27,9,1,24,1575420030,0.00,312.0,11.0,0,0,0,0.0
Status,1732151113000,27,10,1,7,1575420030,24.90,129.0,9.0,1,0,0,19.9
Status,1732151113000,27,11,1,21,1575420030,0.00,37.0,8.0,0,0,0,0.0
Status,1732151113000,27,12,1,6,1575420030,0.00,165.0,7.0,0,0,0,0.0
Status,1732151113000,27,13,3,20,1602000000,0.00,123.0,48.0,0,0,0,0.0
Status,1732151113000,27,14,3,9,1602000000,0.00,73.0,37.0,0,0,0,0.0
Status,1732151113000,27,15,3,8,1602000000,0.00,253.0,28.0,0,0,0,0.0
Status,1732151113000,27,16,3,19,1602000000,0.00,38.0,28.0,0,0,0,0.0
Status,1732151113000,27,17,3,11,1602000000,29.20,305.0,24.0,0,0,0,24.2
Status,1732151113000,27,18,6,21,1575420030,0.00,331.0,67.0,0,0,0,0.0
Status,1732151113000,27,19,6,19,1575420030,0.00,249.0,49.0,0,0,0,0.0
Status,1732151113000,27,20,6,27,1575420030,0.00,60.0,37.0,0,0,0,0.0
Status,1732151113000,27,21,6,29,1575420030,0.00,192.0,30.0,0,0,0,0.0
Status,1732151113000,27,22,6,13,1575420030,0.00,124.0,24.0,0,0,0,0.0
Status,1732151113000,27,23,6,15,1575420030,0.00,67.0,23.0,0,0,0,0.0
Status,1732151113000,27,24,6,4,1575420030,0.00,315.0,20.0,0,0,0,0.0
Status,1732151113000,27,25,6,26,1575420030,0.00,169.0,2.0,0,0,0,0.0
Status,1732151113000,27,26,6,6,1575420030,0.00,329.0,1.0,0,0,0,0.0
Fix,GPS,37.4254466667,-122.1581816667,-0.5999999999999979,0.0,6.2,0.0,1732151114000,2.1,61.4,29998090000000,65.3,0,,,
Fix,FLP,37.4254633000,-122.1581767000,3.2202091604744254,0.5271146,6.166,180.0,1732151114242,2.1,61.4,29998090000000,10.662283,0,,,
Raw,1732151114000,19801000000,,704678.2302642183,-1416186312199000064,0.0,175.0968844330115,1414.8322651720118,0.0,0,13,0.0,16431,349531929913238,797,22.360000610351562,702.7556486463506,0.14999,16,0.0,0.0,1575420030,,,,0,6.145908079088647,1,6.0,22.360000610351562,0.0,0.0,0.0,66.7128,C,29998090000000,
Raw,1732151114000,19801000000,,704678.2302642183,-1416186312199000064,0.0,175.0968844330115,1414.8322651720118,0.0,0,30,0.0,16431,349531927451685,396,23.945999145507812,878.0071083608997,0.14999,16,0.0,0.0,1575420030,,,,0,8.521825181113625,1,6.0,23.945999145507812,0.0,0.0,0.0,66.7128,C,29998090000000,
Raw,1732151114000,19801000000,,704678.2302642183,-1416186312199000064,0.0,175.0968844330115,1414.8322651720118,0.0,0,15,0.0,16431,349531925388031,797,15.694999694824219,497.67955822761934,0.14999,16,0.0,0.0,1575420030,,,,0,0.0,1,6.0,15.694999694824219,0.0,0.0,0.0,66.7128,C,29998090000000,
Raw,1732151114000,19801000000,,704678.2302642183,-1416186312199000064,0.0,175.0968844330115,1414.8322651720118,0.0,0,7,0.0,16431,349531918832592,487,19.888999938964844,1030.9642891380006,0.14999,16,0.0,0.0,1575420030,,,,0,2.0700122747488092,1,6.0,19.888999938964844,0.0,0.0,0.0,66.7128,C,29998090000000,
Raw,1732151114000,19801000000,,704678.2302642183,-1416186312199000064,0.0,175.0968844330115,1414.8322651720118,0.0,0,11,0.0,17,977967,396,23.0,-53.360819928626206,0.14999,16,0.0,0.0,1602000000,,,,0,10.105450102066122,3,6.0,23.0,0.0,0.0,-9.278575228483438,66.7128,C,29998090000000,
Fix,FLP,37.4254575000,-122.1581782000,3.4920139079066903,0.447678,6.166,180.0,1732151114472,2.1,61.4,29998320000000,10.965368,0,,,
Fix,NLP,37.4257086000,-122.1581035000,5.400000095367432,,82.5,,1732151114472,,,29998320000000,18.84352,0,,,
Status,1732151114000,27,0,1,17,1575420030,0.00,119.0,79.0,0,0,0,0.0
Status,1732151114000,27,1,1,22,1575420030,0.00,359.0,68.0,0,0,0,0.0
Status,1732151114000,27,2,1,14,1575420030,0.00,45.0,57.0,0,0,0,0.0
Status,1732151114000,27,3,1,19,1575420030,0.00,198.0,54.0,0,0,0,0.0
Status,1732151114000,27,4,1,13,1575420030,23.70,243.0,52.0,1,0,0,18.7
Status,1732151114000,27,5,2,133,1575420030,0.00,191.0,45.0,0,0,0,0.0
Status,1732151114000,27,6,1,30,1575420030,24.20,127.0,42.0,1,0,0,19.2
Status,1732151114000,27,7,1,15,1575420030,20.70,282.0,31.0,1,0,0,15.700001
Status,1732151114000,27,8,1,2,1575420030,0.00,53.0,19.0,0,0,0,0.0
Status,1732151114000,27,9,1,24,1575420030,0.00,312.0,11.0,0,0,0,0.0
Status,1732151114000,27,10,1,7,1575420030,27.70,129.0,9.0,1,0,0,22.7
Status,1732151114000,27,11,1,21,1575420030,0.00,37.0,8.0,0,0,0,0.0
Status,1732151114000,27,12,1,6,1575420030,0.00,165.0,7.0,0,0,0,0.0
Status,1732151114000,27,13,3,20,1602000000,0.00,123.0,48.0,0,0,0,0.0
Status,1732151114000,27,14,3,9,1602000000,0.00,73.0,37.0,0,0,0,0.0
Status,1732151114000,27,15,3,8,1602000000,0.00,253.0,28.0,0,0,0,0.0
Status,1732151114000,27,16,3,19,1602000000,0.00,38.0,28.0,0,0,0,0.0
Status,1732151114000,27,17,3,11,1602000000,22.70,305.0,24.0,0,0,0,17.7
Status,1732151114000,27,18,6,21,1575420030,0.00,331.0,67.0,0,0,0,0.0
Status,1732151114000,27,19,6,19,1575420030,0.00,249.0,49.0,0,0,0,0.0
Status,1732151114000,27,20,6,27,1575420030,0.00,60.0,37.0,0,0,0,0.0
Status,1732151114000,27,21,6,29,1575420030,0.00,192.0,30.0,0,0,0,0.0
Status,1732151114000,27,22,6,13,1575420030,0.00,124.0,24.0,0,0,0,0.0
Status,1732151114000,27,23,6,15,1575420030,0.00,67.0,23.0,0,0,0,0.0
Status,1732151114000,27,24,6,4,1575420030,0.00,315.0,20.0,0,0,0,0.0
Status,1732151114000,27,25,6,26,1575420030,0.00,169.0,2.0,0,0,0,0.0
Status,1732151114000,27,26,6,6,1575420030,0.00,329.0,1.0,0,0,0,0.0
Fix,GPS,37.4254383333,-122.1581883333,-0.5999999999999979,0.0,6.2,0.0,1732151115000,2.1,62.6,29999090000000,65.2,0,,,
Fix,FLP,37.4254490000,-122.1581815000,3.1367541378679276,0.39239395,6.171,180.0,1732151115242,2.1,62.6,29999090000000,10.331806,0,,,
Raw,1732151115000,20801000000,,704674.3734293676,-1416186312199000064,0.0,174.31941990143315,1411.8285251168263,0.0,0,13,0.0,16431,349532929910864,797,18.735000610351562,702.3083005566592,0.14999,16,0.0,0.0,1575420030,,,,0,0.0,1,6.0,18.735000610351562,0.0,0.0,0.0,66.7128,C,29999090000000,
Raw,1732151115000,20801000000,,704674.3734293676,-1416186312199000064,0.0,174.31941990143315,1411.8285251168263,0.0,0,30,0.0,16431,349532927448746,487,19.24799919128418,878.1455544412071,0.14999,16,0.0,0.0,1575420030,,,,0,0.9620295467606645,1,6.0,19.24799919128418,0.0,0.0,0.0,66.7128,C,29999090000000,
Raw,1732151115000,20801000000,,704674.3734293676,-1416186312199000064,0.0,174.31941990143315,1411.8285251168263,0.0,0,15,0.0,16431,349532925386352,797,15.706999778747559,496.59289587245485,0.14999,16,0.0,0.0,1575420030,,,,0,0.0,1,6.0,15.706999778747559,0.0,0.0,0.0,66.7128,C,29999090000000,
Raw,1732151115000,20801000000,,704674.3734293676,-1416186312199000064,0.0,174.31941990143315,1411.8285251168263,0.0,0,7,0.0,16431,349532918829152,487,22.697999954223633,1030.303929209984,0.14999,16,0.0,0.0,1575420030,,,,0,6.651411562282947,1,6.0,22.697999954223633,0.0,0.0,0.0,66.7128,C,29999090000000,
Raw,1732151115000,20801000000,,704674.3734293676,-1416186312199000064,0.0,174.31941990143315,1411.8285251168263,0.0,0,11,0.0,17,978140,797,17.0,-51.575942877252736,0.14999,16,0.0,0.0,1602000000,,,,0,0.38015741887547794,3,6.0,17.0,0.0,0.0,-9.278575228483438,66.7128,C,29999090000000,
Status,1732151115000,27,0,1,17,1575420030,0.00,119.0,79.0,0,0,0,0.0
Status,1732151115000,27,1,1,22,1575420030,0.00,359.0,68.0,0,0,0,0.0
Status,1732151115000,27,2,1,14,1575420030,0.00,45.0,57.0,0,0,0,0.0
Status,1732151115000,27,3,1,19,1575420030,0.00,198.0,54.0,0,0,0,0.0
Status,1732151115000,27,4,1,13,1575420030,23.70,243.0,52.0,1,0,0,18.7
Status,1732151115000,27,5,2,135,1575420030,0.00,197.0,45.0,0,0,0,0.0
Status,1732151115000,27,6,1,30,1575420030,24.20,127.0,42.0,1,0,0,19.2
Status,1732151115000,27,7,1,15,1575420030,20.80,282.0,31.0,1,0,0,15.799999
Status,1732151115000,27,8,1,2,1575420030,0.00,53.0,19.0,0,0,0,0.0
Status,1732151115000,27,9,1,24,1575420030,0.00,312.0,11.0,0,0,0,0.0
Status,1732151115000,27,10,1,7,1575420030,27.70,129.0,9.0,1,0,0,22.7
Status,1732151115000,27,11,1,21,1575420030,0.00,37.0,8.0,0,0,0,0.0
Status,1732151115000,27,12,1,6,1575420030,0.00,165.0,7.0,0,0,0,0.0
Status,1732151115000,27,13,3,20,1602000000,0.00,123.0,48.0,0,0,0,0.0
Status,1732151115000,27,14,3,9,1602000000,0.00,73.0,37.0,0,0,0,0.0
Status,1732151115000,27,15,3,8,1602000000,0.00,253.0,28.0,0,0,0,0.0
Status,1732151115000,27,16,3,19,1602000000,0.00,38.0,28.0,0,0,0,0.0
Status,1732151115000,27,17,3,11,1602000000,22.70,305.0,24.0,0,0,0,17.7
Status,1732151115000,27,18,6,21,1575420030,0.00,331.0,67.0,0,0,0,0.0
Status,1732151115000,27,19,6,19,1575420030,0.00,249.0,49.0,0,0,0,0.0
Status,1732151115000,27,20,6,27,1575420030,0.00,60.0,37.0,0,0,0,0.0
Status,1732151115000,27,21,6,29,1575420030,0.00,192.0,30.0,0,0,0,0.0
Status,1732151115000,27,22,6,13,1575420030,0.00,124.0,24.0,0,0,0,0.0
Status,1732151115000,27,23,6,15,1575420030,0.00,67.0,23.0,0,0,0,0.0
Status,1732151115000,27,24,6,4,1575420030,0.00,315.0,20.0,0,0,0,0.0
Status,1732151115000,27,25,6,26,1575420030,0.00,169.0,2.0,0,0,0,0.0
Status,1732151115000,27,26,6,6,1575420030,0.00,329.0,1.0,0,0,0,0.0
Fix,GPS,37.4254333333,-122.1581950000,-0.5999999999999979,0.0,6.3,0.0,1732151116000,2.2,66.1,30000090000000,64.0,0,,,
Raw,1732151116000,21801000000,,704670.6729526864,-1416186312199000064,0.0,171.3643166627312,1407.3879588470813,0.0,0,13,0.0,16431,349533929908523,797,18.735000610351562,701.550703163514,0.14999,16,0.0,0.0,1575420030,,,,0,0.0,1,6.0,18.735000610351562,0.0,0.0,0.0,66.7128,C,30000090000000,
Raw,1732151116000,21801000000,,704670.6729526864,-1416186312199000064,0.0,171.3643166627312,1407.3879588470813,0.0,0,30,0.0,16431,349533927445819,487,19.24799919128418,876.5928212546186,0.14999,16,0.0,0.0,1575420030,,,,0,0.9620295467606645,1,6.0,19.24799919128418,0.0,0.0,0.0,66.7128,C,30000090000000,
Raw,1732151116000,21801000000,,704670.6729526864,-1416186312199000064,0.0,171.3643166627312,1407.3879588470813,0.0,0,15,0.0,16431,349533925384704,797,15.817999839782715,494.85302818537014,0.14999,16,0.0,0.0,1575420030,,,,0,0.0,1,6.0,15.817999839782715,0.0,0.0,0.0,66.7128,C,30000090000000,
Raw,1732151116000,21801000000,,704670.6729526864,-1416186312199000064,0.0,171.3643166627312,1407.3879588470813,0.0,0,7,0.0,16431,349533918825720,396,22.67300033569336,1028.9584005596944,0.14999,16,0.0,0.0,1575420030,,,,0,5.88167813342218,1,6.0,22.67300033569336,0.0,0.0,0.0,66.7128,C,30000090000000,
Raw,1732151116000,21801000000,,704670.6729526864,-1416186312199000064,0.0,171.3643166627312,1407.3879588470813,0.0,0,11,0.0,17,978322,487,18.0,-56.528203432365125,0.14999,16,0.0,0.0,1602000000,,,,0,0.38015741887547794,3,6.0,18.0,0.0,0.0,-9.278575228483438,66.7128,C,30000090000000,
Fix,FLP,37.4254410000,-122.1581863000,3.1367541378679276,0.34160835,6.2,180.0,1732151116242,2.2,66.1,30000090000000,10.523705,0,,,
Status,1732151116000,27,0,1,17,1575420030,0.00,119.0,79.0,0,0,0,0.0
Status,1732151116000,27,1,1,22,1575420030,0.00,359.0,68.0,0,0,0,0.0
Status,1732151116000,27,2,1,14,1575420030,0.00,45.0,57.0,0,0,0,0.0
Status,1732151116000,27,3,1,19,1575420030,0.00,198.0,54.0,0,0,0,0.0
Status,1732151116000,27,4,1,13,1575420030,23.70,243.0,52.0,1,0,0,18.7
Status,1732151116000,27,5,2,135,1575420030,0.00,197.0,45.0,0,0,0,0.0
Status,1732151116000,27,6,1,30,1575420030,21.60,127.0,42.0,1,0,0,16.6
Status,1732151116000,27,7,1,15,1575420030,20.90,282.0,31.0,1,0,0,15.9
Status,1732151116000,27,8,1,2,1575420030,0.00,53.0,19.0,0,0,0,0.0
Status,1732151116000,27,9,1,24,1575420030,0.00,312.0,11.0,0,0,0,0.0
Status,1732151116000,27,10,1,7,1575420030,27.70,129.0,9.0,1,0,0,22.7
Status,1732151116000,27,11,1,21,1575420030,0.00,37.0,8.0,0,0,0,0.0
Status,1732151116000,27,12,1,6,1575420030,0.00,165.0,7.0,0,0,0,0.0
Status,1732151116000,27,13,3,20,1602000000,0.00,123.0,48.0,0,0,0,0.0
Status,1732151116000,27,14,3,9,1602000000,0.00,73.0,37.0,0,0,0,0.0
Status,1732151116000,27,15,3,8,1602000000,0.00,253.0,28.0,0,0,0,0.0
Status,1732151116000,27,16,3,19,1602000000,0.00,38.0,28.0,0,0,0,0.0
Status,1732151116000,27,17,3,11,1602000000,20.80,305.0,24.0,0,0,0,15.799999
Status,1732151116000,27,18,6,21,1575420030,0.00,331.0,67.0,0,0,0,0.0
Status,1732151116000,27,19,6,19,1575420030,0.00,249.0,49.0,0,0,0,0.0
Status,1732151116000,27,20,6,27,1575420030,0.00,60.0,37.0,0,0,0,0.0
Status,1732151116000,27,21,6,29,1575420030,0.00,192.0,30.0,0,0,0,0.0
Status,1732151116000,27,22,6,13,1575420030,0.00,124.0,24.0,0,0,0,0.0
Status,1732151116000,27,23,6,15,1575420030,0.00,67.0,23.0,0,0,0,0.0
Status,1732151116000,27,24,6,4,1575420030,0.00,315.0,20.0,0,0,0,0.0
Status,1732151116000,27,25,6,26,1575420030,0.00,169.0,2.0,0,0,0,0.0
Status,1732151116000,27,26,6,6,1575420030,0.00,329.0,1.0,0,0,0,0.0
Fix,GPS,37.4254316667,-122.1581950000,-0.5999999999999979,0.0,6.3,0.0,1732151117000,2.2,69.9,30001090000000,63.6,0,,,
Raw,1732151117000,22801000000,,704667.8585056333,-1416186312199000064,0.0,170.43747969029857,1406.1302062343884,0.0,0,13,0.0,16431,349534929906169,797,18.658000946044922,701.5101449661622,0.14999,16,0.0,0.0,1575420030,,,,0,0.0,1,6.0,18.658000946044922,0.0,0.0,0.0,66.7128,C,30001090000000,
Raw,1732151117000,22801000000,,704667.8585056333,-1416186312199000064,0.0,170.43747969029857,1406.1302062343884,0.0,0,30,0.0,16431,349534927442893,797,16.562000274658203,875.630388704401,0.14999,16,0.0,0.0,1575420030,,,,0,0.0,1,6.0,16.562000274658203,0.0,0.0,0.0,66.7128,C,30001090000000,
Raw,1732151117000,22801000000,,704667.8585056333,-1416186312199000064,0.0,170.43747969029857,1406.1302062343884,0.0,0,15,0.0,16431,349534925383053,797,15.923999786376953,494.87161155185436,0.14999,16,0.0,0.0,1575420030,,,,0,0.0,1,6.0,15.923999786376953,0.0,0.0,0.0,66.7128,C,30001090000000,
Raw,1732151117000,22801000000,,704667.8585056333,-1416186312199000064,0.0,170.43747969029857,1406.1302062343884,0.0,0,7,0.0,16431,349534918822287,487,22.691999435424805,1028.7192326330426,0.14999,16,0.0,0.0,1575420030,,,,0,7.187012763674011,1,6.0,22.691999435424805,0.0,0.0,0.0,66.7128,C,30001090000000,
Raw,1732151117000,22801000000,,704667.8585056333,-1416186312199000064,0.0,170.43747969029857,1406.1302062343884,0.0,0,11,0.0,17,978508,797,17.0,-58.616720202258776,0.14999,16,0.0,0.0,1602000000,,,,0,0.0,3,6.0,17.0,0.0,0.0,-9.278575228483438,66.7128,C,30001090000000,
Fix,FLP,37.4254357000,-122.1581895000,3.2202091604744254,0.27433684,6.228,180.0,1732151117242,2.2,69.9,30001090000000,10.66519,0,,,
Status,1732151117000,27,0,1,17,1575420030,0.00,119.0,79.0,0,0,0,0.0
Status,1732151117000,27,1,1,22,1575420030,0.00,359.0,68.0,0,0,0,0.0
Status,1732151117000,27,2,1,14,1575420030,0.00,45.0,57.0,0,0,0,0.0
Status,1732151117000,27,3,1,19,1575420030,0.00,198.0,54.0,0,0,0,0.0
Status,1732151117000,27,4,1,13,1575420030,23.60,243.0,52.0,1,0,0,18.6
Status,1732151117000,27,5,2,135,1575420030,0.00,197.0,45.0,0,0,0,0.0
Status,1732151117000,27,6,1,30,1575420030,21.60,127.0,42.0,1,0,0,16.6
Status,1732151117000,27,7,1,15,1575420030,21.00,282.0,31.0,1,0,0,16.0
Status,1732151117000,27,8,1,2,1575420030,0.00,53.0,19.0,0,0,0,0.0
Status,1732151117000,27,9,1,24,1575420030,0.00,312.0,11.0,0,0,0,0.0
Status,1732151117000,27,10,1,7,1575420030,27.70,129.0,9.0,1,0,0,22.7
Status,1732151117000,27,11,1,21,1575420030,0.00,37.0,8.0,0,0,0,0.0
Status,1732151117000,27,12,1,6,1575420030,0.00,165.0,7.0,0,0,0,0.0
Status,1732151117000,27,13,3,20,1602000000,0.00,123.0,48.0,0,0,0,0.0
Status,1732151117000,27,14,3,9,1602000000,0.00,73.0,37.0,0,0,0,0.0
Status,1732151117000,27,15,3,8,1602000000,0.00,253.0,28.0,0,0,0,0.0
Status,1732151117000,27,16,3,19,1602000000,0.00,38.0,28.0,0,0,0,0.0
Status,1732151117000,27,17,3,11,1602000000,22.10,305.0,24.0,0,0,0,17.1
Status,1732151117000,27,18,6,21,1575420030,0.00,331.0,67.0,0,0,0,0.0
Status,1732151117000,27,19,6,19,1575420030,0.00,249.0,49.0,0,0,0,0.0
Status,1732151117000,27,20,6,27,1575420030,0.00,60.0,37.0,0,0,0,0.0
Status,1732151117000,27,21,6,29,1575420030,0.00,192.0,30.0,0,0,0,0.0
Status,1732151117000,27,22,6,13,1575420030,0.00,124.0,24.0,0,0,0,0.0
Status,1732151117000,27,23,6,15,1575420030,0.00,67.0,23.0,0,0,0,0.0
Status,1732151117000,27,24,6,4,1575420030,0.00,315.0,20.0,0,0,0,0.0
Status,1732151117000,27,25,6,26,1575420030,0.00,169.0,2.0,0,0,0,0.0
Status,1732151117000,27,26,6,6,1575420030,0.00,329.0,1.0,0,0,0,0.0
Fix,GPS,37.4254333333,-122.1581950000,-0.5999999999999979,0.0,6.4,0.0,1732151118000,2.2,77.2,30002090000000,63.4,0,,,
Fix,FLP,37.4254337000,-122.1581915000,3.470070282189532,0.19233307,6.257,180.0,1732151118243,2.2,77.2,30002090000000,11.454914,0,,,
Raw,1732151118000,23801000000,,704665.4610136991,-1416186312199000064,0.0,169.95935809006852,1404.0310290357438,0.0,0,13,0.0,16431,349535929903829,797,18.584999084472656,701.3071681457384,0.14999,16,0.0,0.0,1575420030,,,,0,0.0,1,6.0,18.584999084472656,0.0,0.0,0.0,66.7128,C,30002090000000,
Raw,1732151118000,23801000000,,704665.4610136991,-1416186312199000064,0.0,169.95935809006852,1404.0310290357438,0.0,0,30,0.0,16431,349535927439974,797,16.562000274658203,874.8117914107713,0.14999,16,0.0,0.0,1575420030,,,,0,0.0,1,6.0,16.562000274658203,0.0,0.0,0.0,66.7128,C,30002090000000,
Raw,1732151118000,23801000000,,704665.4610136991,-1416186312199000064,0.0,169.95935809006852,1404.0310290357438,0.0,0,15,0.0,16431,349535925381404,797,16.024999618530273,494.4471674613549,0.14999,16,0.0,0.0,1575420030,,,,0,0.0,1,6.0,16.024999618530273,0.0,0.0,0.0,66.7128,C,30002090000000,
Raw,1732151118000,23801000000,,704665.4610136991,-1416186312199000064,0.0,169.95935809006852,1404.0310290357438,0.0,0,7,0.0,16431,349535918818855,487,22.709999084472656,1029.0274377661833,0.14999,16,0.0,0.0,1575420030,,,,0,7.187012763674011,1,6.0,22.709999084472656,0.0,0.0,0.0,66.7128,C,30002090000000,
Raw,1732151118000,23801000000,,704665.4610136991,-1416186312199000064,0.0,169.95935809006852,1404.0310290357438,0.0,0,11,0.0,17,978694,487,20.0,-55.66370286753832,0.14999,16,0.0,0.0,1602000000,,,,0,0.0,3,6.0,20.0,0.0,0.0,-9.278575228483438,66.7128,C,30002090000000,
Status,1732151118000,27,0,1,17,1575420030,0.00,119.0,79.0,0,0,0,0.0
Status,1732151118000,27,1,1,22,1575420030,0.00,359.0,68.0,0,0,0,0.0
Status,1732151118000,27,2,1,14,1575420030,0.00,45.0,57.0,0,0,0,0.0
Status,1732151118000,27,3,1,19,1575420030,0.00,198.0,54.0,0,0,0,0.0
Status,1732151118000,27,4,1,13,1575420030,23.50,243.0,52.0,1,0,0,18.5
Status,1732151118000,27,5,2,135,1575420030,0.00,197.0,45.0,0,0,0,0.0
Status,1732151118000,27,6,1,30,1575420030,21.60,127.0,42.0,1,0,0,16.6
Status,1732151118000,27,7,1,15,1575420030,21.00,282.0,31.0,1,0,0,16.0
Status,1732151118000,27,8,1,2,1575420030,0.00,53.0,19.0,0,0,0,0.0
Status,1732151118000,27,9,1,24,1575420030,0.00,312.0,11.0,0,0,0,0.0
Status,1732151118000,27,10,1,7,1575420030,23.20,129.0,9.0,1,0,0,18.2
Status,1732151118000,27,11,1,21,1575420030,0.00,37.0,8.0,0,0,0,0.0
Status,1732151118000,27,12,1,6,1575420030,0.00,165.0,7.0,0,0,0,0.0
Status,1732151118000,27,13,3,20,1602000000,0.00,123.0,48.0,0,0,0,0.0
Status,1732151118000,27,14,3,9,1602000000,0.00,73.0,37.0,0,0,0,0.0
Status,1732151118000,27,15,3,8,1602000000,25.20,253.0,28.0,1,0,0,20.2
Status,1732151118000,27,16,3,19,1602000000,0.00,38.0,28.0,0,0,0,0.0
Status,1732151118000,27,17,3,11,1602000000,24.60,305.0,24.0,0,0,0,19.6
Status,1732151118000,27,18,6,21,1575420030,0.00,331.0,67.0,0,0,0,0.0
Status,1732151118000,27,19,6,19,1575420030,0.00,249.0,49.0,0,0,0,0.0
Status,1732151118000,27,20,6,27,1575420030,0.00,60.0,37.0,0,0,0,0.0
Status,1732151118000,27,21,6,29,1575420030,0.00,192.0,30.0,0,0,0,0.0
Status,1732151118000,27,22,6,13,1575420030,0.00,124.0,24.0,0,0,0,0.0
Status,1732151118000,27,23,6,15,1575420030,0.00,67.0,23.0,0,0,0,0.0
Status,1732151118000,27,24,6,4,1575420030,0.00,315.0,20.0,0,0,0,0.0
Status,1732151118000,27,25,6,26,1575420030,0.00,169.0,2.0,0,0,0,0.0
Status,1732151118000,27,26,6,6,1575420030,0.00,329.0,1.0,0,0,0,0.0
Fix,GPS,37.4254616667,-122.1581800000,-0.5999999999999979,0.0,6.4,0.0,1732151119000,2.2,96.0,30003090000000,63.0,0,,,
Fix,FLP,37.4254455000,-122.1581872000,5.400000095367432,0.027258819,6.285,,1732151119243,2.2,,30003090000000,11.524955,0,,,
Raw,1732151119000,24801000000,,704661.1872237293,-1416186312199000064,0.0,169.14953525564562,1403.3143046587181,0.0,0,13,0.0,16431,349536929901491,1797,18.516000747680664,700.6896428774679,0.14999,16,0.0,0.0,1575420030,,,,0,0.0,1,6.0,18.516000747680664,0.0,0.0,0.0,66.7128,C,30003090000000,
Raw,1732151119000,24801000000,,704661.1872237293,-1416186312199000064,0.0,169.14953525564562,1403.3143046587181,0.0,0,30,0.0,16431,349536927437037,797,16.5939998626709,874.8414318803136,0.14999,16,0.0,0.0,1575420030,,,,0,0.0,1,6.0,16.5939998626709,0.0,0.0,0.0,66.7128,C,30003090000000,
Raw,1732151119000,24801000000,,704661.1872237293,-1416186312199000064,0.0,169.14953525564562,1403.3143046587181,0.0,0,15,0.0,16431,349536925379788,487,16.025999069213867,494.64080614012045,0.14999,16,0.0,0.0,1575420030,,,,0,0.0,1,6.0,16.025999069213867,0.0,0.0,0.0,66.7128,C,30003090000000,
Raw,1732151119000,24801000000,,704661.1872237293,-1416186312199000064,0.0,169.14953525564562,1403.3143046587181,0.0,0,7,0.0,16431,349536918815421,797,18.173999786376953,1029.3553412677973,0.14999,16,0.0,0.0,1575420030,,,,0,0.0,1,6.0,18.173999786376953,0.0,0.0,0.0,66.7128,C,30003090000000,
Raw,1732151119000,24801000000,,704661.1872237293,-1416186312199000064,0.0,169.14953525564562,1403.3143046587181,0.0,0,11,0.0,17,978875,487,20.200000762939453,-53.973262063258026,0.14999,16,0.0,0.0,1602000000,,,,0,3.5883785142858544,3,6.0,20.200000762939453,0.0,0.0,-9.278575228483438,66.7128,C,30003090000000,
Raw,1732151119000,24801000000,,704661.1872237293,-1416186312199000064,0.0,169.14953525564562,1403.3143046587181,0.0,0,8,0.0,17,167150,487,5.0,930.411717448649,0.14999,16,0.0,0.0,1605374980,,,,0,4.57323888939316,3,6.0,20.0,0.0,0.0,-9.278575228483438,66.7128,C,30003090000000,
Fix,NLP,37.4257086000,-122.1581035000,5.400000095367432,,82.5,,1732151119342,,,30003190000000,18.84352,0,,,
Status,1732151119000,27,0,1,17,1575420030,0.00,119.0,79.0,0,0,0,0.0
Status,1732151119000,27,1,1,22,1575420030,0.00,359.0,68.0,0,0,0,0.0
Status,1732151119000,27,2,1,14,1575420030,0.00,45.0,57.0,0,0,0,0.0
Status,1732151119000,27,3,1,19,1575420030,0.00,198.0,54.0,0,0,0,0.0
Status,1732151119000,27,4,1,13,1575420030,23.50,243.0,52.0,1,0,0,18.5
Status,1732151119000,27,5,2,135,1575420030,0.00,197.0,45.0,0,0,0,0.0
Status,1732151119000,27,6,1,30,1575420030,21.60,127.0,42.0,1,0,0,16.6
Status,1732151119000,27,7,1,15,1575420030,26.00,282.0,31.0,1,0,0,21.0
Status,1732151119000,27,8,1,2,1575420030,0.00,53.0,19.0,0,0,0,0.0
Status,1732151119000,27,9,1,24,1575420030,0.00,312.0,11.0,0,0,0,0.0
Status,1732151119000,27,10,1,7,1575420030,23.20,129.0,9.0,1,0,0,18.2
Status,1732151119000,27,11,1,21,1575420030,0.00,37.0,8.0,0,0,0,0.0
Status,1732151119000,27,12,1,6,1575420030,0.00,165.0,7.0,0,0,0,0.0
Status,1732151119000,27,13,3,20,1602000000,0.00,123.0,48.0,0,0,0,0.0
Status,1732151119000,27,14,3,9,1602000000,0.00,73.0,37.0,0,0,0,0.0
Status,1732151119000,27,15,3,8,1602000000,26.40,253.0,28.0,1,0,0,21.4
Status,1732151119000,27,16,3,19,1602000000,0.00,38.0,28.0,0,0,0,0.0
Status,1732151119000,27,17,3,11,1602000000,28.50,305.0,24.0,0,0,0,23.5
Status,1732151119000,27,18,6,21,1575420030,0.00,331.0,67.0,0,0,0,0.0
Status,1732151119000,27,19,6,19,1575420030,0.00,249.0,49.0,0,0,0,0.0
Status,1732151119000,27,20,6,27,1575420030,0.00,60.0,37.0,0,0,0,0.0
Status,1732151119000,27,21,6,29,1575420030,0.00,192.0,30.0,0,0,0,0.0
Status,1732151119000,27,22,6,13,1575420030,0.00,124.0,24.0,0,0,0,0.0
Status,1732151119000,27,23,6,15,1575420030,0.00,67.0,23.0,0,0,0,0.0
Status,1732151119000,27,24,6,4,1575420030,0.00,315.0,20.0,0,0,0,0.0
Status,1732151119000,27,25,6,26,1575420030,0.00,169.0,2.0,0,0,0,0.0
Status,1732151119000,27,26,6,6,1575420030,0.00,329.0,1.0,0,0,0,0.0
Fix,GPS,37.4254950000,-122.1581616667,-0.5999999999999979,0.0,6.4,0.0,1732151120000,2.1,137.0,30004090000000,62.9,0,,,
Fix,FLP,37.4254676000,-122.1581776000,5.400000095367432,0.23834674,6.342,0.00000000037912212,1732151120242,2.1,137.0,30004090000000,9.649187,0,,,
Raw,1732151120000,25801000000,,704656.4964786406,-1416186312199000064,0.0,169.16780758080677,1405.4110496335402,0.0,0,13,0.0,16431,349537929899146,487,18.509000778198242,701.5148372661995,0.14999,16,0.0,0.0,1575420030,,,,0,0.0,1,6.0,18.509000778198242,0.0,0.0,0.0,66.7128,C,30004090000000,
Raw,1732151120000,25801000000,,704656.4964786406,-1416186312199000064,0.0,169.16780758080677,1405.4110496335402,0.0,0,30,0.0,16431,349537927434118,797,16.625,875.7908560739922,0.14999,16,0.0,0.0,1575420030,,,,0,0.0,1,6.0,16.625,0.0,0.0,0.0,66.7128,C,30004090000000,
Raw,1732151120000,25801000000,,704656.4964786406,-1416186312199000064,0.0,169.16780758080677,1405.4110496335402,0.0,0,15,0.0,16431,349537925378123,487,20.957000732421875,495.31891318312944,0.14999,16,0.0,0.0,1575420030,,,,0,3.8507600729122293,1,6.0,20.957000732421875,0.0,0.0,0.0,66.7128,C,30004090000000,
Raw,1732151120000,25801000000,,704656.4964786406,-1416186312199000064,0.0,169.16780758080677,1405.4110496335402,0.0,0,7,0.0,16431,349537918811986,797,18.173999786376953,1030.4289023495903,0.14999,16,0.0,0.0,1575420030,,,,0,0.0,1,6.0,18.173999786376953,0.0,0.0,0.0,66.7128,C,30004090000000,
Raw,1732151120000,25801000000,,704656.4964786406,-1416186312199000064,0.0,169.16780758080677,1405.4110496335402,0.0,0,11,0.0,17,979055,316,21.399999618530273,-53.39115648792464,0.14999,16,0.0,0.0,1602000000,,,,0,9.22552072753744,3,6.0,21.399999618530273,0.0,0.0,-9.278575228483438,66.7128,C,30004090000000,
Raw,1732151120000,25801000000,,704656.4964786406,-1416186312199000064,0.0,169.16780758080677,1405.4110496335402,0.0,0,8,0.0,17,164090,487,5.0,931.5388314934285,0.14999,16,0.0,0.0,1605374980,,,,0,6.270676976584729,3,6.0,20.0,0.0,0.0,-9.278575228483438,66.7128,C,30004090000000,
Status,1732151120000,27,0,1,17,1575420030,0.00,119.0,79.0,0,0,0,0.0
Status,1732151120000,27,1,1,22,1575420030,0.00,359.0,68.0,0,0,0,0.0
Status,1732151120000,27,2,1,14,1575420030,0.00,45.0,57.0,0,0,0,0.0
Status,1732151120000,27,3,1,19,1575420030,0.00,198.0,54.0,0,0,0,0.0
Status,1732151120000,27,4,1,13,1575420030,23.50,243.0,52.0,1,0,0,18.5
Status,1732151120000,27,5,2,135,1575420030,0.00,197.0,45.0,0,0,0,0.0
Status,1732151120000,27,6,1,30,1575420030,21.70,127.0,42.0,1,0,0,16.7
Status,1732151120000,27,7,1,15,1575420030,25.90,282.0,31.0,1,0,0,20.9
Status,1732151120000,27,8,1,2,1575420030,0.00,53.0,19.0,0,0,0,0.0
Status,1732151120000,27,9,1,24,1575420030,0.00,312.0,11.0,0,0,0,0.0
Status,1732151120000,27,10,1,7,1575420030,23.10,129.0,9.0,1,0,0,18.1
Status,1732151120000,27,11,1,21,1575420030,0.00,37.0,8.0,0,0,0,0.0
Status,1732151120000,27,12,1,6,1575420030,0.00,165.0,7.0,0,0,0,0.0
Status,1732151120000,27,13,3,20,1602000000,0.00,123.0,48.0,0,0,0,0.0
Status,1732151120000,27,14,3,9,1602000000,0.00,73.0,37.0,0,0,0,0.0
Status,1732151120000,27,15,3,8,1602000000,26.40,253.0,28.0,1,0,0,21.4
Status,1732151120000,27,16,3,19,1602000000,0.00,38.0,28.0,0,0,0,0.0
Status,1732151120000,27,17,3,11,1602000000,34.50,305.0,24.0,0,0,0,29.5
Status,1732151120000,27,18,6,21,1575420030,0.00,331.0,67.0,0,0,0,0.0
Status,1732151120000,27,19,6,19,1575420030,0.00,249.0,49.0,0,0,0,0.0
Status,1732151120000,27,20,6,27,1575420030,0.00,60.0,37.0,0,0,0,0.0
Status,1732151120000,27,21,6,29,1575420030,0.00,192.0,30.0,0,0,0,0.0
Status,1732151120000,27,22,6,13,1575420030,0.00,124.0,24.0,0,0,0,0.0
Status,1732151120000,27,23,6,15,1575420030,0.00,67.0,23.0,0,0,0,0.0
Status,1732151120000,27,24,6,4,1575420030,0.00,315.0,20.0,0,0,0,0.0
Status,1732151120000,27,25,6,26,1575420030,0.00,169.0,2.0,0,0,0,0.0
Status,1732151120000,27,26,6,6,1575420030,0.00,329.0,1.0,0,0,0,0.0
Fix,GPS,37.4255283333,-122.1581416667,-0.5999999999999979,0.0,6.4,0.0,1732151121000,2.1,179.9,30005090000000,63.5,0,,,
Raw,1732151121000,26801000000,,704653.1087182987,-1416186312199000064,0.0,170.57965008655594,1409.5499564271122,0.0,0,13,0.0,16431,349538929896774,487,18.506000518798828,702.9769300827613,0.14999,16,0.0,0.0,1575420030,,,,0,0.0,1,6.0,18.506000518798828,0.0,0.0,0.0,66.7128,C,30005090000000,
Raw,1732151121000,26801000000,,704653.1087182987,-1416186312199000064,0.0,170.57965008655594,1409.5499564271122,0.0,0,30,0.0,16431,349538927431195,1797,16.65399932861328,876.9027918075752,0.14999,16,0.0,0.0,1575420030,,,,0,0.0,1,6.0,16.65399932861328,0.0,0.0,0.0,66.7128,C,30005090000000,
Raw,1732151121000,26801000000,,704653.1087182987,-1416186312199000064,0.0,170.57965008655594,1409.5499564271122,0.0,0,15,0.0,16431,349538925376468,487,20.927000045776367,497.31950550198763,0.14999,16,0.0,0.0,1575420030,,,,0,2.8647046464057326,1,6.0,20.927000045776367,0.0,0.0,0.0,66.7128,C,30005090000000,
Raw,1732151121000,26801000000,,704653.1087182987,-1416186312199000064,0.0,170.57965008655594,1409.5499564271122,0.0,0,7,0.0,16431,349538918808525,797,18.055999755859375,1031.0453126158718,0.14999,16,0.0,0.0,1575420030,,,,0,0.0,1,6.0,18.055999755859375,0.0,0.0,0.0,66.7128,C,30005090000000,
Raw,1732151121000,26801000000,,704653.1087182987,-1416186312199000064,0.0,170.57965008655594,1409.5499564271122,0.0,0,11,0.0,17,979232,235,21.399999618530273,-52.67783615610766,0.14999,16,0.0,0.0,1602000000,,,,0,16.399620285863836,3,6.0,21.399999618530273,0.0,0.0,-9.278575228483438,66.7128,C,30005090000000,
Raw,1732151121000,26801000000,,704653.1087182987,-1416186312199000064,0.0,170.57965008655594,1409.5499564271122,0.0,0,8,0.0,17,160977,797,5.0,935.0219339444055,0.14999,16,0.0,0.0,1605374980,,,,0,6.270676976584729,3,6.0,17.0,0.0,0.0,-9.278575228483438,66.7128,C,30005090000000,
Fix,FLP,37.4254937000,-122.1581649000,5.400000095367432,0.44687414,6.371,0.0000000010374714,1732151121242,2.1,179.9,30005090000000,10.740424,0,,,
Status,1732151121000,27,0,1,17,1575420030,0.00,119.0,79.0,0,0,0,0.0
Status,1732151121000,27,1,1,22,1575420030,0.00,359.0,68.0,0,0,0,0.0
Status,1732151121000,27,2,1,14,1575420030,0.00,45.0,57.0,0,0,0,0.0
Status,1732151121000,27,3,1,19,1575420030,0.00,198.0,54.0,0,0,0,0.0
Status,1732151121000,27,4,1,13,1575420030,23.60,243.0,52.0,1,0,0,18.6
Status,1732151121000,27,5,2,135,1575420030,0.00,197.0,45.0,0,0,0,0.0
Status,1732151121000,27,6,1,30,1575420030,18.90,127.0,42.0,1,0,0,13.9
Status,1732151121000,27,7,1,15,1575420030,25.90,282.0,31.0,1,0,0,20.9
Status,1732151121000,27,8,1,2,1575420030,0.00,53.0,19.0,0,0,0,0.0
Status,1732151121000,27,9,1,24,1575420030,0.00,312.0,11.0,0,0,0,0.0
Status,1732151121000,27,10,1,7,1575420030,23.10,129.0,9.0,1,0,0,18.1
Status,1732151121000,27,11,1,21,1575420030,0.00,37.0,8.0,0,0,0,0.0
Status,1732151121000,27,12,1,6,1575420030,0.00,165.0,7.0,0,0,0,0.0
Status,1732151121000,27,13,3,20,1602000000,0.00,123.0,48.0,0,0,0,0.0
Status,1732151121000,27,14,3,9,1602000000,0.00,73.0,37.0,0,0,0,0.0
Status,1732151121000,27,15,3,8,1602000000,20.30,253.0,28.0,1,0,0,15.299999
Status,1732151121000,27,16,3,19,1602000000,0.00,38.0,28.0,0,0,0,0.0
Status,1732151121000,27,17,3,11,1602000000,30.60,305.0,24.0,0,0,0,25.6
Status,1732151121000,27,18,6,21,1575420030,0.00,331.0,67.0,0,0,0,0.0
Status,1732151121000,27,19,6,19,1575420030,0.00,249.0,49.0,0,0,0,0.0
Status,1732151121000,27,20,6,27,1575420030,0.00,60.0,37.0,0,0,0,0.0
Status,1732151121000,27,21,6,29,1575420030,0.00,192.0,30.0,0,0,0,0.0
Status,1732151121000,27,22,6,13,1575420030,0.00,124.0,24.0,0,0,0,0.0
Status,1732151121000,27,23,6,15,1575420030,0.00,67.0,23.0,0,0,0,0.0
Status,1732151121000,27,24,6,4,1575420030,0.00,315.0,20.0,0,0,0,0.0
Status,1732151121000,27,25,6,26,1575420030,0.00,169.0,2.0,0,0,0,0.0
Status,1732151121000,27,26,6,6,1575420030,0.00,329.0,1.0,0,0,0,0.0
Fix,GPS,37.4255650000,-122.1581283333,-0.5999999999999979,0.0,6.4,0.0,1732151122000,2.1,179.9,30006090000000,70.4,0,,,
Fix,FLP,37.4255261000,-122.1581515000,5.400000095367432,0.6449464,6.385,0.0000000012411288,1732151122242,2.1,179.9,30006090000000,10.793331,0,,,
Raw,1732151122000,27801000000,,704650.1379130759,-1416186312199000064,0.0,113.26118565385678,1413.8169982788033,0.0,0,13,0.0,16431,349539929894436,487,18.57200050354004,704.5651574993348,0.14999,16,0.0,0.0,1575420030,,,,0,1.9653617360752698,1,6.0,18.57200050354004,0.0,0.0,0.0,66.7128,C,30006090000000,
Raw,1732151122000,27801000000,,704650.1379130759,-1416186312199000064,0.0,113.26118565385678,1413.8169982788033,0.0,0,30,0.0,16431,349539927428278,1797,13.899999618530273,878.1293869123658,0.14999,16,0.0,0.0,1575420030,,,,0,0.0,1,6.0,13.899999618530273,0.0,0.0,0.0,66.7128,C,30006090000000,
Raw,1732151122000,27801000000,,704650.1379130759,-1416186312199000064,0.0,113.26118565385678,1413.8169982788033,0.0,0,15,0.0,16431,349539925374829,487,20.882999420166016,498.44463542577444,0.14999,16,0.0,0.0,1575420030,,,,0,2.3766049143730514,1,6.0,20.882999420166016,0.0,0.0,0.0,66.7128,C,30006090000000,
Raw,1732151122000,27801000000,,704650.1379130759,-1416186312199000064,0.0,113.26118565385678,1413.8169982788033,0.0,0,7,0.0,16431,349539918805083,487,18.124000549316406,1031.8863957829474,0.14999,16,0.0,0.0,1575420030,,,,0,1.3095114681491191,1,6.0,18.124000549316406,0.0,0.0,0.0,66.7128,C,30006090000000,
Raw,1732151122000,27801000000,,704650.1379130759,-1416186312199000064,0.0,113.26118565385678,1413.8169982788033,0.0,0,11,0.0,17,979402,235,15.300000190734863,-52.684323793788955,0.14999,16,0.0,0.0,1602000000,,,,0,11.833447756729022,3,6.0,15.300000190734863,0.0,0.0,-9.278575228483438,66.7128,C,30006090000000,
Raw,1732151122000,27801000000,,704650.1379130759,-1416186312199000064,0.0,113.26118565385678,1413.8169982788033,0.0,0,8,0.0,17,157936,1797,5.0,937.2179872292908,0.14999,16,0.0,0.0,1605374980,,,,0,0.0,3,6.0,13.0,0.0,0.0,-9.278575228483438,66.7128,C,30006090000000,
Status,1732151122000,27,0,1,17,1575420030,0.00,119.0,79.0,0,0,0,0.0
Status,1732151122000,27,1,1,22,1575420030,0.00,359.0,68.0,0,0,0,0.0
Status,1732151122000,27,2,1,14,1575420030,0.00,45.0,57.0,0,0,0,0.0
Status,1732151122000,27,3,1,19,1575420030,0.00,198.0,54.0,0,0,0,0.0
Status,1732151122000,27,4,1,13,1575420030,23.60,243.0,52.0,1,0,0,18.6
Status,1732151122000,27,5,2,135,1575420030,0.00,197.0,45.0,0,0,0,0.0
Status,1732151122000,27,6,1,30,1575420030,18.90,127.0,42.0,1,0,0,13.9
Status,1732151122000,27,7,1,15,1575420030,25.90,282.0,31.0,1,0,0,20.9
Status,1732151122000,27,8,1,2,1575420030,0.00,53.0,19.0,0,0,0,0.0
Status,1732151122000,27,9,1,24,1575420030,0.00,312.0,11.0,0,0,0,0.0
Status,1732151122000,27,10,1,7,1575420030,23.20,129.0,9.0,1,0,0,18.2
Status,1732151122000,27,11,1,21,1575420030,0.00,37.0,8.0,0,0,0,0.0
Status,1732151122000,27,12,1,6,1575420030,0.00,165.0,7.0,0,0,0,0.0
Status,1732151122000,27,13,3,20,1602000000,0.00,123.0,48.0,0,0,0,0.0
Status,1732151122000,27,14,3,9,1602000000,0.00,73.0,37.0,0,0,0,0.0
Status,1732151122000,27,15,3,8,1602000000,20.30,253.0,28.0,1,0,0,15.299999
Status,1732151122000,27,16,3,19,1602000000,0.00,38.0,28.0,0,0,0,0.0
Status,1732151122000,27,17,3,11,1602000000,36.20,305.0,24.0,0,0,0,31.2
Status,1732151122000,27,18,6,21,1575420030,0.00,331.0,67.0,0,0,0,0.0
Status,1732151122000,27,19,6,19,1575420030,0.00,249.0,49.0,0,0,0,0.0
Status,1732151122000,27,20,6,27,1575420030,0.00,60.0,37.0,0,0,0,0.0
Status,1732151122000,27,21,6,29,1575420030,0.00,192.0,30.0,0,0,0,0.0
Status,1732151122000,27,22,6,13,1575420030,0.00,124.0,24.0,0,0,0,0.0
Status,1732151122000,27,23,6,15,1575420030,0.00,67.0,23.0,0,0,0,0.0
Status,1732151122000,27,24,6,4,1575420030,0.00,315.0,20.0,0,0,0,0.0
Status,1732151122000,27,25,6,26,1575420030,0.00,169.0,2.0,0,0,0,0.0
Status,1732151122000,27,26,6,6,1575420030,0.00,329.0,1.0,0,0,0,0.0
Fix,GPS,37.4255966667,-122.1581166667,-0.5999999999999979,0.0,6.5,0.0,1732151123000,2.1,179.9,30007090000000,71.1,0,,,
Raw,1732151123000,28801000000,,704647.2713466327,-1416186312199000064,0.0,113.91197818196765,1416.8536255672254,0.0,0,13,0.0,16431,349540929892085,487,18.635000228881836,705.1836583943457,0.14999,16,0.0,0.0,1575420030,,,,0,1.9653617360752698,1,6.0,18.635000228881836,0.0,0.0,0.0,66.7128,C,30007090000000,
Raw,1732151123000,28801000000,,704647.2713466327,-1416186312199000064,0.0,113.91197818196765,1416.8536255672254,0.0,0,30,0.0,16431,349540927425348,1797,13.899999618530273,878.4892538043327,0.14999,16,0.0,0.0,1575420030,,,,0,0.0,1,6.0,13.899999618530273,0.0,0.0,0.0,66.7128,C,30007090000000,
Raw,1732151123000,28801000000,,704647.2713466327,-1416186312199000064,0.0,113.91197818196765,1416.8536255672254,0.0,0,15,0.0,16431,349540925373148,797,20.884000778198242,499.1770988157498,0.14999,16,0.0,0.0,1575420030,,,,0,3.765603610061402,1,6.0,20.884000778198242,0.0,0.0,0.0,66.7128,C,30007090000000,
Raw,1732151123000,28801000000,,704647.2713466327,-1416186312199000064,0.0,113.91197818196765,1416.8536255672254,0.0,0,7,0.0,16431,349540918801640,487,18.18899917602539,1032.572122006215,0.14999,16,0.0,0.0,1575420030,,,,0,1.3095114681491191,1,6.0,18.18899917602539,0.0,0.0,0.0,66.7128,C,30007090000000,
Raw,1732151123000,28801000000,,704647.2713466327,-1416186312199000064,0.0,113.91197818196765,1416.8536255672254,0.0,0,11,0.0,17,979580,74,15.300000190734863,-51.13245344787034,0.14999,16,0.0,0.0,1602000000,,,,0,18.305205800068755,3,6.0,15.300000190734863,0.0,0.0,-9.278575228483438,66.7128,C,30007090000000,
Raw,1732151123000,28801000000,,704647.2713466327,-1416186312199000064,0.0,113.91197818196765,1416.8536255672254,0.0,0,8,0.0,17,154810,797,5.0,937.0556813479133,0.14999,16,0.0,0.0,1605374980,,,,0,0.0,3,6.0,17.0,0.0,0.0,-9.278575228483438,66.7128,C,30007090000000,
Fix,FLP,37.4255587000,-122.1581389000,5.400000095367432,0.7662275,6.414,0.0000000009676011,1732151123242,2.1,179.9,30007090000000,10.643307,0,,,
Status,1732151123000,27,0,1,17,1575420030,0.00,119.0,79.0,0,0,0,0.0
Status,1732151123000,27,1,1,22,1575420030,20.90,359.0,68.0,1,0,0,15.9
Status,1732151123000,27,2,1,14,1575420030,0.00,45.0,57.0,0,0,0,0.0
Status,1732151123000,27,3,1,19,1575420030,0.00,198.0,54.0,0,0,0,0.0
Status,1732151123000,27,4,1,13,1575420030,23.60,243.0,52.0,1,0,0,18.6
Status,1732151123000,27,5,2,135,1575420030,0.00,197.0,45.0,0,0,0,0.0
Status,1732151123000,27,6,1,30,1575420030,0.00,127.0,42.0,0,0,0,0.0
Status,1732151123000,27,7,1,15,1575420030,25.90,282.0,31.0,1,0,0,20.9
Status,1732151123000,27,8,1,2,1575420030,0.00,53.0,19.0,0,0,0,0.0
Status,1732151123000,27,9,1,24,1575420030,0.00,312.0,11.0,0,0,0,0.0
Status,1732151123000,27,10,1,7,1575420030,25.70,129.0,9.0,1,0,0,20.7
Status,1732151123000,27,11,1,21,1575420030,0.00,37.0,8.0,0,0,0,0.0
Status,1732151123000,27,12,1,6,1575420030,0.00,165.0,7.0,0,0,0,0.0
Status,1732151123000,27,13,3,20,1602000000,0.00,123.0,48.0,0,0,0,0.0
Status,1732151123000,27,14,3,9,1602000000,0.00,73.0,37.0,0,0,0,0.0
Status,1732151123000,27,15,3,8,1602000000,20.30,253.0,28.0,1,0,0,15.299999
Status,1732151123000,27,16,3,19,1602000000,0.00,38.0,28.0,0,0,0,0.0
Status,1732151123000,27,17,3,11,1602000000,35.10,305.0,24.0,0,0,0,30.099998
Status,1732151123000,27,18,6,21,1575420030,0.00,331.0,67.0,0,0,0,0.0
Status,1732151123000,27,19,6,19,1575420030,0.00,249.0,49.0,0,0,0,0.0
Status,1732151123000,27,20,6,27,1575420030,0.00,60.0,37.0,0,0,0,0.0
Status,1732151123000,27,21,6,29,1575420030,0.00,192.0,30.0,0,0,0,0.0
Status,1732151123000,27,22,6,13,1575420030,0.00,124.0,24.0,0,0,0,0.0
Status,1732151123000,27,23,6,15,1575420030,0.00,67.0,23.0,0,0,0,0.0
Status,1732151123000,27,24,6,4,1575420030,0.00,315.0,20.0,0,0,0,0.0
Status,1732151123000,27,25,6,26,1575420030,0.00,169.0,2.0,0,0,0,0.0
Status,1732151123000,27,26,6,6,1575420030,0.00,329.0,1.0,0,0,0,0.0
Fix,GPS,37.4256033333,-122.1581200000,-0.5999999999999979,0.0,6.4,0.0,1732151124000,2.1,179.9,30008090000000,39.5,0,,,
Raw,1732151124000,29801000000,,704643.6229893415,-1416186312199000064,0.0,90.51146006958808,1421.802123341119,0.0,0,13,0.0,16431,349541929889753,797,18.614999771118164,706.4585702519953,0.14999,16,0.0,0.0,1575420030,,,,0,0.0,1,6.0,18.614999771118164,0.0,0.0,0.0,66.7128,C,30008090000000,
Raw,1732151124000,29801000000,,704643.6229893415,-1416186312199000064,0.0,90.51146006958808,1421.802123341119,0.0,0,15,0.0,16431,349541925371480,487,20.885000228881836,500.5773554803354,0.14999,16,0.0,0.0,1575420030,,,,0,3.765603610061402,1,6.0,20.885000228881836,0.0,0.0,0.0,66.7128,C,30008090000000,
Raw,1732151124000,29801000000,,704643.6229893415,-1416186312199000064,0.0,90.51146006958808,1421.802123341119,0.0,0,7,0.0,16431,349541918798171,487,20.719999313354492,1033.7467766016823,0.14999,16,0.0,0.0,1575420030,,,,0,3.5050073750290016,1,6.0,20.719999313354492,0.0,0.0,0.0,66.7128,C,30008090000000,
Raw,1732151124000,29801000000,,704643.6229893415,-1416186312199000064,0.0,90.51146006958808,1421.802123341119,0.0,0,11,0.0,17,979740,74,15.34000015258789,-50.40085808033141,0.14999,16,0.0,0.0,1602000000,,,,0,17.08233276675106,3,6.0,15.34000015258789,0.0,0.0,-9.278575228483438,66.7128,C,30008090000000,
Raw,1732151124000,29801000000,,704643.6229893415,-1416186312199000064,0.0,90.51146006958808,1421.802123341119,0.0,0,8,0.0,17,151659,487,5.0,936.2913847761681,0.14999,16,0.0,0.0,1605374980,,,,0,0.0,3,6.0,18.0,0.0,0.0,-9.278575228483438,66.7128,C,30008090000000,
Raw,1732151124000,29801000000,,704643.6229893415,-1416186312199000064,0.0,90.51146006958808,1421.802123341119,0.0,0,22,0.0,16431,349541930667743,797,15.937000274658203,522.440732607431,0.14999,16,0.0,0.0,1575420030,,,,0,0.0,1,6.0,15.937000274658203,0.0,0.0,0.0,66.7128,C,30008090000000,
Fix,FLP,37.4255810000,-122.1581318000,5.400000095367432,0.7177059,6.414,0.00000000056776717,1732151124242,2.1,179.9,30008090000000,11.30294,0,,,
Fix,FLP,37.4255889000,-122.1581282000,5.400000095367432,0.60470057,6.416,0.00000000047000964,1732151124511,2.1,179.9,30008359000000,11.274949,0,,,
Fix,NLP,37.4257151000,-122.1580846000,5.400000095367432,,52.4,,1732151124511,,,30008359000000,13.708462,0,,,
Status,1732151124000,27,0,1,17,1575420030,0.00,119.0,79.0,0,0,0,0.0
Status,1732151124000,27,1,1,22,1575420030,20.90,359.0,68.0,1,0,0,15.9
Status,1732151124000,27,2,1,14,1575420030,0.00,45.0,57.0,0,0,0,0.0
Status,1732151124000,27,3,1,19,1575420030,0.00,198.0,54.0,0,0,0,0.0
Status,1732151124000,27,4,1,13,1575420030,23.60,243.0,52.0,1,0,0,18.6
Status,1732151124000,27,5,2,138,1575420030,0.00,156.0,43.0,0,0,0,0.0
Status,1732151124000,27,6,1,30,1575420030,0.00,127.0,42.0,0,0,0,0.0
Status,1732151124000,27,7,1,15,1575420030,25.90,282.0,31.0,1,0,0,20.9
Status,1732151124000,27,8,1,2,1575420030,0.00,53.0,19.0,0,0,0,0.0
Status,1732151124000,27,9,1,24,1575420030,0.00,312.0,11.0,0,0,0,0.0
Status,1732151124000,27,10,1,7,1575420030,25.60,129.0,9.0,1,0,0,20.6
Status,1732151124000,27,11,1,21,1575420030,0.00,37.0,8.0,0,0,0,0.0
Status,1732151124000,27,12,1,6,1575420030,0.00,165.0,7.0,0,0,0,0.0
Status,1732151124000,27,13,3,20,1602000000,0.00,123.0,48.0,0,0,0,0.0
Status,1732151124000,27,14,3,9,1602000000,0.00,73.0,37.0,0,0,0,0.0
Status,1732151124000,27,15,3,8,1602000000,23.20,253.0,28.0,1,0,0,18.2
Status,1732151124000,27,16,3,19,1602000000,0.00,38.0,28.0,0,0,0,0.0
Status,1732151124000,27,17,3,11,1602000000,31.00,305.0,24.0,0,0,0,26.0
Status,1732151124000,27,18,6,21,1575420030,0.00,331.0,67.0,0,0,0,0.0
Status,1732151124000,27,19,6,19,1575420030,0.00,249.0,49.0,0,0,0,0.0
Status,1732151124000,27,20,6,27,1575420030,0.00,60.0,37.0,0,0,0,0.0
Status,1732151124000,27,21,6,29,1575420030,0.00,192.0,30.0,0,0,0,0.0
Status,1732151124000,27,22,6,13,1575420030,0.00,124.0,24.0,0,0,0,0.0
Status,1732151124000,27,23,6,15,1575420030,0.00,67.0,23.0,0,0,0,0.0
Status,1732151124000,27,24,6,4,1575420030,0.00,315.0,20.0,0,0,0,0.0
Status,1732151124000,27,25,6,26,1575420030,0.00,169.0,2.0,0,0,0,0.0
Status,1732151124000,27,26,6,6,1575420030,0.00,329.0,1.0,0,0,0,0.0
Fix,GPS,37.4256050000,-122.1581300000,-0.5999999999999979,0.0,6.4,0.0,1732151125000,2.1,179.9,30009090000000,39.7,0,,,
Raw,1732151125000,30801000000,,704640.7564228984,-1416186312199000064,0.0,90.66206042087279,1424.8968730058752,0.0,0,13,0.0,16431,349542929887395,797,18.59600067138672,707.5979629095588,0.14999,16,0.0,0.0,1575420030,,,,0,0.0,1,6.0,18.59600067138672,0.0,0.0,0.0,66.7128,C,30009090000000,
Raw,1732151125000,30801000000,,704640.7564228984,-1416186312199000064,0.0,90.66206042087279,1424.8968730058752,0.0,0,15,0.0,16431,349542925369805,487,20.868999481201172,501.22637955479667,0.14999,16,0.0,0.0,1575420030,,,,0,3.236350196751694,1,6.0,20.868999481201172,0.0,0.0,0.0,66.7128,C,30009090000000,
Raw,1732151125000,30801000000,,704640.7564228984,-1416186312199000064,0.0,90.66206042087279,1424.8968730058752,0.0,0,7,0.0,16431,349542918794688,797,20.59600067138672,1034.550600118957,0.14999,16,0.0,0.0,1575420030,,,,0,0.0,1,6.0,20.59600067138672,0.0,0.0,0.0,66.7128,C,30009090000000,
Raw,1732151125000,30801000000,,704640.7564228984,-1416186312199000064,0.0,90.66206042087279,1424.8968730058752,0.0,0,11,0.0,17,979908,316,18.200000762939453,-50.05454615340047,0.14999,16,0.0,0.0,1602000000,,,,0,12.272715550041042,3,6.0,18.200000762939453,0.0,0.0,-9.278575228483438,66.7128,C,30009090000000,
Raw,1732151125000,30801000000,,704640.7564228984,-1416186312199000064,0.0,90.66206042087279,1424.8968730058752,0.0,0,8,0.0,17,148507,797,5.0,935.9264700923071,0.14999,16,0.0,0.0,1605374980,,,,0,1.29530723008898,3,6.0,17.0,0.0,0.0,-9.278575228483438,66.7128,C,30009090000000,
Raw,1732151125000,30801000000,,704640.7564228984,-1416186312199000064,0.0,90.66206042087279,1424.8968730058752,0.0,0,22,0.0,16431,349542930665999,797,15.937000274658203,523.5848640234478,0.14999,16,0.0,0.0,1575420030,,,,0,0.0,1,6.0,15.937000274658203,0.0,0.0,0.0,66.7128,C,30009090000000,
Fix,FLP,37.4255966000,-122.1581288000,5.400000095367432,0.5378714,6.414,0.0,1732151125242,2.1,179.9,30009090000000,10.602363,0,,,
Status,1732151125000,27,0,1,17,1575420030,0.00,119.0,79.0,0,0,0,0.0
Status,1732151125000,27,1,1,22,1575420030,20.90,359.0,68.0,1,0,0,15.9
Status,1732151125000,27,2,1,14,1575420030,0.00,45.0,57.0,0,0,0,0.0
Status,1732151125000,27,3,1,19,1575420030,22.00,198.0,54.0,1,0,0,17.0
Status,1732151125000,27,4,1,13,1575420030,23.70,243.0,52.0,1,0,0,18.7
Status,1732151125000,27,5,2,138,1575420030,0.00,156.0,43.0,0,0,0,0.0
Status,1732151125000,27,6,1,30,1575420030,0.00,127.0,42.0,0,0,0,0.0
Status,1732151125000,27,7,1,15,1575420030,25.90,282.0,31.0,1,0,0,20.9
Status,1732151125000,27,8,1,2,1575420030,0.00,53.0,19.0,0,0,0,0.0
Status,1732151125000,27,9,1,24,1575420030,0.00,312.0,11.0,0,0,0,0.0
Status,1732151125000,27,10,1,7,1575420030,22.50,129.0,9.0,1,0,0,17.5
Status,1732151125000,27,11,1,21,1575420030,0.00,37.0,8.0,0,0,0,0.0
Status,1732151125000,27,12,1,6,1575420030,0.00,165.0,7.0,0,0,0,0.0
Status,1732151125000,27,13,3,20,1602000000,0.00,123.0,48.0,0,0,0,0.0
Status,1732151125000,27,14,3,9,1602000000,0.00,73.0,37.0,0,0,0,0.0
Status,1732151125000,27,15,3,8,1602000000,23.20,253.0,28.0,1,0,0,18.2
Status,1732151125000,27,16,3,19,1602000000,0.00,38.0,28.0,0,0,0,0.0
Status,1732151125000,27,17,3,11,1602000000,33.50,305.0,24.0,0,0,0,28.5
Status,1732151125000,27,18,6,21,1575420030,0.00,331.0,67.0,0,0,0,0.0
Status,1732151125000,27,19,6,19,1575420030,0.00,249.0,49.0,0,0,0,0.0
Status,1732151125000,27,20,6,27,1575420030,0.00,60.0,37.0,0,0,0,0.0
Status,1732151125000,27,21,6,29,1575420030,0.00,192.0,30.0,0,0,0,0.0
Status,1732151125000,27,22,6,13,1575420030,0.00,124.0,24.0,0,0,0,0.0
Status,1732151125000,27,23,6,15,1575420030,0.00,67.0,23.0,0,0,0,0.0
Status,1732151125000,27,24,6,4,1575420030,0.00,315.0,20.0,0,0,0,0.0
Status,1732151125000,27,25,6,26,1575420030,0.00,169.0,2.0,0,0,0,0.0
Status,1732151125000,27,26,6,6,1575420030,0.00,329.0,1.0,0,0,0,0.0
Fix,GPS,37.4256016667,-122.1581466667,-0.6999999999999993,0.0,6.6,0.0,1732151126000,2.0,179.9,30010090000000,40.1,0,,,
Raw,1732151126000,31801000000,,996633.2275110136,-1416186312199000064,0.0,91.17423903941331,1425.026263352901,0.0,0,13,0.0,16431,349543929885032,487,18.673999786376953,707.3820706494283,0.14999,16,0.0,0.0,1575420030,,,,0,2.5751481790332758,1,6.0,18.673999786376953,0.0,0.0,0.0,66.7128,C,30010090000000,
Raw,1732151126000,31801000000,,996633.2275110136,-1416186312199000064,0.0,91.17423903941331,1425.026263352901,0.0,0,15,0.0,16431,349543925368134,487,20.854000091552734,501.1473073304063,0.14999,16,0.0,0.0,1575420030,,,,0,3.236350196751694,1,6.0,20.854000091552734,0.0,0.0,0.0,66.7128,C,30010090000000,
Raw,1732151126000,31801000000,,996633.2275110136,-1416186312199000064,0.0,91.17423903941331,1425.026263352901,0.0,0,19,0.0,16431,349543929746887,797,17.0310001373291,-28.348460987508364,0.14999,16,0.0,0.0,1575420030,,,,0,0.0,1,6.0,17.0310001373291,0.0,0.0,0.0,66.7128,C,30010090000000,
Raw,1732151126000,31801000000,,996633.2275110136,-1416186312199000064,0.0,91.17423903941331,1425.026263352901,0.0,0,7,0.0,16431,349543918791230,797,17.54800033569336,1034.457032868709,0.14999,16,0.0,0.0,1575420030,,,,0,0.0,1,6.0,17.54800033569336,0.0,0.0,0.0,66.7128,C,30010090000000,
Raw,1732151126000,31801000000,,996633.2275110136,-1416186312199000064,0.0,91.17423903941331,1425.026263352901,0.0,0,11,0.0,17,980082,235,18.200000762939453,-50.41799092632073,0.14999,16,0.0,0.0,1602000000,,,,0,15.322907252427383,3,6.0,18.200000762939453,0.0,0.0,-9.278575228483438,66.7128,C,30010090000000,
Raw,1732151126000,31801000000,,996633.2275110136,-1416186312199000064,0.0,91.17423903941331,1425.026263352901,0.0,0,8,0.0,17,145385,797,5.0,935.772188321919,0.14999,16,0.0,0.0,1605374980,,,,0,1.29530723008898,3,6.0,17.0,0.0,0.0,-9.278575228483438,66.7128,C,30010090000000,
Raw,1732151126000,31801000000,,996633.2275110136,-1416186312199000064,0.0,91.17423903941331,1425.026263352901,0.0,0,22,0.0,16431,349543930664251,797,15.937000274658203,524.1008311938821,0.14999,16,0.0,0.0,1575420030,,,,0,0.0,1,6.0,15.937000274658203,0.0,0.0,0.0,66.7128,C,30010090000000,
Fix,FLP,37.4256006000,-122.1581353000,5.400000095367432,0.4490026,6.442,0.0,1732151126243,2.0,179.9,30010090000000,10.925074,0,,,
Status,1732151126000,27,0,1,17,1575420030,0.00,119.0,79.0,0,0,0,0.0
Status,1732151126000,27,1,1,22,1575420030,0.00,359.0,68.0,0,0,0,0.0
Status,1732151126000,27,2,1,14,1575420030,0.00,45.0,57.0,0,0,0,0.0
Status,1732151126000,27,3,1,19,1575420030,0.00,198.0,54.0,0,0,0,0.0
Status,1732151126000,27,4,1,13,1575420030,27.30,243.0,52.0,1,0,0,22.3
Status,1732151126000,27,5,2,138,1575420030,0.00,156.0,43.0,0,0,0,0.0
Status,1732151126000,27,6,1,30,1575420030,0.00,127.0,42.0,0,0,0,0.0
Status,1732151126000,27,7,1,15,1575420030,30.70,282.0,31.0,1,0,0,25.7
Status,1732151126000,27,8,1,2,1575420030,18.50,53.0,19.0,1,0,0,13.5
Status,1732151126000,27,9,1,24,1575420030,0.00,312.0,11.0,0,0,0,0.0
