# 
# Header Description:
# 
# Version: v3.1.0.3 Platform: 13 Manufacturer: samsung Model: SM-S135DL GNSS Hardware Model Name: MediaTek,MT6631,MTK_MNLD_default,MNL_VER_default
# 
# Raw,utcTimeMillis,TimeNanos,LeapSecond,TimeUncertaintyNanos,FullBiasNanos,BiasNanos,BiasUncertaintyNanos,DriftNanosPerSecond,DriftUncertaintyNanosPerSecond,HardwareClockDiscontinuityCount,Svid,TimeOffsetNanos,State,ReceivedSvTimeNanos,ReceivedSvTimeUncertaintyNanos,Cn0DbHz,PseudorangeRateMetersPerSecond,PseudorangeRateUncertaintyMetersPerSecond,AccumulatedDeltaRangeState,AccumulatedDeltaRangeMeters,AccumulatedDeltaRangeUncertaintyMeters,CarrierFrequencyHz,CarrierCycles,CarrierPhase,CarrierPhaseUncertainty,MultipathIndicator,SnrInDb,ConstellationType,AgcDb,BasebandCn0DbHz,FullInterSignalBiasNanos,FullInterSignalBiasUncertaintyNanos,SatelliteInterSignalBiasNanos,SatelliteInterSignalBiasUncertaintyNanos,CodeType,ChipsetElapsedRealtimeNanos,IsFullTracking
# 
# UncalAccel,utcTimeMillis,elapsedRealtimeNanos,UncalAccelXMps2,UncalAccelYMps2,UncalAccelZMps2,BiasXMps2,BiasYMps2,BiasZMps2
# 
# Accel,utcTimeMillis,elapsedRealtimeNanos,AccelXMps2,AccelYMps2,AccelZMps2
# 
# UncalGyro,utcTimeMillis,elapsedRealtimeNanos,UncalGyroXRadPerSec,UncalGyroYRadPerSec,UncalGyroZRadPerSec,DriftXRadPerSec,DriftYRadPerSec,DriftZRadPerSec
# 
# Gyro,utcTimeMillis,elapsedRealtimeNanos,GyroXRadPerSec,GyroYRadPerSec,GyroZRadPerSec
# 
# UncalMag,utcTimeMillis,elapsedRealtimeNanos,UncalMagXMicroT,UncalMagYMicroT,UncalMagZMicroT,BiasXMicroT,BiasYMicroT,BiasZMicroT
# 
# Mag,utcTimeMillis,elapsedRealtimeNanos,MagXMicroT,MagYMicroT,MagZMicroT
# 
# Pressure,utcTimeMillis,elapsedRealtimeNanos,PressureHpa
# 
# OrientationDeg,utcTimeMillis,elapsedRealtimeNanos,yawDeg,rollDeg,pitchDeg
# 
# Fix,Provider,LatitudeDegrees,LongitudeDegrees,AltitudeMeters,SpeedMps,AccuracyMeters,BearingDegrees,UnixTimeMillis,SpeedAccuracyMps,BearingAccuracyDegrees,elapsedRealtimeNanos,VerticalAccuracyMeters,MockLocation,NumberOfUsedSignals,VerticalSpeedAccuracyMps,SolutionType
# 
# Nav,Svid,Type,Status,MessageId,Sub-messageId,Data(Bytes)
# 
# Status,UnixTimeMillis,SignalCount,SignalIndex,ConstellationType,Svid,CarrierFrequencyHz,Cn0DbHz,AzimuthDegrees,ElevationDegrees,UsedInFix,HasAlmanacData,HasEphemerisData,BasebandCn0DbHz
# 
# Agc,utcTimeMillis,TimeNanos,LeapSecond,TimeUncertaintyNanos,FullBiasNanos,BiasNanos,BiasUncertaintyNanos,DriftNanosPerSecond,DriftUncertaintyNanosPerSecond,HardwareClockDiscontinuityCount,AgcDb,CarrierFrequencyHz,ConstellationType
# 
Fix,FLP,37.4251711000,-122.1586350000,5.400000095367432,0.05236935,12.621,,1732152537238,1.8,,31421086000000,17.070978,0,,,
Status,,27,0,1,17,1575420030,0.00,64.0,76.0,0,0,0,0.0
Status,,27,1,1,19,1575420030,0.00,202.0,66.0,0,0,0,0.0
Status,,27,2,1,22,1575420030,0.00,23.0,64.0,0,0,0,0.0
Status,,27,3,1,14,1575420030,0.00,58.0,49.0,0,0,0,0.0
Status,,27,4,2,133,1575420030,0.00,191.0,45.0,0,0,0,0.0
Status,,27,5,1,13,1575420030,0.00,229.0,44.0,0,0,0,0.0
Status,,27,6,1,30,1575420030,28.50,134.0,32.0,1,0,0,23.5
Status,,27,7,1,15,1575420030,23.90,269.0,29.0,1,0,0,18.9
Status,,27,8,1,24,1575420030,0.00,313.0,21.0,0,0,0,0.0
Status,,27,9,1,6,1575420030,27.80,160.0,16.0,1,0,0,22.8
Status,,27,10,1,2,1575420030,0.00,44.0,15.0,0,0,0,0.0
Status,,27,11,1,21,1575420030,0.00,31.0,2.0,0,0,0,0.0
Status,,27,12,1,12,1575420030,0.00,270.0,2.0,0,0,0,0.0
Status,,27,13,3,20,1602000000,0.00,104.0,56.0,0,0,0,0.0
Status,,27,14,3,11,1602000000,0.00,315.0,31.0,0,0,0,0.0
Status,,27,15,3,9,1602000000,0.00,86.0,30.0,0,0,0,0.0
Status,,27,16,3,8,1602000000,0.00,242.0,19.0,0,0,0,0.0
Status,,27,17,3,19,1602000000,0.00,30.0,19.0,0,0,0,0.0
Status,,27,18,6,21,1575420030,0.00,353.0,68.0,0,0,0,0.0
Status,,27,19,6,19,1575420030,0.00,239.0,43.0,0,0,0,0.0
Status,,27,20,6,13,1575420030,0.00,117.0,32.0,0,0,0,0.0
Status,,27,21,6,27,1575420030,0.00,68.0,31.0,0,0,0,0.0
Status,,27,22,6,4,1575420030,0.00,308.0,24.0,0,0,0,0.0
Status,,27,23,6,15,1575420030,0.00,58.0,23.0,0,0,0,0.0
Status,,27,24,6,29,1575420030,0.00,190.0,21.0,0,0,0,0.0
Status,,27,25,6,26,1575420030,0.00,166.0,9.0,0,0,0,0.0
Status,,27,26,6,6,1575420030,0.00,325.0,7.0,0,0,0,0.0
Fix,GPS,37.4251733333,-122.1585516667,22.3,0.0,32.5,0.0,1732152538000,1.8,179.9,31422086000000,74.5,0,,,
Fix,FLP,37.4251747000,-122.1586317000,5.400000095367432,0.058636464,19.019,,1732152538238,1.5,,31422086000000,19.515057,0,,,
Fix,FLP,37.4252037000,-122.1586043000,5.400000095367432,0.1323669,21.138,0.00000000004305199,1732152538409,1.5,45.0,31422257000000,20.449486,0,,,
Fix,NLP,37.4256843000,-122.1581267000,-0.4000000059604645,,19.81,,1732152538409,,,31422257000000,20.709776,0,,,
Status,1732152538000,28,0,1,17,1575420030,0.00,64.0,76.0,0,0,0,0.0
Status,1732152538000,28,1,1,19,1575420030,0.00,202.0,66.0,0,0,0,0.0
Status,1732152538000,28,2,1,22,1575420030,0.00,24.0,64.0,0,0,0,0.0
Status,1732152538000,28,3,1,14,1575420030,0.00,58.0,49.0,0,0,0,0.0
Status,1732152538000,28,4,2,133,1575420030,0.00,191.0,45.0,0,0,0,0.0
Status,1732152538000,28,5,1,13,1575420030,31.10,229.0,44.0,1,0,0,26.1
Status,1732152538000,28,6,1,30,1575420030,26.30,134.0,32.0,1,0,0,21.3
Status,1732152538000,28,7,1,15,1575420030,24.80,269.0,29.0,1,0,0,19.8
Status,1732152538000,28,8,1,24,1575420030,0.00,313.0,21.0,0,0,0,0.0
Status,1732152538000,28,9,1,6,1575420030,29.60,160.0,16.0,1,0,0,24.6
Status,1732152538000,28,10,1,2,1575420030,0.00,44.0,15.0,0,0,0,0.0
Status,1732152538000,28,11,1,21,1575420030,0.00,31.0,2.0,0,0,0,0.0
Status,1732152538000,28,12,1,12,1575420030,0.00,270.0,2.0,0,0,0,0.0
Status,1732152538000,28,13,3,20,1602000000,0.00,104.0,56.0,0,0,0,0.0
Status,1732152538000,28,14,3,11,1602000000,0.00,315.0,31.0,0,0,0,0.0
Status,1732152538000,28,15,3,9,1602000000,0.00,86.0,30.0,0,0,0,0.0
Status,1732152538000,28,16,3,8,1602000000,23.90,242.0,19.0,1,0,0,18.9
Status,1732152538000,28,17,3,19,1602000000,0.00,30.0,19.0,0,0,0,0.0
Status,1732152538000,28,18,3,17,1602000000,32.80,0.0,0.0,0,0,0,27.8
Status,1732152538000,28,19,6,21,1575420030,0.00,353.0,68.0,0,0,0,0.0
Status,1732152538000,28,20,6,19,1575420030,0.00,239.0,43.0,0,0,0,0.0
Status,1732152538000,28,21,6,13,1575420030,0.00,117.0,32.0,0,0,0,0.0
Status,1732152538000,28,22,6,27,1575420030,0.00,68.0,31.0,0,0,0,0.0
Status,1732152538000,28,23,6,4,1575420030,0.00,308.0,24.0,0,0,0,0.0
Status,1732152538000,28,24,6,15,1575420030,0.00,58.0,23.0,0,0,0,0.0
Status,1732152538000,28,25,6,29,1575420030,0.00,190.0,21.0,0,0,0,0.0
Status,1732152538000,28,26,6,26,1575420030,0.00,166.0,9.0,0,0,0,0.0
Status,1732152538000,28,27,6,6,1575420030,0.00,325.0,7.0,0,0,0,0.0
Fix,GPS,37.4251766667,-122.1585300000,22.3,0.0,5.7,0.0,1732152539000,1.8,179.9,31423086000000,99.2,0,,,
Raw,1732152539001,18697000000,,705781.1286733571,-1416187738304000000,0.0,160.67188895065377,1077.6459285249248,0.0,0,30,0.0,16431,350956925338253,487,21.322999954223633,875.7426322379657,0.14999,16,0.0,0.0,1575420030,,,,0,4.468819429610641,1,6.0,21.322999954223633,0.0,0.0,0.0,66.7128,C,31423086000000,
Raw,1732152539001,18697000000,,705781.1286733571,-1416187738304000000,0.0,160.67188895065377,1077.6459285249248,0.0,0,6,0.0,16431,350956920461839,316,24.60700035095215,-335.5597556886436,0.14999,16,0.0,0.0,1575420030,,,,0,9.45168437710935,1,6.0,24.60700035095215,0.0,0.0,0.0,66.7128,C,31423086000000,
Raw,1732152539001,18697000000,,705781.1286733571,-1416187738304000000,0.0,160.67188895065377,1077.6459285249248,0.0,0,8,0.0,17,750844,797,5.0,948.0935754785364,0.14999,16,0.0,0.0,1605374980,,,,0,2.501225267834001,3,6.0,17.0,0.0,0.0,88.59276820393733,66.7128,C,31423086000000,
Raw,1732152539001,18697000000,,705781.1286733571,-1416187738304000000,0.0,160.67188895065377,1077.6459285249248,0.0,0,13,0.0,16431,350956928500368,316,26.12700080871582,752.115207115572,0.14999,16,0.0,0.0,1575420030,,,,0,11.590370669508374,1,6.0,26.12700080871582,0.0,0.0,0.0,66.7128,C,31423086000000,
Raw,1732152539001,18697000000,,705781.1286733571,-1416187738304000000,0.0,160.67188895065377,1077.6459285249248,0.0,0,15,0.0,16431,350956924919568,487,19.788999557495117,562.2522967523113,0.14999,16,0.0,0.0,1575420030,,,,0,1.8386369015518267,1,6.0,19.788999557495117,0.0,0.0,0.0,66.7128,C,31423086000000,
Fix,FLP,37.4251900000,-122.1585670000,5.400000095367432,0.06186274,21.081,,1732152539239,1.8,,31423086000000,19.598356,0,,,
Status,1732152539000,28,0,1,17,1575420030,0.00,64.0,76.0,0,0,0,0.0
Status,1732152539000,28,1,1,19,1575420030,0.00,202.0,66.0,0,0,0,0.0
Status,1732152539000,28,2,1,22,1575420030,0.00,24.0,64.0,0,0,0,0.0
Status,1732152539000,28,3,1,14,1575420030,0.00,58.0,49.0,0,0,0,0.0
Status,1732152539000,28,4,2,133,1575420030,0.00,191.0,45.0,0,0,0,0.0
Status,1732152539000,28,5,1,13,1575420030,30.20,229.0,44.0,1,0,0,25.2
Status,1732152539000,28,6,1,30,1575420030,27.50,134.0,32.0,1,0,0,22.5
Status,1732152539000,28,7,1,15,1575420030,24.80,269.0,29.0,1,0,0,19.8
Status,1732152539000,28,8,1,24,1575420030,0.00,313.0,21.0,0,0,0,0.0
Status,1732152539000,28,9,1,6,1575420030,33.30,160.0,16.0,1,0,0,28.3
Status,1732152539000,28,10,1,2,1575420030,27.60,44.0,15.0,1,0,0,22.6
Status,1732152539000,28,11,1,21,1575420030,0.00,31.0,2.0,0,0,0,0.0
Status,1732152539000,28,12,1,12,1575420030,0.00,270.0,2.0,0,0,0,0.0
Status,1732152539000,28,13,3,20,1602000000,0.00,104.0,56.0,0,0,0,0.0
Status,1732152539000,28,14,3,11,1602000000,0.00,315.0,31.0,0,0,0,0.0
Status,1732152539000,28,15,3,9,1602000000,0.00,86.0,30.0,0,0,0,0.0
Status,1732152539000,28,16,3,8,1602000000,0.00,242.0,19.0,0,0,0,0.0
Status,1732152539000,28,17,3,19,1602000000,0.00,30.0,19.0,0,0,0,0.0
Status,1732152539000,28,18,3,17,1602000000,35.70,0.0,0.0,0,0,0,30.7
Status,1732152539000,28,19,6,21,1575420030,0.00,353.0,68.0,0,0,0,0.0
Status,1732152539000,28,20,6,19,1575420030,0.00,239.0,43.0,0,0,0,0.0
Status,1732152539000,28,21,6,13,1575420030,0.00,117.0,32.0,0,0,0,0.0
Status,1732152539000,28,22,6,27,1575420030,0.00,68.0,31.0,0,0,0,0.0
Status,1732152539000,28,23,6,4,1575420030,0.00,308.0,24.0,0,0,0,0.0
Status,1732152539000,28,24,6,15,1575420030,0.00,58.0,23.0,0,0,0,0.0
Status,1732152539000,28,25,6,29,1575420030,0.00,190.0,21.0,0,0,0,0.0
Status,1732152539000,28,26,6,26,1575420030,0.00,166.0,9.0,0,0,0,0.0
Status,1732152539000,28,27,6,6,1575420030,0.00,325.0,7.0,0,0,0,0.0
Fix,GPS,37.4251766667,-122.1585016667,22.3,0.0,5.6,0.0,1732152540000,1.8,179.9,31424086000000,100.0,0,,,
Fix,FLP,37.4251839000,-122.1585378000,5.400000095367432,0.0063706352,14.345,,1732152540239,1.8,,31424086000000,15.056228,0,,,
Raw,1732152540001,19697000000,,705752.3587701463,-1416187738304000000,0.0,176.79677054925722,1077.787334760235,0.0,0,30,0.0,16431,350957925335330,396,22.49799919128418,876.0126485529813,0.14999,16,0.0,0.0,1575420030,,,,0,6.2967711970056275,1,6.0,22.49799919128418,0.0,0.0,0.0,66.7128,C,31424086000000,
Raw,1732152540001,19697000000,,705752.3587701463,-1416187738304000000,0.0,176.79677054925722,1077.787334760235,0.0,0,6,0.0,16431,350957920462959,235,28.31999969482422,-335.28054060721826,0.14999,16,0.0,0.0,1575420030,,,,0,14.443720740883006,1,6.0,28.31999969482422,0.0,0.0,0.0,66.7128,C,31424086000000,
Raw,1732152540001,19697000000,,705752.3587701463,-1416187738304000000,0.0,176.79677054925722,1077.787334760235,0.0,0,2,0.0,16431,350957918420936,396,22.611000061035156,718.1436517220212,0.14999,16,0.0,0.0,1575420030,,,,0,6.484920567442252,1,6.0,22.611000061035156,0.0,0.0,0.0,66.7128,C,31424086000000,
Raw,1732152540001,19697000000,,705752.3587701463,-1416187738304000000,0.0,176.79677054925722,1077.787334760235,0.0,0,13,0.0,16431,350957928497817,396,25.208999633789062,752.6229976047533,0.14999,16,0.0,0.0,1575420030,,,,0,10.33148972596959,1,6.0,25.208999633789062,0.0,0.0,0.0,66.7128,C,31424086000000,
Raw,1732152540001,19697000000,,705752.3587701463,-1416187738304000000,0.0,176.79677054925722,1077.787334760235,0.0,0,15,0.0,16431,350957924917690,1797,19.788999557495117,563.1800248656195,0.14999,16,0.0,0.0,1575420030,,,,0,1.8386369015518267,1,6.0,19.788999557495117,0.0,0.0,0.0,66.7128,C,31424086000000,
Status,1732152540000,28,0,1,17,1575420030,0.00,64.0,76.0,0,0,0,0.0
Status,1732152540000,28,1,1,19,1575420030,0.00,202.0,66.0,0,0,0,0.0
Status,1732152540000,28,2,1,22,1575420030,0.00,24.0,64.0,0,0,0,0.0
Status,1732152540000,28,3,1,14,1575420030,0.00,58.0,49.0,0,0,0,0.0
Status,1732152540000,28,4,2,133,1575420030,0.00,191.0,45.0,0,0,0,0.0
Status,1732152540000,28,5,1,13,1575420030,30.20,229.0,44.0,1,0,0,25.2
Status,1732152540000,28,6,1,30,1575420030,27.40,134.0,32.0,1,0,0,22.4
Status,1732152540000,28,7,1,15,1575420030,24.80,269.0,29.0,1,0,0,19.8
Status,1732152540000,28,8,1,24,1575420030,0.00,313.0,21.0,0,0,0,0.0
Status,1732152540000,28,9,1,6,1575420030,34.70,160.0,16.0,1,0,0,29.7
Status,1732152540000,28,10,1,2,1575420030,27.60,44.0,15.0,1,0,0,22.6
Status,1732152540000,28,11,1,21,1575420030,0.00,31.0,2.0,0,0,0,0.0
Status,1732152540000,28,12,1,12,1575420030,0.00,270.0,2.0,0,0,0,0.0
Status,1732152540000,28,13,3,20,1602000000,0.00,104.0,56.0,0,0,0,0.0
Status,1732152540000,28,14,3,11,1602000000,0.00,315.0,31.0,0,0,0,0.0
Status,1732152540000,28,15,3,9,1602000000,0.00,86.0,30.0,0,0,0,0.0
Status,1732152540000,28,16,3,8,1602000000,26.00,242.0,19.0,1,0,0,21.0
Status,1732152540000,28,17,3,19,1602000000,0.00,30.0,19.0,0,0,0,0.0
Status,1732152540000,28,18,3,17,1602000000,36.10,0.0,0.0,0,0,0,31.099998
Status,1732152540000,28,19,6,21,1575420030,0.00,353.0,68.0,0,0,0,0.0
Status,1732152540000,28,20,6,19,1575420030,0.00,239.0,43.0,0,0,0,0.0
Status,1732152540000,28,21,6,13,1575420030,0.00,117.0,32.0,0,0,0,0.0
Status,1732152540000,28,22,6,27,1575420030,0.00,68.0,31.0,0,0,0,0.0
Status,1732152540000,28,23,6,4,1575420030,0.00,308.0,24.0,0,0,0,0.0
Status,1732152540000,28,24,6,15,1575420030,0.00,58.0,23.0,0,0,0,0.0
Status,1732152540000,28,25,6,29,1575420030,0.00,190.0,21.0,0,0,0,0.0
Status,1732152540000,28,26,6,26,1575420030,0.00,166.0,9.0,0,0,0,0.0
Status,1732152540000,28,27,6,6,1575420030,0.00,325.0,7.0,0,0,0,0.0
Fix,GPS,37.4251800000,-122.1584866667,22.3,0.0,5.6,0.0,1732152541000,1.7,179.9,31425086000000,100.0,0,,,
Raw,1732152541001,20697000000,,705692.108755451,-1416187738304000000,0.0,176.13798706000344,1078.1121859367047,0.0,0,30,0.0,16431,350958925332405,487,22.39900016784668,876.8606075656561,0.14999,16,0.0,0.0,1575420030,,,,0,3.116831959654447,1,6.0,22.39900016784668,0.0,0.0,0.0,66.7128,C,31425086000000,
Raw,1732152541001,20697000000,,705692.108755451,-1416187738304000000,0.0,176.13798706000344,1078.1121859367047,0.0,0,6,0.0,16431,350958920464078,235,29.680999755859375,-335.2704126724844,0.14999,16,0.0,0.0,1575420030,,,,0,16.15055183593187,1,6.0,29.680999755859375,0.0,0.0,0.0,66.7128,C,31425086000000,
Raw,1732152541001,20697000000,,705692.108755451,-1416187738304000000,0.0,176.13798706000344,1078.1121859367047,0.0,0,2,0.0,16431,350958918418541,797,22.611000061035156,717.6663844122903,0.14999,16,0.0,0.0,1575420030,,,,0,6.484920567442252,1,6.0,22.611000061035156,0.0,0.0,0.0,66.7128,C,31425086000000,
Raw,1732152541001,20697000000,,705692.108755451,-1416187738304000000,0.0,176.13798706000344,1078.1121859367047,0.0,0,8,0.0,17,744507,396,5.0,947.1533867465795,0.14999,16,0.0,0.0,1605374980,,,,0,5.6952421251842384,3,6.0,21.0,0.0,0.0,91.06317008699635,66.7128,C,31425086000000,
Raw,1732152541001,20697000000,,705692.108755451,-1416187738304000000,0.0,176.13798706000344,1078.1121859367047,0.0,0,13,0.0,16431,350958928495305,797,25.208999633789062,753.0318781258222,0.14999,16,0.0,0.0,1575420030,,,,0,10.33148972596959,1,6.0,25.208999633789062,0.0,0.0,0.0,66.7128,C,31425086000000,
Raw,1732152541001,20697000000,,705692.108755451,-1416187738304000000,0.0,176.13798706000344,1078.1121859367047,0.0,0,15,0.0,16431,350958924915810,797,19.788999557495117,563.9307928715818,0.14999,16,0.0,0.0,1575420030,,,,0,1.8386369015518267,1,6.0,19.788999557495117,0.0,0.0,0.0,66.7128,C,31425086000000,
Fix,FLP,37.4251821000,-122.1585161000,5.400000095367432,0.0102510825,14.288,,1732152541238,1.7,,31425086000000,16.039507,0,,,
Status,1732152541000,28,0,1,17,1575420030,0.00,64.0,76.0,0,0,0,0.0
Status,1732152541000,28,1,1,19,1575420030,0.00,202.0,66.0,0,0,0,0.0
Status,1732152541000,28,2,1,22,1575420030,0.00,24.0,64.0,0,0,0,0.0
Status,1732152541000,28,3,1,14,1575420030,0.00,58.0,49.0,0,0,0,0.0
Status,1732152541000,28,4,2,133,1575420030,0.00,191.0,45.0,0,0,0,0.0
Status,1732152541000,28,5,1,13,1575420030,30.20,229.0,44.0,1,0,0,25.2
Status,1732152541000,28,6,1,30,1575420030,24.60,134.0,32.0,1,0,0,19.6
Status,1732152541000,28,7,1,15,1575420030,19.50,269.0,29.0,1,0,0,14.5
Status,1732152541000,28,8,1,24,1575420030,24.00,313.0,21.0,1,0,0,19.0
Status,1732152541000,28,9,1,6,1575420030,33.70,160.0,16.0,1,0,0,28.7
Status,1732152541000,28,10,1,2,1575420030,27.60,44.0,15.0,1,0,0,22.6
Status,1732152541000,28,11,1,21,1575420030,0.00,31.0,2.0,0,0,0,0.0
Status,1732152541000,28,12,1,12,1575420030,0.00,270.0,2.0,0,0,0,0.0
Status,1732152541000,28,13,3,20,1602000000,0.00,104.0,56.0,0,0,0,0.0
Status,1732152541000,28,14,3,11,1602000000,0.00,315.0,31.0,0,0,0,0.0
Status,1732152541000,28,15,3,9,1602000000,0.00,86.0,30.0,0,0,0,0.0
Status,1732152541000,28,16,3,8,1602000000,23.90,242.0,19.0,1,0,0,18.9
Status,1732152541000,28,17,3,19,1602000000,0.00,30.0,19.0,0,0,0,0.0
Status,1732152541000,28,18,3,17,1602000000,31.70,0.0,0.0,0,0,0,26.7
Status,1732152541000,28,19,6,21,1575420030,0.00,353.0,68.0,0,0,0,0.0
Status,1732152541000,28,20,6,19,1575420030,0.00,239.0,43.0,0,0,0,0.0
Status,1732152541000,28,21,6,13,1575420030,0.00,117.0,32.0,0,0,0,0.0
Status,1732152541000,28,22,6,27,1575420030,0.00,68.0,31.0,0,0,0,0.0
Status,1732152541000,28,23,6,4,1575420030,0.00,308.0,24.0,0,0,0,0.0
Status,1732152541000,28,24,6,15,1575420030,0.00,58.0,23.0,0,0,0,0.0
Status,1732152541000,28,25,6,29,1575420030,0.00,190.0,21.0,0,0,0,0.0
Status,1732152541000,28,26,6,26,1575420030,0.00,166.0,9.0,0,0,0,0.0
Status,1732152541000,28,27,6,6,1575420030,0.00,325.0,7.0,0,0,0,0.0
Fix,GPS,37.4251850000,-122.1584700000,22.3,0.0,5.5,0.0,1732152542000,1.7,179.9,31426086000000,100.0,0,,,
Raw,1732152542001,21697000000,,705642.8559320195,-1416187738304000000,0.0,174.82661689371977,1080.0018134521883,0.0,0,30,0.0,16431,350959925329471,487,19.618000030517578,876.9691344259239,0.14999,16,0.0,0.0,1575420030,,,,0,1.5149016796863206,1,6.0,19.618000030517578,0.0,0.0,0.0,66.7128,C,31426086000000,
Raw,1732152542001,21697000000,,705642.8559320195,-1416187738304000000,0.0,174.82661689371977,1080.0018134521883,0.0,0,6,0.0,16431,350959920465198,235,28.655000686645508,-334.5761845590503,0.14999,16,0.0,0.0,1575420030,,,,0,14.879316227347847,1,6.0,28.655000686645508,0.0,0.0,0.0,66.7128,C,31426086000000,
Raw,1732152542001,21697000000,,705642.8559320195,-1416187738304000000,0.0,174.82661689371977,1080.0018134521883,0.0,0,2,0.0,16431,350959918416145,797,22.611000061035156,718.7589934447298,0.14999,16,0.0,0.0,1575420030,,,,0,6.484920567442252,1,6.0,22.611000061035156,0.0,0.0,0.0,66.7128,C,31426086000000,
Raw,1732152542001,21697000000,,705642.8559320195,-1416187738304000000,0.0,174.82661689371977,1080.0018134521883,0.0,0,8,0.0,17,741348,487,5.0,949.3776156030071,0.14999,16,0.0,0.0,1605374980,,,,0,2.501225267834001,3,6.0,19.0,0.0,0.0,92.31893746596784,66.7128,C,31426086000000,
Raw,1732152542001,21697000000,,705642.8559320195,-1416187738304000000,0.0,174.82661689371977,1080.0018134521883,0.0,0,24,0.0,16431,350959922638335,487,19.011999130249023,-296.72604828816264,0.14999,16,0.0,0.0,1575420030,,,,0,0.4643206541626279,1,6.0,19.011999130249023,0.0,0.0,0.0,66.7128,C,31426086000000,
Raw,1732152542001,21697000000,,705642.8559320195,-1416187738304000000,0.0,174.82661689371977,1080.0018134521883,0.0,0,13,0.0,16431,350959928492793,487,25.208999633789062,753.4015477436095,0.14999,16,0.0,0.0,1575420030,,,,0,10.33148972596959,1,6.0,25.208999633789062,0.0,0.0,0.0,66.7128,C,31426086000000,
Raw,1732152542001,21697000000,,705642.8559320195,-1416187738304000000,0.0,174.82661689371977,1080.0018134521883,0.0,0,15,0.0,16431,350959924913917,1797,14.5,563.6456775712978,0.14999,16,0.0,0.0,1575420030,,,,0,0.0,1,6.0,14.5,0.0,0.0,0.0,66.7128,C,31426086000000,
Fix,FLP,37.4251835000,-122.1584965000,5.400000095367432,0.005788725,14.245,,1732152542238,1.7,,31426086000000,15.945189,0,,,
Status,1732152542000,28,0,1,17,1575420030,0.00,64.0,76.0,0,0,0,0.0
Status,1732152542000,28,1,1,19,1575420030,0.00,202.0,66.0,0,0,0,0.0
Status,1732152542000,28,2,1,22,1575420030,0.00,24.0,64.0,0,0,0,0.0
Status,1732152542000,28,3,1,14,1575420030,0.00,58.0,49.0,0,0,0,0.0
Status,1732152542000,28,4,2,133,1575420030,0.00,191.0,45.0,0,0,0,0.0
Status,1732152542000,28,5,1,13,1575420030,27.00,229.0,44.0,1,0,0,22.0
Status,1732152542000,28,6,1,30,1575420030,29.70,134.0,32.0,1,0,0,24.7
Status,1732152542000,28,7,1,15,1575420030,19.50,269.0,29.0,1,0,0,14.5
Status,1732152542000,28,8,1,24,1575420030,0.00,313.0,21.0,0,0,0,0.0
Status,1732152542000,28,9,1,6,1575420030,35.60,160.0,16.0,1,0,0,30.599998
Status,1732152542000,28,10,1,2,1575420030,25.00,44.0,15.0,1,0,0,20.0
Status,1732152542000,28,11,1,21,1575420030,0.00,31.0,2.0,0,0,0,0.0
Status,1732152542000,28,12,1,12,1575420030,0.00,270.0,2.0,0,0,0,0.0
Status,1732152542000,28,13,3,20,1602000000,0.00,104.0,56.0,0,0,0,0.0
Status,1732152542000,28,14,3,11,1602000000,0.00,315.0,31.0,0,0,0,0.0
Status,1732152542000,28,15,3,9,1602000000,0.00,86.0,30.0,0,0,0,0.0
Status,1732152542000,28,16,3,8,1602000000,23.90,242.0,19.0,1,0,0,18.9
Status,1732152542000,28,17,3,19,1602000000,0.00,30.0,19.0,0,0,0,0.0
Status,1732152542000,28,18,3,17,1602000000,32.20,0.0,0.0,0,0,0,27.2
Status,1732152542000,28,19,6,21,1575420030,0.00,353.0,68.0,0,0,0,0.0
Status,1732152542000,28,20,6,19,1575420030,0.00,239.0,43.0,0,0,0,0.0
Status,1732152542000,28,21,6,13,1575420030,0.00,117.0,32.0,0,0,0,0.0
Status,1732152542000,28,22,6,27,1575420030,0.00,68.0,31.0,0,0,0,0.0
Status,1732152542000,28,23,6,4,1575420030,0.00,308.0,24.0,0,0,0,0.0
Status,1732152542000,28,24,6,15,1575420030,0.00,58.0,23.0,0,0,0,0.0
Status,1732152542000,28,25,6,29,1575420030,0.00,190.0,21.0,0,0,0,0.0
Status,1732152542000,28,26,6,26,1575420030,0.00,166.0,9.0,0,0,0,0.0
Status,1732152542000,28,27,6,6,1575420030,0.00,325.0,7.0,0,0,0,0.0
Fix,GPS,37.4251116667,-122.1584916667,22.3,0.0,5.2,0.0,1732152543000,1.6,179.9,31427086000000,72.7,0,,,
Raw,1732152543001,22697000000,,705563.3738624605,-1416187738304000000,0.0,136.34260611008813,1080.8600356426803,0.0,0,30,0.0,16431,350960925326546,316,24.749000549316406,877.0537816602595,0.14999,16,0.0,0.0,1575420030,,,,0,9.669387242809968,1,6.0,24.749000549316406,0.0,0.0,0.0,66.7128,C,31427086000000,
Raw,1732152543001,22697000000,,705563.3738624605,-1416187738304000000,0.0,136.34260611008813,1080.8600356426803,0.0,0,6,0.0,16431,350960920466314,74,30.58099937438965,-334.2609642050618,0.14999,16,0.0,0.0,1575420030,,,,0,17.241302468907733,1,6.0,30.58099937438965,0.0,0.0,0.0,66.7128,C,31427086000000,
Raw,1732152543001,22697000000,,705563.3738624605,-1416187738304000000,0.0,136.34260611008813,1080.8600356426803,0.0,0,2,0.0,16431,350960918413770,487,19.95199966430664,719.5458131816715,0.14999,16,0.0,0.0,1575420030,,,,0,2.150738368163347,1,6.0,19.95199966430664,0.0,0.0,0.0,66.7128,C,31427086000000,
Raw,1732152543001,22697000000,,705563.3738624605,-1416187738304000000,0.0,136.34260611008813,1080.8600356426803,0.0,0,8,0.0,17,738187,487,5.0,948.7544704382129,0.14999,16,0.0,0.0,1605374980,,,,0,2.501225267834001,3,6.0,20.0,0.0,0.0,93.17367935434648,66.7128,C,31427086000000,
Raw,1732152543001,22697000000,,705563.3738624605,-1416187738304000000,0.0,136.34260611008813,1080.8600356426803,0.0,0,13,0.0,16431,350960928490259,396,21.993999481201172,754.1635122278785,0.14999,16,0.0,0.0,1575420030,,,,0,5.500560114038621,1,6.0,21.993999481201172,0.0,0.0,0.0,66.7128,C,31427086000000,
Raw,1732152543001,22697000000,,705563.3738624605,-1416187738304000000,0.0,136.34260611008813,1080.8600356426803,0.0,0,15,0.0,16431,350960924912036,1797,14.5,564.6570772922012,0.14999,16,0.0,0.0,1575420030,,,,0,0.0,1,6.0,14.5,0.0,0.0,0.0,66.7128,C,31427086000000,
Fix,FLP,37.4251477000,-122.1584943000,5.400000095367432,0.3056163,14.174,180.0,1732152543238,1.6,179.9,31427086000000,15.761241,0,,,
Fix,FLP,37.4251335000,-122.1584934000,5.400000095367432,0.31212685,5.466,180.0,1732152543588,1.6,179.9,31427436000000,16.5947,0,,,
Fix,NLP,37.4256431000,-122.1580814000,5.400000095367432,,31.899,,1732152543588,,,31427436000000,54.737957,0,,,
Status,1732152543000,28,0,1,17,1575420030,0.00,64.0,76.0,0,0,0,0.0
Status,1732152543000,28,1,1,19,1575420030,0.00,202.0,66.0,0,0,0,0.0
Status,1732152543000,28,2,1,22,1575420030,0.00,24.0,64.0,0,0,0,0.0
Status,1732152543000,28,3,1,14,1575420030,19.40,58.0,49.0,1,0,0,14.4
Status,1732152543000,28,4,2,133,1575420030,0.00,191.0,45.0,0,0,0,0.0
Status,1732152543000,28,5,1,13,1575420030,26.70,229.0,44.0,1,0,0,21.7
Status,1732152543000,28,6,1,30,1575420030,29.70,134.0,32.0,1,0,0,24.7
Status,1732152543000,28,7,1,15,1575420030,18.60,269.0,29.0,1,0,0,13.6
Status,1732152543000,28,8,1,24,1575420030,0.00,313.0,21.0,0,0,0,0.0
Status,1732152543000,28,9,1,6,1575420030,34.50,160.0,16.0,1,0,0,29.5
Status,1732152543000,28,10,1,2,1575420030,25.00,44.0,15.0,1,0,0,20.0
Status,1732152543000,28,11,1,21,1575420030,0.00,31.0,2.0,0,0,0,0.0
Status,1732152543000,28,12,1,12,1575420030,0.00,270.0,2.0,0,0,0,0.0
Status,1732152543000,28,13,3,20,1602000000,0.00,104.0,56.0,0,0,0,0.0
Status,1732152543000,28,14,3,11,1602000000,0.00,315.0,31.0,0,0,0,0.0
Status,1732152543000,28,15,3,9,1602000000,0.00,86.0,30.0,0,0,0,0.0
Status,1732152543000,28,16,3,8,1602000000,22.10,242.0,19.0,1,0,0,17.1
Status,1732152543000,28,17,3,19,1602000000,0.00,30.0,19.0,0,0,0,0.0
Status,1732152543000,28,18,3,17,1602000000,32.00,0.0,0.0,0,0,0,27.0
Status,1732152543000,28,19,6,21,1575420030,0.00,353.0,68.0,0,0,0,0.0
Status,1732152543000,28,20,6,19,1575420030,0.00,239.0,43.0,0,0,0,0.0
Status,1732152543000,28,21,6,13,1575420030,0.00,117.0,32.0,0,0,0,0.0
Status,1732152543000,28,22,6,27,1575420030,0.00,68.0,31.0,0,0,0,0.0
Status,1732152543000,28,23,6,4,1575420030,0.00,308.0,24.0,0,0,0,0.0
Status,1732152543000,28,24,6,15,1575420030,0.00,58.0,23.0,0,0,0,0.0
Status,1732152543000,28,25,6,29,1575420030,0.00,190.0,21.0,0,0,0,0.0
Status,1732152543000,28,26,6,26,1575420030,0.00,166.0,9.0,0,0,0,0.0
Status,1732152543000,28,27,6,6,1575420030,0.00,325.0,7.0,0,0,0,0.0
Fix,GPS,37.4250100000,-122.1585333333,22.2,0.0,5.1,0.0,1732152544000,1.5,138.7,31428086000000,89.0,0,,,
Raw,1732152544001,23697000000,,996601.3304444103,-1416187738304000000,0.0,152.09023290620001,1084.478200432545,0.0,0,30,0.0,16431,350961925323625,396,24.674999237060547,878.4190086790223,0.14999,16,0.0,0.0,1575420030,,,,0,7.535501592965945,1,6.0,24.674999237060547,0.0,0.0,0.0,66.7128,C,31428086000000,
Raw,1732152544001,23697000000,,996601.3304444103,-1416187738304000000,0.0,152.09023290620001,1084.478200432545,0.0,0,6,0.0,16431,350961920467433,235,29.493999481201172,-333.5038313960786,0.14999,16,0.0,0.0,1575420030,,,,0,15.923321788119347,1,6.0,29.493999481201172,0.0,0.0,0.0,66.7128,C,31428086000000,
Raw,1732152544001,23697000000,,996601.3304444103,-1416187738304000000,0.0,152.09023290620001,1084.478200432545,0.0,0,2,0.0,16431,350961918411386,396,20.03499984741211,720.6464130616991,0.14999,16,0.0,0.0,1575420030,,,,0,4.926077088800725,1,6.0,20.03499984741211,0.0,0.0,0.0,66.7128,C,31428086000000,
Raw,1732152544001,23697000000,,996601.3304444103,-1416187738304000000,0.0,152.09023290620001,1084.478200432545,0.0,0,8,0.0,17,735019,487,5.0,950.0359574364597,0.14999,16,0.0,0.0,1605374980,,,,0,0.0,3,6.0,18.0,0.0,0.0,95.23257485288214,66.7128,C,31428086000000,
Raw,1732152544001,23697000000,,996601.3304444103,-1416187738304000000,0.0,152.09023290620001,1084.478200432545,0.0,0,14,0.0,16431,350961929795753,1797,14.399999618530273,609.788083634772,0.14999,16,0.0,0.0,1575420030,,,,0,0.0,1,6.0,14.399999618530273,0.0,0.0,0.0,66.7128,C,31428086000000,
Raw,1732152544001,23697000000,,996601.3304444103,-1416187738304000000,0.0,152.09023290620001,1084.478200432545,0.0,0,13,0.0,16431,350961928487762,487,21.667999267578125,755.3210701261803,0.14999,16,0.0,0.0,1575420030,,,,0,5.0,1,6.0,21.667999267578125,0.0,0.0,0.0,66.7128,C,31428086000000,
Raw,1732152544001,23697000000,,996601.3304444103,-1416187738304000000,0.0,152.09023290620001,1084.478200432545,0.0,0,15,0.0,16431,350961924910128,1797,13.600000381469727,565.6495219792907,0.14999,16,0.0,0.0,1575420030,,,,0,0.0,1,6.0,13.600000381469727,0.0,0.0,0.0,66.7128,C,31428086000000,
Fix,FLP,37.4250827000,-122.1585084000,5.400000095367432,0.58522624,5.414,180.0,1732152544238,1.5,138.7,31428086000000,17.834326,0,,,
Status,1732152544000,28,0,1,17,1575420030,0.00,64.0,76.0,0,0,0,0.0
Status,1732152544000,28,1,1,19,1575420030,0.00,202.0,66.0,0,0,0,0.0
Status,1732152544000,28,2,1,22,1575420030,0.00,24.0,64.0,0,0,0,0.0
Status,1732152544000,28,3,1,14,1575420030,19.40,58.0,49.0,1,0,0,14.4
Status,1732152544000,28,4,2,135,1575420030,0.00,197.0,45.0,0,0,0,0.0
Status,1732152544000,28,5,1,13,1575420030,26.20,229.0,44.0,1,0,0,21.2
Status,1732152544000,28,6,1,30,1575420030,29.60,134.0,32.0,1,0,0,24.6
Status,1732152544000,28,7,1,15,1575420030,18.60,269.0,29.0,1,0,0,13.6
Status,1732152544000,28,8,1,24,1575420030,0.00,313.0,21.0,0,0,0,0.0
Status,1732152544000,28,9,1,6,1575420030,30.80,160.0,16.0,1,0,0,25.8
Status,1732152544000,28,10,1,2,1575420030,25.10,44.0,15.0,1,0,0,20.1
Status,1732152544000,28,11,1,21,1575420030,0.00,31.0,2.0,0,0,0,0.0
Status,1732152544000,28,12,1,12,1575420030,0.00,270.0,2.0,0,0,0,0.0
Status,1732152544000,28,13,3,20,1602000000,0.00,104.0,56.0,0,0,0,0.0
Status,1732152544000,28,14,3,11,1602000000,0.00,315.0,31.0,0,0,0,0.0
Status,1732152544000,28,15,3,9,1602000000,0.00,86.0,30.0,0,0,0,0.0
Status,1732152544000,28,16,3,8,1602000000,22.10,242.0,19.0,1,0,0,17.1
Status,1732152544000,28,17,3,19,1602000000,0.00,30.0,19.0,0,0,0,0.0
Status,1732152544000,28,18,3,17,1602000000,28.80,0.0,0.0,0,0,0,23.8
Status,1732152544000,28,19,6,21,1575420030,0.00,353.0,68.0,0,0,0,0.0
Status,1732152544000,28,20,6,19,1575420030,0.00,239.0,43.0,0,0,0,0.0
Status,1732152544000,28,21,6,13,1575420030,0.00,117.0,32.0,0,0,0,0.0
Status,1732152544000,28,22,6,27,1575420030,0.00,68.0,31.0,0,0,0,0.0
Status,1732152544000,28,23,6,4,1575420030,0.00,308.0,24.0,0,0,0,0.0
Status,1732152544000,28,24,6,15,1575420030,0.00,58.0,23.0,0,0,0,0.0
Status,1732152544000,28,25,6,29,1575420030,0.00,190.0,21.0,0,0,0,0.0
Status,1732152544000,28,26,6,26,1575420030,0.00,166.0,9.0,0,0,0,0.0
Status,1732152544000,28,27,6,6,1575420030,0.00,325.0,7.0,0,0,0,0.0
Fix,GPS,37.4249433333,-122.1585450000,22.2,0.0,4.9,0.0,1732152545000,1.4,109.4,31429086000000,89.7,0,,,
Raw,1732152545001,24697000000,,705808.2828754818,-1416187738304000000,0.0,152.30937356352968,1085.3284750637597,0.0,0,30,0.0,16431,350962925320697,396,24.60700035095215,878.4681616833731,0.14999,16,0.0,0.0,1575420030,,,,0,7.590302340286522,1,6.0,24.60700035095215,0.0,0.0,0.0,66.7128,C,31429086000000,
Raw,1732152545001,24697000000,,705808.2828754818,-1416187738304000000,0.0,152.30937356352968,1085.3284750637597,0.0,0,6,0.0,16431,350962920468547,316,25.76799964904785,-333.3989747506915,0.14999,16,0.0,0.0,1575420030,,,,0,11.09389899500773,1,6.0,25.76799964904785,0.0,0.0,0.0,66.7128,C,31429086000000,
Raw,1732152545001,24697000000,,705808.2828754818,-1416187738304000000,0.0,152.30937356352968,1085.3284750637597,0.0,0,2,0.0,16431,350962918408951,396,20.148000717163086,720.795312285654,0.14999,16,0.0,0.0,1575420030,,,,0,6.039392673219209,1,6.0,20.148000717163086,0.0,0.0,0.0,66.7128,C,31429086000000,
Raw,1732152545001,24697000000,,705808.2828754818,-1416187738304000000,0.0,152.30937356352968,1085.3284750637597,0.0,0,8,0.0,17,731854,797,5.0,948.7857462344558,0.14999,16,0.0,0.0,1605374980,,,,0,0.0,3,6.0,17.0,0.0,0.0,95.96225033958136,66.7128,C,31429086000000,
Raw,1732152545001,24697000000,,705808.2828754818,-1416187738304000000,0.0,152.30937356352968,1085.3284750637597,0.0,0,14,0.0,16431,350962929793717,1797,14.399999618530273,610.3841451147532,0.14999,16,0.0,0.0,1575420030,,,,0,0.0,1,6.0,14.399999618530273,0.0,0.0,0.0,66.7128,C,31429086000000,
Raw,1732152545001,24697000000,,705808.2828754818,-1416187738304000000,0.0,152.30937356352968,1085.3284750637597,0.0,0,13,0.0,16431,350962928485248,396,21.18899917602539,755.5912258164445,0.14999,16,0.0,0.0,1575420030,,,,0,4.230834963616486,1,6.0,21.18899917602539,0.0,0.0,0.0,66.7128,C,31429086000000,
Raw,1732152545001,24697000000,,705808.2828754818,-1416187738304000000,0.0,152.30937356352968,1085.3284750637597,0.0,0,15,0.0,16431,350962924908240,1797,13.600000381469727,566.101283618522,0.14999,16,0.0,0.0,1575420030,,,,0,0.0,1,6.0,13.600000381469727,0.0,0.0,0.0,66.7128,C,31429086000000,
Fix,FLP,37.4250152000,-122.1585242000,5.400000095367432,0.7833248,5.3,180.0,1732152545239,1.4,109.4,31429086000000,17.294842,0,,,
Status,1732152545000,28,0,1,17,1575420030,0.00,64.0,76.0,0,0,0,0.0
Status,1732152545000,28,1,1,19,1575420030,0.00,202.0,66.0,0,0,0,0.0
Status,1732152545000,28,2,1,22,1575420030,0.00,24.0,64.0,0,0,0,0.0
Status,1732152545000,28,3,1,14,1575420030,0.00,58.0,49.0,0,0,0,0.0
Status,1732152545000,28,4,2,135,1575420030,0.00,197.0,45.0,0,0,0,0.0
Status,1732152545000,28,5,1,13,1575420030,29.00,229.0,44.0,1,0,0,24.0
Status,1732152545000,28,6,1,30,1575420030,29.60,134.0,32.0,1,0,0,24.6
Status,1732152545000,28,7,1,15,1575420030,18.60,269.0,29.0,1,0,0,13.6
Status,1732152545000,28,8,1,24,1575420030,0.00,313.0,21.0,0,0,0,0.0
Status,1732152545000,28,9,1,6,1575420030,30.00,160.0,16.0,1,0,0,25.0
Status,1732152545000,28,10,1,2,1575420030,25.20,44.0,15.0,1,0,0,20.2
Status,1732152545000,28,11,1,21,1575420030,0.00,31.0,2.0,0,0,0,0.0
Status,1732152545000,28,12,1,12,1575420030,0.00,270.0,2.0,0,0,0,0.0
Status,1732152545000,28,13,3,20,1602000000,0.00,104.0,56.0,0,0,0,0.0
Status,1732152545000,28,14,3,11,1602000000,0.00,315.0,31.0,0,0,0,0.0
Status,1732152545000,28,15,3,9,1602000000,0.00,86.0,30.0,0,0,0,0.0
Status,1732152545000,28,16,3,8,1602000000,25.30,242.0,19.0,1,0,0,20.3
Status,1732152545000,28,17,3,19,1602000000,0.00,30.0,19.0,0,0,0,0.0
Status,1732152545000,28,18,3,17,1602000000,25.20,0.0,0.0,0,0,0,20.2
Status,1732152545000,28,19,6,21,1575420030,0.00,353.0,68.0,0,0,0,0.0
Status,1732152545000,28,20,6,19,1575420030,0.00,239.0,43.0,0,0,0,0.0
Status,1732152545000,28,21,6,13,1575420030,0.00,117.0,32.0,0,0,0,0.0
Status,1732152545000,28,22,6,27,1575420030,0.00,68.0,31.0,0,0,0,0.0
Status,1732152545000,28,23,6,4,1575420030,0.00,308.0,24.0,0,0,0,0.0
Status,1732152545000,28,24,6,15,1575420030,0.00,58.0,23.0,0,0,0,0.0
Status,1732152545000,28,25,6,29,1575420030,0.00,190.0,21.0,0,0,0,0.0
Status,1732152545000,28,26,6,26,1575420030,0.00,166.0,9.0,0,0,0,0.0
Status,1732152545000,28,27,6,6,1575420030,0.00,325.0,7.0,0,0,0,0.0
Fix,GPS,37.4249066667,-122.1585416667,22.2,0.0,4.8,0.0,1732152546000,1.4,86.7,31430086000000,89.2,0,,,
Raw,1732152546001,25697000000,,705733.9606255204,-1416187738304000000,0.0,151.92606191787885,1087.9427337426055,0.0,0,30,0.0,16431,350963925317764,396,24.552000045776367,879.2786752125821,0.14999,16,0.0,0.0,1575420030,,,,0,7.85923681483145,1,6.0,24.552000045776367,0.0,0.0,0.0,66.7128,C,31430086000000,
Raw,1732152546001,25697000000,,705733.9606255204,-1416187738304000000,0.0,151.92606191787885,1087.9427337426055,0.0,0,6,0.0,16431,350963920469660,487,25.020000457763672,-333.05508955390104,0.14999,16,0.0,0.0,1575420030,,,,0,10.048008959831344,1,6.0,25.020000457763672,0.0,0.0,0.0,66.7128,C,31430086000000,
Raw,1732152546001,25697000000,,705733.9606255204,-1416187738304000000,0.0,151.92606191787885,1087.9427337426055,0.0,0,2,0.0,16431,350963918406534,797,20.20199966430664,722.0620939204666,0.14999,16,0.0,0.0,1575420030,,,,0,4.310889812689965,1,6.0,20.20199966430664,0.0,0.0,0.0,66.7128,C,31430086000000,
Raw,1732152546001,25697000000,,705733.9606255204,-1416187738304000000,0.0,151.92606191787885,1087.9427337426055,0.0,0,8,0.0,17,728684,487,5.0,950.6422337315603,0.14999,16,0.0,0.0,1605374980,,,,0,4.630331886119738,3,6.0,20.0,0.0,0.0,95.94174892824888,66.7128,C,31430086000000,
Raw,1732152546001,25697000000,,705733.9606255204,-1416187738304000000,0.0,151.92606191787885,1087.9427337426055,0.0,0,13,0.0,16431,350963928482718,396,23.95599937438965,756.3519823818922,0.14999,16,0.0,0.0,1575420030,,,,0,8.521825181113625,1,6.0,23.95599937438965,0.0,0.0,0.0,66.7128,C,31430086000000,
Raw,1732152546001,25697000000,,705733.9606255204,-1416187738304000000,0.0,151.92606191787885,1087.9427337426055,0.0,0,15,0.0,16431,350963924906350,487,13.600000381469727,567.0986064393136,0.14999,16,0.0,0.0,1575420030,,,,0,0.0,1,6.0,13.600000381469727,0.0,0.0,0.0,66.7128,C,31430086000000,
Fix,FLP,37.4249602000,-122.1585319000,5.400000095367432,0.77804816,5.185,180.0,1732152546238,1.4,86.7,31430086000000,17.331299,0,,,
Status,1732152546000,28,0,1,17,1575420030,0.00,64.0,76.0,0,0,0,0.0
Status,1732152546000,28,1,1,19,1575420030,0.00,202.0,66.0,0,0,0,0.0
Status,1732152546000,28,2,1,22,1575420030,0.00,24.0,64.0,0,0,0,0.0
Status,1732152546000,28,3,1,14,1575420030,0.00,58.0,49.0,0,0,0,0.0
Status,1732152546000,28,4,2,135,1575420030,0.00,197.0,45.0,0,0,0,0.0
Status,1732152546000,28,5,1,13,1575420030,28.90,229.0,44.0,1,0,0,23.9
Status,1732152546000,28,6,1,30,1575420030,29.50,134.0,32.0,1,0,0,24.5
Status,1732152546000,28,7,1,15,1575420030,25.40,269.0,29.0,1,0,0,20.4
Status,1732152546000,28,8,1,24,1575420030,0.00,313.0,21.0,0,0,0,0.0
Status,1732152546000,28,9,1,6,1575420030,30.40,160.0,16.0,1,0,0,25.4
Status,1732152546000,28,10,1,2,1575420030,25.30,44.0,15.0,1,0,0,20.3
Status,1732152546000,28,11,1,21,1575420030,0.00,31.0,2.0,0,0,0,0.0
Status,1732152546000,28,12,1,12,1575420030,0.00,270.0,2.0,0,0,0,0.0
Status,1732152546000,28,13,3,20,1602000000,0.00,104.0,56.0,0,0,0,0.0
Status,1732152546000,28,14,3,11,1602000000,0.00,315.0,31.0,0,0,0,0.0
Status,1732152546000,28,15,3,9,1602000000,0.00,86.0,30.0,0,0,0,0.0
Status,1732152546000,28,16,3,8,1602000000,25.30,242.0,19.0,1,0,0,20.3
Status,1732152546000,28,17,3,19,1602000000,0.00,30.0,19.0,0,0,0,0.0
Status,1732152546000,28,18,3,17,1602000000,29.80,0.0,0.0,0,0,0,24.8
Status,1732152546000,28,19,6,21,1575420030,0.00,353.0,68.0,0,0,0,0.0
Status,1732152546000,28,20,6,19,1575420030,0.00,239.0,43.0,0,0,0,0.0
Status,1732152546000,28,21,6,13,1575420030,0.00,117.0,32.0,0,0,0,0.0
Status,1732152546000,28,22,6,27,1575420030,0.00,68.0,31.0,0,0,0,0.0
Status,1732152546000,28,23,6,4,1575420030,0.00,308.0,24.0,0,0,0,0.0
Status,1732152546000,28,24,6,15,1575420030,0.00,58.0,23.0,0,0,0,0.0
Status,1732152546000,28,25,6,29,1575420030,0.00,190.0,21.0,0,0,0,0.0
Status,1732152546000,28,26,6,26,1575420030,0.00,166.0,9.0,0,0,0,0.0
Status,1732152546000,28,27,6,6,1575420030,0.00,325.0,7.0,0,0,0,0.0
Fix,GPS,37.4248816667,-122.1585216667,22.2,0.0,4.7,0.0,1732152547000,1.3,79.7,31431086000000,87.0,0,,,
Raw,1732152547001,26697000000,,705643.0122901892,-1416187738304000000,0.0,149.85518143366755,1088.7330183886186,0.0,0,30,0.0,16431,350964925314833,396,24.461999893188477,879.4792826537793,0.14999,16,0.0,0.0,1575420030,,,,0,6.729609695782486,1,6.0,24.461999893188477,0.0,0.0,0.0,66.7128,C,31431086000000,
Raw,1732152547001,26697000000,,705643.0122901892,-1416187738304000000,0.0,149.85518143366755,1088.7330183886186,0.0,0,6,0.0,16431,350964920470773,396,25.391000747680664,-331.9421317351614,0.14999,16,0.0,0.0,1575420030,,,,0,10.567320220560749,1,6.0,25.391000747680664,0.0,0.0,0.0,66.7128,C,31431086000000,
Raw,1732152547001,26697000000,,705643.0122901892,-1416187738304000000,0.0,149.85518143366755,1088.7330183886186,0.0,0,2,0.0,16431,350964918404125,797,20.253000259399414,722.2984743421458,0.14999,16,0.0,0.0,1575420030,,,,0,4.310889812689965,1,6.0,20.253000259399414,0.0,0.0,0.0,66.7128,C,31431086000000,
Raw,1732152547001,26697000000,,705643.0122901892,-1416187738304000000,0.0,149.85518143366755,1088.7330183886186,0.0,0,8,0.0,17,725511,487,5.0,951.9582791169095,0.14999,16,0.0,0.0,1605374980,,,,0,5.533772058202258,3,6.0,20.0,0.0,0.0,92.45355430621224,66.7128,C,31431086000000,
Raw,1732152547001,26697000000,,705643.0122901892,-1416187738304000000,0.0,149.85518143366755,1088.7330183886186,0.0,0,13,0.0,16431,350964928480185,316,23.889999389648438,756.7702939614518,0.14999,16,0.0,0.0,1575420030,,,,0,6.546742106985089,1,6.0,23.889999389648438,0.0,0.0,0.0,66.7128,C,31431086000000,
Raw,1732152547001,26697000000,,705643.0122901892,-1416187738304000000,0.0,149.85518143366755,1088.7330183886186,0.0,0,15,0.0,16431,350964924904450,487,20.424999237060547,567.5839575134652,0.14999,16,0.0,0.0,1575420030,,,,0,2.9320188249561947,1,6.0,20.424999237060547,0.0,0.0,0.0,66.7128,C,31431086000000,
Fix,FLP,37.4249197000,-122.1585274000,5.400000095367432,0.6263458,5.057,180.0,1732152547238,1.3,79.7,31431086000000,17.623745,0,,,
Status,1732152547000,28,0,1,17,1575420030,0.00,64.0,76.0,0,0,0,0.0
Status,1732152547000,28,1,1,19,1575420030,0.00,202.0,66.0,0,0,0,0.0
Status,1732152547000,28,2,1,22,1575420030,0.00,24.0,64.0,0,0,0,0.0
Status,1732152547000,28,3,1,14,1575420030,0.00,58.0,49.0,0,0,0,0.0
Status,1732152547000,28,4,2,135,1575420030,0.00,197.0,45.0,0,0,0,0.0
Status,1732152547000,28,5,1,13,1575420030,31.80,229.0,44.0,1,0,0,26.8
Status,1732152547000,28,6,1,30,1575420030,29.40,134.0,32.0,1,0,0,24.4
Status,1732152547000,28,7,1,15,1575420030,23.40,269.0,29.0,1,0,0,18.4
Status,1732152547000,28,8,1,24,1575420030,0.00,313.0,21.0,0,0,0,0.0
Status,1732152547000,28,9,1,6,1575420030,32.70,160.0,16.0,1,0,0,27.7
Status,1732152547000,28,10,1,2,1575420030,21.30,44.0,15.0,1,0,0,16.3
Status,1732152547000,28,11,1,21,1575420030,0.00,31.0,2.0,0,0,0,0.0
Status,1732152547000,28,12,1,12,1575420030,0.00,270.0,2.0,0,0,0,0.0
Status,1732152547000,28,13,3,20,1602000000,0.00,104.0,56.0,0,0,0,0.0
Status,1732152547000,28,14,3,11,1602000000,0.00,315.0,31.0,0,0,0,0.0
Status,1732152547000,28,15,3,9,1602000000,22.20,86.0,30.0,1,0,0,17.2
Status,1732152547000,28,16,3,8,1602000000,25.20,242.0,19.0,1,0,0,20.2
Status,1732152547000,28,17,3,19,1602000000,0.00,30.0,19.0,0,0,0,0.0
Status,1732152547000,28,18,3,17,1602000000,26.40,0.0,0.0,0,0,0,21.4
Status,1732152547000,28,19,6,21,1575420030,0.00,353.0,68.0,0,0,0,0.0
Status,1732152547000,28,20,6,19,1575420030,0.00,239.0,43.0,0,0,0,0.0
Status,1732152547000,28,21,6,13,1575420030,0.00,117.0,32.0,0,0,0,0.0
Status,1732152547000,28,22,6,27,1575420030,0.00,68.0,31.0,0,0,0,0.0
Status,1732152547000,28,23,6,4,1575420030,0.00,308.0,24.0,0,0,0,0.0
Status,1732152547000,28,24,6,15,1575420030,0.00,58.0,23.0,0,0,0,0.0
Status,1732152547000,28,25,6,29,1575420030,0.00,190.0,21.0,0,0,0,0.0
Status,1732152547000,28,26,6,26,1575420030,0.00,166.0,9.0,0,0,0,0.0
Status,1732152547000,28,27,6,6,1575420030,0.00,325.0,7.0,0,0,0,0.0
Fix,GPS,37.4248583333,-122.1585133333,22.2,0.0,4.6,0.0,1732152548000,1.3,77.3,31432086000000,87.6,0,,,
Raw,1732152548001,27697000000,,705588.7560053295,-1416187738304000000,0.0,150.70413198387774,1090.4473724014238,0.0,0,30,0.0,16431,350965925311899,487,24.371000289916992,880.5226457650356,0.14999,16,0.0,0.0,1575420030,,,,0,6.546742106985089,1,6.0,24.371000289916992,0.0,0.0,0.0,66.7128,C,31432086000000,
Raw,1732152548001,27697000000,,705588.7560053295,-1416187738304000000,0.0,150.70413198387774,1090.4473724014238,0.0,0,6,0.0,16431,350965920471872,316,27.68400001525879,-330.9396520301704,0.14999,16,0.0,0.0,1575420030,,,,0,13.638173515021116,1,6.0,27.68400001525879,0.0,0.0,0.0,66.7128,C,31432086000000,
Raw,1732152548001,27697000000,,705588.7560053295,-1416187738304000000,0.0,150.70413198387774,1090.4473724014238,0.0,0,2,0.0,16431,350965918401706,797,16.323999404907227,722.7826639558921,0.14999,16,0.0,0.0,1575420030,,,,0,0.0,1,6.0,16.323999404907227,0.0,0.0,0.0,66.7128,C,31432086000000,
Raw,1732152548001,27697000000,,705588.7560053295,-1416187738304000000,0.0,150.70413198387774,1090.4473724014238,0.0,0,8,0.0,17,722336,487,5.0,950.1130983216538,0.14999,16,0.0,0.0,1605374980,,,,0,0.7446181647112402,3,6.0,18.0,0.0,0.0,89.42233569676169,66.7128,C,31432086000000,
Raw,1732152548001,27697000000,,705588.7560053295,-1416187738304000000,0.0,150.70413198387774,1090.4473724014238,0.0,0,9,0.0,17,478336,487,5.0,721.026852222687,0.14999,16,0.0,0.0,1600875010,,,,0,0.0,3,6.0,20.0,0.0,0.0,89.42233569676169,66.7128,C,31432086000000,
Raw,1732152548001,27697000000,,705588.7560053295,-1416187738304000000,0.0,150.70413198387774,1090.4473724014238,0.0,0,13,0.0,16431,350965928477650,316,26.847000122070312,757.5424328388709,0.14999,16,0.0,0.0,1575420030,,,,0,12.53648625197909,1,6.0,26.847000122070312,0.0,0.0,0.0,66.7128,C,31432086000000,
Raw,1732152548001,27697000000,,705588.7560053295,-1416187738304000000,0.0,150.70413198387774,1090.4473724014238,0.0,0,15,0.0,16431,350965924902573,797,18.41699981689453,567.9934419939448,0.14999,16,0.0,0.0,1575420030,,,,0,0.0,1,6.0,18.41699981689453,0.0,0.0,0.0,66.7128,C,31432086000000,
Fix,FLP,37.4248879000,-122.1585211000,5.400000095367432,0.4945016,4.928,180.0,1732152548238,1.3,77.3,31432086000000,18.782955,0,,,
Fix,FLP,37.4248770000,-122.1585184000,5.400000095367432,0.36980084,4.842,180.0,1732152548448,1.3,77.3,31432296000000,18.120028,0,,,
Fix,NLP,37.4256363000,-122.1580617000,5.400000095367432,,30.747,,1732152548448,,,31432296000000,51.927696,0,,,
Status,1732152548000,28,0,1,17,1575420030,0.00,64.0,76.0,0,0,0,0.0
Status,1732152548000,28,1,1,19,1575420030,0.00,202.0,66.0,0,0,0,0.0
Status,1732152548000,28,2,1,22,1575420030,0.00,24.0,64.0,0,0,0,0.0
Status,1732152548000,28,3,1,14,1575420030,0.00,58.0,49.0,0,0,0,0.0
Status,1732152548000,28,4,2,135,1575420030,0.00,197.0,45.0,0,0,0,0.0
Status,1732152548000,28,5,1,13,1575420030,35.10,229.0,44.0,1,0,0,30.099998
Status,1732152548000,28,6,1,30,1575420030,29.30,134.0,32.0,1,0,0,24.3
Status,1732152548000,28,7,1,15,1575420030,23.40,269.0,29.0,1,0,0,18.4
Status,1732152548000,28,8,1,24,1575420030,0.00,313.0,21.0,0,0,0,0.0
Status,1732152548000,28,9,1,6,1575420030,35.10,160.0,16.0,1,0,0,30.099998
Status,1732152548000,28,10,1,2,1575420030,21.30,44.0,15.0,1,0,0,16.3
Status,1732152548000,28,11,1,21,1575420030,0.00,31.0,2.0,0,0,0,0.0
Status,1732152548000,28,12,1,12,1575420030,0.00,270.0,2.0,0,0,0,0.0
Status,1732152548000,28,13,3,20,1602000000,0.00,104.0,56.0,0,0,0,0.0
Status,1732152548000,28,14,3,11,1602000000,0.00,315.0,31.0,0,0,0,0.0
Status,1732152548000,28,15,3,9,1602000000,22.90,86.0,30.0,1,0,0,17.9
Status,1732152548000,28,16,3,8,1602000000,21.90,242.0,19.0,1,0,0,16.9
Status,1732152548000,28,17,3,19,1602000000,0.00,30.0,19.0,0,0,0,0.0
Status,1732152548000,28,18,3,17,1602000000,24.80,0.0,0.0,0,0,0,19.8
Status,1732152548000,28,19,6,21,1575420030,0.00,353.0,68.0,0,0,0,0.0
Status,1732152548000,28,20,6,19,1575420030,0.00,239.0,43.0,0,0,0,0.0
Status,1732152548000,28,21,6,13,1575420030,0.00,117.0,32.0,0,0,0,0.0
Status,1732152548000,28,22,6,27,1575420030,0.00,68.0,31.0,0,0,0,0.0
Status,1732152548000,28,23,6,4,1575420030,0.00,308.0,24.0,0,0,0,0.0
Status,1732152548000,28,24,6,15,1575420030,0.00,58.0,23.0,0,0,0,0.0
Status,1732152548000,28,25,6,29,1575420030,0.00,190.0,21.0,0,0,0,0.0
Status,1732152548000,28,26,6,26,1575420030,0.00,166.0,9.0,0,0,0,0.0
Status,1732152548000,28,27,6,6,1575420030,0.00,325.0,7.0,0,0,0,0.0
Fix,GPS,37.4248516667,-122.1584900000,22.2,0.0,4.5,0.0,1732152549000,1.3,67.5,31433086000000,81.0,0,,,
Raw,1732152549001,28697000000,,705479.3574059826,-1416187738304000000,0.0,142.71819700284303,1090.7484029559632,0.0,0,30,0.0,16431,350966925308960,797,24.284000396728516,881.5557880247255,0.14999,16,0.0,0.0,1575420030,,,,0,6.546742106985089,1,6.0,24.284000396728516,0.0,0.0,0.0,66.7128,C,31433086000000,
Raw,1732152549001,28697000000,,705479.3574059826,-1416187738304000000,0.0,142.71819700284303,1090.7484029559632,0.0,0,6,0.0,16431,350966920472977,74,30.113000869750977,-331.93014546377907,0.14999,16,0.0,0.0,1575420030,,,,0,16.68432389413413,1,6.0,30.113000869750977,0.0,0.0,0.0,66.7128,C,31433086000000,
Raw,1732152549001,28697000000,,705479.3574059826,-1416187738304000000,0.0,142.71819700284303,1090.7484029559632,0.0,0,2,0.0,16431,350966918399294,797,16.323999404907227,723.1256664427746,0.14999,16,0.0,0.0,1575420030,,,,0,0.0,1,6.0,16.323999404907227,0.0,0.0,0.0,66.7128,C,31433086000000,
Raw,1732152549001,28697000000,,705479.3574059826,-1416187738304000000,0.0,142.71819700284303,1090.7484029559632,0.0,0,8,0.0,17,719208,797,5.0,950.0722483020711,0.14999,16,0.0,0.0,1605374980,,,,0,0.0,3,6.0,15.0,0.0,0.0,79.14090310257812,66.7128,C,31433086000000,
Raw,1732152549001,28697000000,,705479.3574059826,-1416187738304000000,0.0,142.71819700284303,1090.7484029559632,0.0,0,9,0.0,17,475940,487,5.0,719.2231187826897,0.14999,16,0.0,0.0,1600875010,,,,0,0.6842657148517493,3,6.0,20.0,0.0,0.0,79.14090310257812,66.7128,C,31433086000000,
Raw,1732152549001,28697000000,,705479.3574059826,-1416187738304000000,0.0,142.71819700284303,1090.7484029559632,0.0,0,13,0.0,16431,350966928475131,74,30.054000854492188,756.9322480003617,0.14999,16,0.0,0.0,1575420030,,,,0,16.607286673943953,1,6.0,30.054000854492188,0.0,0.0,0.0,66.7128,C,31433086000000,
Raw,1732152549001,28697000000,,705479.3574059826,-1416187738304000000,0.0,142.71819700284303,1090.7484029559632,0.0,0,15,0.0,16431,350966924900678,797,18.41699981689453,568.4067360645538,0.14999,16,0.0,0.0,1575420030,,,,0,0.0,1,6.0,18.41699981689453,0.0,0.0,0.0,66.7128,C,31433086000000,
Fix,FLP,37.4248655000,-122.1585074000,5.400000095367432,0.26775658,4.742,180.0,1732152549238,1.3,67.5,31433086000000,17.270676,0,,,
Status,1732152549000,28,0,1,17,1575420030,0.00,64.0,76.0,0,0,0,0.0
Status,1732152549000,28,1,1,19,1575420030,0.00,202.0,66.0,0,0,0,0.0
Status,1732152549000,28,2,1,22,1575420030,0.00,24.0,64.0,0,0,0,0.0
Status,1732152549000,28,3,1,14,1575420030,0.00,58.0,49.0,0,0,0,0.0
Status,1732152549000,28,4,2,135,1575420030,0.00,197.0,45.0,0,0,0,0.0
Status,1732152549000,28,5,1,13,1575420030,35.00,229.0,44.0,1,0,0,30.0
Status,1732152549000,28,6,1,30,1575420030,29.20,134.0,32.0,1,0,0,24.2
Status,1732152549000,28,7,1,15,1575420030,23.50,269.0,29.0,1,0,0,18.5
Status,1732152549000,28,8,1,24,1575420030,0.00,313.0,21.0,0,0,0,0.0
Status,1732152549000,28,9,1,6,1575420030,31.30,160.0,16.0,1,0,0,26.3
Status,1732152549000,28,10,1,2,1575420030,21.30,44.0,15.0,1,0,0,16.3
Status,1732152549000,28,11,1,21,1575420030,0.00,31.0,2.0,0,0,0,0.0
Status,1732152549000,28,12,1,12,1575420030,0.00,270.0,2.0,0,0,0,0.0
Status,1732152549000,28,13,3,20,1602000000,0.00,104.0,56.0,0,0,0,0.0
Status,1732152549000,28,14,3,11,1602000000,0.00,315.0,31.0,0,0,0,0.0
Status,1732152549000,28,15,3,9,1602000000,21.70,86.0,30.0,1,0,0,16.7
Status,1732152549000,28,16,3,8,1602000000,21.90,242.0,19.0,1,0,0,16.9
Status,1732152549000,28,17,3,19,1602000000,0.00,30.0,19.0,0,0,0,0.0
Status,1732152549000,28,18,3,17,1602000000,28.70,0.0,0.0,0,0,0,23.7
Status,1732152549000,28,19,6,21,1575420030,0.00,353.0,68.0,0,0,0,0.0
Status,1732152549000,28,20,6,19,1575420030,0.00,239.0,43.0,0,0,0,0.0
Status,1732152549000,28,21,6,13,1575420030,0.00,117.0,32.0,0,0,0,0.0
Status,1732152549000,28,22,6,27,1575420030,0.00,68.0,31.0,0,0,0,0.0
Status,1732152549000,28,23,6,4,1575420030,0.00,308.0,24.0,0,0,0,0.0
Status,1732152549000,28,24,6,15,1575420030,0.00,58.0,23.0,0,0,0,0.0
Status,1732152549000,28,25,6,29,1575420030,0.00,190.0,21.0,0,0,0,0.0
Status,1732152549000,28,26,6,26,1575420030,0.00,166.0,9.0,0,0,0,0.0
Status,1732152549000,28,27,6,6,1575420030,0.00,325.0,7.0,0,0,0,0.0
Fix,GPS,37.4248416667,-122.1584966667,22.2,0.0,4.4,0.0,1732152550000,1.3,73.6,31434086000000,81.3,0,,,
Raw,1732152550001,29697000000,,705422.1303159001,-1416187738304000000,0.0,142.80547407685444,1088.0482717346626,0.0,0,30,0.0,16431,350967925306021,396,24.20199966430664,880.3691471578759,0.14999,16,0.0,0.0,1575420030,,,,0,6.546742106985089,1,6.0,24.20199966430664,0.0,0.0,0.0,66.7128,C,31434086000000,
Raw,1732152550001,29697000000,,705422.1303159001,-1416187738304000000,0.0,142.80547407685444,1088.0482717346626,0.0,0,6,0.0,16431,350967920474081,316,26.291000366210938,-331.7260536413662,0.14999,16,0.0,0.0,1575420030,,,,0,11.794753973142095,1,6.0,26.291000366210938,0.0,0.0,0.0,66.7128,C,31434086000000,
Raw,1732152550001,29697000000,,705422.1303159001,-1416187738304000000,0.0,142.80547407685444,1088.0482717346626,0.0,0,2,0.0,16431,350967918396884,797,16.323999404907227,722.359195492133,0.14999,16,0.0,0.0,1575420030,,,,0,0.0,1,6.0,16.323999404907227,0.0,0.0,0.0,66.7128,C,31434086000000,
Raw,1732152550001,29697000000,,705422.1303159001,-1416187738304000000,0.0,142.80547407685444,1088.0482717346626,0.0,0,8,0.0,17,716039,797,5.0,950.741805654293,0.14999,16,0.0,0.0,1605374980,,,,0,0.0,3,6.0,17.0,0.0,0.0,77.13239951690717,66.7128,C,31434086000000,
Raw,1732152550001,29697000000,,705422.1303159001,-1416187738304000000,0.0,142.80547407685444,1088.0482717346626,0.0,0,9,0.0,17,473567,487,5.0,722.1853893150914,0.14999,16,0.0,0.0,1600875010,,,,0,0.0,3,6.0,18.0,0.0,0.0,77.13239951690717,66.7128,C,31434086000000,
Raw,1732152550001,29697000000,,705422.1303159001,-1416187738304000000,0.0,142.80547407685444,1088.0482717346626,0.0,0,13,0.0,16431,350967928472612,316,29.95400047302246,755.5078329593466,0.14999,16,0.0,0.0,1575420030,,,,0,14.114957871304265,1,6.0,29.95400047302246,0.0,0.0,0.0,66.7128,C,31434086000000,
Raw,1732152550001,29697000000,,705422.1303159001,-1416187738304000000,0.0,142.80547407685444,1088.0482717346626,0.0,0,15,0.0,16431,350967924898811,487,18.479000091552734,567.4673468887767,0.14999,16,0.0,0.0,1575420030,,,,0,1.6241595937163633,1,6.0,18.479000091552734,0.0,0.0,0.0,66.7128,C,31434086000000,
Fix,FLP,37.4248536000,-122.1585028000,5.400000095367432,0.20171133,4.642,180.0,1732152550238,1.3,73.6,31434086000000,15.924351,0,,,
Status,1732152550000,28,0,1,17,1575420030,0.00,64.0,76.0,0,0,0,0.0
Status,1732152550000,28,1,1,19,1575420030,0.00,202.0,66.0,0,0,0,0.0
Status,1732152550000,28,2,1,22,1575420030,0.00,24.0,64.0,0,0,0,0.0
Status,1732152550000,28,3,1,14,1575420030,0.00,58.0,49.0,0,0,0,0.0
Status,1732152550000,28,4,2,135,1575420030,0.00,197.0,45.0,0,0,0,0.0
Status,1732152550000,28,5,1,13,1575420030,27.20,229.0,44.0,1,0,0,22.2
Status,1732152550000,28,6,1,30,1575420030,26.30,134.0,32.0,1,0,0,21.3
Status,1732152550000,28,7,1,15,1575420030,23.50,269.0,29.0,1,0,0,18.5
Status,1732152550000,28,8,1,24,1575420030,0.00,313.0,21.0,0,0,0,0.0
Status,1732152550000,28,9,1,6,1575420030,30.00,160.0,16.0,1,0,0,25.0
Status,1732152550000,28,10,1,2,1575420030,21.20,44.0,15.0,1,0,0,16.2
Status,1732152550000,28,11,1,21,1575420030,0.00,31.0,2.0,0,0,0,0.0
Status,1732152550000,28,12,1,12,1575420030,0.00,270.0,2.0,0,0,0,0.0
Status,1732152550000,28,13,3,20,1602000000,0.00,104.0,56.0,0,0,0,0.0
Status,1732152550000,28,14,3,11,1602000000,0.00,315.0,31.0,0,0,0,0.0
Status,1732152550000,28,15,3,9,1602000000,22.60,86.0,30.0,1,0,0,17.6
Status,1732152550000,28,16,3,8,1602000000,21.90,242.0,19.0,1,0,0,16.9
Status,1732152550000,28,17,3,19,1602000000,0.00,30.0,19.0,0,0,0,0.0
Status,1732152550000,28,18,3,17,1602000000,27.10,0.0,0.0,0,0,0,22.1
Status,1732152550000,28,19,6,21,1575420030,0.00,353.0,68.0,0,0,0,0.0
Status,1732152550000,28,20,6,19,1575420030,0.00,239.0,43.0,0,0,0,0.0
Status,1732152550000,28,21,6,13,1575420030,0.00,117.0,32.0,0,0,0,0.0
Status,1732152550000,28,22,6,27,1575420030,0.00,68.0,31.0,0,0,0,0.0
Status,1732152550000,28,23,6,4,1575420030,0.00,308.0,24.0,0,0,0,0.0
Status,1732152550000,28,24,6,15,1575420030,0.00,58.0,23.0,0,0,0,0.0
Status,1732152550000,28,25,6,29,1575420030,0.00,190.0,21.0,0,0,0,0.0
Status,1732152550000,28,26,6,26,1575420030,0.00,166.0,9.0,0,0,0,0.0
Status,1732152550000,28,27,6,6,1575420030,0.00,325.0,7.0,0,0,0,0.0
Fix,GPS,37.4248283333,-122.1585116667,22.2,0.0,4.3,0.0,1732152551000,1.3,67.3,31435086000000,81.8,0,,,
Fix,FLP,37.4248409000,-122.1585067000,5.400000095367432,0.17359543,4.557,180.0,1732152551238,1.3,67.3,31435086000000,19.155436,0,,,
Raw,1732152551001,30697000000,,705396.3312179121,-1416187738304000000,0.0,143.38573492086482,1084.1220489226284,0.0,0,30,0.0,16431,350968925303065,487,21.27899932861328,879.0874523714596,0.14999,16,0.0,0.0,1575420030,,,,0,4.390213557041992,1,6.0,21.27899932861328,0.0,0.0,0.0,66.7128,C,31435086000000,
Raw,1732152551001,30697000000,,705396.3312179121,-1416187738304000000,0.0,143.38573492086482,1084.1220489226284,0.0,0,6,0.0,16431,350968920475187,396,24.966999053955078,-332.98019858696966,0.14999,16,0.0,0.0,1575420030,,,,0,9.965285576098573,1,6.0,24.966999053955078,0.0,0.0,0.0,66.7128,C,31435086000000,
Raw,1732152551001,30697000000,,705396.3312179121,-1416187738304000000,0.0,143.38573492086482,1084.1220489226284,0.0,0,2,0.0,16431,350968918394486,797,16.222000122070312,721.3452405583381,0.14999,16,0.0,0.0,1575420030,,,,0,0.0,1,6.0,16.222000122070312,0.0,0.0,0.0,66.7128,C,31435086000000,
Raw,1732152551001,30697000000,,705396.3312179121,-1416187738304000000,0.0,143.38573492086482,1084.1220489226284,0.0,0,8,0.0,17,712849,487,5.0,949.7565724810999,0.14999,16,0.0,0.0,1605374980,,,,0,0.5426116266247245,3,6.0,18.0,0.0,0.0,73.91130346035787,66.7128,C,31435086000000,
Raw,1732152551001,30697000000,,705396.3312179121,-1416187738304000000,0.0,143.38573492086482,1084.1220489226284,0.0,0,9,0.0,17,471152,487,5.0,722.5578219573457,0.14999,16,0.0,0.0,1600875010,,,,0,0.15231034497585316,3,6.0,19.0,0.0,0.0,73.91130346035787,66.7128,C,31435086000000,
Raw,1732152551001,30697000000,,705396.3312179121,-1416187738304000000,0.0,143.38573492086482,1084.1220489226284,0.0,0,13,0.0,16431,350968928470090,487,22.233999252319336,754.9290075517796,0.14999,16,0.0,0.0,1575420030,,,,0,5.907785766992777,1,6.0,22.233999252319336,0.0,0.0,0.0,66.7128,C,31435086000000,
Raw,1732152551001,30697000000,,705396.3312179121,-1416187738304000000,0.0,143.38573492086482,1084.1220489226284,0.0,0,15,0.0,16431,350968924896926,487,18.461000442504883,565.8837653138243,0.14999,16,0.0,0.0,1575420030,,,,0,0.0,1,6.0,18.461000442504883,0.0,0.0,0.0,66.7128,C,31435086000000,
Status,1732152551000,28,0,1,17,1575420030,0.00,64.0,76.0,0,0,0,0.0
Status,1732152551000,28,1,1,19,1575420030,0.00,202.0,66.0,0,0,0,0.0
Status,1732152551000,28,2,1,22,1575420030,0.00,24.0,64.0,0,0,0,0.0
Status,1732152551000,28,3,1,14,1575420030,0.00,58.0,49.0,0,0,0,0.0
Status,1732152551000,28,4,2,135,1575420030,0.00,197.0,45.0,0,0,0,0.0
Status,1732152551000,28,5,1,13,1575420030,24.60,229.0,44.0,1,0,0,19.6
Status,1732152551000,28,6,1,30,1575420030,23.10,134.0,32.0,1,0,0,18.1
Status,1732152551000,28,7,1,15,1575420030,23.50,269.0,29.0,1,0,0,18.5
Status,1732152551000,28,8,1,24,1575420030,0.00,313.0,21.0,0,0,0,0.0
Status,1732152551000,28,9,1,6,1575420030,29.70,160.0,16.0,1,0,0,24.7
Status,1732152551000,28,10,1,2,1575420030,30.50,44.0,15.0,1,0,0,25.5
Status,1732152551000,28,11,1,21,1575420030,0.00,31.0,2.0,0,0,0,0.0
Status,1732152551000,28,12,1,12,1575420030,0.00,270.0,2.0,0,0,0,0.0
Status,1732152551000,28,13,3,20,1602000000,0.00,104.0,56.0,0,0,0,0.0
Status,1732152551000,28,14,3,11,1602000000,0.00,315.0,31.0,0,0,0,0.0
Status,1732152551000,28,15,3,9,1602000000,22.60,86.0,30.0,1,0,0,17.6
Status,1732152551000,28,16,3,8,1602000000,22.00,242.0,19.0,1,0,0,17.0
Status,1732152551000,28,17,3,19,1602000000,0.00,30.0,19.0,0,0,0,0.0
Status,1732152551000,28,18,3,17,1602000000,25.60,0.0,0.0,0,0,0,20.6
Status,1732152551000,28,19,6,21,1575420030,0.00,353.0,68.0,0,0,0,0.0
Status,1732152551000,28,20,6,19,1575420030,0.00,239.0,43.0,0,0,0,0.0
Status,1732152551000,28,21,6,13,1575420030,0.00,117.0,32.0,0,0,0,0.0
Status,1732152551000,28,22,6,27,1575420030,0.00,68.0,31.0,0,0,0,0.0
Status,1732152551000,28,23,6,4,1575420030,0.00,308.0,24.0,0,0,0,0.0
Status,1732152551000,28,24,6,15,1575420030,0.00,58.0,23.0,0,0,0,0.0
Status,1732152551000,28,25,6,29,1575420030,0.00,190.0,21.0,0,0,0,0.0
Status,1732152551000,28,26,6,26,1575420030,0.00,166.0,9.0,0,0,0,0.0
Status,1732152551000,28,27,6,6,1575420030,0.00,325.0,7.0,0,0,0,0.0
Fix,GPS,37.4248150000,-122.1585233333,22.2,0.0,4.2,0.0,1732152552000,2.2,140.2,31436086000000,81.6,0,,,
Raw,1732152552001,31697000000,,705373.3986863672,-1416187738304000000,0.0,142.0056781172414,1080.6290298057322,0.0,0,30,0.0,16431,350969925300134,487,18.1299991607666,878.3418877081128,0.14999,16,0.0,0.0,1575420030,,,,0,0.0,1,6.0,18.1299991607666,0.0,0.0,0.0,66.7128,C,31436086000000,
