# 
# Header Description:
# 
# Version: v3.1.0.3 Platform: 13 Manufacturer: samsung Model: SM-S135DL GNSS Hardware Model Name: MediaTek,MT6631,MTK_MNLD_default,MNL_VER_default
# 
# Raw,utcTimeMillis,TimeNanos,LeapSecond,TimeUncertaintyNanos,FullBiasNanos,BiasNanos,BiasUncertaintyNanos,DriftNanosPerSecond,DriftUncertaintyNanosPerSecond,HardwareClockDiscontinuityCount,Svid,TimeOffsetNanos,State,ReceivedSvTimeNanos,ReceivedSvTimeUncertaintyNanos,Cn0DbHz,PseudorangeRateMetersPerSecond,PseudorangeRateUncertaintyMetersPerSecond,AccumulatedDeltaRangeState,AccumulatedDeltaRangeMeters,AccumulatedDeltaRangeUncertaintyMeters,CarrierFrequencyHz,CarrierCycles,CarrierPhase,CarrierPhaseUncertainty,MultipathIndicator,SnrInDb,ConstellationType,AgcDb,BasebandCn0DbHz,FullInterSignalBiasNanos,FullInterSignalBiasUncertaintyNanos,SatelliteInterSignalBiasNanos,SatelliteInterSignalBiasUncertaintyNanos,CodeType,ChipsetElapsedRealtimeNanos,IsFullTracking
# 
# UncalAccel,utcTimeMillis,elapsedRealtimeNanos,UncalAccelXMps2,UncalAccelYMps2,UncalAccelZMps2,BiasXMps2,BiasYMps2,BiasZMps2
# 
# Accel,utcTimeMillis,elapsedRealtimeNanos,AccelXMps2,AccelYMps2,AccelZMps2
# 
# UncalGyro,utcTimeMillis,elapsedRealtimeNanos,UncalGyroXRadPerSec,UncalGyroYRadPerSec,UncalGyroZRadPerSec,DriftXRadPerSec,DriftYRadPerSec,DriftZRadPerSec
# 
# Gyro,utcTimeMillis,elapsedRealtimeNanos,GyroXRadPerSec,GyroYRadPerSec,GyroZRadPerSec
# 
# UncalMag,utcTimeMillis,elapsedRealtimeNanos,UncalMagXMicroT,UncalMagYMicroT,UncalMagZMicroT,BiasXMicroT,BiasYMicroT,BiasZMicroT
# 
# Mag,utcTimeMillis,elapsedRealtimeNanos,MagXMicroT,MagYMicroT,MagZMicroT
# 
# Pressure,utcTimeMillis,elapsedRealtimeNanos,PressureHpa
# 
# OrientationDeg,utcTimeMillis,elapsedRealtimeNanos,yawDeg,rollDeg,pitchDeg
# 
# Fix,Provider,LatitudeDegrees,LongitudeDegrees,AltitudeMeters,SpeedMps,AccuracyMeters,BearingDegrees,UnixTimeMillis,SpeedAccuracyMps,BearingAccuracyDegrees,elapsedRealtimeNanos,VerticalAccuracyMeters,MockLocation,NumberOfUsedSignals,VerticalSpeedAccuracyMps,SolutionType
# 
# Nav,Svid,Type,Status,MessageId,Sub-messageId,Data(Bytes)
# 
# Status,UnixTimeMillis,SignalCount,SignalIndex,ConstellationType,Svid,CarrierFrequencyHz,Cn0DbHz,AzimuthDegrees,ElevationDegrees,UsedInFix,HasAlmanacData,HasEphemerisData,BasebandCn0DbHz
# 
# Agc,utcTimeMillis,TimeNanos,LeapSecond,TimeUncertaintyNanos,FullBiasNanos,BiasNanos,BiasUncertaintyNanos,DriftNanosPerSecond,DriftUncertaintyNanosPerSecond,HardwareClockDiscontinuityCount,AgcDb,CarrierFrequencyHz,ConstellationType
# 
Fix,FLP,37.4254718000,-122.1582129000,2.986600464016634,0.25429726,8.444,0.00000006769818,1732153406244,2.1,179.9,32290092000000,12.337766,0,,,
Status,,26,0,1,19,1575420030,0.00,205.0,73.0,0,0,0,0.0
Status,,26,1,1,17,1575420030,0.00,51.0,70.0,0,0,0,0.0
Status,,26,2,1,22,1575420030,0.00,36.0,61.0,0,0,0,0.0
Status,,26,3,1,14,1575420030,0.00,65.0,45.0,0,0,0,0.0
Status,,26,4,2,133,1575420030,0.00,191.0,45.0,0,0,0,0.0
Status,,26,5,1,13,1575420030,27.90,223.0,39.0,1,0,0,22.9
Status,,26,6,1,15,1575420030,27.40,262.0,27.0,1,0,0,22.4
Status,,26,7,1,30,1575420030,32.00,138.0,26.0,1,0,0,27.0
Status,,26,8,1,24,1575420030,0.00,313.0,26.0,0,0,0,0.0
Status,,26,9,1,6,1575420030,30.10,157.0,22.0,1,0,0,25.1
Status,,26,10,1,2,1575420030,0.00,39.0,12.0,0,0,0,0.0
Status,,26,11,1,12,1575420030,0.00,274.0,6.0,0,0,0,0.0
Status,,26,12,3,20,1602000000,0.00,89.0,59.0,0,0,0,0.0
Status,,26,13,3,11,1602000000,0.00,321.0,36.0,0,0,0,0.0
Status,,26,14,3,9,1602000000,0.00,94.0,26.0,0,0,0,0.0
Status,,26,15,3,8,1602000000,0.00,237.0,13.0,0,0,0,0.0
Status,,26,16,3,19,1602000000,0.00,26.0,13.0,0,0,0,0.0
Status,,26,17,6,21,1575420030,0.00,7.0,67.0,0,0,0,0.0
Status,,26,18,6,19,1575420030,0.00,233.0,39.0,0,0,0,0.0
Status,,26,19,6,13,1575420030,0.00,112.0,36.0,0,0,0,0.0
Status,,26,20,6,27,1575420030,0.00,72.0,28.0,0,0,0,0.0
Status,,26,21,6,4,1575420030,0.00,303.0,26.0,0,0,0,0.0
Status,,26,22,6,15,1575420030,0.00,53.0,23.0,0,0,0,0.0
Status,,26,23,6,29,1575420030,0.00,189.0,16.0,0,0,0,0.0
Status,,26,24,6,26,1575420030,0.00,164.0,14.0,0,0,0,0.0
Status,,26,25,6,6,1575420030,0.00,322.0,10.0,0,0,0,0.0
Fix,GPS,37.4254800000,-122.1582116667,23.900000000000002,0.0,5.5,0.0,1732153407000,2.1,179.9,32291092000000,100.0,0,,,
Raw,1732153407000,18479000000,,701202.1796759143,-1416188606521999872,0.0,173.08177525881504,1203.0098412090683,0.0,0,15,0.0,16431,351824924118032,396,22.391000747680664,688.541835581985,0.14999,16,0.0,0.0,1575420030,,,,0,4.617299791194779,1,6.0,22.391000747680664,0.0,0.0,0.0,66.7128,C,32291092000000,
Raw,1732153407000,18479000000,,701202.1796759143,-1416188606521999872,0.0,173.08177525881504,1203.0098412090683,0.0,0,30,0.0,16431,351824923685656,396,27.045000076293945,964.6517758430564,0.14999,16,0.0,0.0,1575420030,,,,0,12.807737415631834,1,6.0,27.045000076293945,0.0,0.0,0.0,66.7128,C,32291092000000,
Raw,1732153407000,18479000000,,701202.1796759143,-1416188606521999872,0.0,173.08177525881504,1203.0098412090683,0.0,0,13,0.0,16431,351824927170626,487,22.857999801635742,862.9070080904858,0.14999,16,0.0,0.0,1575420030,,,,0,6.878090057366624,1,6.0,22.857999801635742,0.0,0.0,0.0,66.7128,C,32291092000000,
Raw,1732153407000,18479000000,,701202.1796759143,-1416188606521999872,0.0,173.08177525881504,1203.0098412090683,0.0,0,6,0.0,16431,351824922375413,396,25.10300064086914,-283.29589578843644,0.14999,16,0.0,0.0,1575420030,,,,0,10.155226110140015,1,6.0,25.10300064086914,0.0,0.0,0.0,66.7128,C,32291092000000,
Fix,FLP,37.4254766000,-122.1582124000,2.537577491495937,0.2527054,7.953,0.00000001046031,1732153407244,2.1,179.9,32291092000000,9.708056,0,,,
Status,1732153407000,26,0,1,19,1575420030,0.00,205.0,73.0,0,0,0,0.0
Status,1732153407000,26,1,1,17,1575420030,0.00,51.0,70.0,0,0,0,0.0
Status,1732153407000,26,2,1,22,1575420030,0.00,36.0,61.0,0,0,0,0.0
Status,1732153407000,26,3,1,14,1575420030,0.00,65.0,45.0,0,0,0,0.0
Status,1732153407000,26,4,2,133,1575420030,0.00,191.0,45.0,0,0,0,0.0
Status,1732153407000,26,5,1,13,1575420030,24.90,223.0,39.0,1,0,0,19.9
Status,1732153407000,26,6,1,15,1575420030,27.30,262.0,27.0,1,0,0,22.3
Status,1732153407000,26,7,1,30,1575420030,27.50,138.0,26.0,1,0,0,22.5
Status,1732153407000,26,8,1,24,1575420030,0.00,313.0,26.0,0,0,0,0.0
Status,1732153407000,26,9,1,6,1575420030,29.80,157.0,22.0,1,0,0,24.8
Status,1732153407000,26,10,1,2,1575420030,0.00,39.0,12.0,0,0,0,0.0
Status,1732153407000,26,11,1,12,1575420030,22.80,274.0,6.0,0,0,0,17.8
Status,1732153407000,26,12,3,20,1602000000,0.00,89.0,59.0,0,0,0,0.0
Status,1732153407000,26,13,3,11,1602000000,0.00,321.0,36.0,0,0,0,0.0
Status,1732153407000,26,14,3,9,1602000000,0.00,94.0,26.0,0,0,0,0.0
Status,1732153407000,26,15,3,8,1602000000,0.00,237.0,13.0,0,0,0,0.0
Status,1732153407000,26,16,3,19,1602000000,0.00,26.0,13.0,0,0,0,0.0
Status,1732153407000,26,17,6,21,1575420030,0.00,7.0,67.0,0,0,0,0.0
Status,1732153407000,26,18,6,19,1575420030,0.00,233.0,39.0,0,0,0,0.0
Status,1732153407000,26,19,6,13,1575420030,0.00,112.0,36.0,0,0,0,0.0
Status,1732153407000,26,20,6,27,1575420030,0.00,72.0,28.0,0,0,0,0.0
Status,1732153407000,26,21,6,4,1575420030,23.40,303.0,26.0,1,0,0,18.4
Status,1732153407000,26,22,6,15,1575420030,0.00,53.0,23.0,0,0,0,0.0
Status,1732153407000,26,23,6,29,1575420030,0.00,189.0,16.0,0,0,0,0.0
Status,1732153407000,26,24,6,26,1575420030,0.00,164.0,14.0,0,0,0,0.0
Status,1732153407000,26,25,6,6,1575420030,0.00,322.0,10.0,0,0,0,0.0
Fix,GPS,37.4254783333,-122.1582100000,23.900000000000002,0.0,5.4,0.0,1732153408000,2.0,179.9,32292092000000,100.0,0,,,
Fix,FLP,37.4254784000,-122.1582113000,2.7000188349214507,0.23278834,7.588,0.000000021997124,1732153408245,2.0,179.9,32292092000000,9.02661,0,,,
Raw,1732153408000,19479000000,,701163.0901335083,-1416188606521999872,0.0,159.45160047204666,1199.6995165378107,0.0,0,15,0.0,16431,351825924115734,487,22.33099937438965,687.4924793350375,0.14999,16,0.0,0.0,1575420030,,,,0,4.216957520757036,1,6.0,22.33099937438965,0.0,0.0,0.0,66.7128,C,32292092000000,
Raw,1732153408000,19479000000,,701163.0901335083,-1416188606521999872,0.0,159.45160047204666,1199.6995165378107,0.0,0,30,0.0,16431,351825923682435,487,22.482999801635742,963.6142664922427,0.14999,16,0.0,0.0,1575420030,,,,0,6.317515585361752,1,6.0,22.482999801635742,0.0,0.0,0.0,66.7128,C,32292092000000,
Raw,1732153408000,19479000000,,701163.0901335083,-1416188606521999872,0.0,159.45160047204666,1199.6995165378107,0.0,0,13,0.0,16431,351825927167751,487,19.933000564575195,862.0107323249521,0.14999,16,0.0,0.0,1575420030,,,,0,2.0924020629831093,1,6.0,19.933000564575195,0.0,0.0,0.0,66.7128,C,32292092000000,
Raw,1732153408000,19479000000,,701163.0901335083,-1416188606521999872,0.0,159.45160047204666,1199.6995165378107,0.0,0,12,0.0,17,532928,487,17.836000442504883,-185.24596587708987,0.14999,16,0.0,0.0,1575420030,,,,0,0.0,1,6.0,17.836000442504883,0.0,0.0,0.0,66.7128,C,32292092000000,
Raw,1732153408000,19479000000,,701163.0901335083,-1416188606521999872,0.0,159.45160047204666,1199.6995165378107,0.0,0,4,0.0,16431,351825912998720,487,18.399999618530273,222.40229216028936,0.14999,16,0.0,0.0,1575420030,,,,0,1.5527322692712389,6,6.0,18.399999618530273,0.0,0.0,-49.6254841339032,66.7128,C,32292092000000,
Raw,1732153408000,19479000000,,701163.0901335083,-1416188606521999872,0.0,159.45160047204666,1199.6995165378107,0.0,0,6,0.0,16431,351825922376362,396,24.77199935913086,-284.64569861301743,0.14999,16,0.0,0.0,1575420030,,,,0,9.687901743655763,1,6.0,24.77199935913086,0.0,0.0,0.0,66.7128,C,32292092000000,
Status,1732153408000,26,0,1,19,1575420030,0.00,205.0,73.0,0,0,0,0.0
Status,1732153408000,26,1,1,17,1575420030,0.00,51.0,70.0,0,0,0,0.0
Status,1732153408000,26,2,1,22,1575420030,0.00,36.0,61.0,0,0,0,0.0
Status,1732153408000,26,3,1,14,1575420030,0.00,65.0,45.0,0,0,0,0.0
Status,1732153408000,26,4,2,133,1575420030,0.00,191.0,45.0,0,0,0,0.0
Status,1732153408000,26,5,1,13,1575420030,29.90,223.0,39.0,1,0,0,24.9
Status,1732153408000,26,6,1,15,1575420030,27.30,262.0,27.0,1,0,0,22.3
Status,1732153408000,26,7,1,30,1575420030,32.10,138.0,26.0,1,0,0,27.099998
Status,1732153408000,26,8,1,24,1575420030,0.00,313.0,26.0,0,0,0,0.0
Status,1732153408000,26,9,1,6,1575420030,28.50,157.0,22.0,1,0,0,23.5
Status,1732153408000,26,10,1,2,1575420030,0.00,39.0,12.0,0,0,0,0.0
Status,1732153408000,26,11,1,12,1575420030,27.20,274.0,6.0,0,0,0,22.2
Status,1732153408000,26,12,3,20,1602000000,0.00,89.0,59.0,0,0,0,0.0
Status,1732153408000,26,13,3,11,1602000000,0.00,321.0,36.0,0,0,0,0.0
Status,1732153408000,26,14,3,9,1602000000,0.00,94.0,26.0,0,0,0,0.0
Status,1732153408000,26,15,3,8,1602000000,0.00,237.0,13.0,0,0,0,0.0
Status,1732153408000,26,16,3,19,1602000000,0.00,26.0,13.0,0,0,0,0.0
Status,1732153408000,26,17,6,21,1575420030,0.00,7.0,67.0,0,0,0,0.0
Status,1732153408000,26,18,6,19,1575420030,0.00,233.0,39.0,0,0,0,0.0
Status,1732153408000,26,19,6,13,1575420030,0.00,112.0,36.0,0,0,0,0.0
Status,1732153408000,26,20,6,27,1575420030,0.00,72.0,28.0,0,0,0,0.0
Status,1732153408000,26,21,6,4,1575420030,23.40,303.0,26.0,1,0,0,18.4
Status,1732153408000,26,22,6,15,1575420030,0.00,53.0,23.0,0,0,0,0.0
Status,1732153408000,26,23,6,29,1575420030,0.00,189.0,16.0,0,0,0,0.0
Status,1732153408000,26,24,6,26,1575420030,0.00,164.0,14.0,0,0,0,0.0
Status,1732153408000,26,25,6,6,1575420030,0.00,322.0,10.0,0,0,0,0.0
Fix,GPS,37.4254883333,-122.1581983333,23.900000000000002,0.0,5.4,0.0,1732153409000,2.0,179.9,32293092000000,100.0,0,,,
Fix,FLP,37.4254841000,-122.1582055000,2.6002292473395534,0.23748352,5.528,0.0000001154982,1732153409244,2.0,179.9,32293092000000,9.202622,0,,,
Raw,1732153409000,20479000000,,701086.9958242913,-1416188606521999872,0.0,154.68721893088002,1195.102453968399,0.0,0,15,0.0,16431,351826924113438,487,22.266000747680664,686.2640723520146,0.14999,16,0.0,0.0,1575420030,,,,0,3.9675847095650747,1,6.0,22.266000747680664,0.0,0.0,0.0,66.7128,C,32293092000000,
Raw,1732153409000,20479000000,,701086.9958242913,-1416188606521999872,0.0,154.68721893088002,1195.102453968399,0.0,0,30,0.0,16431,351826923679222,235,27.066999435424805,961.703153083006,0.14999,16,0.0,0.0,1575420030,,,,0,12.83816087804249,1,6.0,27.066999435424805,0.0,0.0,0.0,66.7128,C,32293092000000,
Raw,1732153409000,20479000000,,701086.9958242913,-1416188606521999872,0.0,154.68721893088002,1195.102453968399,0.0,0,13,0.0,16431,351826927164846,316,24.882999420166016,860.8940578329156,0.14999,16,0.0,0.0,1575420030,,,,0,9.860760973725888,1,6.0,24.882999420166016,0.0,0.0,0.0,66.7128,C,32293092000000,
Raw,1732153409000,20479000000,,701086.9958242913,-1416188606521999872,0.0,154.68721893088002,1195.102453968399,0.0,0,12,0.0,17,533600,396,22.173999786376953,-186.74963897616016,0.14999,16,0.0,0.0,1575420030,,,,0,5.786914634580768,1,6.0,22.173999786376953,0.0,0.0,0.0,66.7128,C,32293092000000,
Raw,1732153409000,20479000000,,701086.9958242913,-1416188606521999872,0.0,154.68721893088002,1195.102453968399,0.0,0,4,0.0,16431,351826912997978,797,18.399999618530273,222.09148535584086,0.14999,16,0.0,0.0,1575420030,,,,0,1.5527322692712389,6,6.0,18.399999618530273,0.0,0.0,-49.6254841339032,66.7128,C,32293092000000,
Raw,1732153409000,20479000000,,701086.9958242913,-1416188606521999872,0.0,154.68721893088002,1195.102453968399,0.0,0,6,0.0,16431,351826922377314,396,23.513999938964844,-286.1472810833582,0.14999,16,0.0,0.0,1575420030,,,,0,7.847357736098625,1,6.0,23.513999938964844,0.0,0.0,0.0,66.7128,C,32293092000000,
Status,1732153409000,26,0,1,19,1575420030,0.00,205.0,73.0,0,0,0,0.0
Status,1732153409000,26,1,1,17,1575420030,0.00,51.0,70.0,0,0,0,0.0
Status,1732153409000,26,2,1,22,1575420030,0.00,36.0,61.0,0,0,0,0.0
Status,1732153409000,26,3,1,14,1575420030,0.00,65.0,45.0,0,0,0,0.0
Status,1732153409000,26,4,2,133,1575420030,0.00,191.0,45.0,0,0,0,0.0
Status,1732153409000,26,5,1,13,1575420030,28.50,223.0,39.0,1,0,0,23.5
Status,1732153409000,26,6,1,24,1575420030,0.00,313.0,27.0,0,0,0,0.0
Status,1732153409000,26,7,1,15,1575420030,22.50,262.0,27.0,1,0,0,17.5
Status,1732153409000,26,8,1,30,1575420030,30.50,138.0,26.0,1,0,0,25.5
Status,1732153409000,26,9,1,6,1575420030,27.40,157.0,22.0,1,0,0,22.4
Status,1732153409000,26,10,1,2,1575420030,0.00,39.0,12.0,0,0,0,0.0
Status,1732153409000,26,11,1,12,1575420030,25.50,274.0,6.0,0,0,0,20.5
Status,1732153409000,26,12,3,20,1602000000,0.00,89.0,59.0,0,0,0,0.0
Status,1732153409000,26,13,3,11,1602000000,0.00,321.0,36.0,0,0,0,0.0
Status,1732153409000,26,14,3,9,1602000000,0.00,94.0,26.0,0,0,0,0.0
Status,1732153409000,26,15,3,8,1602000000,0.00,237.0,13.0,0,0,0,0.0
Status,1732153409000,26,16,3,19,1602000000,0.00,26.0,13.0,0,0,0,0.0
Status,1732153409000,26,17,6,21,1575420030,0.00,7.0,67.0,0,0,0,0.0
Status,1732153409000,26,18,6,19,1575420030,0.00,233.0,39.0,0,0,0,0.0
Status,1732153409000,26,19,6,13,1575420030,0.00,112.0,36.0,0,0,0,0.0
Status,1732153409000,26,20,6,27,1575420030,0.00,72.0,28.0,0,0,0,0.0
Status,1732153409000,26,21,6,4,1575420030,16.80,303.0,26.0,1,0,0,11.799999
Status,1732153409000,26,22,6,15,1575420030,0.00,53.0,23.0,0,0,0,0.0
Status,1732153409000,26,23,6,29,1575420030,0.00,189.0,16.0,0,0,0,0.0
Status,1732153409000,26,24,6,26,1575420030,0.00,164.0,14.0,0,0,0,0.0
Status,1732153409000,26,25,6,6,1575420030,0.00,322.0,10.0,0,0,0,0.0
Fix,GPS,37.4254833333,-122.1581983333,23.900000000000002,0.0,5.4,0.0,1732153410000,1.9,179.9,32294092000000,100.0,0,,,
Fix,FLP,37.4254847000,-122.1582022000,2.6831909420706888,0.21435866,5.485,0.00000007019856,1732153410244,1.9,179.9,32294092000000,8.548607,0,,,
Raw,1732153410000,21479000000,,701053.1182208727,-1416188606521999872,0.0,154.67735747405558,1189.5239891562708,0.0,0,15,0.0,16431,351827924111150,487,17.506999969482422,684.9486952138457,0.14999,16,0.0,0.0,1575420030,,,,0,0.0,1,6.0,17.506999969482422,0.0,0.0,0.0,66.7128,C,32294092000000,
Raw,1732153410000,21479000000,,701053.1182208727,-1416188606521999872,0.0,154.67735747405558,1189.5239891562708,0.0,0,30,0.0,16431,351827923676017,487,25.472999572753906,960.612866971377,0.14999,16,0.0,0.0,1575420030,,,,0,10.676937476424843,1,6.0,25.472999572753906,0.0,0.0,0.0,66.7128,C,32294092000000,
Raw,1732153410000,21479000000,,701053.1182208727,-1416188606521999872,0.0,154.67735747405558,1189.5239891562708,0.0,0,13,0.0,16431,351827927161990,487,23.513999938964844,859.1807643599033,0.14999,16,0.0,0.0,1575420030,,,,0,7.847357736098625,1,6.0,23.513999938964844,0.0,0.0,0.0,66.7128,C,32294092000000,
Raw,1732153410000,21479000000,,701053.1182208727,-1416188606521999872,0.0,154.67735747405558,1189.5239891562708,0.0,0,12,0.0,17,534185,487,20.464000701904297,-187.8425732175131,0.14999,16,0.0,0.0,1575420030,,,,0,2.986596762372736,1,6.0,20.464000701904297,0.0,0.0,0.0,66.7128,C,32294092000000,
Raw,1732153410000,21479000000,,701053.1182208727,-1416188606521999872,0.0,154.67735747405558,1189.5239891562708,0.0,0,4,0.0,16431,351827912997255,1837,11.800000190734863,220.93371839466613,0.14999,16,0.0,0.0,1575420030,,,,0,0.0,6,6.0,11.800000190734863,0.0,0.0,-49.6254841339032,66.7128,C,32294092000000,
Raw,1732153410000,21479000000,,701053.1182208727,-1416188606521999872,0.0,154.67735747405558,1189.5239891562708,0.0,0,6,0.0,16431,351827922378269,487,22.445999145507812,-287.55204421431625,0.14999,16,0.0,0.0,1575420030,,,,0,6.252936182757782,1,6.0,22.445999145507812,0.0,0.0,0.0,66.7128,C,32294092000000,
Fix,FLP,37.4254846000,-122.1582006000,2.6831909420706888,0.19587526,5.457,0.00000004593866,1732153410832,1.9,179.9,32294679000000,9.853701,0,,,
Fix,NLP,37.4256986000,-122.1581081000,5.400000095367432,,87.6,,1732153410832,,,32294679000000,22.655426,0,,,
Status,1732153410000,26,0,1,19,1575420030,0.00,205.0,73.0,0,0,0,0.0
Status,1732153410000,26,1,1,17,1575420030,0.00,51.0,70.0,0,0,0,0.0
Status,1732153410000,26,2,1,22,1575420030,0.00,36.0,61.0,0,0,0,0.0
Status,1732153410000,26,3,1,14,1575420030,0.00,65.0,45.0,0,0,0,0.0
Status,1732153410000,26,4,2,133,1575420030,0.00,191.0,45.0,0,0,0,0.0
Status,1732153410000,26,5,1,13,1575420030,28.50,223.0,39.0,1,0,0,23.5
Status,1732153410000,26,6,1,24,1575420030,0.00,313.0,27.0,0,0,0,0.0
Status,1732153410000,26,7,1,15,1575420030,26.40,262.0,27.0,1,0,0,21.4
Status,1732153410000,26,8,1,30,1575420030,26.30,138.0,26.0,1,0,0,21.3
Status,1732153410000,26,9,1,6,1575420030,23.80,157.0,22.0,1,0,0,18.8
Status,1732153410000,26,10,1,2,1575420030,21.30,39.0,12.0,1,0,0,16.3
Status,1732153410000,26,11,1,12,1575420030,22.30,274.0,6.0,0,0,0,17.3
Status,1732153410000,26,12,3,20,1602000000,0.00,89.0,59.0,0,0,0,0.0
Status,1732153410000,26,13,3,11,1602000000,0.00,321.0,36.0,0,0,0,0.0
Status,1732153410000,26,14,3,9,1602000000,0.00,94.0,26.0,0,0,0,0.0
Status,1732153410000,26,15,3,8,1602000000,0.00,237.0,13.0,0,0,0,0.0
Status,1732153410000,26,16,3,19,1602000000,0.00,26.0,13.0,0,0,0,0.0
Status,1732153410000,26,17,6,21,1575420030,0.00,7.0,67.0,0,0,0,0.0
Status,1732153410000,26,18,6,19,1575420030,0.00,233.0,39.0,0,0,0,0.0
Status,1732153410000,26,19,6,13,1575420030,0.00,112.0,36.0,0,0,0,0.0
Status,1732153410000,26,20,6,27,1575420030,0.00,72.0,28.0,0,0,0,0.0
Status,1732153410000,26,21,6,4,1575420030,16.80,303.0,26.0,1,0,0,11.799999
Status,1732153410000,26,22,6,15,1575420030,0.00,53.0,23.0,0,0,0,0.0
Status,1732153410000,26,23,6,29,1575420030,0.00,189.0,16.0,0,0,0,0.0
Status,1732153410000,26,24,6,26,1575420030,0.00,164.0,14.0,0,0,0,0.0
Status,1732153410000,26,25,6,6,1575420030,0.00,322.0,10.0,0,0,0,0.0
Fix,GPS,37.4254733333,-122.1582000000,23.900000000000002,0.0,5.3,0.0,1732153411000,1.8,179.9,32295092000000,100.0,0,,,
Raw,1732153411000,22479000000,,701013.8723202969,-1416188606521999872,0.0,151.7537091015085,1185.453469698793,0.0,0,15,0.0,16431,351828924108865,487,21.37299919128418,683.4105964283634,0.14999,16,0.0,0.0,1575420030,,,,0,4.538693918626131,1,6.0,21.37299919128418,0.0,0.0,0.0,66.7128,C,32295092000000,
Raw,1732153411000,22479000000,,701013.8723202969,-1416188606521999872,0.0,151.7537091015085,1185.453469698793,0.0,0,30,0.0,16431,351828923672814,487,21.284000396728516,959.503811659599,0.14999,16,0.0,0.0,1575420030,,,,0,4.379315325200624,1,6.0,21.284000396728516,0.0,0.0,0.0,66.7128,C,32295092000000,
Raw,1732153411000,22479000000,,701013.8723202969,-1416188606521999872,0.0,151.7537091015085,1185.453469698793,0.0,0,13,0.0,16431,351828927159125,487,23.513999938964844,858.521798184373,0.14999,16,0.0,0.0,1575420030,,,,0,7.847357736098625,1,6.0,23.513999938964844,0.0,0.0,0.0,66.7128,C,32295092000000,
Raw,1732153411000,22479000000,,701013.8723202969,-1416188606521999872,0.0,151.7537091015085,1185.453469698793,0.0,0,12,0.0,17,534813,487,17.341999053955078,-188.58098328476336,0.14999,16,0.0,0.0,1575420030,,,,0,0.0,1,6.0,17.341999053955078,0.0,0.0,0.0,66.7128,C,32295092000000,
Raw,1732153411000,22479000000,,701013.8723202969,-1416188606521999872,0.0,151.7537091015085,1185.453469698793,0.0,0,4,0.0,16431,351828912996520,1797,11.800000190734863,219.70598505867835,0.14999,16,0.0,0.0,1575420030,,,,0,0.0,6,6.0,11.800000190734863,0.0,0.0,-48.41165631786535,66.7128,C,32295092000000,
Raw,1732153411000,22479000000,,701013.8723202969,-1416188606521999872,0.0,151.7537091015085,1185.453469698793,0.0,0,2,0.0,16431,351828917187705,797,16.30299949645996,821.8433431703152,0.14999,16,0.0,0.0,1575420030,,,,0,0.0,1,6.0,16.30299949645996,0.0,0.0,0.0,66.7128,C,32295092000000,
Raw,1732153411000,22479000000,,701013.8723202969,-1416188606521999872,0.0,151.7537091015085,1185.453469698793,0.0,0,6,0.0,16431,351828922379229,797,18.844999313354492,-288.3306872700049,0.14999,16,0.0,0.0,1575420030,,,,0,0.10171892629900459,1,6.0,18.844999313354492,0.0,0.0,0.0,66.7128,C,32295092000000,
Fix,FLP,37.4254807000,-122.1582004000,2.782980529652586,0.16282815,5.414,0.000000010079559,1732153411244,1.8,179.9,32295092000000,9.92597,0,,,
Status,1732153411000,26,0,1,19,1575420030,0.00,205.0,73.0,0,0,0,0.0
Status,1732153411000,26,1,1,17,1575420030,0.00,51.0,70.0,0,0,0,0.0
Status,1732153411000,26,2,1,22,1575420030,0.00,36.0,61.0,0,0,0,0.0
Status,1732153411000,26,3,1,14,1575420030,0.00,65.0,45.0,0,0,0,0.0
Status,1732153411000,26,4,2,133,1575420030,0.00,191.0,45.0,0,0,0,0.0
Status,1732153411000,26,5,1,13,1575420030,28.50,223.0,39.0,1,0,0,23.5
Status,1732153411000,26,6,1,24,1575420030,0.00,313.0,27.0,0,0,0,0.0
Status,1732153411000,26,7,1,15,1575420030,26.30,262.0,27.0,1,0,0,21.3
Status,1732153411000,26,8,1,30,1575420030,25.20,138.0,26.0,1,0,0,20.2
Status,1732153411000,26,9,1,6,1575420030,23.80,157.0,22.0,1,0,0,18.8
Status,1732153411000,26,10,1,2,1575420030,21.30,39.0,12.0,1,0,0,16.3
Status,1732153411000,26,11,1,12,1575420030,23.90,274.0,6.0,0,0,0,18.9
Status,1732153411000,26,12,3,20,1602000000,0.00,89.0,59.0,0,0,0,0.0
Status,1732153411000,26,13,3,11,1602000000,0.00,321.0,36.0,0,0,0,0.0
Status,1732153411000,26,14,3,9,1602000000,0.00,94.0,26.0,0,0,0,0.0
Status,1732153411000,26,15,3,8,1602000000,0.00,237.0,13.0,0,0,0,0.0
Status,1732153411000,26,16,3,19,1602000000,0.00,26.0,13.0,0,0,0,0.0
Status,1732153411000,26,17,6,21,1575420030,0.00,7.0,67.0,0,0,0,0.0
Status,1732153411000,26,18,6,19,1575420030,0.00,233.0,39.0,0,0,0,0.0
Status,1732153411000,26,19,6,13,1575420030,0.00,112.0,36.0,0,0,0,0.0
Status,1732153411000,26,20,6,27,1575420030,0.00,72.0,28.0,0,0,0,0.0
Status,1732153411000,26,21,6,4,1575420030,16.80,303.0,26.0,1,0,0,11.799999
Status,1732153411000,26,22,6,15,1575420030,0.00,53.0,23.0,0,0,0,0.0
Status,1732153411000,26,23,6,29,1575420030,0.00,189.0,16.0,0,0,0,0.0
Status,1732153411000,26,24,6,26,1575420030,0.00,164.0,14.0,0,0,0,0.0
Status,1732153411000,26,25,6,6,1575420030,0.00,322.0,10.0,0,0,0,0.0
Fix,GPS,37.4254633333,-122.1582033333,23.900000000000002,0.0,5.3,0.0,1732153412000,1.8,179.9,32296092000000,100.0,0,,,
Fix,FLP,37.4254736000,-122.1582017000,2.8664520135467715,0.117743134,5.385,0.0,1732153412244,1.8,179.9,32296092000000,10.007789,0,,,
Raw,1732153412000,23479000000,,700976.2421208074,-1416188606521999872,0.0,151.82340097122133,1182.0713275561657,0.0,0,15,0.0,16431,351829924106588,487,21.256000518798828,682.9389041285779,0.14999,16,0.0,0.0,1575420030,,,,0,0.4878220302067371,1,6.0,21.256000518798828,0.0,0.0,0.0,66.7128,C,32296092000000,
Raw,1732153412000,23479000000,,700976.2421208074,-1416188606521999872,0.0,151.82340097122133,1182.0713275561657,0.0,0,30,0.0,16431,351829923669615,797,20.152000427246094,958.5168490656224,0.14999,16,0.0,0.0,1575420030,,,,0,2.501225267834001,1,6.0,20.152000427246094,0.0,0.0,0.0,66.7128,C,32296092000000,
Raw,1732153412000,23479000000,,700976.2421208074,-1416188606521999872,0.0,151.82340097122133,1182.0713275561657,0.0,0,13,0.0,16431,351829927156262,487,23.513999938964844,858.2091330432761,0.14999,16,0.0,0.0,1575420030,,,,0,7.847357736098625,1,6.0,23.513999938964844,0.0,0.0,0.0,66.7128,C,32296092000000,
Raw,1732153412000,23479000000,,700976.2421208074,-1416188606521999872,0.0,151.82340097122133,1182.0713275561657,0.0,0,12,0.0,17,535446,487,18.90999984741211,-189.45700318082928,0.14999,16,0.0,0.0,1575420030,,,,0,0.232336269478159,1,6.0,18.90999984741211,0.0,0.0,0.0,66.7128,C,32296092000000,
Raw,1732153412000,23479000000,,700976.2421208074,-1416188606521999872,0.0,151.82340097122133,1182.0713275561657,0.0,0,4,0.0,16431,351829912995789,797,11.800000190734863,218.8434381033135,0.14999,16,0.0,0.0,1575420030,,,,0,0.0,6,6.0,11.800000190734863,0.0,0.0,-47.367579603891244,66.7128,C,32296092000000,
Raw,1732153412000,23479000000,,700976.2421208074,-1416188606521999872,0.0,151.82340097122133,1182.0713275561657,0.0,0,2,0.0,16431,351829917184966,797,16.30299949645996,820.982282884269,0.14999,16,0.0,0.0,1575420030,,,,0,0.0,1,6.0,16.30299949645996,0.0,0.0,0.0,66.7128,C,32296092000000,
Raw,1732153412000,23479000000,,700976.2421208074,-1416188606521999872,0.0,151.82340097122133,1182.0713275561657,0.0,0,6,0.0,16431,351829922380193,797,18.844999313354492,-289.25753267340514,0.14999,16,0.0,0.0,1575420030,,,,0,0.10171892629900459,1,6.0,18.844999313354492,0.0,0.0,0.0,66.7128,C,32296092000000,
Status,1732153412000,26,0,1,19,1575420030,0.00,205.0,73.0,0,0,0,0.0
Status,1732153412000,26,1,1,17,1575420030,0.00,51.0,70.0,0,0,0,0.0
Status,1732153412000,26,2,1,22,1575420030,0.00,36.0,61.0,0,0,0,0.0
Status,1732153412000,26,3,1,14,1575420030,0.00,65.0,45.0,0,0,0,0.0
Status,1732153412000,26,4,2,133,1575420030,0.00,191.0,45.0,0,0,0,0.0
Status,1732153412000,26,5,1,13,1575420030,23.40,223.0,39.0,1,0,0,18.4
Status,1732153412000,26,6,1,24,1575420030,0.00,313.0,27.0,0,0,0,0.0
Status,1732153412000,26,7,1,15,1575420030,26.20,262.0,27.0,1,0,0,21.2
Status,1732153412000,26,8,1,30,1575420030,25.20,138.0,26.0,1,0,0,20.2
Status,1732153412000,26,9,1,6,1575420030,23.80,157.0,22.0,1,0,0,18.8
Status,1732153412000,26,10,1,2,1575420030,19.90,39.0,12.0,1,0,0,14.9
Status,1732153412000,26,11,1,12,1575420030,22.00,274.0,6.0,0,0,0,17.0
Status,1732153412000,26,12,3,20,1602000000,0.00,89.0,59.0,0,0,0,0.0
Status,1732153412000,26,13,3,11,1602000000,0.00,321.0,36.0,0,0,0,0.0
Status,1732153412000,26,14,3,9,1602000000,0.00,94.0,26.0,0,0,0,0.0
Status,1732153412000,26,15,3,8,1602000000,0.00,237.0,13.0,0,0,0,0.0
Status,1732153412000,26,16,3,19,1602000000,0.00,26.0,13.0,0,0,0,0.0
Status,1732153412000,26,17,6,21,1575420030,0.00,7.0,67.0,0,0,0,0.0
Status,1732153412000,26,18,6,19,1575420030,0.00,233.0,39.0,0,0,0,0.0
Status,1732153412000,26,19,6,13,1575420030,0.00,112.0,36.0,0,0,0,0.0
Status,1732153412000,26,20,6,27,1575420030,0.00,72.0,28.0,0,0,0,0.0
Status,1732153412000,26,21,6,4,1575420030,16.80,303.0,26.0,1,0,0,11.799999
Status,1732153412000,26,22,6,15,1575420030,0.00,53.0,23.0,0,0,0,0.0
Status,1732153412000,26,23,6,29,1575420030,0.00,189.0,16.0,0,0,0,0.0
Status,1732153412000,26,24,6,26,1575420030,0.00,164.0,14.0,0,0,0,0.0
Status,1732153412000,26,25,6,6,1575420030,0.00,322.0,10.0,0,0,0,0.0
Fix,GPS,37.4253733333,-122.1582716667,23.900000000000002,0.0,5.1,0.0,1732153413000,1.7,107.0,32297092000000,100.0,0,,,
Fix,FLP,37.4254251000,-122.1582345000,3.1168714107347615,0.08198838,5.328,,1732153413244,1.7,,32297092000000,9.583036,0,,,
Raw,1732153413000,24479000000,,700931.1588485659,-1416188606521999872,0.0,146.39840361850065,1179.773522811188,0.0,0,15,0.0,16431,351830924104309,487,21.236000061035156,682.2014232296517,0.14999,16,0.0,0.0,1575420030,,,,0,3.71084021546163,1,6.0,21.236000061035156,0.0,0.0,0.0,66.7128,C,32297092000000,
Raw,1732153413000,24479000000,,700931.1588485659,-1416188606521999872,0.0,146.39840361850065,1179.773522811188,0.0,0,30,0.0,16431,351830923666419,797,20.152000427246094,958.4432589343448,0.14999,16,0.0,0.0,1575420030,,,,0,2.501225267834001,1,6.0,20.152000427246094,0.0,0.0,0.0,66.7128,C,32297092000000,
Raw,1732153413000,24479000000,,700931.1588485659,-1416188606521999872,0.0,146.39840361850065,1179.773522811188,0.0,0,13,0.0,16431,351830927153401,396,18.43199920654297,857.9065029200807,0.14999,16,0.0,0.0,1575420030,,,,0,0.0,1,6.0,18.43199920654297,0.0,0.0,0.0,66.7128,C,32297092000000,
Raw,1732153413000,24479000000,,700931.1588485659,-1416188606521999872,0.0,146.39840361850065,1179.773522811188,0.0,0,12,0.0,17,536083,487,16.982999801635742,-190.63518861592854,0.14999,16,0.0,0.0,1575420030,,,,0,0.0,1,6.0,16.982999801635742,0.0,0.0,0.0,66.7128,C,32297092000000,
Raw,1732153413000,24479000000,,700931.1588485659,-1416188606521999872,0.0,146.39840361850065,1179.773522811188,0.0,0,4,0.0,16431,351830912995060,487,11.800000190734863,218.26791124329736,0.14999,16,0.0,0.0,1575420030,,,,0,0.0,6,6.0,11.800000190734863,0.0,0.0,-47.367579603891244,66.7128,C,32297092000000,
Raw,1732153413000,24479000000,,700931.1588485659,-1416188606521999872,0.0,146.39840361850065,1179.773522811188,0.0,0,2,0.0,16431,351830917182188,797,14.899999618530273,821.2109512088573,0.14999,16,0.0,0.0,1575420030,,,,0,0.0,1,6.0,14.899999618530273,0.0,0.0,0.0,66.7128,C,32297092000000,
Raw,1732153413000,24479000000,,700931.1588485659,-1416188606521999872,0.0,146.39840361850065,1179.773522811188,0.0,0,6,0.0,16431,351830922381159,797,18.844999313354492,-289.90599924687183,0.14999,16,0.0,0.0,1575420030,,,,0,0.10171892629900459,1,6.0,18.844999313354492,0.0,0.0,0.0,66.7128,C,32297092000000,
Status,1732153413000,26,0,1,19,1575420030,0.00,205.0,73.0,0,0,0,0.0
Status,1732153413000,26,1,1,17,1575420030,0.00,51.0,70.0,0,0,0,0.0
Status,1732153413000,26,2,1,22,1575420030,0.00,36.0,61.0,0,0,0,0.0
Status,1732153413000,26,3,1,14,1575420030,0.00,65.0,45.0,0,0,0,0.0
Status,1732153413000,26,4,2,133,1575420030,0.00,191.0,45.0,0,0,0,0.0
Status,1732153413000,26,5,1,13,1575420030,27.80,223.0,39.0,1,0,0,22.8
Status,1732153413000,26,6,1,24,1575420030,0.00,313.0,27.0,0,0,0,0.0
Status,1732153413000,26,7,1,15,1575420030,26.20,262.0,27.0,1,0,0,21.2
Status,1732153413000,26,8,1,30,1575420030,25.10,138.0,26.0,1,0,0,20.1
Status,1732153413000,26,9,1,6,1575420030,23.80,157.0,22.0,1,0,0,18.8
Status,1732153413000,26,10,1,2,1575420030,0.00,39.0,12.0,0,0,0,0.0
Status,1732153413000,26,11,1,12,1575420030,19.60,274.0,6.0,0,0,0,14.6
Status,1732153413000,26,12,3,20,1602000000,0.00,89.0,59.0,0,0,0,0.0
Status,1732153413000,26,13,3,11,1602000000,0.00,321.0,36.0,0,0,0,0.0
Status,1732153413000,26,14,3,9,1602000000,0.00,94.0,26.0,0,0,0,0.0
Status,1732153413000,26,15,3,8,1602000000,0.00,237.0,13.0,0,0,0,0.0
Status,1732153413000,26,16,3,19,1602000000,0.00,26.0,13.0,0,0,0,0.0
Status,1732153413000,26,17,6,21,1575420030,0.00,7.0,67.0,0,0,0,0.0
Status,1732153413000,26,18,6,19,1575420030,0.00,233.0,39.0,0,0,0,0.0
Status,1732153413000,26,19,6,13,1575420030,0.00,112.0,36.0,0,0,0,0.0
Status,1732153413000,26,20,6,27,1575420030,0.00,72.0,28.0,0,0,0,0.0
Status,1732153413000,26,21,6,4,1575420030,16.80,303.0,26.0,1,0,0,11.799999
Status,1732153413000,26,22,6,15,1575420030,0.00,53.0,23.0,0,0,0,0.0
Status,1732153413000,26,23,6,29,1575420030,0.00,189.0,16.0,0,0,0,0.0
Status,1732153413000,26,24,6,26,1575420030,0.00,164.0,14.0,0,0,0,0.0
Status,1732153413000,26,25,6,6,1575420030,0.00,322.0,10.0,0,0,0,0.0
Fix,GPS,37.4253750000,-122.1582600000,23.900000000000002,0.0,5.1,0.0,1732153414000,1.6,112.3,32298092000000,100.0,0,,,
Fix,FLP,37.4254003000,-122.1582465000,3.283312796853204,0.16414984,5.285,180.0,1732153414245,1.6,112.3,32298092000000,9.519403,0,,,
Raw,1732153414000,25479000000,,700885.1895466964,-1416188606521999872,0.0,146.55207692697647,1178.609629283865,0.0,0,15,0.0,16431,351831924102031,487,21.198999404907227,683.1990712593569,0.14999,16,0.0,0.0,1575420030,,,,0,3.080499186540333,1,6.0,21.198999404907227,0.0,0.0,0.0,66.7128,C,32298092000000,
Raw,1732153414000,25479000000,,700885.1895466964,-1416188606521999872,0.0,146.55207692697647,1178.609629283865,0.0,0,30,0.0,16431,351831923663217,797,20.062000274658203,958.4807044178106,0.14999,16,0.0,0.0,1575420030,,,,0,0.0,1,6.0,20.062000274658203,0.0,0.0,0.0,66.7128,C,32298092000000,
Raw,1732153414000,25479000000,,700885.1895466964,-1416188606521999872,0.0,146.55207692697647,1178.609629283865,0.0,0,13,0.0,16431,351831927150534,487,22.820999145507812,858.0096406040681,0.14999,16,0.0,0.0,1575420030,,,,0,6.817560964762867,1,6.0,22.820999145507812,0.0,0.0,0.0,66.7128,C,32298092000000,
Raw,1732153414000,25479000000,,700885.1895466964,-1416188606521999872,0.0,146.55207692697647,1178.609629283865,0.0,0,12,0.0,17,536718,797,14.600000381469727,-190.47746229289376,0.14999,16,0.0,0.0,1575420030,,,,0,0.0,1,6.0,14.600000381469727,0.0,0.0,0.0,66.7128,C,32298092000000,
Raw,1732153414000,25479000000,,700885.1895466964,-1416188606521999872,0.0,146.55207692697647,1178.609629283865,0.0,0,4,0.0,16431,351831912994333,396,11.800000190734863,218.20602863290492,0.14999,16,0.0,0.0,1575420030,,,,0,0.0,6,6.0,11.800000190734863,0.0,0.0,-47.367579603891244,66.7128,C,32298092000000,
Raw,1732153414000,25479000000,,700885.1895466964,-1416188606521999872,0.0,146.55207692697647,1178.609629283865,0.0,0,6,0.0,16431,351831922382127,797,18.785999298095703,-291.04687857375404,0.14999,16,0.0,0.0,1575420030,,,,0,0.0,1,6.0,18.785999298095703,0.0,0.0,0.0,66.7128,C,32298092000000,
Status,1732153414000,26,0,1,19,1575420030,0.00,205.0,73.0,0,0,0,0.0
Status,1732153414000,26,1,1,17,1575420030,0.00,51.0,70.0,0,0,0,0.0
Status,1732153414000,26,2,1,22,1575420030,0.00,36.0,61.0,0,0,0,0.0
Status,1732153414000,26,3,1,14,1575420030,0.00,65.0,45.0,0,0,0,0.0
Status,1732153414000,26,4,2,133,1575420030,0.00,191.0,45.0,0,0,0,0.0
Status,1732153414000,26,5,1,13,1575420030,27.80,223.0,39.0,1,0,0,22.8
Status,1732153414000,26,6,1,24,1575420030,0.00,313.0,27.0,0,0,0,0.0
Status,1732153414000,26,7,1,15,1575420030,26.10,262.0,27.0,1,0,0,21.1
Status,1732153414000,26,8,1,30,1575420030,25.00,138.0,26.0,1,0,0,20.0
Status,1732153414000,26,9,1,6,1575420030,23.70,157.0,22.0,1,0,0,18.7
Status,1732153414000,26,10,1,2,1575420030,0.00,39.0,12.0,0,0,0,0.0
Status,1732153414000,26,11,1,12,1575420030,19.60,274.0,6.0,0,0,0,14.6
Status,1732153414000,26,12,3,20,1602000000,0.00,89.0,59.0,0,0,0,0.0
Status,1732153414000,26,13,3,11,1602000000,0.00,321.0,36.0,0,0,0,0.0
Status,1732153414000,26,14,3,9,1602000000,0.00,94.0,26.0,0,0,0,0.0
Status,1732153414000,26,15,3,8,1602000000,0.00,237.0,13.0,0,0,0,0.0
Status,1732153414000,26,16,3,19,1602000000,0.00,26.0,13.0,0,0,0,0.0
Status,1732153414000,26,17,6,21,1575420030,0.00,7.0,67.0,0,0,0,0.0
Status,1732153414000,26,18,6,19,1575420030,0.00,233.0,39.0,0,0,0,0.0
Status,1732153414000,26,19,6,13,1575420030,0.00,112.0,36.0,0,0,0,0.0
Status,1732153414000,26,20,6,27,1575420030,0.00,72.0,28.0,0,0,0,0.0
Status,1732153414000,26,21,6,4,1575420030,24.40,303.0,26.0,1,0,0,19.4
Status,1732153414000,26,22,6,15,1575420030,0.00,53.0,23.0,0,0,0,0.0
Status,1732153414000,26,23,6,29,1575420030,0.00,189.0,16.0,0,0,0,0.0
Status,1732153414000,26,24,6,26,1575420030,0.00,164.0,14.0,0,0,0,0.0
Status,1732153414000,26,25,6,6,1575420030,0.00,322.0,10.0,0,0,0,0.0
Fix,GPS,37.4253716667,-122.1582516667,23.900000000000002,0.0,5.1,0.0,1732153415000,1.6,106.9,32299092000000,100.0,0,,,
Fix,FLP,37.4253857000,-122.1582490000,3.4593924291567526,0.19891071,5.242,180.0,1732153415244,1.6,106.9,32299092000000,9.054013,0,,,
Raw,1732153415000,26479000000,,700841.0444234725,-1416188606521999872,0.0,146.9093034287691,1179.664325059025,0.0,0,15,0.0,16431,351832924099750,487,21.09000015258789,683.8869810281863,0.14999,16,0.0,0.0,1575420030,,,,0,0.4878220302067371,1,6.0,21.09000015258789,0.0,0.0,0.0,66.7128,C,32299092000000,
Raw,1732153415000,26479000000,,700841.0444234725,-1416188606521999872,0.0,146.9093034287691,1179.664325059025,0.0,0,30,0.0,16431,351832923660019,797,19.976999282836914,958.6359684447862,0.14999,16,0.0,0.0,1575420030,,,,0,0.0,1,6.0,19.976999282836914,0.0,0.0,0.0,66.7128,C,32299092000000,
Raw,1732153415000,26479000000,,700841.0444234725,-1416188606521999872,0.0,146.9093034287691,1179.664325059025,0.0,0,13,0.0,16431,351832927147672,797,22.820999145507812,858.1070174444453,0.14999,16,0.0,0.0,1575420030,,,,0,6.817560964762867,1,6.0,22.820999145507812,0.0,0.0,0.0,66.7128,C,32299092000000,
Raw,1732153415000,26479000000,,700841.0444234725,-1416188606521999872,0.0,146.9093034287691,1179.664325059025,0.0,0,12,0.0,17,537353,797,14.600000381469727,-190.13571418324904,0.14999,16,0.0,0.0,1575420030,,,,0,0.0,1,6.0,14.600000381469727,0.0,0.0,0.0,66.7128,C,32299092000000,
Raw,1732153415000,26479000000,,700841.0444234725,-1416188606521999872,0.0,146.9093034287691,1179.664325059025,0.0,0,4,0.0,16431,351832912993582,487,19.399999618530273,219.07847123092262,0.14999,16,0.0,0.0,1575420030,,,,0,3.2653123212385857,6,6.0,19.399999618530273,0.0,0.0,-47.367579603891244,66.7128,C,32299092000000,
Raw,1732153415000,26479000000,,700841.0444234725,-1416188606521999872,0.0,146.9093034287691,1179.664325059025,0.0,0,6,0.0,16431,351832922383096,797,18.729999542236328,-290.16955784203424,0.14999,16,0.0,0.0,1575420030,,,,0,0.0,1,6.0,18.729999542236328,0.0,0.0,0.0,66.7128,C,32299092000000,
Fix,FLP,37.4253787000,-122.1582502000,5.400000095367432,0.20520373,5.166,180.0,1732153416002,1.6,106.9,32299850000000,10.199314,0,,,
Fix,NLP,37.4257142000,-122.1580930000,5.400000095367432,,17.77,,1732153416002,,,32299850000000,11.920612,0,,,
Status,1732153415000,25,0,1,19,1575420030,0.00,205.0,73.0,0,0,0,0.0
Status,1732153415000,25,1,1,17,1575420030,0.00,51.0,70.0,0,0,0,0.0
Status,1732153415000,25,2,1,22,1575420030,0.00,36.0,61.0,0,0,0,0.0
Status,1732153415000,25,3,1,14,1575420030,0.00,65.0,45.0,0,0,0,0.0
Status,1732153415000,25,4,1,13,1575420030,27.80,223.0,39.0,1,0,0,22.8
Status,1732153415000,25,5,1,24,1575420030,0.00,313.0,27.0,0,0,0,0.0
Status,1732153415000,25,6,1,15,1575420030,26.10,262.0,27.0,1,0,0,21.1
Status,1732153415000,25,7,1,30,1575420030,24.90,138.0,26.0,1,0,0,19.9
Status,1732153415000,25,8,1,6,1575420030,23.70,157.0,22.0,1,0,0,18.7
Status,1732153415000,25,9,1,2,1575420030,0.00,39.0,12.0,0,0,0,0.0
Status,1732153415000,25,10,1,12,1575420030,21.40,274.0,6.0,0,0,0,16.4
Status,1732153415000,25,11,3,20,1602000000,0.00,89.0,59.0,0,0,0,0.0
Status,1732153415000,25,12,3,11,1602000000,0.00,321.0,36.0,0,0,0,0.0
Status,1732153415000,25,13,3,9,1602000000,0.00,94.0,26.0,0,0,0,0.0
Status,1732153415000,25,14,3,8,1602000000,0.00,237.0,13.0,0,0,0,0.0
Status,1732153415000,25,15,3,19,1602000000,0.00,26.0,13.0,0,0,0,0.0
Status,1732153415000,25,16,6,21,1575420030,0.00,7.0,67.0,0,0,0,0.0
Status,1732153415000,25,17,6,19,1575420030,0.00,233.0,39.0,0,0,0,0.0
Status,1732153415000,25,18,6,13,1575420030,0.00,112.0,36.0,0,0,0,0.0
Status,1732153415000,25,19,6,27,1575420030,0.00,72.0,28.0,0,0,0,0.0
Status,1732153415000,25,20,6,4,1575420030,24.40,303.0,26.0,1,0,0,19.4
Status,1732153415000,25,21,6,15,1575420030,0.00,53.0,23.0,0,0,0,0.0
Status,1732153415000,25,22,6,29,1575420030,0.00,189.0,16.0,0,0,0,0.0
Status,1732153415000,25,23,6,26,1575420030,0.00,164.0,14.0,0,0,0,0.0
Status,1732153415000,25,24,6,6,1575420030,0.00,322.0,10.0,0,0,0,0.0
Fix,GPS,37.4253733333,-122.1582400000,23.900000000000002,0.0,5.0,0.0,1732153416000,1.6,112.0,32300092000000,100.0,0,,,
Fix,FLP,37.4253765000,-122.1582465000,5.400000095367432,0.19858874,5.142,180.0,1732153416244,1.6,112.0,32300092000000,9.403483,0,,,
Raw,1732153416000,27479000000,,700793.0945847877,-1416188606521999872,0.0,147.19634180689258,1183.606855644269,0.0,0,15,0.0,16431,351833924097464,487,21.142000198364258,685.3103275256285,0.14999,16,0.0,0.0,1575420030,,,,0,5.718251117812889,1,6.0,21.142000198364258,0.0,0.0,0.0,66.7128,C,32300092000000,
Raw,1732153416000,27479000000,,700793.0945847877,-1416188606521999872,0.0,147.19634180689258,1183.606855644269,0.0,0,30,0.0,16431,351833923656819,487,19.895999908447266,960.0429151213061,0.14999,16,0.0,0.0,1575420030,,,,0,0.0,1,6.0,19.895999908447266,0.0,0.0,0.0,66.7128,C,32300092000000,
Raw,1732153416000,27479000000,,700793.0945847877,-1416188606521999872,0.0,147.19634180689258,1183.606855644269,0.0,0,13,0.0,16431,351833927144806,487,22.820999145507812,859.5827225769568,0.14999,16,0.0,0.0,1575420030,,,,0,6.817560964762867,1,6.0,22.820999145507812,0.0,0.0,0.0,66.7128,C,32300092000000,
Raw,1732153416000,27479000000,,700793.0945847877,-1416188606521999872,0.0,147.19634180689258,1183.606855644269,0.0,0,12,0.0,17,537986,487,16.405000686645508,-188.47338559281977,0.14999,16,0.0,0.0,1575420030,,,,0,0.0,1,6.0,16.405000686645508,0.0,0.0,0.0,66.7128,C,32300092000000,
Raw,1732153416000,27479000000,,700793.0945847877,-1416188606521999872,0.0,147.19634180689258,1183.606855644269,0.0,0,4,0.0,16431,351833912992849,487,19.399999618530273,220.26490303489922,0.14999,16,0.0,0.0,1575420030,,,,0,3.2653123212385857,6,6.0,19.399999618530273,0.0,0.0,-47.367579603891244,66.7128,C,32300092000000,
Raw,1732153416000,27479000000,,700793.0945847877,-1416188606521999872,0.0,147.19634180689258,1183.606855644269,0.0,0,6,0.0,16431,351833922384046,797,18.70800018310547,-288.6432130358532,0.14999,16,0.0,0.0,1575420030,,,,0,0.0,1,6.0,18.70800018310547,0.0,0.0,0.0,66.7128,C,32300092000000,
Status,1732153416000,25,0,1,19,1575420030,0.00,205.0,73.0,0,0,0,0.0
Status,1732153416000,25,1,1,17,1575420030,0.00,51.0,70.0,0,0,0,0.0
Status,1732153416000,25,2,1,22,1575420030,0.00,36.0,61.0,0,0,0,0.0
Status,1732153416000,25,3,1,14,1575420030,0.00,65.0,45.0,0,0,0,0.0
Status,1732153416000,25,4,1,13,1575420030,27.70,223.0,39.0,1,0,0,22.7
Status,1732153416000,25,5,1,24,1575420030,0.00,313.0,27.0,0,0,0,0.0
Status,1732153416000,25,6,1,15,1575420030,26.20,262.0,27.0,1,0,0,21.2
Status,1732153416000,25,7,1,30,1575420030,24.90,138.0,26.0,1,0,0,19.9
Status,1732153416000,25,8,1,6,1575420030,27.30,157.0,22.0,1,0,0,22.3
Status,1732153416000,25,9,1,2,1575420030,0.00,39.0,12.0,0,0,0,0.0
Status,1732153416000,25,10,1,12,1575420030,21.40,274.0,6.0,0,0,0,16.4
Status,1732153416000,25,11,3,20,1602000000,0.00,89.0,59.0,0,0,0,0.0
Status,1732153416000,25,12,3,11,1602000000,0.00,321.0,36.0,0,0,0,0.0
Status,1732153416000,25,13,3,9,1602000000,0.00,94.0,26.0,0,0,0,0.0
Status,1732153416000,25,14,3,8,1602000000,0.00,237.0,13.0,0,0,0,0.0
Status,1732153416000,25,15,3,19,1602000000,0.00,26.0,13.0,0,0,0,0.0
Status,1732153416000,25,16,6,21,1575420030,0.00,7.0,67.0,0,0,0,0.0
Status,1732153416000,25,17,6,19,1575420030,0.00,233.0,39.0,0,0,0,0.0
Status,1732153416000,25,18,6,13,1575420030,0.00,112.0,36.0,0,0,0,0.0
Status,1732153416000,25,19,6,27,1575420030,0.00,72.0,28.0,0,0,0,0.0
Status,1732153416000,25,20,6,4,1575420030,24.40,303.0,26.0,1,0,0,19.4
Status,1732153416000,25,21,6,15,1575420030,0.00,53.0,23.0,0,0,0,0.0
Status,1732153416000,25,22,6,29,1575420030,0.00,189.0,16.0,0,0,0,0.0
Status,1732153416000,25,23,6,26,1575420030,0.00,164.0,14.0,0,0,0,0.0
Status,1732153416000,25,24,6,6,1575420030,0.00,322.0,10.0,0,0,0,0.0
Fix,GPS,37.4253766667,-122.1582283333,23.900000000000002,0.0,5.0,0.0,1732153417000,1.6,125.6,32301092000000,100.0,0,,,
Fix,FLP,37.4253757000,-122.1582384000,5.400000095367432,0.18407083,5.1,180.0,1732153417244,1.6,125.6,32301092000000,9.582651,0,,,
Raw,1732153417000,28479000000,,700726.016930019,-1416188606521999872,0.0,145.66095751493893,1186.4836407779233,0.0,0,15,0.0,16431,351834924095178,396,21.2450008392334,685.552050665172,0.14999,16,0.0,0.0,1575420030,,,,0,7.404668831813606,1,6.0,21.2450008392334,0.0,0.0,0.0,66.7128,C,32301092000000,
Raw,1732153417000,28479000000,,700726.016930019,-1416188606521999872,0.0,145.66095751493893,1186.4836407779233,0.0,0,30,0.0,16431,351834923653595,487,19.85300064086914,960.7694318340066,0.14999,16,0.0,0.0,1575420030,,,,0,0.4878220302067371,1,6.0,19.85300064086914,0.0,0.0,0.0,66.7128,C,32301092000000,
Raw,1732153417000,28479000000,,700726.016930019,-1416188606521999872,0.0,145.66095751493893,1186.4836407779233,0.0,0,13,0.0,16431,351834927141933,487,22.700000762939453,861.0225618121539,0.14999,16,0.0,0.0,1575420030,,,,0,2.891668061883502,1,6.0,22.700000762939453,0.0,0.0,0.0,66.7128,C,32301092000000,
Raw,1732153417000,28479000000,,700726.016930019,-1416188606521999872,0.0,145.66095751493893,1186.4836407779233,0.0,0,12,0.0,17,538612,797,16.405000686645508,-188.0136795644165,0.14999,16,0.0,0.0,1575420030,,,,0,0.0,1,6.0,16.405000686645508,0.0,0.0,0.0,66.7128,C,32301092000000,
Raw,1732153417000,28479000000,,700726.016930019,-1416188606521999872,0.0,145.66095751493893,1186.4836407779233,0.0,0,4,0.0,16431,351834912992121,316,19.3799991607666,220.75167109074513,0.14999,16,0.0,0.0,1575420030,,,,0,2.6004936584650027,6,6.0,19.3799991607666,0.0,0.0,-47.367579603891244,66.7128,C,32301092000000,
Raw,1732153417000,28479000000,,700726.016930019,-1416188606521999872,0.0,145.66095751493893,1186.4836407779233,0.0,0,6,0.0,16431,351834922385045,396,22.292999267578125,-287.8139303064951,0.14999,16,0.0,0.0,1575420030,,,,0,5.989707261598365,1,6.0,22.292999267578125,0.0,0.0,0.0,66.7128,C,32301092000000,
Status,1732153417000,25,0,1,19,1575420030,0.00,205.0,73.0,0,0,0,0.0
Status,1732153417000,25,1,1,17,1575420030,0.00,51.0,70.0,0,0,0,0.0
Status,1732153417000,25,2,1,22,1575420030,0.00,36.0,61.0,0,0,0,0.0
Status,1732153417000,25,3,1,14,1575420030,0.00,65.0,45.0,0,0,0,0.0
Status,1732153417000,25,4,1,13,1575420030,24.60,223.0,39.0,1,0,0,19.6
Status,1732153417000,25,5,1,24,1575420030,0.00,313.0,27.0,0,0,0,0.0
Status,1732153417000,25,6,1,15,1575420030,26.20,262.0,27.0,1,0,0,21.2
Status,1732153417000,25,7,1,30,1575420030,24.80,138.0,26.0,1,0,0,19.8
Status,1732153417000,25,8,1,6,1575420030,0.00,157.0,22.0,0,0,0,0.0
Status,1732153417000,25,9,1,2,1575420030,0.00,39.0,12.0,0,0,0,0.0
Status,1732153417000,25,10,1,12,1575420030,18.40,274.0,6.0,0,0,0,13.4
Status,1732153417000,25,11,3,20,1602000000,0.00,89.0,59.0,0,0,0,0.0
Status,1732153417000,25,12,3,11,1602000000,0.00,321.0,36.0,0,0,0,0.0
Status,1732153417000,25,13,3,9,1602000000,0.00,94.0,26.0,0,0,0,0.0
Status,1732153417000,25,14,3,8,1602000000,0.00,237.0,13.0,0,0,0,0.0
Status,1732153417000,25,15,3,19,1602000000,0.00,26.0,13.0,0,0,0,0.0
Status,1732153417000,25,16,6,21,1575420030,0.00,7.0,67.0,0,0,0,0.0
Status,1732153417000,25,17,6,19,1575420030,0.00,233.0,39.0,0,0,0,0.0
Status,1732153417000,25,18,6,13,1575420030,0.00,112.0,36.0,0,0,0,0.0
Status,1732153417000,25,19,6,27,1575420030,0.00,72.0,28.0,0,0,0,0.0
Status,1732153417000,25,20,6,4,1575420030,27.70,303.0,26.0,1,0,0,22.7
Status,1732153417000,25,21,6,15,1575420030,0.00,53.0,23.0,0,0,0,0.0
Status,1732153417000,25,22,6,29,1575420030,0.00,189.0,16.0,0,0,0,0.0
Status,1732153417000,25,23,6,26,1575420030,0.00,164.0,14.0,0,0,0,0.0
Status,1732153417000,25,24,6,6,1575420030,0.00,322.0,10.0,0,0,0,0.0
Fix,GPS,37.4253916667,-122.1582183333,23.900000000000002,0.0,5.0,0.0,1732153418000,1.6,157.4,32302092000000,100.0,0,,,
Raw,1732153418000,29479000000,,700701.3123392183,-1416188606521999872,0.0,144.90165078837796,1188.3214313392775,0.0,0,15,0.0,16431,351835924092887,396,21.222999572753906,685.9575861802738,0.14999,16,0.0,0.0,1575420030,,,,0,3.623544107412629,1,6.0,21.222999572753906,0.0,0.0,0.0,66.7128,C,32302092000000,
Raw,1732153418000,29479000000,,700701.3123392183,-1416188606521999872,0.0,144.90165078837796,1188.3214313392775,0.0,0,30,0.0,16431,351835923650360,487,19.844999313354492,961.7842694777096,0.14999,16,0.0,0.0,1575420030,,,,0,1.6633820412704585,1,6.0,19.844999313354492,0.0,0.0,0.0,66.7128,C,32302092000000,
Raw,1732153418000,29479000000,,700701.3123392183,-1416188606521999872,0.0,144.90165078837796,1188.3214313392775,0.0,0,13,0.0,16431,351835927139020,487,19.649999618530273,861.628751226869,0.14999,16,0.0,0.0,1575420030,,,,0,1.5527322692712389,1,6.0,19.649999618530273,0.0,0.0,0.0,66.7128,C,32302092000000,
Raw,1732153418000,29479000000,,700701.3123392183,-1416188606521999872,0.0,144.90165078837796,1188.3214313392775,0.0,0,12,0.0,17,539238,487,13.399999618530273,-188.0071289277308,0.14999,16,0.0,0.0,1575420030,,,,0,0.0,1,6.0,13.399999618530273,0.0,0.0,0.0,66.7128,C,32302092000000,
Raw,1732153418000,29479000000,,700701.3123392183,-1416188606521999872,0.0,144.90165078837796,1188.3214313392775,0.0,0,4,0.0,16431,351835912991396,316,22.700000762939453,221.02329022112005,0.14999,16,0.0,0.0,1575420030,,,,0,8.113001976262733,6,6.0,22.700000762939453,0.0,0.0,-47.367579603891244,66.7128,C,32302092000000,
Fix,FLP,37.4253827000,-122.1582290000,5.400000095367432,0.14820042,5.057,180.0,1732153418244,1.6,157.4,32302092000000,10.189777,0,,,
Status,1732153418000,25,0,1,19,1575420030,0.00,205.0,73.0,0,0,0,0.0
Status,1732153418000,25,1,1,17,1575420030,0.00,51.0,70.0,0,0,0,0.0
Status,1732153418000,25,2,1,22,1575420030,0.00,36.0,61.0,0,0,0,0.0
Status,1732153418000,25,3,1,14,1575420030,0.00,65.0,45.0,0,0,0,0.0
Status,1732153418000,25,4,1,13,1575420030,28.60,223.0,39.0,1,0,0,23.6
Status,1732153418000,25,5,1,24,1575420030,0.00,313.0,27.0,0,0,0,0.0
Status,1732153418000,25,6,1,15,1575420030,26.30,262.0,27.0,1,0,0,21.3
Status,1732153418000,25,7,1,30,1575420030,24.80,138.0,26.0,1,0,0,19.8
Status,1732153418000,25,8,1,6,1575420030,24.80,157.0,22.0,1,0,0,19.8
Status,1732153418000,25,9,1,2,1575420030,0.00,39.0,12.0,0,0,0,0.0
Status,1732153418000,25,10,1,12,1575420030,22.30,274.0,6.0,0,0,0,17.3
Status,1732153418000,25,11,3,20,1602000000,0.00,89.0,59.0,0,0,0,0.0
Status,1732153418000,25,12,3,11,1602000000,0.00,321.0,36.0,0,0,0,0.0
Status,1732153418000,25,13,3,9,1602000000,0.00,94.0,26.0,0,0,0,0.0
Status,1732153418000,25,14,3,8,1602000000,0.00,237.0,13.0,0,0,0,0.0
Status,1732153418000,25,15,3,19,1602000000,0.00,26.0,13.0,0,0,0,0.0
Status,1732153418000,25,16,6,21,1575420030,0.00,7.0,67.0,0,0,0,0.0
Status,1732153418000,25,17,6,19,1575420030,0.00,233.0,39.0,0,0,0,0.0
Status,1732153418000,25,18,6,13,1575420030,0.00,112.0,36.0,0,0,0,0.0
Status,1732153418000,25,19,6,27,1575420030,0.00,72.0,28.0,0,0,0,0.0
Status,1732153418000,25,20,6,4,1575420030,24.00,303.0,26.0,1,0,0,19.0
Status,1732153418000,25,21,6,15,1575420030,0.00,53.0,23.0,0,0,0,0.0
Status,1732153418000,25,22,6,29,1575420030,0.00,189.0,16.0,0,0,0,0.0
Status,1732153418000,25,23,6,26,1575420030,0.00,164.0,14.0,0,0,0,0.0
Status,1732153418000,25,24,6,6,1575420030,0.00,322.0,10.0,0,0,0,0.0
Fix,GPS,37.4254116667,-122.1582033333,23.900000000000002,0.0,4.9,0.0,1732153419000,1.6,179.9,32303092000000,100.0,0,,,
Fix,FLP,37.4253962000,-122.1582168000,5.400000095367432,0.09686144,5.028,,1732153419244,1.6,,32303092000000,9.750527,0,,,
Raw,1732153419000,30479000000,,700680.1518669293,-1416188606521999872,0.0,144.31862873645673,1192.1124639106467,0.0,0,15,0.0,16431,351836924090598,396,21.285999298095703,686.9927261518608,0.14999,16,0.0,0.0,1575420030,,,,0,6.317515585361752,1,6.0,21.285999298095703,0.0,0.0,0.0,66.7128,C,32303092000000,
Raw,1732153419000,30479000000,,700680.1518669293,-1416188606521999872,0.0,144.31862873645673,1192.1124639106467,0.0,0,30,0.0,16431,351836923647148,797,19.83799934387207,963.2011582552985,0.14999,16,0.0,0.0,1575420030,,,,0,1.6633820412704585,1,6.0,19.83799934387207,0.0,0.0,0.0,66.7128,C,32303092000000,
Raw,1732153419000,30479000000,,700680.1518669293,-1416188606521999872,0.0,144.31862873645673,1192.1124639106467,0.0,0,13,0.0,16431,351836927136108,396,23.614999771118164,861.9974452179158,0.14999,16,0.0,0.0,1575420030,,,,0,8.007717176415587,1,6.0,23.614999771118164,0.0,0.0,0.0,66.7128,C,32303092000000,
Raw,1732153419000,30479000000,,700680.1518669293,-1416188606521999872,0.0,144.31862873645673,1192.1124639106467,0.0,0,12,0.0,17,539852,487,17.341999053955078,-186.70712952532753,0.14999,16,0.0,0.0,1575420030,,,,0,0.0,1,6.0,17.341999053955078,0.0,0.0,0.0,66.7128,C,32303092000000,
Raw,1732153419000,30479000000,,700680.1518669293,-1416188606521999872,0.0,144.31862873645673,1192.1124639106467,0.0,0,4,0.0,16431,351836912990652,487,19.0,221.67282533815958,0.14999,16,0.0,0.0,1575420030,,,,0,2.6986403483598864,6,6.0,19.0,0.0,0.0,-47.367579603891244,66.7128,C,32303092000000,
Raw,1732153419000,30479000000,,700680.1518669293,-1416188606521999872,0.0,144.31862873645673,1192.1124639106467,0.0,0,6,0.0,16431,351836922386938,487,19.766000747680664,-286.13329710007883,0.14999,16,0.0,0.0,1575420030,,,,0,1.772639955300503,1,6.0,19.766000747680664,0.0,0.0,0.0,66.7128,C,32303092000000,
Status,1732153419000,25,0,1,19,1575420030,0.00,205.0,73.0,0,0,0,0.0
Status,1732153419000,25,1,1,17,1575420030,0.00,51.0,70.0,0,0,0,0.0
Status,1732153419000,25,2,1,22,1575420030,0.00,36.0,61.0,0,0,0,0.0
Status,1732153419000,25,3,1,14,1575420030,0.00,65.0,45.0,0,0,0,0.0
Status,1732153419000,25,4,1,13,1575420030,30.30,223.0,39.0,1,0,0,25.3
Status,1732153419000,25,5,1,24,1575420030,0.00,313.0,27.0,0,0,0,0.0
Status,1732153419000,25,6,1,15,1575420030,26.40,262.0,27.0,1,0,0,21.4
Status,1732153419000,25,7,1,30,1575420030,24.80,138.0,26.0,1,0,0,19.8
Status,1732153419000,25,8,1,6,1575420030,24.80,157.0,22.0,1,0,0,19.8
Status,1732153419000,25,9,1,2,1575420030,0.00,39.0,12.0,0,0,0,0.0
Status,1732153419000,25,10,1,12,1575420030,21.60,274.0,6.0,0,0,0,16.6
Status,1732153419000,25,11,3,20,1602000000,0.00,89.0,59.0,0,0,0,0.0
Status,1732153419000,25,12,3,11,1602000000,0.00,321.0,36.0,0,0,0,0.0
Status,1732153419000,25,13,3,9,1602000000,0.00,94.0,26.0,0,0,0,0.0
Status,1732153419000,25,14,3,8,1602000000,0.00,237.0,13.0,0,0,0,0.0
Status,1732153419000,25,15,3,19,1602000000,0.00,26.0,13.0,0,0,0,0.0
Status,1732153419000,25,16,6,21,1575420030,0.00,7.0,67.0,0,0,0,0.0
Status,1732153419000,25,17,6,19,1575420030,0.00,233.0,39.0,0,0,0,0.0
Status,1732153419000,25,18,6,13,1575420030,0.00,112.0,36.0,0,0,0,0.0
Status,1732153419000,25,19,6,27,1575420030,0.00,72.0,28.0,0,0,0,0.0
Status,1732153419000,25,20,6,4,1575420030,30.90,303.0,26.0,1,0,0,25.9
Status,1732153419000,25,21,6,15,1575420030,0.00,53.0,23.0,0,0,0,0.0
Status,1732153419000,25,22,6,29,1575420030,0.00,189.0,16.0,0,0,0,0.0
Status,1732153419000,25,23,6,26,1575420030,0.00,164.0,14.0,0,0,0,0.0
Status,1732153419000,25,24,6,6,1575420030,0.00,322.0,10.0,0,0,0,0.0
Fix,GPS,37.4254266667,-122.1582000000,23.900000000000002,0.0,4.9,0.0,1732153420000,1.6,179.9,32304092000000,100.0,0,,,
Raw,1732153420000,31479000000,,700662.6918713212,-1416188606521999872,0.0,144.47088962982608,1191.988093967114,0.0,0,15,0.0,16431,351837924088296,487,21.378000259399414,686.4699295942436,0.14999,16,0.0,0.0,1575420030,,,,0,7.290379161325019,1,6.0,21.378000259399414,0.0,0.0,0.0,66.7128,C,32304092000000,
Raw,1732153420000,31479000000,,700662.6918713212,-1416188606521999872,0.0,144.47088962982608,1191.988093967114,0.0,0,30,0.0,16431,351837923643935,797,19.83099937438965,962.9389469542062,0.14999,16,0.0,0.0,1575420030,,,,0,1.6633820412704585,1,6.0,19.83099937438965,0.0,0.0,0.0,66.7128,C,32304092000000,
Raw,1732153420000,31479000000,,700662.6918713212,-1416188606521999872,0.0,144.47088962982608,1191.988093967114,0.0,0,13,0.0,16431,351837927133255,316,25.264999389648438,861.507401843727,0.14999,16,0.0,0.0,1575420030,,,,0,10.399915238480249,1,6.0,25.264999389648438,0.0,0.0,0.0,66.7128,C,32304092000000,
Raw,1732153420000,31479000000,,700662.6918713212,-1416188606521999872,0.0,144.47088962982608,1191.988093967114,0.0,0,12,0.0,17,540491,487,16.604999542236328,-186.550564662698,0.14999,16,0.0,0.0,1575420030,,,,0,0.0,1,6.0,16.604999542236328,0.0,0.0,0.0,66.7128,C,32304092000000,
Raw,1732153420000,31479000000,,700662.6918713212,-1416188606521999872,0.0,144.47088962982608,1191.988093967114,0.0,0,4,0.0,16431,351837912989917,316,25.899999618530273,221.19302604474527,0.14999,16,0.0,0.0,1575420030,,,,0,12.241065442753136,6,6.0,25.899999618530273,0.0,0.0,-47.367579603891244,66.7128,C,32304092000000,
Raw,1732153420000,31479000000,,700662.6918713212,-1416188606521999872,0.0,144.47088962982608,1191.988093967114,0.0,0,6,0.0,16431,351837922387890,797,19.766000747680664,-284.98712151374866,0.14999,16,0.0,0.0,1575420030,,,,0,1.772639955300503,1,6.0,19.766000747680664,0.0,0.0,0.0,66.7128,C,32304092000000,
Fix,FLP,37.4254108000,-122.1582088000,5.400000095367432,0.047945116,5.0,,1732153420244,1.6,,32304092000000,9.204493,0,,,
Fix,FLP,37.4254176000,-122.1582050000,5.400000095367432,0.025842682,4.971,,1732153420842,1.6,,32304690000000,9.475253,0,,,
Fix,NLP,37.4257146000,-122.1580930000,5.400000095367432,,17.653,,1732153420842,,,32304690000000,11.89411,0,,,
Status,1732153420000,25,0,1,19,1575420030,0.00,205.0,73.0,0,0,0,0.0
Status,1732153420000,25,1,1,17,1575420030,0.00,51.0,70.0,0,0,0,0.0
Status,1732153420000,25,2,1,22,1575420030,0.00,36.0,61.0,0,0,0,0.0
Status,1732153420000,25,3,1,14,1575420030,0.00,65.0,45.0,0,0,0,0.0
Status,1732153420000,25,4,1,13,1575420030,26.20,223.0,39.0,1,0,0,21.2
Status,1732153420000,25,5,1,24,1575420030,0.00,313.0,27.0,0,0,0,0.0
Status,1732153420000,25,6,1,15,1575420030,26.50,262.0,27.0,1,0,0,21.5
Status,1732153420000,25,7,1,30,1575420030,19.90,138.0,26.0,1,0,0,14.9
Status,1732153420000,25,8,1,6,1575420030,24.80,157.0,22.0,1,0,0,19.8
Status,1732153420000,25,9,1,2,1575420030,0.00,39.0,12.0,0,0,0,0.0
Status,1732153420000,25,10,1,12,1575420030,26.00,274.0,6.0,0,0,0,21.0
Status,1732153420000,25,11,3,20,1602000000,0.00,89.0,59.0,0,0,0,0.0
Status,1732153420000,25,12,3,11,1602000000,0.00,321.0,36.0,0,0,0,0.0
Status,1732153420000,25,13,3,9,1602000000,0.00,94.0,26.0,0,0,0,0.0
Status,1732153420000,25,14,3,8,1602000000,0.00,237.0,13.0,0,0,0,0.0
Status,1732153420000,25,15,3,19,1602000000,0.00,26.0,13.0,0,0,0,0.0
Status,1732153420000,25,16,6,21,1575420030,0.00,7.0,67.0,0,0,0,0.0
Status,1732153420000,25,17,6,19,1575420030,0.00,233.0,39.0,0,0,0,0.0
Status,1732153420000,25,18,6,13,1575420030,0.00,112.0,36.0,0,0,0,0.0
Status,1732153420000,25,19,6,27,1575420030,0.00,72.0,28.0,0,0,0,0.0
Status,1732153420000,25,20,6,4,1575420030,26.70,303.0,26.0,1,0,0,21.7
Status,1732153420000,25,21,6,15,1575420030,0.00,53.0,23.0,0,0,0,0.0
Status,1732153420000,25,22,6,29,1575420030,0.00,189.0,16.0,0,0,0,0.0
Status,1732153420000,25,23,6,26,1575420030,0.00,164.0,14.0,0,0,0,0.0
Status,1732153420000,25,24,6,6,1575420030,0.00,322.0,10.0,0,0,0,0.0
Fix,GPS,37.4254283333,-122.1582116667,23.900000000000002,0.0,4.9,0.0,1732153421000,1.6,179.9,32305092000000,100.0,0,,,
Fix,FLP,37.4254216000,-122.1582075000,5.400000095367432,0.013295464,4.942,,1732153421245,1.6,,32305092000000,10.361225,0,,,
Raw,1732153421000,32479000000,,700649.1408299537,-1416188606521999872,0.0,145.00655124006917,1186.7145658572415,0.0,0,15,0.0,16431,351838924086013,487,21.472999572753906,684.0501894443339,0.14999,16,0.0,0.0,1575420030,,,,0,7.51747417886746,1,6.0,21.472999572753906,0.0,0.0,0.0,66.7128,C,32305092000000,
Raw,1732153421000,32479000000,,700649.1408299537,-1416188606521999872,0.0,145.00655124006917,1186.7145658572415,0.0,0,30,0.0,16431,351838923640689,797,14.899999618530273,961.5018952239819,0.14999,16,0.0,0.0,1575420030,,,,0,0.0,1,6.0,14.899999618530273,0.0,0.0,0.0,66.7128,C,32305092000000,
Raw,1732153421000,32479000000,,700649.1408299537,-1416188606521999872,0.0,145.00655124006917,1186.7145658572415,0.0,0,13,0.0,16431,351838927130396,487,21.191999435424805,859.3398379770082,0.14999,16,0.0,0.0,1575420030,,,,0,4.216957520757036,1,6.0,21.191999435424805,0.0,0.0,0.0,66.7128,C,32305092000000,
Raw,1732153421000,32479000000,,700649.1408299537,-1416188606521999872,0.0,145.00655124006917,1186.7145658572415,0.0,0,12,0.0,17,541113,487,21.003000259399414,-188.23012932554138,0.14999,16,0.0,0.0,1575420030,,,,0,3.8828436506999813,1,6.0,21.003000259399414,0.0,0.0,0.0,66.7128,C,32305092000000,
Raw,1732153421000,32479000000,,700649.1408299537,-1416188606521999872,0.0,145.00655124006917,1186.7145658572415,0.0,0,4,0.0,16431,351838912989178,396,21.700000762939453,219.499802607536,0.14999,16,0.0,0.0,1575420030,,,,0,6.756607103122759,6,6.0,21.700000762939453,0.0,0.0,-47.367579603891244,66.7128,C,32305092000000,
