# 
# Header Description:
# 
# Version: v3.1.0.3 Platform: 13 Manufacturer: samsung Model: SM-S135DL GNSS Hardware Model Name: MediaTek,MT6631,MTK_MNLD_default,MNL_VER_default
# 
# Raw,utcTimeMillis,TimeNanos,LeapSecond,TimeUncertaintyNanos,FullBiasNanos,BiasNanos,BiasUncertaintyNanos,DriftNanosPerSecond,DriftUncertaintyNanosPerSecond,HardwareClockDiscontinuityCount,Svid,TimeOffsetNanos,State,ReceivedSvTimeNanos,ReceivedSvTimeUncertaintyNanos,Cn0DbHz,PseudorangeRateMetersPerSecond,PseudorangeRateUncertaintyMetersPerSecond,AccumulatedDeltaRangeState,AccumulatedDeltaRangeMeters,AccumulatedDeltaRangeUncertaintyMeters,CarrierFrequencyHz,CarrierCycles,CarrierPhase,CarrierPhaseUncertainty,MultipathIndicator,SnrInDb,ConstellationType,AgcDb,BasebandCn0DbHz,FullInterSignalBiasNanos,FullInterSignalBiasUncertaintyNanos,SatelliteInterSignalBiasNanos,SatelliteInterSignalBiasUncertaintyNanos,CodeType,ChipsetElapsedRealtimeNanos,IsFullTracking
# 
# UncalAccel,utcTimeMillis,elapsedRealtimeNanos,UncalAccelXMps2,UncalAccelYMps2,UncalAccelZMps2,BiasXMps2,BiasYMps2,BiasZMps2
# 
# Accel,utcTimeMillis,elapsedRealtimeNanos,AccelXMps2,AccelYMps2,AccelZMps2
# 
# UncalGyro,utcTimeMillis,elapsedRealtimeNanos,UncalGyroXRadPerSec,UncalGyroYRadPerSec,UncalGyroZRadPerSec,DriftXRadPerSec,DriftYRadPerSec,DriftZRadPerSec
# 
# Gyro,utcTimeMillis,elapsedRealtimeNanos,GyroXRadPerSec,GyroYRadPerSec,GyroZRadPerSec
# 
# UncalMag,utcTimeMillis,elapsedRealtimeNanos,UncalMagXMicroT,UncalMagYMicroT,UncalMagZMicroT,BiasXMicroT,BiasYMicroT,BiasZMicroT
# 
# Mag,utcTimeMillis,elapsedRealtimeNanos,MagXMicroT,MagYMicroT,MagZMicroT
# 
# Pressure,utcTimeMillis,elapsedRealtimeNanos,PressureHpa
# 
# OrientationDeg,utcTimeMillis,elapsedRealtimeNanos,yawDeg,rollDeg,pitchDeg
# 
# Fix,Provider,LatitudeDegrees,LongitudeDegrees,AltitudeMeters,SpeedMps,AccuracyMeters,BearingDegrees,UnixTimeMillis,SpeedAccuracyMps,BearingAccuracyDegrees,elapsedRealtimeNanos,VerticalAccuracyMeters,MockLocation,NumberOfUsedSignals,VerticalSpeedAccuracyMps,SolutionType
# 
# Nav,Svid,Type,Status,MessageId,Sub-messageId,Data(Bytes)
# 
# Status,UnixTimeMillis,SignalCount,SignalIndex,ConstellationType,Svid,CarrierFrequencyHz,Cn0DbHz,AzimuthDegrees,ElevationDegrees,UsedInFix,HasAlmanacData,HasEphemerisData,BasebandCn0DbHz
# 
# Agc,utcTimeMillis,TimeNanos,LeapSecond,TimeUncertaintyNanos,FullBiasNanos,BiasNanos,BiasUncertaintyNanos,DriftNanosPerSecond,DriftUncertaintyNanosPerSecond,HardwareClockDiscontinuityCount,AgcDb,CarrierFrequencyHz,ConstellationType
# 
Status,,28,0,1,17,1575420030,0.00,60.0,75.0,0,0,0,0.0
Status,,28,1,1,19,1575420030,0.00,203.0,68.0,0,0,0,0.0
Status,,28,2,1,22,1575420030,0.00,27.0,64.0,0,0,0,0.0
Status,,28,3,1,14,1575420030,0.00,60.0,48.0,0,0,0,0.0
Status,,28,4,1,13,1575420030,27.70,227.0,43.0,1,0,0,22.7
Status,,28,5,2,138,1575420030,0.00,156.0,43.0,0,0,0,0.0
Status,,28,6,1,30,1575420030,27.60,135.0,30.0,1,0,0,22.6
Status,,28,7,1,15,1575420030,24.20,268.0,28.0,1,0,0,19.2
Status,,28,8,1,24,1575420030,0.00,313.0,22.0,0,0,0,0.0
Status,,28,9,1,6,1575420030,30.60,159.0,17.0,1,0,0,25.6
Status,,28,10,1,2,1575420030,19.40,43.0,14.0,1,0,0,14.4
Status,,28,11,1,12,1575420030,31.80,271.0,3.0,0,0,0,26.8
Status,,28,12,1,21,1575420030,0.00,30.0,1.0,0,0,0,0.0
Status,,28,13,3,20,1602000000,0.00,101.0,57.0,0,0,0,0.0
Status,,28,14,3,11,1602000000,0.00,316.0,33.0,0,0,0,0.0
Status,,28,15,3,9,1602000000,0.00,88.0,29.0,0,0,0,0.0
Status,,28,16,3,19,1602000000,0.00,29.0,18.0,0,0,0,0.0
Status,,28,17,3,8,1602000000,26.00,241.0,17.0,1,0,0,21.0
Status,,28,18,3,17,1602000000,23.60,0.0,0.0,0,0,0,18.6
Status,,28,19,6,21,1575420030,0.00,357.0,68.0,0,0,0,0.0
Status,,28,20,6,19,1575420030,19.10,237.0,42.0,1,0,0,14.1
Status,,28,21,6,13,1575420030,0.00,115.0,33.0,0,0,0,0.0
Status,,28,22,6,27,1575420030,0.00,69.0,30.0,0,0,0,0.0
Status,,28,23,6,4,1575420030,0.00,307.0,25.0,0,0,0,0.0
Status,,28,24,6,15,1575420030,0.00,56.0,23.0,0,0,0,0.0
Status,,28,25,6,29,1575420030,0.00,190.0,20.0,0,0,0,0.0
Status,,28,26,6,26,1575420030,0.00,165.0,11.0,0,0,0,0.0
Status,,28,27,6,6,1575420030,0.00,324.0,8.0,0,0,0,0.0
Fix,GPS,37.4255783333,-122.1580950000,26.000000000000004,0.0,4.5,0.0,1732152796000,3.3,115.2,31680091000000,39.8,0,,,
Raw,1732152795999,75278000000,,78.49514768440525,-1416187938721999872,0.0,78.49514768440525,1139.5428939729325,0.0,0,2,0.0,16431,351213917790824,797,14.399999618530273,761.4805269473735,0.14999,16,0.0,0.0,1575420030,,,,0,0.0,1,6.0,14.399999618530273,0.0,0.0,0.0,66.7128,C,31680091000000,
Raw,1732152795999,75278000000,,78.49514768440525,-1416187938721999872,0.0,78.49514768440525,1139.5428939729325,0.0,0,30,0.0,16431,351213924572948,396,22.64900016784668,910.506907587317,0.14999,16,0.0,0.0,1575420030,,,,0,6.552097156253396,1,6.0,22.64900016784668,0.0,0.0,0.0,66.7128,C,31680091000000,
Raw,1732152795999,75278000000,,78.49514768440525,-1416187938721999872,0.0,78.49514768440525,1139.5428939729325,0.0,0,15,0.0,16431,351213924417382,487,19.21299934387207,608.8816334760882,0.14999,16,0.0,0.0,1575420030,,,,0,0.8721640289493777,1,6.0,19.21299934387207,0.0,0.0,0.0,66.7128,C,31680091000000,
Raw,1732152795999,75278000000,,78.49514768440525,-1416187938721999872,0.0,78.49514768440525,1139.5428939729325,0.0,0,13,0.0,16431,351213927837526,487,22.724000930786133,796.3090542863439,0.14999,16,0.0,0.0,1575420030,,,,0,6.677527345120094,1,6.0,22.724000930786133,0.0,0.0,0.0,66.7128,C,31680091000000,
Raw,1732152795999,75278000000,,78.49514768440525,-1416187938721999872,0.0,78.49514768440525,1139.5428939729325,0.0,0,12,0.0,17,110672,316,26.799999237060547,-204.62883524587235,0.14999,16,0.0,0.0,1575420030,,,,0,12.49337332518099,1,6.0,26.799999237060547,0.0,0.0,0.0,66.7128,C,31680091000000,
Raw,1732152795999,75278000000,,78.49514768440525,-1416187938721999872,0.0,78.49514768440525,1139.5428939729325,0.0,0,19,0.0,16431,351213918021895,797,14.100000381469727,693.5898212537572,0.14999,16,0.0,0.0,1575420030,,,,0,0.0,6,6.0,14.100000381469727,0.0,0.0,-20.94117147353928,66.7128,C,31680091000000,
Raw,1732152795999,75278000000,,78.49514768440525,-1416187938721999872,0.0,78.49514768440525,1139.5428939729325,0.0,0,8,0.0,17,924327,487,5.0,980.2810201496012,0.14999,16,0.0,0.0,1605374980,,,,0,5.734456140494797,3,6.0,18.0,0.0,0.0,5.8368467542282705,66.7128,C,31680091000000,
Raw,1732152795999,75278000000,,78.49514768440525,-1416187938721999872,0.0,78.49514768440525,1139.5428939729325,0.0,0,6,0.0,16431,351213920740881,316,25.631999969482422,-313.7472040688824,0.14999,16,0.0,0.0,1575420030,,,,0,10.925671212790391,1,6.0,25.631999969482422,0.0,0.0,0.0,66.7128,C,31680091000000,
Fix,FLP,37.4255698000,-122.1580980000,2.6588791036109614,0.34448814,4.416,0.000000000028599548,1732152796243,3.3,115.2,31680091000000,12.037399,0,,,
Fix,GPS,37.4254666667,-122.1581600000,25.500000000000004,0.0,4.4,0.0,1732152797000,2.8,58.0,31681091000000,39.8,0,,,
Status,1732152797000,28,0,1,17,1575420030,0.00,60.0,75.0,0,0,0,0.0
Status,1732152797000,28,1,1,19,1575420030,0.00,203.0,68.0,0,0,0,0.0
Status,1732152797000,28,2,1,22,1575420030,0.00,27.0,64.0,0,0,0,0.0
Status,1732152797000,28,3,1,14,1575420030,0.00,60.0,48.0,0,0,0,0.0
Status,1732152797000,28,4,1,13,1575420030,0.00,227.0,43.0,0,0,0,0.0
Status,1732152797000,28,5,2,138,1575420030,0.00,156.0,43.0,0,0,0,0.0
Status,1732152797000,28,6,1,30,1575420030,27.90,135.0,30.0,1,0,0,22.9
Status,1732152797000,28,7,1,15,1575420030,24.30,268.0,28.0,1,0,0,19.3
Status,1732152797000,28,8,1,24,1575420030,23.90,313.0,22.0,1,0,0,18.9
Status,1732152797000,28,9,1,6,1575420030,27.30,159.0,17.0,1,0,0,22.3
Status,1732152797000,28,10,1,2,1575420030,19.40,43.0,14.0,1,0,0,14.4
Status,1732152797000,28,11,1,12,1575420030,28.50,271.0,3.0,0,0,0,23.5
Status,1732152797000,28,12,1,21,1575420030,0.00,30.0,1.0,0,0,0,0.0
Status,1732152797000,28,13,3,20,1602000000,0.00,101.0,57.0,0,0,0,0.0
Status,1732152797000,28,14,3,11,1602000000,0.00,316.0,33.0,0,0,0,0.0
Status,1732152797000,28,15,3,9,1602000000,0.00,88.0,29.0,0,0,0,0.0
Status,1732152797000,28,16,3,19,1602000000,0.00,29.0,18.0,0,0,0,0.0
Status,1732152797000,28,17,3,8,1602000000,26.00,241.0,17.0,1,0,0,21.0
Status,1732152797000,28,18,3,17,1602000000,23.20,0.0,0.0,0,0,0,18.2
Status,1732152797000,28,19,6,21,1575420030,0.00,357.0,68.0,0,0,0,0.0
Status,1732152797000,28,20,6,19,1575420030,0.00,237.0,42.0,0,0,0,0.0
Status,1732152797000,28,21,6,13,1575420030,0.00,115.0,33.0,0,0,0,0.0
Status,1732152797000,28,22,6,27,1575420030,0.00,69.0,30.0,0,0,0,0.0
Status,1732152797000,28,23,6,4,1575420030,0.00,307.0,25.0,0,0,0,0.0
Status,1732152797000,28,24,6,15,1575420030,0.00,56.0,23.0,0,0,0,0.0
Status,1732152797000,28,25,6,29,1575420030,0.00,190.0,20.0,0,0,0,0.0
Status,1732152797000,28,26,6,26,1575420030,0.00,165.0,11.0,0,0,0,0.0
Status,1732152797000,28,27,6,6,1575420030,0.00,324.0,8.0,0,0,0,0.0
Raw,1732152796999,76278000000,,77.73213177763228,-1416187938721999872,0.0,77.73213177763228,1142.0943761096137,0.0,0,2,0.0,16431,351214917788276,1797,14.399999618530273,766.1719442747299,0.14999,16,0.0,0.0,1575420030,,,,0,0.0,1,6.0,14.399999618530273,0.0,0.0,0.0,66.7128,C,31681091000000,
Raw,1732152796999,76278000000,,77.73213177763228,-1416187938721999872,0.0,77.73213177763228,1142.0943761096137,0.0,0,30,0.0,16431,351214924569909,316,22.94300079345703,910.4541308265018,0.14999,16,0.0,0.0,1575420030,,,,0,7.043303059366289,1,6.0,22.94300079345703,0.0,0.0,0.0,66.7128,C,31681091000000,
Raw,1732152796999,76278000000,,77.73213177763228,-1416187938721999872,0.0,77.73213177763228,1142.0943761096137,0.0,0,15,0.0,16431,351214924415346,487,19.30699920654297,609.6178599977766,0.14999,16,0.0,0.0,1575420030,,,,0,4.084850188786498,1,6.0,19.30699920654297,0.0,0.0,0.0,66.7128,C,31681091000000,
Raw,1732152796999,76278000000,,77.73213177763228,-1416187938721999872,0.0,77.73213177763228,1142.0943761096137,0.0,0,12,0.0,17,111346,396,23.499000549316406,-203.84935593869196,0.14999,16,0.0,0.0,1575420030,,,,0,7.8955439277455834,1,6.0,23.499000549316406,0.0,0.0,0.0,66.7128,C,31681091000000,
Raw,1732152796999,76278000000,,77.73213177763228,-1416187938721999872,0.0,77.73213177763228,1142.0943761096137,0.0,0,8,0.0,17,921056,396,5.0,980.4857261629115,0.14999,16,0.0,0.0,1605374980,,,,0,6.302363571684102,3,6.0,21.0,0.0,0.0,11.054565011683588,66.7128,C,31681091000000,
Raw,1732152796999,76278000000,,77.73213177763228,-1416187938721999872,0.0,77.73213177763228,1142.0943761096137,0.0,0,24,0.0,16431,351214922879048,487,18.888999938964844,-266.29179024646595,0.14999,16,0.0,0.0,1575420030,,,,0,0.242476098989858,1,6.0,18.888999938964844,0.0,0.0,0.0,66.7128,C,31681091000000,
Raw,1732152796999,76278000000,,77.73213177763228,-1416187938721999872,0.0,77.73213177763228,1142.0943761096137,0.0,0,6,0.0,16431,351214920741927,396,22.30299949645996,-313.7609093016645,0.14999,16,0.0,0.0,1575420030,,,,0,6.031438561273179,1,6.0,22.30299949645996,0.0,0.0,0.0,66.7128,C,31681091000000,
Fix,FLP,37.4255153000,-122.1581258000,2.6588791036109614,0.7536223,4.416,180.0,1732152797244,2.8,58.0,31681091000000,12.739345,0,,,
Status,1732152797000,27,0,1,17,1575420030,0.00,60.0,75.0,0,0,0,0.0
Status,1732152797000,27,1,1,19,1575420030,0.00,203.0,68.0,0,0,0,0.0
Status,1732152797000,27,2,1,22,1575420030,0.00,27.0,64.0,0,0,0,0.0
Status,1732152797000,27,3,1,14,1575420030,0.00,60.0,48.0,0,0,0,0.0
Status,1732152797000,27,4,1,13,1575420030,23.90,227.0,43.0,1,0,0,18.9
Status,1732152797000,27,5,1,30,1575420030,28.90,135.0,30.0,1,0,0,23.9
Status,1732152797000,27,6,1,15,1575420030,24.40,268.0,28.0,1,0,0,19.4
Status,1732152797000,27,7,1,24,1575420030,0.00,313.0,22.0,0,0,0,0.0
Status,1732152797000,27,8,1,6,1575420030,30.70,159.0,17.0,1,0,0,25.7
Status,1732152797000,27,9,1,2,1575420030,19.40,43.0,14.0,1,0,0,14.4
Status,1732152797000,27,10,1,12,1575420030,27.70,271.0,3.0,0,0,0,22.7
Status,1732152797000,27,11,1,21,1575420030,0.00,30.0,1.0,0,0,0,0.0
Status,1732152797000,27,12,3,20,1602000000,0.00,101.0,57.0,0,0,0,0.0
Status,1732152797000,27,13,3,11,1602000000,0.00,316.0,33.0,0,0,0,0.0
Status,1732152797000,27,14,3,9,1602000000,0.00,88.0,29.0,0,0,0,0.0
Status,1732152797000,27,15,3,19,1602000000,0.00,29.0,18.0,0,0,0,0.0
Status,1732152797000,27,16,3,8,1602000000,30.60,241.0,17.0,1,0,0,25.6
Status,1732152797000,27,17,3,17,1602000000,24.00,0.0,0.0,0,0,0,19.0
Status,1732152797000,27,18,6,21,1575420030,0.00,357.0,68.0,0,0,0,0.0
Status,1732152797000,27,19,6,19,1575420030,0.00,237.0,42.0,0,0,0,0.0
Status,1732152797000,27,20,6,13,1575420030,0.00,115.0,33.0,0,0,0,0.0
Status,1732152797000,27,21,6,27,1575420030,0.00,69.0,30.0,0,0,0,0.0
Status,1732152797000,27,22,6,4,1575420030,0.00,307.0,25.0,0,0,0,0.0
Status,1732152797000,27,23,6,15,1575420030,0.00,56.0,23.0,0,0,0,0.0
Status,1732152797000,27,24,6,29,1575420030,0.00,190.0,20.0,0,0,0,0.0
Status,1732152797000,27,25,6,26,1575420030,0.00,165.0,11.0,0,0,0,0.0
Status,1732152797000,27,26,6,6,1575420030,0.00,324.0,8.0,0,0,0,0.0
Fix,GPS,37.4253833333,-122.1582133333,25.000000000000004,0.0,4.4,0.0,1732152798000,3.0,60.5,31682091000000,40.7,0,,,
Raw,1732152797999,77278000000,,78.08998814021564,-1416187938721999872,0.0,78.08998814021564,1140.436804746202,0.0,0,2,0.0,16431,351215917785710,1797,14.399999618530273,771.8488839851603,0.14999,16,0.0,0.0,1575420030,,,,0,0.0,1,6.0,14.399999618530273,0.0,0.0,0.0,66.7128,C,31682091000000,
Raw,1732152797999,77278000000,,78.08998814021564,-1416187938721999872,0.0,78.08998814021564,1140.436804746202,0.0,0,30,0.0,16431,351215924566868,396,23.924999237060547,910.449763735378,0.14999,16,0.0,0.0,1575420030,,,,0,8.521825181113625,1,6.0,23.924999237060547,0.0,0.0,0.0,66.7128,C,31682091000000,
Raw,1732152797999,77278000000,,78.08998814021564,-1416187938721999872,0.0,78.08998814021564,1140.436804746202,0.0,0,15,0.0,16431,351215924413311,487,19.354000091552734,608.5196759553919,0.14999,16,0.0,0.0,1575420030,,,,0,2.724908606884275,1,6.0,19.354000091552734,0.0,0.0,0.0,66.7128,C,31682091000000,
Raw,1732152797999,77278000000,,78.08998814021564,-1416187938721999872,0.0,78.08998814021564,1140.436804746202,0.0,0,12,0.0,17,112029,396,22.724000930786133,-206.8301743811763,0.14999,16,0.0,0.0,1575420030,,,,0,6.677527345120094,1,6.0,22.724000930786133,0.0,0.0,0.0,66.7128,C,31682091000000,
Raw,1732152797999,77278000000,,78.08998814021564,-1416187938721999872,0.0,78.08998814021564,1140.436804746202,0.0,0,8,0.0,17,917783,396,5.0,980.796934012991,0.14999,16,0.0,0.0,1605374980,,,,0,11.813547114120755,3,6.0,23.0,0.0,0.0,15.934386891594238,66.7128,C,31682091000000,
Raw,1732152797999,77278000000,,78.08998814021564,-1416187938721999872,0.0,78.08998814021564,1140.436804746202,0.0,0,6,0.0,16431,351215920742974,396,25.68400001525879,-314.2453312074918,0.14999,16,0.0,0.0,1575420030,,,,0,11.001696990393366,1,6.0,25.68400001525879,0.0,0.0,0.0,66.7128,C,31682091000000,
Raw,1732152797999,77278000000,,78.08998814021564,-1416187938721999872,0.0,78.08998814021564,1140.436804746202,0.0,0,13,0.0,16431,351215927832259,487,18.888999938964844,794.9081472039313,0.14999,16,0.0,0.0,1575420030,,,,0,0.242476098989858,1,6.0,18.888999938964844,0.0,0.0,0.0,66.7128,C,31682091000000,
Fix,FLP,37.4254415000,-122.1581650000,3.10996247931182,1.8345168,4.416,180.0,1732152798243,3.0,60.5,31682091000000,16.020554,0,,,
Status,1732152798000,27,0,1,17,1575420030,0.00,60.0,75.0,0,0,0,0.0
Status,1732152798000,27,1,1,19,1575420030,0.00,203.0,68.0,0,0,0,0.0
Status,1732152798000,27,2,1,22,1575420030,0.00,27.0,64.0,0,0,0,0.0
Status,1732152798000,27,3,1,14,1575420030,0.00,60.0,48.0,0,0,0,0.0
Status,1732152798000,27,4,1,13,1575420030,28.00,227.0,43.0,1,0,0,23.0
Status,1732152798000,27,5,1,30,1575420030,27.70,135.0,30.0,1,0,0,22.7
Status,1732152798000,27,6,1,15,1575420030,24.40,268.0,28.0,1,0,0,19.4
Status,1732152798000,27,7,1,24,1575420030,0.00,313.0,22.0,0,0,0,0.0
Status,1732152798000,27,8,1,6,1575420030,31.50,159.0,17.0,1,0,0,26.5
Status,1732152798000,27,9,1,2,1575420030,18.20,43.0,14.0,1,0,0,13.200001
Status,1732152798000,27,10,1,12,1575420030,25.30,271.0,3.0,0,0,0,20.3
Status,1732152798000,27,11,1,21,1575420030,0.00,30.0,1.0,0,0,0,0.0
Status,1732152798000,27,12,3,20,1602000000,0.00,101.0,57.0,0,0,0,0.0
Status,1732152798000,27,13,3,11,1602000000,0.00,316.0,33.0,0,0,0,0.0
Status,1732152798000,27,14,3,9,1602000000,0.00,88.0,29.0,0,0,0,0.0
Status,1732152798000,27,15,3,19,1602000000,0.00,29.0,18.0,0,0,0,0.0
Status,1732152798000,27,16,3,8,1602000000,27.80,241.0,17.0,1,0,0,22.8
Status,1732152798000,27,17,3,17,1602000000,21.60,0.0,0.0,0,0,0,16.6
Status,1732152798000,27,18,6,21,1575420030,0.00,357.0,68.0,0,0,0,0.0
Status,1732152798000,27,19,6,19,1575420030,0.00,237.0,42.0,0,0,0,0.0
Status,1732152798000,27,20,6,13,1575420030,0.00,115.0,33.0,0,0,0,0.0
Status,1732152798000,27,21,6,27,1575420030,0.00,69.0,30.0,0,0,0,0.0
Status,1732152798000,27,22,6,4,1575420030,0.00,307.0,25.0,0,0,0,0.0
Status,1732152798000,27,23,6,15,1575420030,0.00,56.0,23.0,0,0,0,0.0
Status,1732152798000,27,24,6,29,1575420030,0.00,190.0,20.0,0,0,0,0.0
Status,1732152798000,27,25,6,26,1575420030,0.00,165.0,11.0,0,0,0,0.0
Status,1732152798000,27,26,6,6,1575420030,0.00,324.0,8.0,0,0,0,0.0
Fix,GPS,37.4253733333,-122.1582250000,25.099999999999998,0.0,4.5,0.0,1732152799000,3.2,71.3,31683091000000,40.8,0,,,
Raw,1732152798999,78278000000,,78.75790142981977,-1416187938721999872,0.0,78.75790142981977,1136.4741289532785,0.0,0,2,0.0,16431,351216917783135,1797,13.199999809265137,771.6922262056984,0.14999,16,0.0,0.0,1575420030,,,,0,0.0,1,6.0,13.199999809265137,0.0,0.0,0.0,66.7128,C,31683091000000,
Raw,1732152798999,78278000000,,78.75790142981977,-1416187938721999872,0.0,78.75790142981977,1136.4741289532785,0.0,0,30,0.0,16431,351216924563832,396,22.687000274658203,909.509073723947,0.14999,16,0.0,0.0,1575420030,,,,0,6.615038660937113,1,6.0,22.687000274658203,0.0,0.0,0.0,66.7128,C,31683091000000,
Raw,1732152798999,78278000000,,78.75790142981977,-1416187938721999872,0.0,78.75790142981977,1136.4741289532785,0.0,0,15,0.0,16431,351216924411287,487,19.4060001373291,607.7257945391863,0.14999,16,0.0,0.0,1575420030,,,,0,2.919014777031833,1,6.0,19.4060001373291,0.0,0.0,0.0,66.7128,C,31683091000000,
Raw,1732152798999,78278000000,,78.75790142981977,-1416187938721999872,0.0,78.75790142981977,1136.4741289532785,0.0,0,12,0.0,17,112721,487,20.305999755859375,-208.01091502916714,0.14999,16,0.0,0.0,1575420030,,,,0,2.8225038992460054,1,6.0,20.305999755859375,0.0,0.0,0.0,66.7128,C,31683091000000,
Raw,1732152798999,78278000000,,78.75790142981977,-1416187938721999872,0.0,78.75790142981977,1136.4741289532785,0.0,0,8,0.0,17,914519,487,5.0,979.334357419005,0.14999,16,0.0,0.0,1605374980,,,,0,8.262525637826272,3,6.0,18.0,0.0,0.0,15.914502951613592,66.7128,C,31683091000000,
Raw,1732152798999,78278000000,,78.75790142981977,-1416187938721999872,0.0,78.75790142981977,1136.4741289532785,0.0,0,6,0.0,16431,351216920744019,316,26.549999237060547,-315.16032971475835,0.14999,16,0.0,0.0,1575420030,,,,0,12.16862934776728,1,6.0,26.549999237060547,0.0,0.0,0.0,66.7128,C,31683091000000,
Raw,1732152798999,78278000000,,78.75790142981977,-1416187938721999872,0.0,78.75790142981977,1136.4741289532785,0.0,0,13,0.0,16431,351216927829609,396,23.049999237060547,792.0738121477589,0.14999,16,0.0,0.0,1575420030,,,,0,7.22057226599239,1,6.0,23.049999237060547,0.0,0.0,0.0,66.7128,C,31683091000000,
Fix,FLP,37.4253985000,-122.1581919000,3.027005434722433,2.0286055,4.433,180.0,1732152799243,3.2,71.3,31683091000000,16.092386,0,,,
Status,1732152799000,27,0,1,17,1575420030,0.00,60.0,75.0,0,0,0,0.0
Status,1732152799000,27,1,1,19,1575420030,0.00,203.0,68.0,0,0,0,0.0
Status,1732152799000,27,2,1,22,1575420030,0.00,27.0,64.0,0,0,0,0.0
Status,1732152799000,27,3,1,14,1575420030,0.00,60.0,48.0,0,0,0,0.0
Status,1732152799000,27,4,1,13,1575420030,26.10,227.0,43.0,1,0,0,21.1
Status,1732152799000,27,5,1,30,1575420030,29.20,135.0,30.0,1,0,0,24.2
Status,1732152799000,27,6,1,15,1575420030,24.40,268.0,28.0,1,0,0,19.4
Status,1732152799000,27,7,1,24,1575420030,0.00,313.0,22.0,0,0,0,0.0
Status,1732152799000,27,8,1,6,1575420030,28.20,159.0,17.0,1,0,0,23.2
Status,1732152799000,27,9,1,2,1575420030,18.20,43.0,14.0,1,0,0,13.200001
Status,1732152799000,27,10,1,12,1575420030,25.70,271.0,3.0,0,0,0,20.7
Status,1732152799000,27,11,1,21,1575420030,0.00,30.0,1.0,0,0,0,0.0
Status,1732152799000,27,12,3,20,1602000000,0.00,101.0,57.0,0,0,0,0.0
Status,1732152799000,27,13,3,11,1602000000,0.00,316.0,33.0,0,0,0,0.0
Status,1732152799000,27,14,3,9,1602000000,0.00,88.0,29.0,0,0,0,0.0
Status,1732152799000,27,15,3,19,1602000000,0.00,29.0,18.0,0,0,0,0.0
Status,1732152799000,27,16,3,8,1602000000,23.70,241.0,17.0,1,0,0,18.7
Status,1732152799000,27,17,3,17,1602000000,21.60,0.0,0.0,0,0,0,16.6
Status,1732152799000,27,18,6,21,1575420030,0.00,357.0,68.0,0,0,0,0.0
Status,1732152799000,27,19,6,19,1575420030,0.00,237.0,42.0,0,0,0,0.0
Status,1732152799000,27,20,6,13,1575420030,0.00,115.0,33.0,0,0,0,0.0
Status,1732152799000,27,21,6,27,1575420030,0.00,69.0,30.0,0,0,0,0.0
Status,1732152799000,27,22,6,4,1575420030,22.10,307.0,25.0,1,0,0,17.1
Status,1732152799000,27,23,6,15,1575420030,0.00,56.0,23.0,0,0,0,0.0
Status,1732152799000,27,24,6,29,1575420030,0.00,190.0,20.0,0,0,0,0.0
Status,1732152799000,27,25,6,26,1575420030,0.00,165.0,11.0,0,0,0,0.0
Status,1732152799000,27,26,6,6,1575420030,0.00,324.0,8.0,0,0,0,0.0
Fix,GPS,37.4253766667,-122.1582316667,25.3,0.0,4.5,0.0,1732152800000,3.3,179.9,31684091000000,41.1,0,,,
Raw,1732152799999,79278000000,,83.32752237981883,-1416187938721999872,0.0,83.32752237981883,1130.3527250433249,0.0,0,2,0.0,16431,351217917780563,1797,13.199999809265137,770.3739686457244,0.14999,16,0.0,0.0,1575420030,,,,0,0.0,1,6.0,13.199999809265137,0.0,0.0,0.0,66.7128,C,31684091000000,
Raw,1732152799999,79278000000,,83.32752237981883,-1416187938721999872,0.0,83.32752237981883,1130.3527250433249,0.0,0,30,0.0,16431,351217924560804,487,24.207000732421875,907.9448188501382,0.14999,16,0.0,0.0,1575420030,,,,0,8.9155873177613,1,6.0,24.207000732421875,0.0,0.0,0.0,66.7128,C,31684091000000,
Raw,1732152799999,79278000000,,83.32752237981883,-1416187938721999872,0.0,83.32752237981883,1130.3527250433249,0.0,0,15,0.0,16431,351217924409261,487,19.382999420166016,605.3251487983391,0.14999,16,0.0,0.0,1575420030,,,,0,0.37211864954826535,1,6.0,19.382999420166016,0.0,0.0,0.0,66.7128,C,31684091000000,
Raw,1732152799999,79278000000,,83.32752237981883,-1416187938721999872,0.0,83.32752237981883,1130.3527250433249,0.0,0,12,0.0,17,113415,487,20.665000915527344,-206.7111014604287,0.14999,16,0.0,0.0,1575420030,,,,0,3.3861106246026926,1,6.0,20.665000915527344,0.0,0.0,0.0,66.7128,C,31684091000000,
Raw,1732152799999,79278000000,,83.32752237981883,-1416187938721999872,0.0,83.32752237981883,1130.3527250433249,0.0,0,4,0.0,16431,351217912356379,487,17.100000381469727,149.54460104356394,0.14999,16,0.0,0.0,1575420030,,,,0,0.0,6,6.0,17.100000381469727,0.0,0.0,-21.267609267002367,66.7128,C,31684091000000,
Raw,1732152799999,79278000000,,83.32752237981883,-1416187938721999872,0.0,83.32752237981883,1130.3527250433249,0.0,0,8,0.0,17,911253,797,5.0,980.3211407045484,0.14999,16,0.0,0.0,1605374980,,,,0,2.153743346445547,3,6.0,17.0,0.0,0.0,16.201679373145346,66.7128,C,31684091000000,
Raw,1732152799999,79278000000,,83.32752237981883,-1416187938721999872,0.0,83.32752237981883,1130.3527250433249,0.0,0,6,0.0,16431,351217920745071,487,23.158000946044922,-315.70575152107006,0.14999,16,0.0,0.0,1575420030,,,,0,7.33677319152501,1,6.0,23.158000946044922,0.0,0.0,0.0,66.7128,C,31684091000000,
Raw,1732152799999,79278000000,,83.32752237981883,-1416187938721999872,0.0,83.32752237981883,1130.3527250433249,0.0,0,13,0.0,16431,351217927826970,487,21.051000595092773,790.3961058215639,0.14999,16,0.0,0.0,1575420030,,,,0,4.000520500763228,1,6.0,21.051000595092773,0.0,0.0,0.0,66.7128,C,31684091000000,
Fix,FLP,37.4253801000,-122.1582098000,2.484818577832553,1.7088511,4.45,180.0,1732152800243,3.3,179.9,31684091000000,18.103022,0,,,
Status,1732152800000,27,0,1,17,1575420030,0.00,60.0,75.0,0,0,0,0.0
Status,1732152800000,27,1,1,19,1575420030,0.00,203.0,68.0,0,0,0,0.0
Status,1732152800000,27,2,1,22,1575420030,0.00,27.0,64.0,0,0,0,0.0
Status,1732152800000,27,3,1,14,1575420030,0.00,60.0,48.0,0,0,0,0.0
Status,1732152800000,27,4,1,13,1575420030,24.80,227.0,43.0,1,0,0,19.8
Status,1732152800000,27,5,1,30,1575420030,24.10,135.0,30.0,1,0,0,19.1
Status,1732152800000,27,6,1,15,1575420030,28.20,268.0,28.0,1,0,0,23.2
Status,1732152800000,27,7,1,24,1575420030,0.00,313.0,22.0,0,0,0,0.0
Status,1732152800000,27,8,1,6,1575420030,23.40,159.0,17.0,1,0,0,18.4
Status,1732152800000,27,9,1,2,1575420030,18.50,43.0,14.0,1,0,0,13.5
Status,1732152800000,27,10,1,12,1575420030,25.30,271.0,3.0,0,0,0,20.3
Status,1732152800000,27,11,1,21,1575420030,0.00,30.0,1.0,0,0,0,0.0
Status,1732152800000,27,12,3,20,1602000000,0.00,101.0,57.0,0,0,0,0.0
Status,1732152800000,27,13,3,11,1602000000,0.00,316.0,33.0,0,0,0,0.0
Status,1732152800000,27,14,3,9,1602000000,0.00,88.0,29.0,0,0,0,0.0
Status,1732152800000,27,15,3,19,1602000000,0.00,29.0,18.0,0,0,0,0.0
Status,1732152800000,27,16,3,8,1602000000,23.70,241.0,17.0,1,0,0,18.7
Status,1732152800000,27,17,3,17,1602000000,22.40,0.0,0.0,0,0,0,17.4
Status,1732152800000,27,18,6,21,1575420030,0.00,357.0,68.0,0,0,0,0.0
Status,1732152800000,27,19,6,19,1575420030,14.00,237.0,42.0,0,0,0,9.0
Status,1732152800000,27,20,6,13,1575420030,0.00,115.0,33.0,0,0,0,0.0
Status,1732152800000,27,21,6,27,1575420030,0.00,69.0,30.0,0,0,0,0.0
Status,1732152800000,27,22,6,4,1575420030,21.50,307.0,25.0,1,0,0,16.5
Status,1732152800000,27,23,6,15,1575420030,0.00,56.0,23.0,0,0,0,0.0
Status,1732152800000,27,24,6,29,1575420030,0.00,190.0,20.0,0,0,0,0.0
Status,1732152800000,27,25,6,26,1575420030,0.00,165.0,11.0,0,0,0,0.0
Status,1732152800000,27,26,6,6,1575420030,0.00,324.0,8.0,0,0,0,0.0
Fix,GPS,37.4253733333,-122.1582366667,25.500000000000004,0.0,4.6,0.0,1732152801000,3.4,179.9,31685091000000,41.1,0,,,
Raw,1732152800999,80278000000,,84.23414654687649,-1416187938721999872,0.0,84.23414654687649,1128.089122661511,0.0,0,2,0.0,16431,351218917777995,1797,13.5,768.9275323154255,0.14999,16,0.0,0.0,1575420030,,,,0,0.0,1,6.0,13.5,0.0,0.0,0.0,66.7128,C,31685091000000,
Raw,1732152800999,80278000000,,84.23414654687649,-1416187938721999872,0.0,84.23414654687649,1128.089122661511,0.0,0,30,0.0,16431,351218924557770,797,19.148000717163086,910.2312233455236,0.14999,16,0.0,0.0,1575420030,,,,0,0.7498255327557404,1,6.0,19.148000717163086,0.0,0.0,0.0,66.7128,C,31685091000000,
Raw,1732152800999,80278000000,,84.23414654687649,-1416187938721999872,0.0,84.23414654687649,1128.089122661511,0.0,0,15,0.0,16431,351218924407232,396,23.229000091552734,607.1531481009752,0.14999,16,0.0,0.0,1575420030,,,,0,7.451440066583858,1,6.0,23.229000091552734,0.0,0.0,0.0,66.7128,C,31685091000000,
Raw,1732152800999,80278000000,,84.23414654687649,-1416187938721999872,0.0,84.23414654687649,1128.089122661511,0.0,0,12,0.0,17,114107,797,20.253000259399414,-209.0591098157093,0.14999,16,0.0,0.0,1575420030,,,,0,2.724908606884275,1,6.0,20.253000259399414,0.0,0.0,0.0,66.7128,C,31685091000000,
Raw,1732152800999,80278000000,,84.23414654687649,-1416187938721999872,0.0,84.23414654687649,1128.089122661511,0.0,0,19,0.0,16431,351218918010573,2001,9.0,684.2865698660131,0.14999,16,0.0,0.0,1575420030,,,,0,0.0,6,6.0,9.0,0.0,0.0,-21.568688345337687,66.7128,C,31685091000000,
Raw,1732152800999,80278000000,,84.23414654687649,-1416187938721999872,0.0,84.23414654687649,1128.089122661511,0.0,0,4,0.0,16431,351218912355880,797,16.5,148.82500663487892,0.14999,16,0.0,0.0,1575420030,,,,0,0.0,6,6.0,16.5,0.0,0.0,-21.568688345337687,66.7128,C,31685091000000,
Raw,1732152800999,80278000000,,84.23414654687649,-1416187938721999872,0.0,84.23414654687649,1128.089122661511,0.0,0,8,0.0,17,907986,797,5.0,978.6296945812043,0.14999,16,0.0,0.0,1605374980,,,,0,2.153743346445547,3,6.0,17.0,0.0,0.0,16.631405377925653,66.7128,C,31685091000000,
Raw,1732152800999,80278000000,,84.23414654687649,-1416187938721999872,0.0,84.23414654687649,1128.089122661511,0.0,0,6,0.0,16431,351218920746129,797,18.405000686645508,-318.5441284594529,0.14999,16,0.0,0.0,1575420030,,,,0,0.0,1,6.0,18.405000686645508,0.0,0.0,0.0,66.7128,C,31685091000000,
Raw,1732152800999,80278000000,,84.23414654687649,-1416187938721999872,0.0,84.23414654687649,1128.089122661511,0.0,0,13,0.0,16431,351218927824320,487,19.812000274658203,792.3372313676725,0.14999,16,0.0,0.0,1575420030,,,,0,1.9019608002851363,1,6.0,19.812000274658203,0.0,0.0,0.0,66.7128,C,31685091000000,
Fix,FLP,37.4253709000,-122.1582218000,2.56777562242194,1.3248981,4.483,180.0,1732152801243,3.4,179.9,31685091000000,17.247229,0,,,
Status,1732152801000,27,0,1,17,1575420030,0.00,60.0,75.0,0,0,0,0.0
Status,1732152801000,27,1,1,19,1575420030,0.00,203.0,68.0,0,0,0,0.0
Status,1732152801000,27,2,1,22,1575420030,0.00,27.0,64.0,0,0,0,0.0
Status,1732152801000,27,3,1,14,1575420030,0.00,60.0,48.0,0,0,0,0.0
Status,1732152801000,27,4,1,13,1575420030,28.00,227.0,43.0,1,0,0,23.0
Status,1732152801000,27,5,1,30,1575420030,24.10,135.0,30.0,1,0,0,19.1
Status,1732152801000,27,6,1,15,1575420030,28.20,268.0,28.0,1,0,0,23.2
Status,1732152801000,27,7,1,24,1575420030,0.00,313.0,22.0,0,0,0,0.0
Status,1732152801000,27,8,1,6,1575420030,23.40,159.0,17.0,1,0,0,18.4
Status,1732152801000,27,9,1,2,1575420030,18.50,43.0,14.0,1,0,0,13.5
Status,1732152801000,27,10,1,12,1575420030,24.70,271.0,3.0,0,0,0,19.7
Status,1732152801000,27,11,1,21,1575420030,0.00,30.0,1.0,0,0,0,0.0
Status,1732152801000,27,12,3,20,1602000000,0.00,101.0,57.0,0,0,0,0.0
Status,1732152801000,27,13,3,11,1602000000,0.00,316.0,33.0,0,0,0,0.0
Status,1732152801000,27,14,3,9,1602000000,0.00,89.0,29.0,0,0,0,0.0
Status,1732152801000,27,15,3,19,1602000000,0.00,29.0,18.0,0,0,0,0.0
Status,1732152801000,27,16,3,8,1602000000,19.30,241.0,17.0,1,0,0,14.299999
Status,1732152801000,27,17,3,17,1602000000,22.40,0.0,0.0,0,0,0,17.4
Status,1732152801000,27,18,6,21,1575420030,0.00,357.0,68.0,0,0,0,0.0
Status,1732152801000,27,19,6,19,1575420030,14.00,237.0,42.0,0,0,0,9.0
Status,1732152801000,27,20,6,13,1575420030,0.00,115.0,33.0,0,0,0,0.0
Status,1732152801000,27,21,6,27,1575420030,0.00,69.0,30.0,0,0,0,0.0
Status,1732152801000,27,22,6,4,1575420030,21.00,307.0,25.0,1,0,0,16.0
Status,1732152801000,27,23,6,15,1575420030,0.00,56.0,23.0,0,0,0,0.0
Status,1732152801000,27,24,6,29,1575420030,0.00,190.0,20.0,0,0,0,0.0
Status,1732152801000,27,25,6,26,1575420030,0.00,165.0,11.0,0,0,0,0.0
Status,1732152801000,27,26,6,6,1575420030,0.00,324.0,8.0,0,0,0,0.0
Fix,GPS,37.4253783333,-122.1582400000,25.599999999999998,0.0,4.6,0.0,1732152802000,3.4,179.9,31686091000000,40.8,0,,,
Raw,1732152801999,81278000000,,82.32397599775248,-1416187938721999872,0.0,82.32397599775248,1127.1708862954679,0.0,0,2,0.0,16431,351219917775430,1797,13.5,768.297416816362,0.14999,16,0.0,0.0,1575420030,,,,0,0.0,1,6.0,13.5,0.0,0.0,0.0,66.7128,C,31686091000000,
Raw,1732152801999,81278000000,,82.32397599775248,-1416187938721999872,0.0,82.32397599775248,1127.1708862954679,0.0,0,30,0.0,16431,351219924554735,797,19.148000717163086,909.8293580453025,0.14999,16,0.0,0.0,1575420030,,,,0,0.7498255327557404,1,6.0,19.148000717163086,0.0,0.0,0.0,66.7128,C,31686091000000,
Raw,1732152801999,81278000000,,82.32397599775248,-1416187938721999872,0.0,82.32397599775248,1127.1708862954679,0.0,0,15,0.0,16431,351219924405209,487,23.229000091552734,607.2037877746446,0.14999,16,0.0,0.0,1575420030,,,,0,7.451440066583858,1,6.0,23.229000091552734,0.0,0.0,0.0,66.7128,C,31686091000000,
Raw,1732152801999,81278000000,,82.32397599775248,-1416187938721999872,0.0,82.32397599775248,1127.1708862954679,0.0,0,12,0.0,17,114807,487,19.695999145507812,-209.35839493293759,0.14999,16,0.0,0.0,1575420030,,,,0,1.6834363278328164,1,6.0,19.695999145507812,0.0,0.0,0.0,66.7128,C,31686091000000,
Raw,1732152801999,81278000000,,82.32397599775248,-1416187938721999872,0.0,82.32397599775248,1127.1708862954679,0.0,0,19,0.0,16431,351219918008291,1934,9.0,683.4623046456057,0.14999,16,0.0,0.0,1575420030,,,,0,0.0,6,6.0,9.0,0.0,0.0,-26.8602555297666,66.7128,C,31686091000000,
Raw,1732152801999,81278000000,,82.32397599775248,-1416187938721999872,0.0,82.32397599775248,1127.1708862954679,0.0,0,4,0.0,16431,351219912355386,487,16.0,149.764175133179,0.14999,16,0.0,0.0,1575420030,,,,0,0.0,6,6.0,16.0,0.0,0.0,-26.8602555297666,66.7128,C,31686091000000,
Raw,1732152801999,81278000000,,82.32397599775248,-1416187938721999872,0.0,82.32397599775248,1127.1708862954679,0.0,0,8,0.0,17,904721,797,5.0,978.9780139446099,0.14999,16,0.0,0.0,1605374980,,,,0,0.0,3,6.0,15.0,0.0,0.0,17.01348838205022,66.7128,C,31686091000000,
Raw,1732152801999,81278000000,,82.32397599775248,-1416187938721999872,0.0,82.32397599775248,1127.1708862954679,0.0,0,6,0.0,16431,351219920747186,797,18.405000686645508,-317.9546640745736,0.14999,16,0.0,0.0,1575420030,,,,0,0.0,1,6.0,18.405000686645508,0.0,0.0,0.0,66.7128,C,31686091000000,
Raw,1732152801999,81278000000,,82.32397599775248,-1416187938721999872,0.0,82.32397599775248,1127.1708862954679,0.0,0,13,0.0,16431,351219927821660,487,22.97800064086914,792.2581591432822,0.14999,16,0.0,0.0,1575420030,,,,0,7.102795686730332,1,6.0,22.97800064086914,0.0,0.0,0.0,66.7128,C,31686091000000,
Fix,FLP,37.4253708000,-122.1582300000,2.625222872572304,0.8826106,4.5,180.0,1732152802243,3.4,179.9,31686091000000,14.016302,0,,,
Fix,FLP,37.4253731000,-122.1582336000,2.708692150196653,0.66458356,4.533,180.0,1732152802551,3.4,179.9,31686399000000,14.210018,0,,,
Fix,NLP,37.4257296000,-122.1580922000,5.400000095367432,,45.6,,1732152802551,,,31686399000000,6.312708,0,,,
Status,1732152802000,27,0,1,17,1575420030,0.00,60.0,75.0,0,0,0,0.0
Status,1732152802000,27,1,1,19,1575420030,0.00,203.0,68.0,0,0,0,0.0
Status,1732152802000,27,2,1,22,1575420030,0.00,27.0,64.0,0,0,0,0.0
Status,1732152802000,27,3,1,14,1575420030,0.00,60.0,48.0,0,0,0,0.0
Status,1732152802000,27,4,1,13,1575420030,25.50,227.0,43.0,1,0,0,20.5
Status,1732152802000,27,5,1,30,1575420030,24.10,135.0,30.0,1,0,0,19.1
Status,1732152802000,27,6,1,15,1575420030,28.20,268.0,28.0,1,0,0,23.2
Status,1732152802000,27,7,1,24,1575420030,24.50,313.0,22.0,1,0,0,19.5
Status,1732152802000,27,8,1,6,1575420030,23.40,159.0,17.0,1,0,0,18.4
Status,1732152802000,27,9,1,2,1575420030,18.50,43.0,14.0,1,0,0,13.5
Status,1732152802000,27,10,1,12,1575420030,22.60,271.0,3.0,0,0,0,17.6
Status,1732152802000,27,11,1,21,1575420030,0.00,30.0,1.0,0,0,0,0.0
Status,1732152802000,27,12,3,20,1602000000,0.00,101.0,57.0,0,0,0,0.0
Status,1732152802000,27,13,3,11,1602000000,0.00,316.0,33.0,0,0,0,0.0
Status,1732152802000,27,14,3,9,1602000000,0.00,89.0,29.0,0,0,0,0.0
Status,1732152802000,27,15,3,19,1602000000,0.00,29.0,18.0,0,0,0,0.0
Status,1732152802000,27,16,3,8,1602000000,19.30,241.0,17.0,1,0,0,14.299999
Status,1732152802000,27,17,3,17,1602000000,22.70,0.0,0.0,0,0,0,17.7
Status,1732152802000,27,18,6,21,1575420030,0.00,357.0,68.0,0,0,0,0.0
Status,1732152802000,27,19,6,19,1575420030,14.00,237.0,42.0,0,0,0,9.0
Status,1732152802000,27,20,6,13,1575420030,0.00,115.0,33.0,0,0,0,0.0
Status,1732152802000,27,21,6,27,1575420030,0.00,69.0,30.0,0,0,0,0.0
Status,1732152802000,27,22,6,4,1575420030,22.90,307.0,25.0,1,0,0,17.9
Status,1732152802000,27,23,6,15,1575420030,0.00,56.0,23.0,0,0,0,0.0
Status,1732152802000,27,24,6,29,1575420030,0.00,190.0,20.0,0,0,0,0.0
Status,1732152802000,27,25,6,26,1575420030,0.00,165.0,11.0,0,0,0,0.0
Status,1732152802000,27,26,6,6,1575420030,0.00,324.0,8.0,0,0,0,0.0
Fix,GPS,37.4253816667,-122.1582500000,25.8,0.0,4.6,0.0,1732152803000,3.2,179.9,31687091000000,40.7,0,,,
Raw,1732152802999,82278000000,,81.51583915433504,-1416187938721999872,0.0,81.51583915433504,1125.1266048791874,0.0,0,24,0.0,16431,351220922884432,487,19.514999389648438,-270.88081322449426,0.14999,16,0.0,0.0,1575420030,,,,0,1.4592718960001188,1,6.0,19.514999389648438,0.0,0.0,0.0,66.7128,C,31687091000000,
Raw,1732152802999,82278000000,,81.51583915433504,-1416187938721999872,0.0,81.51583915433504,1125.1266048791874,0.0,0,2,0.0,16431,351220917772868,1797,13.5,768.3658500634401,0.14999,16,0.0,0.0,1575420030,,,,0,0.0,1,6.0,13.5,0.0,0.0,0.0,66.7128,C,31687091000000,
Raw,1732152802999,82278000000,,81.51583915433504,-1416187938721999872,0.0,81.51583915433504,1125.1266048791874,0.0,0,30,0.0,16431,351220924551692,487,19.124000549316406,907.9923922683378,0.14999,16,0.0,0.0,1575420030,,,,0,0.0,1,6.0,19.124000549316406,0.0,0.0,0.0,66.7128,C,31687091000000,
Raw,1732152802999,82278000000,,81.51583915433504,-1416187938721999872,0.0,81.51583915433504,1125.1266048791874,0.0,0,15,0.0,16431,351220924403189,396,23.18199920654297,606.3706954551573,0.14999,16,0.0,0.0,1575420030,,,,0,6.031438561273179,1,6.0,23.18199920654297,0.0,0.0,0.0,66.7128,C,31687091000000,
Raw,1732152802999,82278000000,,81.51583915433504,-1416187938721999872,0.0,81.51583915433504,1125.1266048791874,0.0,0,12,0.0,17,115508,797,17.551000595092773,-211.66705300968786,0.14999,16,0.0,0.0,1575420030,,,,0,0.0,1,6.0,17.551000595092773,0.0,0.0,0.0,66.7128,C,31687091000000,
Raw,1732152802999,82278000000,,81.51583915433504,-1416187938721999872,0.0,81.51583915433504,1125.1266048791874,0.0,0,19,0.0,16431,351220918006014,1934,9.0,682.3156180166973,0.14999,16,0.0,0.0,1575420030,,,,0,0.0,6,6.0,9.0,0.0,0.0,-30.35077362654918,66.7128,C,31687091000000,
Raw,1732152802999,82278000000,,81.51583915433504,-1416187938721999872,0.0,81.51583915433504,1125.1266048791874,0.0,0,4,0.0,16431,351220912354882,797,17.899999618530273,151.17410676294045,0.14999,16,0.0,0.0,1575420030,,,,0,0.7498255327557404,6,6.0,17.899999618530273,0.0,0.0,-30.35077362654918,66.7128,C,31687091000000,
Raw,1732152802999,82278000000,,81.51583915433504,-1416187938721999872,0.0,81.51583915433504,1125.1266048791874,0.0,0,8,0.0,17,901460,797,5.0,976.692054143411,0.14999,16,0.0,0.0,1605374980,,,,0,0.0,3,6.0,17.0,0.0,0.0,17.813736916155428,66.7128,C,31687091000000,
Raw,1732152802999,82278000000,,81.51583915433504,-1416187938721999872,0.0,81.51583915433504,1125.1266048791874,0.0,0,6,0.0,16431,351220920748244,797,18.405000686645508,-318.1444467047936,0.14999,16,0.0,0.0,1575420030,,,,0,0.0,1,6.0,18.405000686645508,0.0,0.0,0.0,66.7128,C,31687091000000,
Raw,1732152802999,82278000000,,81.51583915433504,-1416187938721999872,0.0,81.51583915433504,1125.1266048791874,0.0,0,13,0.0,16431,351220927819021,487,20.459999084472656,790.8513983004271,0.14999,16,0.0,0.0,1575420030,,,,0,3.0144650742567314,1,6.0,20.459999084472656,0.0,0.0,0.0,66.7128,C,31687091000000,
Fix,FLP,37.4253752000,-122.1582398000,3.6102667010896967,0.43328413,4.542,180.0,1732152803243,3.2,179.9,31687091000000,18.772532,0,,,
Status,1732152803000,27,0,1,17,1575420030,0.00,60.0,75.0,0,0,0,0.0
Status,1732152803000,27,1,1,19,1575420030,0.00,203.0,68.0,0,0,0,0.0
Status,1732152803000,27,2,1,22,1575420030,0.00,27.0,64.0,0,0,0,0.0
Status,1732152803000,27,3,1,14,1575420030,0.00,60.0,48.0,0,0,0,0.0
Status,1732152803000,27,4,1,13,1575420030,25.30,227.0,43.0,1,0,0,20.3
Status,1732152803000,27,5,1,30,1575420030,24.10,135.0,30.0,1,0,0,19.1
Status,1732152803000,27,6,1,15,1575420030,25.60,268.0,28.0,1,0,0,20.6
Status,1732152803000,27,7,1,24,1575420030,24.10,313.0,22.0,1,0,0,19.1
Status,1732152803000,27,8,1,6,1575420030,23.30,159.0,17.0,1,0,0,18.3
Status,1732152803000,27,9,1,2,1575420030,15.30,43.0,14.0,1,0,0,10.3
Status,1732152803000,27,10,1,12,1575420030,22.20,271.0,3.0,0,0,0,17.2
Status,1732152803000,27,11,1,21,1575420030,0.00,30.0,1.0,0,0,0,0.0
Status,1732152803000,27,12,3,20,1602000000,0.00,101.0,57.0,0,0,0,0.0
Status,1732152803000,27,13,3,11,1602000000,0.00,317.0,33.0,0,0,0,0.0
Status,1732152803000,27,14,3,9,1602000000,0.00,89.0,29.0,0,0,0,0.0
Status,1732152803000,27,15,3,19,1602000000,0.00,29.0,18.0,0,0,0,0.0
Status,1732152803000,27,16,3,8,1602000000,19.30,241.0,17.0,1,0,0,14.299999
Status,1732152803000,27,17,3,17,1602000000,21.20,0.0,0.0,0,0,0,16.2
Status,1732152803000,27,18,6,21,1575420030,0.00,357.0,68.0,0,0,0,0.0
Status,1732152803000,27,19,6,19,1575420030,14.00,237.0,42.0,0,0,0,9.0
Status,1732152803000,27,20,6,13,1575420030,0.00,115.0,33.0,0,0,0,0.0
Status,1732152803000,27,21,6,27,1575420030,0.00,69.0,30.0,0,0,0,0.0
Status,1732152803000,27,22,6,4,1575420030,20.60,307.0,25.0,1,0,0,15.6
Status,1732152803000,27,23,6,15,1575420030,0.00,56.0,23.0,0,0,0,0.0
Status,1732152803000,27,24,6,29,1575420030,0.00,190.0,20.0,0,0,0,0.0
Status,1732152803000,27,25,6,26,1575420030,0.00,165.0,11.0,0,0,0,0.0
Status,1732152803000,27,26,6,6,1575420030,0.00,324.0,8.0,0,0,0,0.0
Fix,GPS,37.4253850000,-122.1582550000,26.000000000000004,0.0,4.6,0.0,1732152804000,3.3,179.9,31688091000000,40.8,0,,,
Raw,1732152803999,83278000000,,81.68561526747062,-1416187938721999872,0.0,81.68561526747062,1123.2103014050174,0.0,0,24,0.0,16431,351221922885357,487,19.08300018310547,-271.1392149354573,0.14999,16,0.0,0.0,1575420030,,,,0,0.6257392847300434,1,6.0,19.08300018310547,0.0,0.0,0.0,66.7128,C,31688091000000,
Raw,1732152803999,83278000000,,81.68561526747062,-1416187938721999872,0.0,81.68561526747062,1123.2103014050174,0.0,0,2,0.0,16431,351221917770304,1797,10.300000190734863,768.4530525106672,0.14999,16,0.0,0.0,1575420030,,,,0,0.0,1,6.0,10.300000190734863,0.0,0.0,0.0,66.7128,C,31688091000000,
Raw,1732152803999,83278000000,,81.68561526747062,-1416187938721999872,0.0,81.68561526747062,1123.2103014050174,0.0,0,30,0.0,16431,351221924548667,797,19.101999282836914,906.2548475020636,0.14999,16,0.0,0.0,1575420030,,,,0,0.0,1,6.0,19.101999282836914,0.0,0.0,0.0,66.7128,C,31688091000000,
Raw,1732152803999,83278000000,,81.68561526747062,-1416187938721999872,0.0,81.68561526747062,1123.2103014050174,0.0,0,15,0.0,16431,351221924401165,487,20.562000274658203,605.4548606963989,0.14999,16,0.0,0.0,1575420030,,,,0,3.2022754103781215,1,6.0,20.562000274658203,0.0,0.0,0.0,66.7128,C,31688091000000,
Raw,1732152803999,83278000000,,81.68561526747062,-1416187938721999872,0.0,81.68561526747062,1123.2103014050174,0.0,0,12,0.0,17,116205,797,17.209999084472656,-208.29630907994846,0.14999,16,0.0,0.0,1575420030,,,,0,0.0,1,6.0,17.209999084472656,0.0,0.0,0.0,66.7128,C,31688091000000,
Raw,1732152803999,83278000000,,81.68561526747062,-1416187938721999872,0.0,81.68561526747062,1123.2103014050174,0.0,0,19,0.0,16431,351221918003739,1934,9.0,681.351931089242,0.14999,16,0.0,0.0,1575420030,,,,0,0.0,6,6.0,9.0,0.0,0.0,-31.347714045655987,66.7128,C,31688091000000,
Raw,1732152803999,83278000000,,81.68561526747062,-1416187938721999872,0.0,81.68561526747062,1123.2103014050174,0.0,0,4,0.0,16431,351221912354381,487,15.600000381469727,148.5402165435083,0.14999,16,0.0,0.0,1575420030,,,,0,0.0,6,6.0,15.600000381469727,0.0,0.0,-31.347714045655987,66.7128,C,31688091000000,
Raw,1732152803999,83278000000,,81.68561526747062,-1416187938721999872,0.0,81.68561526747062,1123.2103014050174,0.0,0,8,0.0,17,898203,797,5.0,974.9619463943903,0.14999,16,0.0,0.0,1605374980,,,,0,0.0,3,6.0,16.0,0.0,0.0,18.215227090595228,66.7128,C,31688091000000,
Raw,1732152803999,83278000000,,81.68561526747062,-1416187938721999872,0.0,81.68561526747062,1123.2103014050174,0.0,0,6,0.0,16431,351221920749318,797,18.334999084472656,-318.6322600750043,0.14999,16,0.0,0.0,1575420030,,,,0,0.0,1,6.0,18.334999084472656,0.0,0.0,0.0,66.7128,C,31688091000000,
Raw,1732152803999,83278000000,,81.68561526747062,-1416187938721999872,0.0,81.68561526747062,1123.2103014050174,0.0,0,13,0.0,16431,351221927816381,797,20.253000259399414,789.2543437847737,0.14999,16,0.0,0.0,1575420030,,,,0,2.724908606884275,1,6.0,20.253000259399414,0.0,0.0,0.0,66.7128,C,31688091000000,
Fix,FLP,37.4253788000,-122.1582463000,5.400000095367432,0.21716587,4.571,180.0,1732152804243,3.3,179.9,31688091000000,17.1973,0,,,
Status,1732152804000,27,0,1,17,1575420030,0.00,60.0,75.0,0,0,0,0.0
Status,1732152804000,27,1,1,19,1575420030,0.00,203.0,68.0,0,0,0,0.0
Status,1732152804000,27,2,1,22,1575420030,0.00,27.0,64.0,0,0,0,0.0
Status,1732152804000,27,3,1,14,1575420030,0.00,60.0,48.0,0,0,0,0.0
Status,1732152804000,27,4,1,13,1575420030,25.30,227.0,43.0,1,0,0,20.3
Status,1732152804000,27,5,1,30,1575420030,24.00,135.0,30.0,1,0,0,19.0
Status,1732152804000,27,6,1,15,1575420030,32.30,268.0,28.0,1,0,0,27.3
Status,1732152804000,27,7,1,24,1575420030,26.20,313.0,22.0,1,0,0,21.2
Status,1732152804000,27,8,1,6,1575420030,23.30,159.0,17.0,1,0,0,18.3
Status,1732152804000,27,9,1,2,1575420030,15.30,43.0,14.0,1,0,0,10.3
Status,1732152804000,27,10,1,12,1575420030,22.20,271.0,3.0,0,0,0,17.2
Status,1732152804000,27,11,1,21,1575420030,0.00,30.0,1.0,0,0,0,0.0
Status,1732152804000,27,12,3,20,1602000000,0.00,101.0,57.0,0,0,0,0.0
Status,1732152804000,27,13,3,11,1602000000,0.00,317.0,33.0,0,0,0,0.0
Status,1732152804000,27,14,3,9,1602000000,0.00,89.0,29.0,0,0,0,0.0
Status,1732152804000,27,15,3,19,1602000000,0.00,29.0,18.0,0,0,0,0.0
Status,1732152804000,27,16,3,8,1602000000,26.30,241.0,17.0,1,0,0,21.3
Status,1732152804000,27,17,3,17,1602000000,26.00,0.0,0.0,0,0,0,21.0
Status,1732152804000,27,18,6,21,1575420030,0.00,357.0,68.0,0,0,0,0.0
Status,1732152804000,27,19,6,19,1575420030,14.00,237.0,42.0,0,0,0,9.0
Status,1732152804000,27,20,6,13,1575420030,0.00,115.0,33.0,0,0,0,0.0
Status,1732152804000,27,21,6,27,1575420030,0.00,69.0,30.0,0,0,0,0.0
Status,1732152804000,27,22,6,4,1575420030,20.60,307.0,25.0,1,0,0,15.6
Status,1732152804000,27,23,6,15,1575420030,0.00,56.0,23.0,0,0,0,0.0
Status,1732152804000,27,24,6,29,1575420030,0.00,190.0,20.0,0,0,0,0.0
Status,1732152804000,27,25,6,26,1575420030,0.00,165.0,11.0,0,0,0,0.0
Status,1732152804000,27,26,6,6,1575420030,0.00,324.0,8.0,0,0,0,0.0
Fix,GPS,37.4254000000,-122.1582533333,26.099999999999998,0.0,4.6,0.0,1732152805000,2.8,179.9,31689091000000,40.7,0,,,
Raw,1732152804999,84278000000,,81.03210606706037,-1416187938721999872,0.0,81.03210606706037,1123.6735785868898,0.0,0,24,0.0,16431,351222922886288,487,21.239999771118164,-270.65920657917,0.14999,16,0.0,0.0,1575420030,,,,0,4.3330353484228965,1,6.0,21.239999771118164,0.0,0.0,0.0,66.7128,C,31689091000000,
Raw,1732152804999,84278000000,,81.03210606706037,-1416187938721999872,0.0,81.03210606706037,1123.6735785868898,0.0,0,2,0.0,16431,351222917767739,1797,10.300000190734863,768.6719645678513,0.14999,16,0.0,0.0,1575420030,,,,0,0.0,1,6.0,10.300000190734863,0.0,0.0,0.0,66.7128,C,31689091000000,
Raw,1732152804999,84278000000,,81.03210606706037,-1416187938721999872,0.0,81.03210606706037,1123.6735785868898,0.0,0,30,0.0,16431,351222924545634,797,19.035999298095703,906.542889682569,0.14999,16,0.0,0.0,1575420030,,,,0,0.0,1,6.0,19.035999298095703,0.0,0.0,0.0,66.7128,C,31689091000000,
Raw,1732152804999,84278000000,,81.03210606706037,-1416187938721999872,0.0,81.03210606706037,1123.6735785868898,0.0,0,15,0.0,16431,351222924399143,316,27.27400016784668,606.1315739869216,0.14999,16,0.0,0.0,1575420030,,,,0,13.108560601291753,1,6.0,27.27400016784668,0.0,0.0,0.0,66.7128,C,31689091000000,
Raw,1732152804999,84278000000,,81.03210606706037,-1416187938721999872,0.0,81.03210606706037,1123.6735785868898,0.0,0,12,0.0,17,116900,797,17.209999084472656,-210.51033136287788,0.14999,16,0.0,0.0,1575420030,,,,0,0.0,1,6.0,17.209999084472656,0.0,0.0,0.0,66.7128,C,31689091000000,
Raw,1732152804999,84278000000,,81.03210606706037,-1416187938721999872,0.0,81.03210606706037,1123.6735785868898,0.0,0,19,0.0,16431,351222918001466,1934,9.0,681.1112764932715,0.14999,16,0.0,0.0,1575420030,,,,0,0.0,6,6.0,9.0,0.0,0.0,-31.7233654167766,66.7128,C,31689091000000,
Raw,1732152804999,84278000000,,81.03210606706037,-1416187938721999872,0.0,81.03210606706037,1123.6735785868898,0.0,0,4,0.0,16431,351222912353886,487,15.600000381469727,147.73296671803806,0.14999,16,0.0,0.0,1575420030,,,,0,0.0,6,6.0,15.600000381469727,0.0,0.0,-31.7233654167766,66.7128,C,31689091000000,
Raw,1732152804999,84278000000,,81.03210606706037,-1416187938721999872,0.0,81.03210606706037,1123.6735785868898,0.0,0,8,0.0,17,894909,396,5.0,976.8025680356748,0.14999,16,0.0,0.0,1605374980,,,,0,6.191713799684881,3,6.0,21.0,0.0,0.0,21.203998543145282,66.7128,C,31689091000000,
Raw,1732152804999,84278000000,,81.03210606706037,-1416187938721999872,0.0,81.03210606706037,1123.6735785868898,0.0,0,6,0.0,16431,351222920750380,487,18.33099937438965,-318.5674505843906,0.14999,16,0.0,0.0,1575420030,,,,0,0.0,1,6.0,18.33099937438965,0.0,0.0,0.0,66.7128,C,31689091000000,
Raw,1732152804999,84278000000,,81.03210606706037,-1416187938721999872,0.0,81.03210606706037,1123.6735785868898,0.0,0,13,0.0,16431,351222927813744,487,20.253000259399414,792.9941533728896,0.14999,16,0.0,0.0,1575420030,,,,0,2.724908606884275,1,6.0,20.253000259399414,0.0,0.0,0.0,66.7128,C,31689091000000,
Fix,FLP,37.4253896000,-122.1582494000,5.400000095367432,0.064508505,4.585,,1732152805244,2.8,,31689091000000,17.267786,0,,,
Status,1732152805000,28,0,1,17,1575420030,0.00,60.0,75.0,0,0,0,0.0
Status,1732152805000,28,1,1,19,1575420030,0.00,203.0,68.0,0,0,0,0.0
Status,1732152805000,28,2,1,22,1575420030,0.00,27.0,64.0,0,0,0,0.0
Status,1732152805000,28,3,1,14,1575420030,0.00,60.0,48.0,0,0,0,0.0
Status,1732152805000,28,4,1,13,1575420030,0.00,227.0,43.0,0,0,0,0.0
Status,1732152805000,28,5,1,30,1575420030,24.00,135.0,30.0,1,0,0,19.0
Status,1732152805000,28,6,1,15,1575420030,32.30,268.0,28.0,1,0,0,27.3
Status,1732152805000,28,7,2,131,1575420030,0.00,3.0,23.0,0,0,0,0.0
Status,1732152805000,28,8,1,24,1575420030,26.30,313.0,22.0,1,0,0,21.3
Status,1732152805000,28,9,1,6,1575420030,23.70,159.0,17.0,1,0,0,18.7
Status,1732152805000,28,10,1,2,1575420030,0.00,43.0,14.0,0,0,0,0.0
Status,1732152805000,28,11,1,12,1575420030,24.90,271.0,3.0,0,0,0,19.9
Status,1732152805000,28,12,1,21,1575420030,0.00,30.0,1.0,0,0,0,0.0
Status,1732152805000,28,13,3,20,1602000000,0.00,101.0,57.0,0,0,0,0.0
Status,1732152805000,28,14,3,11,1602000000,0.00,317.0,33.0,0,0,0,0.0
Status,1732152805000,28,15,3,9,1602000000,0.00,89.0,29.0,0,0,0,0.0
Status,1732152805000,28,16,3,19,1602000000,0.00,29.0,18.0,0,0,0,0.0
Status,1732152805000,28,17,3,8,1602000000,30.00,241.0,17.0,1,0,0,25.0
Status,1732152805000,28,18,3,17,1602000000,34.40,0.0,0.0,0,0,0,29.400002
Status,1732152805000,28,19,6,21,1575420030,0.00,357.0,68.0,0,0,0,0.0
Status,1732152805000,28,20,6,19,1575420030,14.00,237.0,42.0,0,0,0,9.0
Status,1732152805000,28,21,6,13,1575420030,0.00,115.0,33.0,0,0,0,0.0
Status,1732152805000,28,22,6,27,1575420030,0.00,69.0,30.0,0,0,0,0.0
Status,1732152805000,28,23,6,4,1575420030,25.80,307.0,25.0,1,0,0,20.8
Status,1732152805000,28,24,6,15,1575420030,0.00,56.0,23.0,0,0,0,0.0
Status,1732152805000,28,25,6,29,1575420030,0.00,190.0,20.0,0,0,0,0.0
Status,1732152805000,28,26,6,26,1575420030,0.00,165.0,11.0,0,0,0,0.0
Status,1732152805000,28,27,6,6,1575420030,0.00,324.0,8.0,0,0,0,0.0
Fix,GPS,37.4254250000,-122.1582483333,26.2,0.0,4.6,0.0,1732152806000,2.7,176.9,31690091000000,40.2,0,,,
Raw,1732152805999,85278000000,,78.69395465398594,-1416187938721999872,0.0,78.69395465398594,1125.8072302616306,0.0,0,24,0.0,16431,351223922887191,487,21.263999938964844,-270.8403014855587,0.14999,16,0.0,0.0,1575420030,,,,0,5.112561700168521,1,6.0,21.263999938964844,0.0,0.0,0.0,66.7128,C,31690091000000,
Raw,1732152805999,85278000000,,78.69395465398594,-1416187938721999872,0.0,78.69395465398594,1125.8072302616306,0.0,0,30,0.0,16431,351223924542605,797,18.974000930786133,909.4470981967221,0.14999,16,0.0,0.0,1575420030,,,,0,0.0,1,6.0,18.974000930786133,0.0,0.0,0.0,66.7128,C,31690091000000,
Raw,1732152805999,85278000000,,78.69395465398594,-1416187938721999872,0.0,78.69395465398594,1125.8072302616306,0.0,0,15,0.0,16431,351223924397119,316,27.25200080871582,607.3904576909786,0.14999,16,0.0,0.0,1575420030,,,,0,12.556890168649982,1,6.0,27.25200080871582,0.0,0.0,0.0,66.7128,C,31690091000000,
Raw,1732152805999,85278000000,,78.69395465398594,-1416187938721999872,0.0,78.69395465398594,1125.8072302616306,0.0,0,6,0.0,16431,351223920751399,487,18.687000274658203,-317.02619262660596,0.14999,16,0.0,0.0,1575420030,,,,0,0.0,1,6.0,18.687000274658203,0.0,0.0,0.0,66.7128,C,31690091000000,
Raw,1732152805999,85278000000,,78.69395465398594,-1416187938721999872,0.0,78.69395465398594,1125.8072302616306,0.0,0,12,0.0,17,117597,487,19.92300033569336,-208.70746606341172,0.14999,16,0.0,0.0,1575420030,,,,0,2.115122163926268,1,6.0,19.92300033569336,0.0,0.0,0.0,66.7128,C,31690091000000,
Raw,1732152805999,85278000000,,78.69395465398594,-1416187938721999872,0.0,78.69395465398594,1125.8072302616306,0.0,0,19,0.0,16431,351223917999194,1934,9.0,681.0804745633238,0.14999,16,0.0,0.0,1575420030,,,,0,0.0,6,6.0,9.0,0.0,0.0,-36.74091801240857,66.7128,C,31690091000000,
Raw,1732152805999,85278000000,,78.69395465398594,-1416187938721999872,0.0,78.69395465398594,1125.8072302616306,0.0,0,4,0.0,16431,351223912353394,396,20.799999237060547,149.4879450049952,0.14999,16,0.0,0.0,1575420030,,,,0,5.477568751614386,6,6.0,20.799999237060547,0.0,0.0,-36.74091801240857,66.7128,C,31690091000000,
Raw,1732152805999,85278000000,,78.69395465398594,-1416187938721999872,0.0,78.69395465398594,1125.8072302616306,0.0,0,8,0.0,17,891620,316,5.0,978.509880014839,0.14999,16,0.0,0.0,1605374980,,,,0,11.084233089003408,3,6.0,25.0,0.0,0.0,27.642569996915974,66.7128,C,31690091000000,
Fix,FLP,37.4254089000,-122.1582489000,5.400000095367432,0.38152745,4.6,0.00000000008630753,1732152806244,2.7,176.9,31690091000000,15.994577,0,,,
Status,1732152806000,28,0,1,17,1575420030,0.00,60.0,75.0,0,0,0,0.0
Status,1732152806000,28,1,1,19,1575420030,0.00,203.0,68.0,0,0,0,0.0
Status,1732152806000,28,2,1,22,1575420030,0.00,27.0,64.0,0,0,0,0.0
Status,1732152806000,28,3,1,14,1575420030,0.00,60.0,48.0,0,0,0,0.0
Status,1732152806000,28,4,1,13,1575420030,25.30,227.0,43.0,1,0,0,20.3
Status,1732152806000,28,5,1,30,1575420030,23.90,135.0,30.0,1,0,0,18.9
Status,1732152806000,28,6,1,15,1575420030,28.30,268.0,28.0,1,0,0,23.3
Status,1732152806000,28,7,2,131,1575420030,0.00,3.0,23.0,0,0,0,0.0
Status,1732152806000,28,8,1,24,1575420030,26.30,313.0,22.0,1,0,0,21.3
Status,1732152806000,28,9,1,6,1575420030,25.70,159.0,17.0,1,0,0,20.7
Status,1732152806000,28,10,1,2,1575420030,0.00,43.0,14.0,0,0,0,0.0
Status,1732152806000,28,11,1,12,1575420030,0.00,271.0,3.0,0,0,0,0.0
Status,1732152806000,28,12,1,21,1575420030,0.00,30.0,1.0,0,0,0,0.0
Status,1732152806000,28,13,3,20,1602000000,0.00,101.0,57.0,0,0,0,0.0
Status,1732152806000,28,14,3,11,1602000000,0.00,317.0,33.0,0,0,0,0.0
Status,1732152806000,28,15,3,9,1602000000,0.00,89.0,29.0,0,0,0,0.0
Status,1732152806000,28,16,3,19,1602000000,0.00,29.0,18.0,0,0,0,0.0
Status,1732152806000,28,17,3,8,1602000000,28.70,241.0,17.0,1,0,0,23.7
Status,1732152806000,28,18,3,17,1602000000,31.40,0.0,0.0,0,0,0,26.4
Status,1732152806000,28,19,6,21,1575420030,0.00,357.0,68.0,0,0,0,0.0
Status,1732152806000,28,20,6,19,1575420030,14.00,237.0,42.0,0,0,0,9.0
Status,1732152806000,28,21,6,13,1575420030,0.00,115.0,33.0,0,0,0,0.0
Status,1732152806000,28,22,6,27,1575420030,0.00,69.0,30.0,0,0,0,0.0
Status,1732152806000,28,23,6,4,1575420030,29.90,307.0,25.0,1,0,0,24.9
Status,1732152806000,28,24,6,15,1575420030,0.00,56.0,23.0,0,0,0,0.0
Status,1732152806000,28,25,6,29,1575420030,0.00,190.0,20.0,0,0,0,0.0
Status,1732152806000,28,26,6,26,1575420030,0.00,165.0,11.0,0,0,0,0.0
Status,1732152806000,28,27,6,6,1575420030,0.00,324.0,8.0,0,0,0,0.0
Fix,GPS,37.4254400000,-122.1582416667,26.3,0.0,4.5,0.0,1732152807000,3.1,177.1,31691091000000,46.2,0,,,
Raw,1732152806999,86278000000,,89.57612951982601,-1416187938721999872,0.0,89.57612951982601,1130.1308045739565,0.0,0,24,0.0,16431,351224922888074,487,21.27400016784668,-267.7331626093979,0.14999,16,0.0,0.0,1575420030,,,,0,4.7315405406113555,1,6.0,21.27400016784668,0.0,0.0,0.0,66.7128,C,31691091000000,
Raw,1732152806999,86278000000,,89.57612951982601,-1416187938721999872,0.0,89.57612951982601,1130.1308045739565,0.0,0,30,0.0,16431,351224924539608,797,18.871999740600586,908.1446829566759,0.14999,16,0.0,0.0,1575420030,,,,0,0.0,1,6.0,18.871999740600586,0.0,0.0,0.0,66.7128,C,31691091000000,
Raw,1732152806999,86278000000,,89.57612951982601,-1416187938721999872,0.0,89.57612951982601,1130.1308045739565,0.0,0,15,0.0,16431,351224924395095,396,23.29800033569336,608.8502740451461,0.14999,16,0.0,0.0,1575420030,,,,0,7.5646128681448355,1,6.0,23.29800033569336,0.0,0.0,0.0,66.7128,C,31691091000000,
Raw,1732152806999,86278000000,,89.57612951982601,-1416187938721999872,0.0,89.57612951982601,1130.1308045739565,0.0,0,6,0.0,16431,351224920752409,487,20.71500015258789,-314.7655725522174,0.14999,16,0.0,0.0,1575420030,,,,0,3.476589459803618,1,6.0,20.71500015258789,0.0,0.0,0.0,66.7128,C,31691091000000,
Raw,1732152806999,86278000000,,89.57612951982601,-1416187938721999872,0.0,89.57612951982601,1130.1308045739565,0.0,0,13,0.0,16431,351224927808436,487,20.305999755859375,793.0487884703532,0.14999,16,0.0,0.0,1575420030,,,,0,2.8225038992460054,1,6.0,20.305999755859375,0.0,0.0,0.0,66.7128,C,31691091000000,
Raw,1732152806999,86278000000,,89.57612951982601,-1416187938721999872,0.0,89.57612951982601,1130.1308045739565,0.0,0,19,0.0,16431,351224917996921,1934,9.0,681.9006049846885,0.14999,16,0.0,0.0,1575420030,,,,0,0.0,6,6.0,9.0,0.0,0.0,-41.91735018420255,66.7128,C,31691091000000,
Raw,1732152806999,86278000000,,89.57612951982601,-1416187938721999872,0.0,89.57612951982601,1130.1308045739565,0.0,0,4,0.0,16431,351224912352897,316,24.899999618530273,150.83729486001812,0.14999,16,0.0,0.0,1575420030,,,,0,10.963767281045147,6,6.0,24.899999618530273,0.0,0.0,-41.91735018420255,66.7128,C,31691091000000,
Raw,1732152806999,86278000000,,89.57612951982601,-1416187938721999872,0.0,89.57612951982601,1130.1308045739565,0.0,0,8,0.0,17,888367,316,5.0,979.2532956613957,0.14999,16,0.0,0.0,1605374980,,,,0,9.487918772604726,3,6.0,24.0,0.0,0.0,27.676247078872425,66.7128,C,31691091000000,
Fix,FLP,37.4254270000,-122.1582457000,5.400000095367432,0.5811985,4.585,0.00000000036263412,1732152807244,3.1,177.1,31691091000000,16.157085,0,,,
Fix,FLP,37.4254323000,-122.1582443000,5.400000095367432,0.5678515,4.571,0.00000000024558972,1732152807426,3.1,177.1,31691274000000,14.228522,0,,,
Fix,NLP,37.4257217000,-122.1580904000,5.400000095367432,,45.6,,1732152807427,,,31691274000000,8.006801,0,,,
Status,1732152807000,28,0,1,17,1575420030,0.00,60.0,75.0,0,0,0,0.0
Status,1732152807000,28,1,1,19,1575420030,0.00,203.0,68.0,0,0,0,0.0
Status,1732152807000,28,2,1,22,1575420030,0.00,27.0,64.0,0,0,0,0.0
Status,1732152807000,28,3,1,14,1575420030,0.00,60.0,48.0,0,0,0,0.0
Status,1732152807000,28,4,1,13,1575420030,27.30,227.0,43.0,1,0,0,22.3
Status,1732152807000,28,5,1,30,1575420030,23.80,135.0,30.0,1,0,0,18.8
Status,1732152807000,28,6,1,15,1575420030,28.40,268.0,28.0,1,0,0,23.4
Status,1732152807000,28,7,2,131,1575420030,0.00,3.0,23.0,0,0,0,0.0
Status,1732152807000,28,8,1,24,1575420030,28.80,313.0,22.0,1,0,0,23.8
Status,1732152807000,28,9,1,6,1575420030,25.60,159.0,17.0,1,0,0,20.6
Status,1732152807000,28,10,1,2,1575420030,0.00,43.0,14.0,0,0,0,0.0
Status,1732152807000,28,11,1,12,1575420030,26.60,271.0,3.0,0,0,0,21.6
Status,1732152807000,28,12,1,21,1575420030,0.00,30.0,1.0,0,0,0,0.0
Status,1732152807000,28,13,3,20,1602000000,0.00,101.0,57.0,0,0,0,0.0
Status,1732152807000,28,14,3,11,1602000000,0.00,317.0,33.0,0,0,0,0.0
Status,1732152807000,28,15,3,9,1602000000,0.00,89.0,29.0,0,0,0,0.0
Status,1732152807000,28,16,3,19,1602000000,0.00,29.0,18.0,0,0,0,0.0
Status,1732152807000,28,17,3,8,1602000000,28.70,241.0,17.0,1,0,0,23.7
Status,1732152807000,28,18,3,17,1602000000,28.10,0.0,0.0,0,0,0,23.1
Status,1732152807000,28,19,6,21,1575420030,0.00,357.0,68.0,0,0,0,0.0
Status,1732152807000,28,20,6,19,1575420030,14.00,237.0,42.0,0,0,0,9.0
Status,1732152807000,28,21,6,13,1575420030,0.00,115.0,33.0,0,0,0,0.0
Status,1732152807000,28,22,6,27,1575420030,0.00,69.0,30.0,0,0,0,0.0
Status,1732152807000,28,23,6,4,1575420030,23.80,307.0,25.0,1,0,0,18.8
Status,1732152807000,28,24,6,15,1575420030,0.00,56.0,23.0,0,0,0,0.0
Status,1732152807000,28,25,6,29,1575420030,0.00,190.0,20.0,0,0,0,0.0
Status,1732152807000,28,26,6,26,1575420030,0.00,165.0,11.0,0,0,0,0.0
Status,1732152807000,28,27,6,6,1575420030,0.00,324.0,8.0,0,0,0,0.0
Fix,GPS,37.4254600000,-122.1582316667,26.500000000000004,0.0,4.6,0.0,1732152808000,3.2,179.9,31692091000000,44.9,0,,,
Raw,1732152807999,87278000000,,86.57654156750053,-1416187938721999872,0.0,86.57654156750053,1130.5874204176814,0.0,0,24,0.0,16431,351225922888982,396,23.798999786376953,-269.15506889593763,0.14999,16,0.0,0.0,1575420030,,,,0,8.318041297074915,1,6.0,23.798999786376953,0.0,0.0,0.0,66.7128,C,31692091000000,
