# 
# Header Description:
# 
# Version: v3.1.0.3 Platform: 13 Manufacturer: samsung Model: SM-S135DL GNSS Hardware Model Name: MediaTek,MT6631,MTK_MNLD_default,MNL_VER_default
# 
# Raw,utcTimeMillis,TimeNanos,LeapSecond,TimeUncertaintyNanos,FullBiasNanos,BiasNanos,BiasUncertaintyNanos,DriftNanosPerSecond,DriftUncertaintyNanosPerSecond,HardwareClockDiscontinuityCount,Svid,TimeOffsetNanos,State,ReceivedSvTimeNanos,ReceivedSvTimeUncertaintyNanos,Cn0DbHz,PseudorangeRateMetersPerSecond,PseudorangeRateUncertaintyMetersPerSecond,AccumulatedDeltaRangeState,AccumulatedDeltaRangeMeters,AccumulatedDeltaRangeUncertaintyMeters,CarrierFrequencyHz,CarrierCycles,CarrierPhase,CarrierPhaseUncertainty,MultipathIndicator,SnrInDb,ConstellationType,AgcDb,BasebandCn0DbHz,FullInterSignalBiasNanos,FullInterSignalBiasUncertaintyNanos,SatelliteInterSignalBiasNanos,SatelliteInterSignalBiasUncertaintyNanos,CodeType,ChipsetElapsedRealtimeNanos,IsFullTracking
# 
# UncalAccel,utcTimeMillis,elapsedRealtimeNanos,UncalAccelXMps2,UncalAccelYMps2,UncalAccelZMps2,BiasXMps2,BiasYMps2,BiasZMps2
# 
# Accel,utcTimeMillis,elapsedRealtimeNanos,AccelXMps2,AccelYMps2,AccelZMps2
# 
# UncalGyro,utcTimeMillis,elapsedRealtimeNanos,UncalGyroXRadPerSec,UncalGyroYRadPerSec,UncalGyroZRadPerSec,DriftXRadPerSec,DriftYRadPerSec,DriftZRadPerSec
# 
# Gyro,utcTimeMillis,elapsedRealtimeNanos,GyroXRadPerSec,GyroYRadPerSec,GyroZRadPerSec
# 
# UncalMag,utcTimeMillis,elapsedRealtimeNanos,UncalMagXMicroT,UncalMagYMicroT,UncalMagZMicroT,BiasXMicroT,BiasYMicroT,BiasZMicroT
# 
# Mag,utcTimeMillis,elapsedRealtimeNanos,MagXMicroT,MagYMicroT,MagZMicroT
# 
# Pressure,utcTimeMillis,elapsedRealtimeNanos,PressureHpa
# 
# OrientationDeg,utcTimeMillis,elapsedRealtimeNanos,yawDeg,rollDeg,pitchDeg
# 
# Fix,Provider,LatitudeDegrees,LongitudeDegrees,AltitudeMeters,SpeedMps,AccuracyMeters,BearingDegrees,UnixTimeMillis,SpeedAccuracyMps,BearingAccuracyDegrees,elapsedRealtimeNanos,VerticalAccuracyMeters,MockLocation,NumberOfUsedSignals,VerticalSpeedAccuracyMps,SolutionType
# 
# Nav,Svid,Type,Status,MessageId,Sub-messageId,Data(Bytes)
# 
# Status,UnixTimeMillis,SignalCount,SignalIndex,ConstellationType,Svid,CarrierFrequencyHz,Cn0DbHz,AzimuthDegrees,ElevationDegrees,UsedInFix,HasAlmanacData,HasEphemerisData,BasebandCn0DbHz
# 
# Agc,utcTimeMillis,TimeNanos,LeapSecond,TimeUncertaintyNanos,FullBiasNanos,BiasNanos,BiasUncertaintyNanos,DriftNanosPerSecond,DriftUncertaintyNanosPerSecond,HardwareClockDiscontinuityCount,AgcDb,CarrierFrequencyHz,ConstellationType
# 
Fix,FLP,37.4249970000,-122.1587890000,5.400000095367432,0.16872674,4.928,180.0,1732152125242,1.5,144.2,31009090000000,20.222374,0,,,
Status,,28,0,1,17,1575420030,0.00,76.0,78.0,0,0,0,0.0
Status,,28,1,1,22,1575420030,0.00,17.0,66.0,0,0,0,0.0
Status,,28,2,1,19,1575420030,0.00,201.0,63.0,0,0,0,0.0
Status,,28,3,1,14,1575420030,0.00,54.0,52.0,0,0,0,0.0
Status,,28,4,1,13,1575420030,0.00,232.0,46.0,0,0,0,0.0
Status,,28,5,2,135,1575420030,0.00,197.0,45.0,0,0,0,0.0
Status,,28,6,1,30,1575420030,0.00,132.0,35.0,0,0,0,0.0
Status,,28,7,1,15,1575420030,22.80,273.0,30.0,1,0,0,17.8
Status,,28,8,1,24,1575420030,0.00,313.0,18.0,0,0,0,0.0
Status,,28,9,1,2,1575420030,21.70,46.0,16.0,1,0,0,16.7
Status,,28,10,1,6,1575420030,25.20,161.0,13.0,1,0,0,20.2
Status,,28,11,1,21,1575420030,0.00,33.0,4.0,0,0,0,0.0
Status,,28,12,1,7,1575420030,28.80,132.0,3.0,0,0,0,23.8
Status,,28,13,3,20,1602000000,0.00,111.0,54.0,0,0,0,0.0
Status,,28,14,3,9,1602000000,0.00,83.0,32.0,0,0,0,0.0
Status,,28,15,3,11,1602000000,0.00,312.0,29.0,0,0,0,0.0
Status,,28,16,3,19,1602000000,0.00,32.0,22.0,0,0,0,0.0
Status,,28,17,3,8,1602000000,26.30,245.0,21.0,1,0,0,21.3
Status,,28,18,3,17,1602000000,31.30,0.0,0.0,0,0,0,26.3
Status,,28,19,6,21,1575420030,0.00,347.0,68.0,0,0,0,0.0
Status,,28,20,6,19,1575420030,0.00,241.0,45.0,0,0,0,0.0
Status,,28,21,6,27,1575420030,0.00,65.0,33.0,0,0,0,0.0
Status,,28,22,6,13,1575420030,0.00,119.0,30.0,0,0,0,0.0
Status,,28,23,6,15,1575420030,0.00,61.0,24.0,0,0,0,0.0
Status,,28,24,6,29,1575420030,0.00,191.0,24.0,0,0,0,0.0
Status,,28,25,6,4,1575420030,0.00,310.0,23.0,0,0,0,0.0
Status,,28,26,6,26,1575420030,0.00,167.0,7.0,0,0,0,0.0
Status,,28,27,6,6,1575420030,0.00,327.0,5.0,0,0,0,0.0
Fix,GPS,37.4249716667,-122.1588166667,23.599999999999998,0.0,4.6,0.0,1732152126000,1.5,124.0,31010090000000,62.8,0,,,
Raw,1732152125999,19166000000,,705819.7491412542,-1416187324833999872,0.0,104.07658741469643,1095.988249473936,0.0,0,7,0.0,16431,350543916452002,316,23.77400016784668,970.9918629864761,0.14999,16,0.0,0.0,1575420030,,,,0,8.261749176051467,1,6.0,23.77400016784668,0.0,0.0,0.0,66.7128,C,31010090000000,
Raw,1732152125999,19166000000,,705819.7491412542,-1416187324833999872,0.0,104.07658741469643,1095.988249473936,0.0,0,6,0.0,16431,350543918998669,487,20.238000869750977,-331.2002372866953,0.14999,16,0.0,0.0,1575420030,,,,0,2.6787532796278897,1,6.0,20.238000869750977,0.0,0.0,0.0,66.7128,C,31010090000000,
Raw,1732152125999,19166000000,,705819.7491412542,-1416187324833999872,0.0,104.07658741469643,1095.988249473936,0.0,0,15,0.0,16431,350543924664353,797,17.81999969482422,522.8714950425351,0.14999,16,0.0,0.0,1575420030,,,,0,0.0,1,6.0,17.81999969482422,0.0,0.0,0.0,66.7128,C,31010090000000,
Raw,1732152125999,19166000000,,705819.7491412542,-1416187324833999872,0.0,104.07658741469643,1095.988249473936,0.0,0,2,0.0,16431,350543918387050,797,16.70599937438965,686.5390597175649,0.14999,16,0.0,0.0,1575420030,,,,0,0.0,1,6.0,16.70599937438965,0.0,0.0,0.0,66.7128,C,31010090000000,
Raw,1732152125999,19166000000,,705819.7491412542,-1416187324833999872,0.0,104.07658741469643,1095.988249473936,0.0,0,8,0.0,17,38834,396,5.0,925.631900425161,0.14999,16,0.0,0.0,1605374980,,,,0,6.129627119048964,3,6.0,23.0,0.0,0.0,108.67631620913818,66.7128,C,31010090000000,
Fix,FLP,37.4249840000,-122.1588022000,5.400000095367432,0.18777663,4.842,180.0,1732152126242,1.5,124.0,31010090000000,19.82048,0,,,
Status,1732152126000,28,0,1,17,1575420030,0.00,76.0,78.0,0,0,0,0.0
Status,1732152126000,28,1,1,22,1575420030,0.00,17.0,66.0,0,0,0,0.0
Status,1732152126000,28,2,1,19,1575420030,0.00,201.0,63.0,0,0,0,0.0
Status,1732152126000,28,3,1,14,1575420030,0.00,54.0,52.0,0,0,0,0.0
Status,1732152126000,28,4,1,13,1575420030,27.90,232.0,46.0,1,0,0,22.9
Status,1732152126000,28,5,2,135,1575420030,0.00,197.0,45.0,0,0,0,0.0
Status,1732152126000,28,6,1,30,1575420030,0.00,132.0,35.0,0,0,0,0.0
Status,1732152126000,28,7,1,15,1575420030,22.80,273.0,30.0,1,0,0,17.8
Status,1732152126000,28,8,1,24,1575420030,0.00,313.0,18.0,0,0,0,0.0
Status,1732152126000,28,9,1,2,1575420030,21.70,46.0,16.0,1,0,0,16.7
Status,1732152126000,28,10,1,6,1575420030,25.30,161.0,13.0,1,0,0,20.3
Status,1732152126000,28,11,1,21,1575420030,0.00,33.0,4.0,0,0,0,0.0
Status,1732152126000,28,12,1,7,1575420030,29.90,132.0,3.0,0,0,0,24.9
Status,1732152126000,28,13,3,20,1602000000,0.00,111.0,54.0,0,0,0,0.0
Status,1732152126000,28,14,3,9,1602000000,0.00,83.0,32.0,0,0,0,0.0
Status,1732152126000,28,15,3,11,1602000000,0.00,312.0,29.0,0,0,0,0.0
Status,1732152126000,28,16,3,19,1602000000,0.00,32.0,22.0,0,0,0,0.0
Status,1732152126000,28,17,3,8,1602000000,23.40,245.0,21.0,1,0,0,18.4
Status,1732152126000,28,18,3,17,1602000000,29.30,0.0,0.0,0,0,0,24.3
Status,1732152126000,28,19,6,21,1575420030,0.00,347.0,68.0,0,0,0,0.0
Status,1732152126000,28,20,6,19,1575420030,0.00,241.0,45.0,0,0,0,0.0
Status,1732152126000,28,21,6,27,1575420030,0.00,65.0,33.0,0,0,0,0.0
Status,1732152126000,28,22,6,13,1575420030,0.00,119.0,30.0,0,0,0,0.0
Status,1732152126000,28,23,6,15,1575420030,0.00,61.0,24.0,0,0,0,0.0
Status,1732152126000,28,24,6,29,1575420030,0.00,191.0,24.0,0,0,0,0.0
Status,1732152126000,28,25,6,4,1575420030,0.00,310.0,23.0,0,0,0,0.0
Status,1732152126000,28,26,6,26,1575420030,0.00,167.0,7.0,0,0,0,0.0
Status,1732152126000,28,27,6,6,1575420030,0.00,327.0,5.0,0,0,0,0.0
Fix,GPS,37.4249650000,-122.1588233333,23.599999999999998,0.0,4.5,0.0,1732152127000,1.5,129.4,31011090000000,72.2,0,,,
Raw,1732152126999,20166000000,,705811.2536807046,-1416187324833999872,0.0,134.43182478686404,1095.9069013942526,0.0,0,7,0.0,16431,350544916448761,487,24.878000259399414,970.7002899663388,0.14999,16,0.0,0.0,1575420030,,,,0,9.849773129581186,1,6.0,24.878000259399414,0.0,0.0,0.0,66.7128,C,31011090000000,
Raw,1732152126999,20166000000,,705811.2536807046,-1416187324833999872,0.0,134.43182478686404,1095.9069013942526,0.0,0,6,0.0,16431,350544918999774,797,20.268999099731445,-331.03503115865067,0.14999,16,0.0,0.0,1575420030,,,,0,3.718523444302342,1,6.0,20.268999099731445,0.0,0.0,0.0,66.7128,C,31011090000000,
Raw,1732152126999,20166000000,,705811.2536807046,-1416187324833999872,0.0,134.43182478686404,1095.9069013942526,0.0,0,15,0.0,16431,350544924662609,487,17.815000534057617,522.4217775736171,0.14999,16,0.0,0.0,1575420030,,,,0,0.0,1,6.0,17.815000534057617,0.0,0.0,0.0,66.7128,C,31011090000000,
Raw,1732152126999,20166000000,,705811.2536807046,-1416187324833999872,0.0,134.43182478686404,1095.9069013942526,0.0,0,2,0.0,16431,350544918384759,797,16.670000076293945,686.3716700439583,0.14999,16,0.0,0.0,1575420030,,,,0,0.0,1,6.0,16.670000076293945,0.0,0.0,0.0,66.7128,C,31011090000000,
Raw,1732152126999,20166000000,,705811.2536807046,-1416187324833999872,0.0,134.43182478686404,1095.9069013942526,0.0,0,8,0.0,17,35744,487,5.0,924.4907441861501,0.14999,16,0.0,0.0,1605374980,,,,0,1.6572716719449043,3,6.0,20.0,0.0,0.0,108.67631620913818,66.7128,C,31011090000000,
Raw,1732152126999,20166000000,,705811.2536807046,-1416187324833999872,0.0,134.43182478686404,1095.9069013942526,0.0,0,13,0.0,16431,350544928507742,396,22.86400032043457,717.6761406796945,0.14999,16,0.0,0.0,1575420030,,,,0,6.891957615153579,1,6.0,22.86400032043457,0.0,0.0,0.0,66.7128,C,31011090000000,
Fix,FLP,37.4249739000,-122.1588123000,5.400000095367432,0.19794428,4.757,180.0,1732152127242,1.5,129.4,31011090000000,18.58422,0,,,
Fix,FLP,37.4249691000,-122.1588173000,5.400000095367432,0.1954437,4.633,180.0,1732152128068,1.5,129.4,31011916000000,18.537477,0,,,
Fix,NLP,37.4256928000,-122.1580815000,5.400000095367432,,92.9,,1732152128068,,,31011916000000,40.935688,0,,,
Status,1732152127000,28,0,1,17,1575420030,0.00,76.0,78.0,0,0,0,0.0
Status,1732152127000,28,1,1,22,1575420030,0.00,17.0,66.0,0,0,0,0.0
Status,1732152127000,28,2,1,19,1575420030,0.00,201.0,63.0,0,0,0,0.0
Status,1732152127000,28,3,1,14,1575420030,0.00,54.0,52.0,0,0,0,0.0
Status,1732152127000,28,4,1,13,1575420030,35.10,232.0,46.0,1,0,0,30.099998
Status,1732152127000,28,5,2,135,1575420030,0.00,197.0,45.0,0,0,0,0.0
Status,1732152127000,28,6,1,30,1575420030,27.50,132.0,35.0,1,0,0,22.5
Status,1732152127000,28,7,1,15,1575420030,22.80,273.0,30.0,1,0,0,17.8
Status,1732152127000,28,8,1,24,1575420030,0.00,313.0,18.0,0,0,0,0.0
Status,1732152127000,28,9,1,2,1575420030,21.60,46.0,16.0,1,0,0,16.6
Status,1732152127000,28,10,1,6,1575420030,25.30,161.0,13.0,1,0,0,20.3
Status,1732152127000,28,11,1,21,1575420030,0.00,33.0,4.0,0,0,0,0.0
Status,1732152127000,28,12,1,7,1575420030,29.90,132.0,3.0,0,0,0,24.9
Status,1732152127000,28,13,3,20,1602000000,0.00,111.0,54.0,0,0,0,0.0
Status,1732152127000,28,14,3,9,1602000000,0.00,83.0,32.0,0,0,0,0.0
Status,1732152127000,28,15,3,11,1602000000,0.00,312.0,29.0,0,0,0,0.0
Status,1732152127000,28,16,3,19,1602000000,0.00,32.0,22.0,0,0,0,0.0
Status,1732152127000,28,17,3,8,1602000000,25.30,245.0,21.0,1,0,0,20.3
Status,1732152127000,28,18,3,17,1602000000,28.20,0.0,0.0,0,0,0,23.2
Status,1732152127000,28,19,6,21,1575420030,0.00,347.0,68.0,0,0,0,0.0
Status,1732152127000,28,20,6,19,1575420030,0.00,241.0,45.0,0,0,0,0.0
Status,1732152127000,28,21,6,27,1575420030,0.00,65.0,33.0,0,0,0,0.0
Status,1732152127000,28,22,6,13,1575420030,0.00,119.0,30.0,0,0,0,0.0
Status,1732152127000,28,23,6,15,1575420030,0.00,61.0,24.0,0,0,0,0.0
Status,1732152127000,28,24,6,29,1575420030,0.00,191.0,24.0,0,0,0,0.0
Status,1732152127000,28,25,6,4,1575420030,0.00,310.0,23.0,0,0,0,0.0
Status,1732152127000,28,26,6,26,1575420030,0.00,167.0,7.0,0,0,0,0.0
Status,1732152127000,28,27,6,6,1575420030,0.00,327.0,5.0,0,0,0,0.0
Fix,GPS,37.4249650000,-122.1588183333,23.3,0.0,4.7,0.0,1732152128000,1.4,107.3,31012090000000,73.8,0,,,
Raw,1732152127999,21166000000,,994337.5768645921,-1416187324833999872,0.0,135.3527957830437,1092.2555112540945,0.0,0,7,0.0,16431,350545916445523,316,24.878000259399414,970.0920563813104,0.14999,16,0.0,0.0,1575420030,,,,0,9.849773129581186,1,6.0,24.878000259399414,0.0,0.0,0.0,66.7128,C,31012090000000,
Raw,1732152127999,21166000000,,994337.5768645921,-1416187324833999872,0.0,135.3527957830437,1092.2555112540945,0.0,0,6,0.0,16431,350545919000898,487,20.309999465942383,-331.7282371869281,0.14999,16,0.0,0.0,1575420030,,,,0,4.152908438167067,1,6.0,20.309999465942383,0.0,0.0,0.0,66.7128,C,31012090000000,
Raw,1732152127999,21166000000,,994337.5768645921,-1416187324833999872,0.0,135.3527957830437,1092.2555112540945,0.0,0,15,0.0,16431,350545924660863,797,17.7549991607666,520.9737151987508,0.14999,16,0.0,0.0,1575420030,,,,0,0.0,1,6.0,17.7549991607666,0.0,0.0,0.0,66.7128,C,31012090000000,
Raw,1732152127999,21166000000,,994337.5768645921,-1416187324833999872,0.0,135.3527957830437,1092.2555112540945,0.0,0,2,0.0,16431,350545918382433,797,16.64699935913086,685.8644835141879,0.14999,16,0.0,0.0,1575420030,,,,0,0.0,1,6.0,16.64699935913086,0.0,0.0,0.0,66.7128,C,31012090000000,
Raw,1732152127999,21166000000,,994337.5768645921,-1416187324833999872,0.0,135.3527957830437,1092.2555112540945,0.0,0,8,0.0,17,32658,487,5.0,922.5871150369827,0.14999,16,0.0,0.0,1605374980,,,,0,4.630331886119738,3,6.0,20.0,0.0,0.0,108.25635292276934,66.7128,C,31012090000000,
Raw,1732152127999,21166000000,,994337.5768645921,-1416187324833999872,0.0,135.3527957830437,1092.2555112540945,0.0,0,13,0.0,16431,350545928505310,74,30.11400032043457,716.8094124668708,0.14999,16,0.0,0.0,1575420030,,,,0,16.67821316657619,1,6.0,30.11400032043457,0.0,0.0,0.0,66.7128,C,31012090000000,
Raw,1732152127999,21166000000,,994337.5768645921,-1416187324833999872,0.0,135.3527957830437,1092.2555112540945,0.0,0,30,0.0,16431,350545925520848,487,22.479999542236328,853.7136308570796,0.14999,16,0.0,0.0,1575420030,,,,0,6.316946186847138,1,6.0,22.479999542236328,0.0,0.0,0.0,66.7128,C,31012090000000,
Fix,FLP,37.4249675000,-122.1588176000,5.400000095367432,0.18679318,4.642,180.0,1732152128242,1.4,107.3,31012090000000,18.515192,0,,,
Status,1732152128000,28,0,1,17,1575420030,0.00,76.0,78.0,0,0,0,0.0
Status,1732152128000,28,1,1,22,1575420030,0.00,17.0,66.0,0,0,0,0.0
Status,1732152128000,28,2,1,19,1575420030,0.00,201.0,63.0,0,0,0,0.0
Status,1732152128000,28,3,1,14,1575420030,0.00,54.0,52.0,0,0,0,0.0
Status,1732152128000,28,4,1,13,1575420030,28.50,232.0,46.0,1,0,0,23.5
Status,1732152128000,28,5,2,135,1575420030,0.00,197.0,45.0,0,0,0,0.0
Status,1732152128000,28,6,1,30,1575420030,25.20,132.0,35.0,1,0,0,20.2
Status,1732152128000,28,7,1,15,1575420030,22.70,273.0,30.0,1,0,0,17.7
Status,1732152128000,28,8,1,24,1575420030,0.00,313.0,18.0,0,0,0,0.0
Status,1732152128000,28,9,1,2,1575420030,21.60,46.0,16.0,1,0,0,16.6
Status,1732152128000,28,10,1,6,1575420030,28.00,161.0,13.0,1,0,0,23.0
Status,1732152128000,28,11,1,21,1575420030,0.00,33.0,4.0,0,0,0,0.0
Status,1732152128000,28,12,1,7,1575420030,30.50,132.0,3.0,0,0,0,25.5
Status,1732152128000,28,13,3,20,1602000000,0.00,111.0,54.0,0,0,0,0.0
Status,1732152128000,28,14,3,9,1602000000,0.00,83.0,32.0,0,0,0,0.0
Status,1732152128000,28,15,3,11,1602000000,0.00,312.0,29.0,0,0,0,0.0
Status,1732152128000,28,16,3,19,1602000000,0.00,32.0,22.0,0,0,0,0.0
Status,1732152128000,28,17,3,8,1602000000,22.50,245.0,21.0,1,0,0,17.5
Status,1732152128000,28,18,3,17,1602000000,24.80,0.0,0.0,0,0,0,19.8
Status,1732152128000,28,19,6,21,1575420030,0.00,347.0,68.0,0,0,0,0.0
Status,1732152128000,28,20,6,19,1575420030,0.00,241.0,45.0,0,0,0,0.0
Status,1732152128000,28,21,6,27,1575420030,0.00,65.0,33.0,0,0,0,0.0
Status,1732152128000,28,22,6,13,1575420030,0.00,119.0,30.0,0,0,0,0.0
Status,1732152128000,28,23,6,15,1575420030,0.00,61.0,24.0,0,0,0,0.0
Status,1732152128000,28,24,6,29,1575420030,0.00,191.0,24.0,0,0,0,0.0
Status,1732152128000,28,25,6,4,1575420030,0.00,310.0,23.0,0,0,0,0.0
Status,1732152128000,28,26,6,26,1575420030,0.00,167.0,7.0,0,0,0,0.0
Status,1732152128000,28,27,6,6,1575420030,0.00,327.0,5.0,0,0,0,0.0
Fix,GPS,37.4249550000,-122.1588333333,23.400000000000002,0.0,4.6,0.0,1732152129000,2.5,145.4,31013090000000,74.0,0,,,
Raw,1732152128999,22166000000,,705062.9234808836,-1416187324833999872,0.0,135.52930949797093,1089.4655057719824,0.0,0,7,0.0,16431,350546916442293,316,25.482999801635742,969.1592643006352,0.14999,16,0.0,0.0,1575420030,,,,0,10.727459956460418,1,6.0,25.482999801635742,0.0,0.0,0.0,66.7128,C,31013090000000,
Raw,1732152128999,22166000000,,705062.9234808836,-1416187324833999872,0.0,135.52930949797093,1089.4655057719824,0.0,0,6,0.0,16431,350546919002000,396,22.972000122070312,-332.2088030442099,0.14999,16,0.0,0.0,1575420030,,,,0,7.075469151731829,1,6.0,22.972000122070312,0.0,0.0,0.0,66.7128,C,31013090000000,
Raw,1732152128999,22166000000,,705062.9234808836,-1416187324833999872,0.0,135.52930949797093,1089.4655057719824,0.0,0,15,0.0,16431,350546924659127,797,17.697999954223633,520.244225147413,0.14999,16,0.0,0.0,1575420030,,,,0,0.0,1,6.0,17.697999954223633,0.0,0.0,0.0,66.7128,C,31013090000000,
Raw,1732152128999,22166000000,,705062.9234808836,-1416187324833999872,0.0,135.52930949797093,1089.4655057719824,0.0,0,2,0.0,16431,350546918380146,797,16.625,685.1455395233297,0.14999,16,0.0,0.0,1575420030,,,,0,0.0,1,6.0,16.625,0.0,0.0,0.0,66.7128,C,31013090000000,
Raw,1732152128999,22166000000,,705062.9234808836,-1416187324833999872,0.0,135.52930949797093,1089.4655057719824,0.0,0,8,0.0,17,29625,797,5.0,924.0547978834165,0.14999,16,0.0,0.0,1605374980,,,,0,0.0,3,6.0,17.0,0.0,0.0,107.78079638417657,66.7128,C,31013090000000,
Raw,1732152128999,22166000000,,705062.9234808836,-1416187324833999872,0.0,135.52930949797093,1089.4655057719824,0.0,0,13,0.0,16431,350546928502922,396,23.50200080871582,716.1238720772681,0.14999,16,0.0,0.0,1575420030,,,,0,7.884042292843993,1,6.0,23.50200080871582,0.0,0.0,0.0,66.7128,C,31013090000000,
Raw,1732152128999,22166000000,,705062.9234808836,-1416187324833999872,0.0,135.52930949797093,1089.4655057719824,0.0,0,30,0.0,16431,350546925518025,487,20.238000869750977,853.2825896714781,0.14999,16,0.0,0.0,1575420030,,,,0,2.6787532796278897,1,6.0,20.238000869750977,0.0,0.0,0.0,66.7128,C,31013090000000,
Fix,FLP,37.4249610000,-122.1588245000,5.400000095367432,0.1949012,4.614,180.0,1732152129242,2.5,145.4,31013090000000,19.019604,0,,,
Status,1732152129000,27,0,1,17,1575420030,0.00,76.0,78.0,0,0,0,0.0
Status,1732152129000,27,1,1,22,1575420030,0.00,17.0,66.0,0,0,0,0.0
Status,1732152129000,27,2,1,19,1575420030,0.00,201.0,63.0,0,0,0,0.0
Status,1732152129000,27,3,1,14,1575420030,0.00,54.0,52.0,0,0,0,0.0
Status,1732152129000,27,4,1,13,1575420030,0.00,232.0,46.0,0,0,0,0.0
Status,1732152129000,27,5,2,135,1575420030,0.00,197.0,45.0,0,0,0,0.0
Status,1732152129000,27,6,1,30,1575420030,23.60,132.0,35.0,1,0,0,18.6
Status,1732152129000,27,7,1,15,1575420030,22.60,273.0,30.0,1,0,0,17.6
Status,1732152129000,27,8,1,24,1575420030,0.00,313.0,18.0,0,0,0,0.0
Status,1732152129000,27,9,1,2,1575420030,21.60,46.0,16.0,1,0,0,16.6
Status,1732152129000,27,10,1,6,1575420030,25.40,161.0,13.0,1,0,0,20.4
Status,1732152129000,27,11,1,21,1575420030,0.00,33.0,4.0,0,0,0,0.0
Status,1732152129000,27,12,1,7,1575420030,30.00,132.0,3.0,0,0,0,25.0
Status,1732152129000,27,13,3,20,1602000000,0.00,111.0,54.0,0,0,0,0.0
Status,1732152129000,27,14,3,9,1602000000,0.00,83.0,32.0,0,0,0,0.0
Status,1732152129000,27,15,3,11,1602000000,0.00,312.0,29.0,0,0,0,0.0
Status,1732152129000,27,16,3,19,1602000000,0.00,32.0,22.0,0,0,0,0.0
Status,1732152129000,27,17,3,8,1602000000,22.50,245.0,21.0,1,0,0,17.5
Status,1732152129000,27,18,6,21,1575420030,0.00,347.0,68.0,0,0,0,0.0
Status,1732152129000,27,19,6,19,1575420030,0.00,241.0,45.0,0,0,0,0.0
Status,1732152129000,27,20,6,27,1575420030,0.00,65.0,33.0,0,0,0,0.0
Status,1732152129000,27,21,6,13,1575420030,0.00,119.0,30.0,0,0,0,0.0
Status,1732152129000,27,22,6,15,1575420030,0.00,61.0,24.0,0,0,0,0.0
Status,1732152129000,27,23,6,29,1575420030,0.00,191.0,24.0,0,0,0,0.0
Status,1732152129000,27,24,6,4,1575420030,0.00,310.0,23.0,0,0,0,0.0
Status,1732152129000,27,25,6,26,1575420030,0.00,167.0,7.0,0,0,0,0.0
Status,1732152129000,27,26,6,6,1575420030,0.00,327.0,5.0,0,0,0,0.0
Fix,GPS,37.4249450000,-122.1588433333,23.500000000000004,0.0,4.5,0.0,1732152130000,2.9,179.9,31014090000000,45.0,0,,,
Raw,1732152129999,23166000000,,705037.4892186247,-1416187324833999872,0.0,110.33525960289475,1084.5659267560222,0.0,0,7,0.0,16431,350547916439062,316,24.961999893188477,968.6438546311955,0.14999,16,0.0,0.0,1575420030,,,,0,9.980718669455626,1,6.0,24.961999893188477,0.0,0.0,0.0,66.7128,C,31014090000000,
Raw,1732152129999,23166000000,,705037.4892186247,-1416187324833999872,0.0,110.33525960289475,1084.5659267560222,0.0,0,6,0.0,16431,350547919003125,487,20.398000717163086,-333.9455580174085,0.14999,16,0.0,0.0,1575420030,,,,0,2.974891836649845,1,6.0,20.398000717163086,0.0,0.0,0.0,66.7128,C,31014090000000,
Raw,1732152129999,23166000000,,705037.4892186247,-1416187324833999872,0.0,110.33525960289475,1084.5659267560222,0.0,0,15,0.0,16431,350547924657393,797,17.643999099731445,519.4018411446834,0.14999,16,0.0,0.0,1575420030,,,,0,0.0,1,6.0,17.643999099731445,0.0,0.0,0.0,66.7128,C,31014090000000,
Raw,1732152129999,23166000000,,705037.4892186247,-1416187324833999872,0.0,110.33525960289475,1084.5659267560222,0.0,0,2,0.0,16431,350547918377864,797,16.604000091552734,683.3088524968623,0.14999,16,0.0,0.0,1575420030,,,,0,0.0,1,6.0,16.604000091552734,0.0,0.0,0.0,66.7128,C,31014090000000,
Raw,1732152129999,23166000000,,705037.4892186247,-1416187324833999872,0.0,110.33525960289475,1084.5659267560222,0.0,0,8,0.0,17,26546,797,5.0,922.2055138495867,0.14999,16,0.0,0.0,1605374980,,,,0,0.0,3,6.0,17.0,0.0,0.0,107.78079638417657,66.7128,C,31014090000000,
Raw,1732152129999,23166000000,,705037.4892186247,-1416187324833999872,0.0,110.33525960289475,1084.5659267560222,0.0,0,30,0.0,16431,350547925515171,487,18.63599967956543,851.4549155777556,0.14999,16,0.0,0.0,1575420030,,,,0,0.0,1,6.0,18.63599967956543,0.0,0.0,0.0,66.7128,C,31014090000000,
Fix,FLP,37.4249525000,-122.1588333000,5.400000095367432,0.20902537,4.585,180.0,1732152130242,2.9,179.9,31014090000000,17.027899,0,,,
Status,1732152130000,27,0,1,17,1575420030,0.00,76.0,78.0,0,0,0,0.0
Status,1732152130000,27,1,1,22,1575420030,0.00,17.0,66.0,0,0,0,0.0
Status,1732152130000,27,2,1,19,1575420030,0.00,201.0,63.0,0,0,0,0.0
Status,1732152130000,27,3,1,14,1575420030,0.00,54.0,52.0,0,0,0,0.0
Status,1732152130000,27,4,1,13,1575420030,0.00,232.0,46.0,0,0,0,0.0
Status,1732152130000,27,5,2,135,1575420030,0.00,197.0,45.0,0,0,0,0.0
Status,1732152130000,27,6,1,30,1575420030,25.20,132.0,35.0,1,0,0,20.2
Status,1732152130000,27,7,1,15,1575420030,22.70,273.0,30.0,1,0,0,17.7
Status,1732152130000,27,8,1,24,1575420030,0.00,313.0,18.0,0,0,0,0.0
Status,1732152130000,27,9,1,2,1575420030,21.60,46.0,16.0,1,0,0,16.6
Status,1732152130000,27,10,1,6,1575420030,25.40,161.0,13.0,1,0,0,20.4
Status,1732152130000,27,11,1,21,1575420030,0.00,33.0,4.0,0,0,0,0.0
Status,1732152130000,27,12,1,7,1575420030,30.00,132.0,3.0,0,0,0,25.0
Status,1732152130000,27,13,3,20,1602000000,0.00,111.0,54.0,0,0,0,0.0
Status,1732152130000,27,14,3,9,1602000000,0.00,83.0,32.0,0,0,0,0.0
Status,1732152130000,27,15,3,11,1602000000,0.00,312.0,29.0,0,0,0,0.0
Status,1732152130000,27,16,3,19,1602000000,0.00,32.0,22.0,0,0,0,0.0
Status,1732152130000,27,17,3,8,1602000000,21.70,245.0,21.0,1,0,0,16.7
Status,1732152130000,27,18,6,21,1575420030,0.00,347.0,68.0,0,0,0,0.0
Status,1732152130000,27,19,6,19,1575420030,0.00,241.0,45.0,0,0,0,0.0
Status,1732152130000,27,20,6,27,1575420030,0.00,65.0,33.0,0,0,0,0.0
Status,1732152130000,27,21,6,13,1575420030,0.00,119.0,30.0,0,0,0,0.0
Status,1732152130000,27,22,6,15,1575420030,0.00,61.0,24.0,0,0,0,0.0
Status,1732152130000,27,23,6,29,1575420030,0.00,191.0,24.0,0,0,0,0.0
Status,1732152130000,27,24,6,4,1575420030,0.00,310.0,23.0,0,0,0,0.0
Status,1732152130000,27,25,6,26,1575420030,0.00,167.0,7.0,0,0,0,0.0
Status,1732152130000,27,26,6,6,1575420030,0.00,327.0,5.0,0,0,0,0.0
Fix,GPS,37.4249333333,-122.1588366667,23.500000000000004,0.0,4.5,0.0,1732152131000,2.9,179.9,31015090000000,45.0,0,,,
Fix,FLP,37.4249422000,-122.1588349000,5.400000095367432,0.22756553,4.557,180.0,1732152131242,2.9,179.9,31015090000000,18.27328,0,,,
Raw,1732152130999,24166000000,,704986.7249328868,-1416187324833999872,0.0,110.7949434599782,1079.1851517528612,0.0,0,7,0.0,16431,350548916435840,316,24.952999114990234,966.8258438880447,0.14999,16,0.0,0.0,1575420030,,,,0,9.761366364969318,1,6.0,24.952999114990234,0.0,0.0,0.0,66.7128,C,31015090000000,
Raw,1732152130999,24166000000,,704986.7249328868,-1416187324833999872,0.0,110.7949434599782,1079.1851517528612,0.0,0,6,0.0,16431,350548919004241,797,20.398000717163086,-334.9806979889955,0.14999,16,0.0,0.0,1575420030,,,,0,2.974891836649845,1,6.0,20.398000717163086,0.0,0.0,0.0,66.7128,C,31015090000000,
Raw,1732152130999,24166000000,,704986.7249328868,-1416187324833999872,0.0,110.7949434599782,1079.1851517528612,0.0,0,15,0.0,16431,350548924655668,797,17.679000854492188,518.3352488253219,0.14999,16,0.0,0.0,1575420030,,,,0,0.0,1,6.0,17.679000854492188,0.0,0.0,0.0,66.7128,C,31015090000000,
Raw,1732152130999,24166000000,,704986.7249328868,-1416187324833999872,0.0,110.7949434599782,1079.1851517528612,0.0,0,2,0.0,16431,350548918375618,797,16.600000381469727,681.742274702243,0.14999,16,0.0,0.0,1575420030,,,,0,0.0,1,6.0,16.600000381469727,0.0,0.0,0.0,66.7128,C,31015090000000,
Raw,1732152130999,24166000000,,704986.7249328868,-1416187324833999872,0.0,110.7949434599782,1079.1851517528612,0.0,0,8,0.0,17,23461,797,5.0,921.6032496099808,0.14999,16,0.0,0.0,1605374980,,,,0,0.0,3,6.0,17.0,0.0,0.0,107.78079638417657,66.7128,C,31015090000000,
Raw,1732152130999,24166000000,,704986.7249328868,-1416187324833999872,0.0,110.7949434599782,1079.1851517528612,0.0,0,30,0.0,16431,350548925512350,487,20.183000564575195,850.0215805208281,0.14999,16,0.0,0.0,1575420030,,,,0,2.5777534248950578,1,6.0,20.183000564575195,0.0,0.0,0.0,66.7128,C,31015090000000,
Status,1732152131000,28,0,1,17,1575420030,0.00,76.0,78.0,0,0,0,0.0
Status,1732152131000,28,1,1,22,1575420030,0.00,17.0,66.0,0,0,0,0.0
Status,1732152131000,28,2,1,19,1575420030,0.00,201.0,63.0,0,0,0,0.0
Status,1732152131000,28,3,1,14,1575420030,0.00,54.0,52.0,0,0,0,0.0
Status,1732152131000,28,4,1,13,1575420030,0.00,232.0,46.0,0,0,0,0.0
Status,1732152131000,28,5,2,135,1575420030,0.00,197.0,45.0,0,0,0,0.0
Status,1732152131000,28,6,1,30,1575420030,25.20,132.0,35.0,1,0,0,20.2
Status,1732152131000,28,7,1,15,1575420030,22.70,273.0,30.0,1,0,0,17.7
Status,1732152131000,28,8,1,24,1575420030,0.00,313.0,18.0,0,0,0,0.0
Status,1732152131000,28,9,1,2,1575420030,21.60,46.0,16.0,1,0,0,16.6
Status,1732152131000,28,10,1,6,1575420030,25.40,161.0,13.0,1,0,0,20.4
Status,1732152131000,28,11,1,21,1575420030,0.00,33.0,4.0,0,0,0,0.0
Status,1732152131000,28,12,1,7,1575420030,30.10,132.0,3.0,0,0,0,25.1
Status,1732152131000,28,13,3,20,1602000000,0.00,111.0,54.0,0,0,0,0.0
Status,1732152131000,28,14,3,9,1602000000,0.00,83.0,32.0,0,0,0,0.0
Status,1732152131000,28,15,3,11,1602000000,0.00,312.0,29.0,0,0,0,0.0
Status,1732152131000,28,16,3,19,1602000000,0.00,32.0,22.0,0,0,0,0.0
Status,1732152131000,28,17,3,8,1602000000,21.70,245.0,21.0,1,0,0,16.7
Status,1732152131000,28,18,3,17,1602000000,22.20,0.0,0.0,0,0,0,17.2
Status,1732152131000,28,19,6,21,1575420030,0.00,347.0,68.0,0,0,0,0.0
Status,1732152131000,28,20,6,19,1575420030,0.00,241.0,45.0,0,0,0,0.0
Status,1732152131000,28,21,6,27,1575420030,0.00,65.0,33.0,0,0,0,0.0
Status,1732152131000,28,22,6,13,1575420030,0.00,119.0,30.0,0,0,0,0.0
Status,1732152131000,28,23,6,15,1575420030,0.00,61.0,24.0,0,0,0,0.0
Status,1732152131000,28,24,6,29,1575420030,0.00,191.0,24.0,0,0,0,0.0
Status,1732152131000,28,25,6,4,1575420030,0.00,310.0,23.0,0,0,0,0.0
Status,1732152131000,28,26,6,26,1575420030,0.00,167.0,7.0,0,0,0,0.0
Status,1732152131000,28,27,6,6,1575420030,0.00,327.0,5.0,0,0,0,0.0
Fix,GPS,37.4249266667,-122.1588366667,23.599999999999998,0.0,4.4,0.0,1732152132000,2.9,179.9,31016090000000,45.2,0,,,
Fix,FLP,37.4249336000,-122.1588358000,5.400000095367432,0.24152039,4.528,180.0,1732152132242,2.9,179.9,31016090000000,20.920366,0,,,
Raw,1732152131999,25166000000,,704948.3129425491,-1416187324833999872,0.0,111.56030702969842,1076.5097472244759,0.0,0,7,0.0,16431,350549916432619,316,25.062999725341797,966.5576859096775,0.14999,16,0.0,0.0,1575420030,,,,0,12.958800173440752,1,6.0,25.062999725341797,0.0,0.0,0.0,66.7128,C,31016090000000,
Raw,1732152131999,25166000000,,704948.3129425491,-1416187324833999872,0.0,111.56030702969842,1076.5097472244759,0.0,0,6,0.0,16431,350549919005359,797,20.398000717163086,-336.0593694965717,0.14999,16,0.0,0.0,1575420030,,,,0,2.974891836649845,1,6.0,20.398000717163086,0.0,0.0,0.0,66.7128,C,31016090000000,
Raw,1732152131999,25166000000,,704948.3129425491,-1416187324833999872,0.0,111.56030702969842,1076.5097472244759,0.0,0,15,0.0,16431,350549924653953,487,17.722999572753906,517.9731983877932,0.14999,16,0.0,0.0,1575420030,,,,0,0.0,1,6.0,17.722999572753906,0.0,0.0,0.0,66.7128,C,31016090000000,
Raw,1732152131999,25166000000,,704948.3129425491,-1416187324833999872,0.0,111.56030702969842,1076.5097472244759,0.0,0,2,0.0,16431,350549918373344,797,16.59600067138672,681.1474675994995,0.14999,16,0.0,0.0,1575420030,,,,0,0.0,1,6.0,16.59600067138672,0.0,0.0,0.0,66.7128,C,31016090000000,
Raw,1732152131999,25166000000,,704948.3129425491,-1416187324833999872,0.0,111.56030702969842,1076.5097472244759,0.0,0,8,0.0,17,20387,1797,5.0,921.1556318730808,0.14999,16,0.0,0.0,1605374980,,,,0,0.0,3,6.0,13.0,0.0,0.0,107.78079638417657,66.7128,C,31016090000000,
Raw,1732152131999,25166000000,,704948.3129425491,-1416187324833999872,0.0,111.56030702969842,1076.5097472244759,0.0,0,30,0.0,16431,350549925509515,797,20.183000564575195,849.2403357938317,0.14999,16,0.0,0.0,1575420030,,,,0,2.5777534248950578,1,6.0,20.183000564575195,0.0,0.0,0.0,66.7128,C,31016090000000,
Fix,FLP,37.4249297000,-122.1588362000,5.400000095367432,0.24418272,4.514,180.0,1732152132920,2.9,179.9,31016767000000,22.834864,0,,,
Fix,NLP,37.4257088000,-122.1580585000,5.400000095367432,,24.314,,1732152132919,,,31016767000000,31.173435,0,,,
Status,1732152132000,28,0,1,17,1575420030,0.00,76.0,78.0,0,0,0,0.0
Status,1732152132000,28,1,1,22,1575420030,0.00,17.0,66.0,0,0,0,0.0
Status,1732152132000,28,2,1,19,1575420030,0.00,201.0,63.0,0,0,0,0.0
Status,1732152132000,28,3,1,14,1575420030,0.00,54.0,52.0,0,0,0,0.0
Status,1732152132000,28,4,1,13,1575420030,21.50,232.0,46.0,1,0,0,16.5
Status,1732152132000,28,5,2,135,1575420030,0.00,197.0,45.0,0,0,0,0.0
Status,1732152132000,28,6,1,30,1575420030,25.20,132.0,35.0,1,0,0,20.2
Status,1732152132000,28,7,1,15,1575420030,25.40,273.0,30.0,1,0,0,20.4
Status,1732152132000,28,8,1,24,1575420030,0.00,313.0,18.0,0,0,0,0.0
Status,1732152132000,28,9,1,2,1575420030,21.50,46.0,16.0,1,0,0,16.5
Status,1732152132000,28,10,1,6,1575420030,18.90,161.0,13.0,1,0,0,13.9
Status,1732152132000,28,11,1,21,1575420030,0.00,33.0,4.0,0,0,0,0.0
Status,1732152132000,28,12,1,7,1575420030,30.00,132.0,3.0,0,0,0,25.0
Status,1732152132000,28,13,3,20,1602000000,0.00,111.0,54.0,0,0,0,0.0
Status,1732152132000,28,14,3,9,1602000000,0.00,83.0,32.0,0,0,0,0.0
Status,1732152132000,28,15,3,11,1602000000,0.00,312.0,29.0,0,0,0,0.0
Status,1732152132000,28,16,3,19,1602000000,0.00,32.0,22.0,0,0,0,0.0
Status,1732152132000,28,17,3,8,1602000000,21.70,245.0,21.0,1,0,0,16.7
Status,1732152132000,28,18,3,17,1602000000,22.20,0.0,0.0,0,0,0,17.2
Status,1732152132000,28,19,6,21,1575420030,0.00,347.0,68.0,0,0,0,0.0
Status,1732152132000,28,20,6,19,1575420030,0.00,241.0,45.0,0,0,0,0.0
Status,1732152132000,28,21,6,27,1575420030,0.00,65.0,33.0,0,0,0,0.0
Status,1732152132000,28,22,6,13,1575420030,0.00,119.0,30.0,0,0,0,0.0
Status,1732152132000,28,23,6,15,1575420030,0.00,61.0,24.0,0,0,0,0.0
Status,1732152132000,28,24,6,29,1575420030,0.00,191.0,24.0,0,0,0,0.0
Status,1732152132000,28,25,6,4,1575420030,0.00,310.0,23.0,0,0,0,0.0
Status,1732152132000,28,26,6,26,1575420030,0.00,167.0,7.0,0,0,0,0.0
Status,1732152132000,28,27,6,6,1575420030,0.00,327.0,5.0,0,0,0,0.0
Fix,GPS,37.4249216667,-122.1588283333,23.599999999999998,0.0,4.4,0.0,1732152133000,2.9,179.9,31017090000000,45.4,0,,,
Fix,FLP,37.4249263000,-122.1588333000,5.400000095367432,0.24776608,4.5,180.0,1732152133242,2.9,179.9,31017090000000,19.222734,0,,,
Raw,1732152132999,26166000000,,704905.3665652924,-1416187324833999872,0.0,112.50824115750515,1074.522625371367,0.0,0,7,0.0,16431,350550916429396,396,24.986000061035156,967.012792554876,0.14999,16,0.0,0.0,1575420030,,,,0,7.939016461407012,1,6.0,24.986000061035156,0.0,0.0,0.0,66.7128,C,31017090000000,
Raw,1732152132999,26166000000,,704905.3665652924,-1416187324833999872,0.0,112.50824115750515,1074.522625371367,0.0,0,6,0.0,16431,350550919006509,797,13.899999618530273,-336.77882453000814,0.14999,16,0.0,0.0,1575420030,,,,0,0.0,1,6.0,13.899999618530273,0.0,0.0,0.0,66.7128,C,31017090000000,
Raw,1732152132999,26166000000,,704905.3665652924,-1416187324833999872,0.0,112.50824115750515,1074.522625371367,0.0,0,15,0.0,16431,350550924652236,797,20.398000717163086,517.8051582963597,0.14999,16,0.0,0.0,1575420030,,,,0,2.974891836649845,1,6.0,20.398000717163086,0.0,0.0,0.0,66.7128,C,31017090000000,
Raw,1732152132999,26166000000,,704905.3665652924,-1416187324833999872,0.0,112.50824115750515,1074.522625371367,0.0,0,2,0.0,16431,350550918371090,797,16.490999221801758,680.2413891081453,0.14999,16,0.0,0.0,1575420030,,,,0,0.0,1,6.0,16.490999221801758,0.0,0.0,0.0,66.7128,C,31017090000000,
Raw,1732152132999,26166000000,,704905.3665652924,-1416187324833999872,0.0,112.50824115750515,1074.522625371367,0.0,0,8,0.0,17,17316,1797,5.0,920.7087436008161,0.14999,16,0.0,0.0,1605374980,,,,0,0.0,3,6.0,14.0,0.0,0.0,100.50015584927527,66.7128,C,31017090000000,
Raw,1732152132999,26166000000,,704905.3665652924,-1416187324833999872,0.0,112.50824115750515,1074.522625371367,0.0,0,13,0.0,16431,350550928493377,797,16.527000427246094,712.4662938858448,0.14999,16,0.0,0.0,1575420030,,,,0,0.0,1,6.0,16.527000427246094,0.0,0.0,0.0,66.7128,C,31017090000000,
Raw,1732152132999,26166000000,,704905.3665652924,-1416187324833999872,0.0,112.50824115750515,1074.522625371367,0.0,0,30,0.0,16431,350550925506681,487,20.183000564575195,849.7976509546933,0.14999,16,0.0,0.0,1575420030,,,,0,2.5777534248950578,1,6.0,20.183000564575195,0.0,0.0,0.0,66.7128,C,31017090000000,
Status,1732152133000,28,0,1,17,1575420030,0.00,76.0,78.0,0,0,0,0.0
Status,1732152133000,28,1,1,22,1575420030,0.00,17.0,66.0,0,0,0,0.0
Status,1732152133000,28,2,1,19,1575420030,0.00,201.0,63.0,0,0,0,0.0
Status,1732152133000,28,3,1,14,1575420030,0.00,54.0,52.0,0,0,0,0.0
Status,1732152133000,28,4,1,13,1575420030,22.60,232.0,46.0,1,0,0,17.6
Status,1732152133000,28,5,2,135,1575420030,0.00,197.0,45.0,0,0,0,0.0
Status,1732152133000,28,6,1,30,1575420030,25.10,132.0,35.0,1,0,0,20.1
Status,1732152133000,28,7,1,15,1575420030,25.40,273.0,30.0,1,0,0,20.4
Status,1732152133000,28,8,1,24,1575420030,0.00,313.0,18.0,0,0,0,0.0
Status,1732152133000,28,9,1,2,1575420030,21.40,46.0,16.0,1,0,0,16.4
Status,1732152133000,28,10,1,6,1575420030,18.90,161.0,13.0,1,0,0,13.9
Status,1732152133000,28,11,1,21,1575420030,0.00,33.0,4.0,0,0,0,0.0
Status,1732152133000,28,12,1,7,1575420030,28.00,132.0,3.0,0,0,0,23.0
Status,1732152133000,28,13,3,20,1602000000,0.00,111.0,54.0,0,0,0,0.0
Status,1732152133000,28,14,3,9,1602000000,0.00,83.0,32.0,0,0,0,0.0
Status,1732152133000,28,15,3,11,1602000000,0.00,312.0,29.0,0,0,0,0.0
Status,1732152133000,28,16,3,19,1602000000,0.00,32.0,22.0,0,0,0,0.0
Status,1732152133000,28,17,3,8,1602000000,18.50,245.0,21.0,1,0,0,13.5
Status,1732152133000,28,18,3,17,1602000000,21.60,0.0,0.0,0,0,0,16.6
Status,1732152133000,28,19,6,21,1575420030,0.00,347.0,68.0,0,0,0,0.0
Status,1732152133000,28,20,6,19,1575420030,0.00,241.0,45.0,0,0,0,0.0
Status,1732152133000,28,21,6,27,1575420030,0.00,65.0,33.0,0,0,0,0.0
Status,1732152133000,28,22,6,13,1575420030,0.00,119.0,30.0,0,0,0,0.0
Status,1732152133000,28,23,6,15,1575420030,0.00,61.0,24.0,0,0,0,0.0
Status,1732152133000,28,24,6,29,1575420030,0.00,191.0,24.0,0,0,0,0.0
Status,1732152133000,28,25,6,4,1575420030,0.00,310.0,23.0,0,0,0,0.0
Status,1732152133000,28,26,6,26,1575420030,0.00,167.0,7.0,0,0,0,0.0
Status,1732152133000,28,27,6,6,1575420030,0.00,327.0,5.0,0,0,0,0.0
Fix,GPS,37.4249133333,-122.1588150000,23.599999999999998,0.0,4.4,0.0,1732152134000,2.9,179.9,31018090000000,45.6,0,,,
Raw,1732152133999,27166000000,,704866.5376198357,-1416187324833999872,0.0,112.93512135562938,1076.1500858737963,0.0,0,13,0.0,16431,350551928490912,797,17.639999389648438,714.0364954369286,0.14999,16,0.0,0.0,1575420030,,,,0,0.0,1,6.0,17.639999389648438,0.0,0.0,0.0,66.7128,C,31018090000000,
Raw,1732152133999,27166000000,,704866.5376198357,-1416187324833999872,0.0,112.93512135562938,1076.1500858737963,0.0,0,7,0.0,16431,350551916426171,487,23.007999420166016,966.567720927579,0.14999,16,0.0,0.0,1575420030,,,,0,7.135788072182939,1,6.0,23.007999420166016,0.0,0.0,0.0,66.7128,C,31018090000000,
Raw,1732152133999,27166000000,,704866.5376198357,-1416187324833999872,0.0,112.93512135562938,1076.1500858737963,0.0,0,6,0.0,16431,350551919007633,797,13.899999618530273,-336.5274844983091,0.14999,16,0.0,0.0,1575420030,,,,0,0.0,1,6.0,13.899999618530273,0.0,0.0,0.0,66.7128,C,31018090000000,
Raw,1732152133999,27166000000,,704866.5376198357,-1416187324833999872,0.0,112.93512135562938,1076.1500858737963,0.0,0,15,0.0,16431,350551924650506,487,20.398000717163086,518.7151857530916,0.14999,16,0.0,0.0,1575420030,,,,0,2.974891836649845,1,6.0,20.398000717163086,0.0,0.0,0.0,66.7128,C,31018090000000,
Raw,1732152133999,27166000000,,704866.5376198357,-1416187324833999872,0.0,112.93512135562938,1076.1500858737963,0.0,0,2,0.0,16431,350551918368819,1797,16.391000747680664,680.9909956537024,0.14999,16,0.0,0.0,1575420030,,,,0,0.0,1,6.0,16.391000747680664,0.0,0.0,0.0,66.7128,C,31018090000000,
Raw,1732152133999,27166000000,,704866.5376198357,-1416187324833999872,0.0,112.93512135562938,1076.1500858737963,0.0,0,8,0.0,17,14228,797,5.0,921.5674146597665,0.14999,16,0.0,0.0,1605374980,,,,0,0.0,3,6.0,17.0,0.0,0.0,100.16614583518388,66.7128,C,31018090000000,
Raw,1732152133999,27166000000,,704866.5376198357,-1416187324833999872,0.0,112.93512135562938,1076.1500858737963,0.0,0,30,0.0,16431,350551925503862,797,20.148000717163086,850.5034472137638,0.14999,16,0.0,0.0,1575420030,,,,0,1.3815565852974627,1,6.0,20.148000717163086,0.0,0.0,0.0,66.7128,C,31018090000000,
Fix,FLP,37.4249192000,-122.1588251000,5.400000095367432,0.2576553,4.457,180.0,1732152134242,2.9,179.9,31018090000000,11.699354,0,,,
Status,1732152134000,27,0,1,17,1575420030,0.00,76.0,78.0,0,0,0,0.0
Status,1732152134000,27,1,1,22,1575420030,0.00,17.0,66.0,0,0,0,0.0
Status,1732152134000,27,2,1,19,1575420030,0.00,201.0,63.0,0,0,0,0.0
Status,1732152134000,27,3,1,14,1575420030,0.00,54.0,52.0,0,0,0,0.0
Status,1732152134000,27,4,1,13,1575420030,0.00,232.0,46.0,0,0,0,0.0
Status,1732152134000,27,5,1,30,1575420030,25.10,132.0,35.0,1,0,0,20.1
Status,1732152134000,27,6,1,15,1575420030,25.40,273.0,30.0,1,0,0,20.4
Status,1732152134000,27,7,1,24,1575420030,0.00,313.0,18.0,0,0,0,0.0
Status,1732152134000,27,8,1,2,1575420030,21.30,46.0,16.0,1,0,0,16.3
Status,1732152134000,27,9,1,6,1575420030,18.90,161.0,13.0,1,0,0,13.9
Status,1732152134000,27,10,1,21,1575420030,0.00,33.0,4.0,0,0,0,0.0
Status,1732152134000,27,11,1,7,1575420030,28.00,132.0,3.0,0,0,0,23.0
Status,1732152134000,27,12,3,20,1602000000,0.00,111.0,54.0,0,0,0,0.0
Status,1732152134000,27,13,3,9,1602000000,0.00,83.0,32.0,0,0,0,0.0
Status,1732152134000,27,14,3,11,1602000000,0.00,312.0,29.0,0,0,0,0.0
Status,1732152134000,27,15,3,19,1602000000,0.00,32.0,22.0,0,0,0,0.0
Status,1732152134000,27,16,3,8,1602000000,18.50,245.0,21.0,1,0,0,13.5
Status,1732152134000,27,17,3,17,1602000000,25.40,0.0,0.0,0,0,0,20.4
Status,1732152134000,27,18,6,21,1575420030,0.00,347.0,68.0,0,0,0,0.0
Status,1732152134000,27,19,6,19,1575420030,0.00,241.0,45.0,0,0,0,0.0
Status,1732152134000,27,20,6,27,1575420030,0.00,65.0,33.0,0,0,0,0.0
Status,1732152134000,27,21,6,13,1575420030,0.00,119.0,30.0,0,0,0,0.0
Status,1732152134000,27,22,6,15,1575420030,0.00,61.0,24.0,0,0,0,0.0
Status,1732152134000,27,23,6,29,1575420030,0.00,191.0,24.0,0,0,0,0.0
Status,1732152134000,27,24,6,4,1575420030,0.00,310.0,23.0,0,0,0,0.0
Status,1732152134000,27,25,6,26,1575420030,0.00,167.0,7.0,0,0,0,0.0
Status,1732152134000,27,26,6,6,1575420030,0.00,327.0,5.0,0,0,0,0.0
Fix,GPS,37.4249083333,-122.1588000000,23.599999999999998,0.0,4.3,0.0,1732152135000,2.9,179.9,31019090000000,45.9,0,,,
Fix,FLP,37.4249128000,-122.1588134000,5.400000095367432,0.2652077,4.414,180.0,1732152135242,2.9,179.9,31019090000000,12.180215,0,,,
Raw,1732152134999,28166000000,,704825.3111824448,-1416187324833999872,0.0,113.90882251578383,1079.8836975365782,0.0,0,7,0.0,16431,350552916422944,487,23.007999420166016,967.9427042137461,0.14999,16,0.0,0.0,1575420030,,,,0,7.135788072182939,1,6.0,23.007999420166016,0.0,0.0,0.0,66.7128,C,31019090000000,
Raw,1732152134999,28166000000,,704825.3111824448,-1416187324833999872,0.0,113.90882251578383,1079.8836975365782,0.0,0,6,0.0,16431,350552919008741,1797,13.904999732971191,-335.7608277140028,0.14999,16,0.0,0.0,1575420030,,,,0,0.0,1,6.0,13.904999732971191,0.0,0.0,0.0,66.7128,C,31019090000000,
Raw,1732152134999,28166000000,,704825.3111824448,-1416187324833999872,0.0,113.90882251578383,1079.8836975365782,0.0,0,15,0.0,16431,350552924648773,487,20.398000717163086,520.3064794251351,0.14999,16,0.0,0.0,1575420030,,,,0,2.974891836649845,1,6.0,20.398000717163086,0.0,0.0,0.0,66.7128,C,31019090000000,
Raw,1732152134999,28166000000,,704825.3111824448,-1416187324833999872,0.0,113.90882251578383,1079.8836975365782,0.0,0,2,0.0,16431,350552918366546,797,16.29599952697754,681.8893155895494,0.14999,16,0.0,0.0,1575420030,,,,0,0.0,1,6.0,16.29599952697754,0.0,0.0,0.0,66.7128,C,31019090000000,
Raw,1732152134999,28166000000,,704825.3111824448,-1416187324833999872,0.0,113.90882251578383,1079.8836975365782,0.0,0,8,0.0,17,11151,797,5.0,922.8441601378834,0.14999,16,0.0,0.0,1605374980,,,,0,0.0,3,6.0,16.0,0.0,0.0,100.16614583518388,66.7128,C,31019090000000,
Raw,1732152134999,28166000000,,704825.3111824448,-1416187324833999872,0.0,113.90882251578383,1079.8836975365782,0.0,0,30,0.0,16431,350552925501025,487,20.121000289916992,851.9118805596024,0.14999,16,0.0,0.0,1575420030,,,,0,1.6116598334039582,1,6.0,20.121000289916992,0.0,0.0,0.0,66.7128,C,31019090000000,
Status,1732152135000,27,0,1,17,1575420030,0.00,76.0,78.0,0,0,0,0.0
Status,1732152135000,27,1,1,22,1575420030,0.00,17.0,66.0,0,0,0,0.0
Status,1732152135000,27,2,1,19,1575420030,0.00,201.0,63.0,0,0,0,0.0
Status,1732152135000,27,3,1,14,1575420030,0.00,54.0,52.0,0,0,0,0.0
Status,1732152135000,27,4,1,13,1575420030,0.00,232.0,46.0,0,0,0,0.0
Status,1732152135000,27,5,1,30,1575420030,25.10,132.0,35.0,1,0,0,20.1
Status,1732152135000,27,6,1,15,1575420030,25.40,273.0,30.0,1,0,0,20.4
Status,1732152135000,27,7,1,24,1575420030,0.00,313.0,18.0,0,0,0,0.0
Status,1732152135000,27,8,1,2,1575420030,19.20,46.0,16.0,1,0,0,14.200001
Status,1732152135000,27,9,1,6,1575420030,18.90,161.0,13.0,1,0,0,13.9
Status,1732152135000,27,10,1,21,1575420030,0.00,33.0,4.0,0,0,0,0.0
Status,1732152135000,27,11,1,7,1575420030,25.40,132.0,3.0,0,0,0,20.4
Status,1732152135000,27,12,3,20,1602000000,0.00,111.0,54.0,0,0,0,0.0
Status,1732152135000,27,13,3,9,1602000000,0.00,83.0,32.0,0,0,0,0.0
Status,1732152135000,27,14,3,11,1602000000,0.00,312.0,29.0,0,0,0,0.0
Status,1732152135000,27,15,3,19,1602000000,0.00,32.0,22.0,0,0,0,0.0
Status,1732152135000,27,16,3,8,1602000000,22.60,245.0,21.0,1,0,0,17.6
Status,1732152135000,27,17,3,17,1602000000,27.50,0.0,0.0,0,0,0,22.5
Status,1732152135000,27,18,6,21,1575420030,0.00,347.0,68.0,0,0,0,0.0
Status,1732152135000,27,19,6,19,1575420030,0.00,241.0,45.0,0,0,0,0.0
Status,1732152135000,27,20,6,27,1575420030,0.00,65.0,33.0,0,0,0,0.0
Status,1732152135000,27,21,6,13,1575420030,0.00,119.0,30.0,0,0,0,0.0
Status,1732152135000,27,22,6,15,1575420030,0.00,61.0,24.0,0,0,0,0.0
Status,1732152135000,27,23,6,29,1575420030,0.00,191.0,24.0,0,0,0,0.0
Status,1732152135000,27,24,6,4,1575420030,0.00,310.0,23.0,0,0,0,0.0
Status,1732152135000,27,25,6,26,1575420030,0.00,167.0,7.0,0,0,0,0.0
Status,1732152135000,27,26,6,6,1575420030,0.00,327.0,5.0,0,0,0,0.0
Fix,GPS,37.4249033333,-122.1587850000,23.599999999999998,0.0,4.3,0.0,1732152136000,3.1,179.9,31020090000000,46.2,0,,,
Raw,1732152135999,29166000000,,704784.0847450539,-1416187324833999872,0.0,114.85683299035307,1083.890371051634,0.0,0,7,0.0,16431,350553916419715,797,20.398000717163086,969.0501799393729,0.14999,16,0.0,0.0,1575420030,,,,0,2.974891836649845,1,6.0,20.398000717163086,0.0,0.0,0.0,66.7128,C,31020090000000,
Raw,1732152135999,29166000000,,704784.0847450539,-1416187324833999872,0.0,114.85683299035307,1083.890371051634,0.0,0,6,0.0,16431,350553919009860,797,13.909000396728516,-334.3130440896338,0.14999,16,0.0,0.0,1575420030,,,,0,0.0,1,6.0,13.909000396728516,0.0,0.0,0.0,66.7128,C,31020090000000,
Raw,1732152135999,29166000000,,704784.0847450539,-1416187324833999872,0.0,114.85683299035307,1083.890371051634,0.0,0,15,0.0,16431,350553924647014,487,20.408000946044922,521.330794585745,0.14999,16,0.0,0.0,1575420030,,,,0,3.261265785112258,1,6.0,20.408000946044922,0.0,0.0,0.0,66.7128,C,31020090000000,
Raw,1732152135999,29166000000,,704784.0847450539,-1416187324833999872,0.0,114.85683299035307,1083.890371051634,0.0,0,2,0.0,16431,350553918364270,797,14.199999809265137,682.9512620672898,0.14999,16,0.0,0.0,1575420030,,,,0,0.0,1,6.0,14.199999809265137,0.0,0.0,0.0,66.7128,C,31020090000000,
Raw,1732152135999,29166000000,,704784.0847450539,-1416187324833999872,0.0,114.85683299035307,1083.890371051634,0.0,0,8,0.0,17,8058,487,5.0,924.1417865411885,0.14999,16,0.0,0.0,1605374980,,,,0,0.10902720576934044,3,6.0,19.0,0.0,0.0,100.16614583518388,66.7128,C,31020090000000,
Raw,1732152135999,29166000000,,704784.0847450539,-1416187324833999872,0.0,114.85683299035307,1083.890371051634,0.0,0,30,0.0,16431,350553925498205,797,20.08300018310547,852.6520560466688,0.14999,16,0.0,0.0,1575420030,,,,0,1.1451912617514792,1,6.0,20.08300018310547,0.0,0.0,0.0,66.7128,C,31020090000000,
Fix,FLP,37.4249070000,-122.1587999000,5.400000095367432,0.27139258,4.385,180.0,1732152136242,3.1,179.9,31020090000000,12.529471,0,,,
Status,1732152136000,27,0,1,17,1575420030,0.00,76.0,78.0,0,0,0,0.0
Status,1732152136000,27,1,1,22,1575420030,0.00,17.0,66.0,0,0,0,0.0
Status,1732152136000,27,2,1,19,1575420030,0.00,201.0,63.0,0,0,0,0.0
Status,1732152136000,27,3,1,14,1575420030,0.00,54.0,52.0,0,0,0,0.0
Status,1732152136000,27,4,1,13,1575420030,0.00,232.0,46.0,0,0,0,0.0
Status,1732152136000,27,5,1,30,1575420030,25.00,132.0,35.0,1,0,0,20.0
Status,1732152136000,27,6,1,15,1575420030,27.00,273.0,30.0,1,0,0,22.0
Status,1732152136000,27,7,1,24,1575420030,0.00,313.0,18.0,0,0,0,0.0
Status,1732152136000,27,8,1,2,1575420030,19.20,46.0,16.0,1,0,0,14.200001
Status,1732152136000,27,9,1,6,1575420030,18.90,161.0,13.0,1,0,0,13.9
Status,1732152136000,27,10,1,21,1575420030,0.00,33.0,4.0,0,0,0,0.0
Status,1732152136000,27,11,1,7,1575420030,25.40,132.0,3.0,0,0,0,20.4
Status,1732152136000,27,12,3,20,1602000000,0.00,111.0,54.0,0,0,0,0.0
Status,1732152136000,27,13,3,9,1602000000,0.00,83.0,32.0,0,0,0,0.0
Status,1732152136000,27,14,3,11,1602000000,0.00,312.0,29.0,0,0,0,0.0
Status,1732152136000,27,15,3,19,1602000000,0.00,32.0,22.0,0,0,0,0.0
Status,1732152136000,27,16,3,8,1602000000,22.60,245.0,21.0,1,0,0,17.6
Status,1732152136000,27,17,3,17,1602000000,29.30,0.0,0.0,0,0,0,24.3
Status,1732152136000,27,18,6,21,1575420030,0.00,347.0,68.0,0,0,0,0.0
Status,1732152136000,27,19,6,19,1575420030,0.00,241.0,45.0,0,0,0,0.0
Status,1732152136000,27,20,6,27,1575420030,0.00,65.0,33.0,0,0,0,0.0
Status,1732152136000,27,21,6,13,1575420030,0.00,119.0,30.0,0,0,0,0.0
Status,1732152136000,27,22,6,15,1575420030,0.00,61.0,24.0,0,0,0,0.0
Status,1732152136000,27,23,6,29,1575420030,0.00,191.0,24.0,0,0,0,0.0
Status,1732152136000,27,24,6,4,1575420030,0.00,310.0,23.0,0,0,0,0.0
Status,1732152136000,27,25,6,26,1575420030,0.00,167.0,7.0,0,0,0,0.0
Status,1732152136000,27,26,6,6,1575420030,0.00,327.0,5.0,0,0,0,0.0
Fix,GPS,37.4249000000,-122.1587700000,23.599999999999998,0.0,4.4,0.0,1732152137000,3.5,179.9,31021090000000,46.7,0,,,
Fix,FLP,37.4249023000,-122.1587856000,5.400000095367432,0.274747,4.371,180.0,1732152137243,3.5,179.9,31021090000000,12.63497,0,,,
Raw,1732152136999,30166000000,,704746.1418292251,-1416187324833999872,0.0,116.53901938215647,1086.3371948909203,0.0,0,7,0.0,16431,350554916416480,797,20.398000717163086,969.9887328636582,0.14999,16,0.0,0.0,1575420030,,,,0,2.974891836649845,1,6.0,20.398000717163086,0.0,0.0,0.0,66.7128,C,31021090000000,
Raw,1732152136999,30166000000,,704746.1418292251,-1416187324833999872,0.0,116.53901938215647,1086.3371948909203,0.0,0,6,0.0,16431,350554919010975,487,13.913000106811523,-333.65194082695785,0.14999,16,0.0,0.0,1575420030,,,,0,0.0,1,6.0,13.913000106811523,0.0,0.0,0.0,66.7128,C,31021090000000,
Raw,1732152136999,30166000000,,704746.1418292251,-1416187324833999872,0.0,116.53901938215647,1086.3371948909203,0.0,0,15,0.0,16431,350554924645226,487,21.95199966430664,522.1410293644568,0.14999,16,0.0,0.0,1575420030,,,,0,5.485789236014735,1,6.0,21.95199966430664,0.0,0.0,0.0,66.7128,C,31021090000000,
Raw,1732152136999,30166000000,,704746.1418292251,-1416187324833999872,0.0,116.53901938215647,1086.3371948909203,0.0,0,2,0.0,16431,350554918361991,797,14.199999809265137,683.9627082466095,0.14999,16,0.0,0.0,1575420030,,,,0,0.0,1,6.0,14.199999809265137,0.0,0.0,0.0,66.7128,C,31021090000000,
Raw,1732152136999,30166000000,,704746.1418292251,-1416187324833999872,0.0,116.53901938215647,1086.3371948909203,0.0,0,8,0.0,17,4974,487,5.0,925.1905743207413,0.14999,16,0.0,0.0,1605374980,,,,0,0.10902720576934044,3,6.0,18.0,0.0,0.0,100.16614583518388,66.7128,C,31021090000000,
Raw,1732152136999,30166000000,,704746.1418292251,-1416187324833999872,0.0,116.53901938215647,1086.3371948909203,0.0,0,30,0.0,16431,350554925495361,797,20.047000885009766,852.8806314544246,0.14999,16,0.0,0.0,1575420030,,,,0,1.1451912617514792,1,6.0,20.047000885009766,0.0,0.0,0.0,66.7128,C,31021090000000,
Fix,FLP,37.4249001000,-122.1587784000,5.400000095367432,0.27145886,4.366,180.0,1732152138113,3.5,179.9,31021960000000,9.418178,0,,,
Fix,NLP,37.4257129000,-122.1580780000,5.400000095367432,,23.508,,1732152138112,,,31021960000000,19.311586,0,,,
Status,1732152137000,27,0,1,17,1575420030,0.00,76.0,78.0,0,0,0,0.0
Status,1732152137000,27,1,1,22,1575420030,0.00,17.0,66.0,0,0,0,0.0
Status,1732152137000,27,2,1,19,1575420030,0.00,201.0,63.0,0,0,0,0.0
Status,1732152137000,27,3,1,14,1575420030,0.00,54.0,52.0,0,0,0,0.0
Status,1732152137000,27,4,1,13,1575420030,0.00,232.0,46.0,0,0,0,0.0
Status,1732152137000,27,5,1,30,1575420030,25.00,132.0,35.0,1,0,0,20.0
Status,1732152137000,27,6,1,15,1575420030,27.00,273.0,30.0,1,0,0,22.0
Status,1732152137000,27,7,1,24,1575420030,0.00,313.0,18.0,0,0,0,0.0
Status,1732152137000,27,8,1,2,1575420030,18.00,46.0,16.0,1,0,0,13.0
Status,1732152137000,27,9,1,6,1575420030,28.40,161.0,13.0,1,0,0,23.4
Status,1732152137000,27,10,1,21,1575420030,0.00,33.0,4.0,0,0,0,0.0
Status,1732152137000,27,11,1,7,1575420030,25.40,132.0,3.0,0,0,0,20.4
Status,1732152137000,27,12,3,20,1602000000,0.00,111.0,54.0,0,0,0,0.0
Status,1732152137000,27,13,3,9,1602000000,0.00,83.0,32.0,0,0,0,0.0
Status,1732152137000,27,14,3,11,1602000000,0.00,312.0,29.0,0,0,0,0.0
Status,1732152137000,27,15,3,19,1602000000,0.00,32.0,22.0,0,0,0,0.0
Status,1732152137000,27,16,3,8,1602000000,25.10,245.0,21.0,1,0,0,20.1
Status,1732152137000,27,17,3,17,1602000000,25.00,0.0,0.0,0,0,0,20.0
Status,1732152137000,27,18,6,21,1575420030,0.00,347.0,68.0,0,0,0,0.0
Status,1732152137000,27,19,6,19,1575420030,0.00,241.0,45.0,0,0,0,0.0
Status,1732152137000,27,20,6,27,1575420030,0.00,65.0,33.0,0,0,0,0.0
Status,1732152137000,27,21,6,13,1575420030,0.00,119.0,30.0,0,0,0,0.0
Status,1732152137000,27,22,6,15,1575420030,0.00,61.0,24.0,0,0,0,0.0
Status,1732152137000,27,23,6,29,1575420030,0.00,191.0,24.0,0,0,0,0.0
Status,1732152137000,27,24,6,4,1575420030,0.00,310.0,23.0,0,0,0,0.0
Status,1732152137000,27,25,6,26,1575420030,0.00,167.0,7.0,0,0,0,0.0
Status,1732152137000,27,26,6,6,1575420030,0.00,327.0,5.0,0,0,0,0.0
Fix,GPS,37.4249016667,-122.1587550000,23.599999999999998,0.0,4.5,0.0,1732152138000,3.6,179.9,31022090000000,47.1,0,,,
Raw,1732152137999,31166000000,,704707.104406209,-1416187324833999872,0.0,118.41773506512561,1089.4302138983926,0.0,0,7,0.0,16431,350555916413243,487,20.398000717163086,970.6521590471447,0.14999,16,0.0,0.0,1575420030,,,,0,2.974891836649845,1,6.0,20.398000717163086,0.0,0.0,0.0,66.7128,C,31022090000000,
Raw,1732152137999,31166000000,,704707.104406209,-1416187324833999872,0.0,118.41773506512561,1089.4302138983926,0.0,0,6,0.0,16431,350555919012072,487,23.400999069213867,-332.2743094110668,0.14999,16,0.0,0.0,1575420030,,,,0,7.7170008055486745,1,6.0,23.400999069213867,0.0,0.0,0.0,66.7128,C,31022090000000,
Raw,1732152137999,31166000000,,704707.104406209,-1416187324833999872,0.0,118.41773506512561,1089.4302138983926,0.0,0,15,0.0,16431,350555924643481,797,21.95199966430664,523.3739892722682,0.14999,16,0.0,0.0,1575420030,,,,0,5.485789236014735,1,6.0,21.95199966430664,0.0,0.0,0.0,66.7128,C,31022090000000,
Raw,1732152137999,31166000000,,704707.104406209,-1416187324833999872,0.0,118.41773506512561,1089.4302138983926,0.0,0,2,0.0,16431,350555918359701,1797,13.0,684.7418158864602,0.14999,16,0.0,0.0,1575420030,,,,0,0.0,1,6.0,13.0,0.0,0.0,0.0,66.7128,C,31022090000000,
Raw,1732152137999,31166000000,,704707.104406209,-1416187324833999872,0.0,118.41773506512561,1089.4302138983926,0.0,0,8,0.0,17,1845,487,5.0,925.9349929811716,0.14999,16,0.0,0.0,1605374980,,,,0,4.3748461253911595,3,6.0,20.0,0.0,0.0,100.16614583518388,66.7128,C,31022090000000,
Raw,1732152137999,31166000000,,704707.104406209,-1416187324833999872,0.0,118.41773506512561,1089.4302138983926,0.0,0,30,0.0,16431,350555925492515,797,20.011999130249023,853.7232942076514,0.14999,16,0.0,0.0,1575420030,,,,0,1.1451912617514792,1,6.0,20.011999130249023,0.0,0.0,0.0,66.7128,C,31022090000000,
Status,1732152138000,27,0,1,17,1575420030,0.00,76.0,78.0,0,0,0,0.0
Status,1732152138000,27,1,1,22,1575420030,0.00,17.0,66.0,0,0,0,0.0
Status,1732152138000,27,2,1,19,1575420030,0.00,201.0,63.0,0,0,0,0.0
Status,1732152138000,27,3,1,14,1575420030,0.00,54.0,52.0,0,0,0,0.0
Status,1732152138000,27,4,1,13,1575420030,0.00,232.0,46.0,0,0,0,0.0
Status,1732152138000,27,5,1,30,1575420030,19.10,132.0,35.0,1,0,0,14.1
Status,1732152138000,27,6,1,15,1575420030,27.00,273.0,30.0,1,0,0,22.0
Status,1732152138000,27,7,1,24,1575420030,0.00,313.0,18.0,0,0,0,0.0
Status,1732152138000,27,8,1,2,1575420030,18.00,46.0,16.0,1,0,0,13.0
Status,1732152138000,27,9,1,6,1575420030,25.50,161.0,13.0,1,0,0,20.5
Status,1732152138000,27,10,1,21,1575420030,0.00,33.0,4.0,0,0,0,0.0
Status,1732152138000,27,11,1,7,1575420030,28.00,132.0,3.0,0,0,0,23.0
Status,1732152138000,27,12,3,20,1602000000,0.00,111.0,54.0,0,0,0,0.0
Status,1732152138000,27,13,3,9,1602000000,0.00,83.0,32.0,0,0,0,0.0
Status,1732152138000,27,14,3,11,1602000000,0.00,312.0,29.0,0,0,0,0.0
Status,1732152138000,27,15,3,19,1602000000,0.00,32.0,22.0,0,0,0,0.0
Status,1732152138000,27,16,3,8,1602000000,24.30,245.0,21.0,1,0,0,19.3
Status,1732152138000,27,17,3,17,1602000000,25.80,0.0,0.0,0,0,0,20.8
Status,1732152138000,27,18,6,21,1575420030,0.00,347.0,68.0,0,0,0,0.0
Status,1732152138000,27,19,6,19,1575420030,0.00,241.0,45.0,0,0,0,0.0
Status,1732152138000,27,20,6,27,1575420030,0.00,65.0,33.0,0,0,0,0.0
Status,1732152138000,27,21,6,13,1575420030,0.00,119.0,30.0,0,0,0,0.0
Status,1732152138000,27,22,6,15,1575420030,0.00,61.0,24.0,0,0,0,0.0
Status,1732152138000,27,23,6,29,1575420030,0.00,191.0,24.0,0,0,0,0.0
Status,1732152138000,27,24,6,4,1575420030,0.00,310.0,23.0,0,0,0,0.0
Status,1732152138000,27,25,6,26,1575420030,0.00,167.0,7.0,0,0,0,0.0
Status,1732152138000,27,26,6,6,1575420030,0.00,327.0,5.0,0,0,0,0.0
Fix,GPS,37.4249050000,-122.1587500000,23.599999999999998,0.0,4.5,0.0,1732152139000,3.6,179.9,31023090000000,47.7,0,,,
Raw,1732152138999,32166000000,,704667.5979086839,-1416187324833999872,0.0,120.58079154060948,1092.9224498792103,0.0,0,7,0.0,16431,350556916409984,487,23.007999420166016,971.238092592392,0.14999,16,0.0,0.0,1575420030,,,,0,7.135788072182939,1,6.0,23.007999420166016,0.0,0.0,0.0,66.7128,C,31023090000000,
Raw,1732152138999,32166000000,,704667.5979086839,-1416187324833999872,0.0,120.58079154060948,1092.9224498792103,0.0,0,6,0.0,16431,350556919013168,487,20.450000762939453,-331.26815949119515,0.14999,16,0.0,0.0,1575420030,,,,0,3.071402714435672,1,6.0,20.450000762939453,0.0,0.0,0.0,66.7128,C,31023090000000,
Raw,1732152138999,32166000000,,704667.5979086839,-1416187324833999872,0.0,120.58079154060948,1092.9224498792103,0.0,0,15,0.0,16431,350556924641735,487,21.95199966430664,523.7503489019898,0.14999,16,0.0,0.0,1575420030,,,,0,5.485789236014735,1,6.0,21.95199966430664,0.0,0.0,0.0,66.7128,C,31023090000000,
Raw,1732152138999,32166000000,,704667.5979086839,-1416187324833999872,0.0,120.58079154060948,1092.9224498792103,0.0,0,2,0.0,16431,350556918357414,1797,13.0,686.843594635825,0.14999,16,0.0,0.0,1575420030,,,,0,0.0,1,6.0,13.0,0.0,0.0,0.0,66.7128,C,31023090000000,
Raw,1732152138999,32166000000,,704667.5979086839,-1416187324833999872,0.0,120.58079154060948,1092.9224498792103,0.0,0,8,0.0,17,998766,487,5.0,926.2426446911535,0.14999,16,0.0,0.0,1605374980,,,,0,3.1219099426333767,3,6.0,19.0,0.0,0.0,100.16614583518388,66.7128,C,31023090000000,
Raw,1732152138999,32166000000,,704667.5979086839,-1416187324833999872,0.0,120.58079154060948,1092.9224498792103,0.0,0,30,0.0,16431,350556925489620,797,14.100000381469727,854.7975057072714,0.14999,16,0.0,0.0,1575420030,,,,0,0.0,1,6.0,14.100000381469727,0.0,0.0,0.0,66.7128,C,31023090000000,
Fix,FLP,37.4249012000,-122.1587615000,5.400000095367432,0.25279617,4.4,180.0,1732152139242,3.6,179.9,31023090000000,9.460294,0,,,
Status,1732152139000,27,0,1,17,1575420030,0.00,76.0,78.0,0,0,0,0.0
Status,1732152139000,27,1,1,22,1575420030,0.00,17.0,66.0,0,0,0,0.0
Status,1732152139000,27,2,1,19,1575420030,0.00,201.0,63.0,0,0,0,0.0
Status,1732152139000,27,3,1,14,1575420030,0.00,54.0,52.0,0,0,0,0.0
Status,1732152139000,27,4,1,13,1575420030,0.00,232.0,46.0,0,0,0,0.0
Status,1732152139000,27,5,1,30,1575420030,19.10,132.0,35.0,1,0,0,14.1
Status,1732152139000,27,6,1,15,1575420030,28.00,273.0,30.0,1,0,0,23.0
Status,1732152139000,27,7,1,24,1575420030,0.00,313.0,18.0,0,0,0,0.0
Status,1732152139000,27,8,1,2,1575420030,18.00,46.0,16.0,1,0,0,13.0
Status,1732152139000,27,9,1,6,1575420030,25.40,161.0,13.0,1,0,0,20.4
Status,1732152139000,27,10,1,21,1575420030,0.00,33.0,4.0,0,0,0,0.0
Status,1732152139000,27,11,1,7,1575420030,28.00,132.0,3.0,0,0,0,23.0
Status,1732152139000,27,12,3,20,1602000000,0.00,111.0,54.0,0,0,0,0.0
Status,1732152139000,27,13,3,9,1602000000,0.00,83.0,32.0,0,0,0,0.0
Status,1732152139000,27,14,3,11,1602000000,0.00,312.0,29.0,0,0,0,0.0
Status,1732152139000,27,15,3,19,1602000000,0.00,32.0,22.0,0,0,0,0.0
Status,1732152139000,27,16,3,8,1602000000,24.30,245.0,21.0,1,0,0,19.3
Status,1732152139000,27,17,3,17,1602000000,25.60,0.0,0.0,0,0,0,20.6
Status,1732152139000,27,18,6,21,1575420030,0.00,347.0,68.0,0,0,0,0.0
Status,1732152139000,27,19,6,19,1575420030,0.00,241.0,45.0,0,0,0,0.0
Status,1732152139000,27,20,6,27,1575420030,0.00,65.0,33.0,0,0,0,0.0
Status,1732152139000,27,21,6,13,1575420030,0.00,119.0,30.0,0,0,0,0.0
Status,1732152139000,27,22,6,15,1575420030,0.00,61.0,24.0,0,0,0,0.0
Status,1732152139000,27,23,6,29,1575420030,0.00,191.0,24.0,0,0,0,0.0
Status,1732152139000,27,24,6,4,1575420030,0.00,310.0,23.0,0,0,0,0.0
Status,1732152139000,27,25,6,26,1575420030,0.00,167.0,7.0,0,0,0,0.0
Status,1732152139000,27,26,6,6,1575420030,0.00,327.0,5.0,0,0,0,0.0
