# 
# Header Description:
# 
# Version: v3.1.0.3 Platform: 13 Manufacturer: samsung Model: SM-S135DL GNSS Hardware Model Name: MediaTek,MT6631,MTK_MNLD_default,MNL_VER_default
# 
# Raw,utcTimeMillis,TimeNanos,LeapSecond,TimeUncertaintyNanos,FullBiasNanos,BiasNanos,BiasUncertaintyNanos,DriftNanosPerSecond,DriftUncertaintyNanosPerSecond,HardwareClockDiscontinuityCount,Svid,TimeOffsetNanos,State,ReceivedSvTimeNanos,ReceivedSvTimeUncertaintyNanos,Cn0DbHz,PseudorangeRateMetersPerSecond,PseudorangeRateUncertaintyMetersPerSecond,AccumulatedDeltaRangeState,AccumulatedDeltaRangeMeters,AccumulatedDeltaRangeUncertaintyMeters,CarrierFrequencyHz,CarrierCycles,CarrierPhase,CarrierPhaseUncertainty,MultipathIndicator,SnrInDb,ConstellationType,AgcDb,BasebandCn0DbHz,FullInterSignalBiasNanos,FullInterSignalBiasUncertaintyNanos,SatelliteInterSignalBiasNanos,SatelliteInterSignalBiasUncertaintyNanos,CodeType,ChipsetElapsedRealtimeNanos,IsFullTracking
# 
# UncalAccel,utcTimeMillis,elapsedRealtimeNanos,UncalAccelXMps2,UncalAccelYMps2,UncalAccelZMps2,BiasXMps2,BiasYMps2,BiasZMps2
# 
# Accel,utcTimeMillis,elapsedRealtimeNanos,AccelXMps2,AccelYMps2,AccelZMps2
# 
# UncalGyro,utcTimeMillis,elapsedRealtimeNanos,UncalGyroXRadPerSec,UncalGyroYRadPerSec,UncalGyroZRadPerSec,DriftXRadPerSec,DriftYRadPerSec,DriftZRadPerSec
# 
# Gyro,utcTimeMillis,elapsedRealtimeNanos,GyroXRadPerSec,GyroYRadPerSec,GyroZRadPerSec
# 
# UncalMag,utcTimeMillis,elapsedRealtimeNanos,UncalMagXMicroT,UncalMagYMicroT,UncalMagZMicroT,BiasXMicroT,BiasYMicroT,BiasZMicroT
# 
# Mag,utcTimeMillis,elapsedRealtimeNanos,MagXMicroT,MagYMicroT,MagZMicroT
# 
# Pressure,utcTimeMillis,elapsedRealtimeNanos,PressureHpa
# 
# OrientationDeg,utcTimeMillis,elapsedRealtimeNanos,yawDeg,rollDeg,pitchDeg
# 
# Fix,Provider,LatitudeDegrees,LongitudeDegrees,AltitudeMeters,SpeedMps,AccuracyMeters,BearingDegrees,UnixTimeMillis,SpeedAccuracyMps,BearingAccuracyDegrees,elapsedRealtimeNanos,VerticalAccuracyMeters,MockLocation,NumberOfUsedSignals,VerticalSpeedAccuracyMps,SolutionType
# 
# Nav,Svid,Type,Status,MessageId,Sub-messageId,Data(Bytes)
# 
# Status,UnixTimeMillis,SignalCount,SignalIndex,ConstellationType,Svid,CarrierFrequencyHz,Cn0DbHz,AzimuthDegrees,ElevationDegrees,UsedInFix,HasAlmanacData,HasEphemerisData,BasebandCn0DbHz
# 
# Agc,utcTimeMillis,TimeNanos,LeapSecond,TimeUncertaintyNanos,FullBiasNanos,BiasNanos,BiasUncertaintyNanos,DriftNanosPerSecond,DriftUncertaintyNanosPerSecond,HardwareClockDiscontinuityCount,AgcDb,CarrierFrequencyHz,ConstellationType
# 
Fix,FLP,37.4248211000,-122.1585762000,3.06284145104158,0.06985458,23.794,,1732151036623,2.1,,29920471000000,12.256699,0,,,
Status,,27,0,1,17,1575420030,0.00,122.0,79.0,0,0,0,0.0
Status,,27,1,1,22,1575420030,18.20,357.0,68.0,0,0,0,13.200001
Status,,27,2,1,14,1575420030,0.00,44.0,57.0,0,0,0,0.0
Status,,27,3,1,19,1575420030,0.00,198.0,54.0,0,0,0,0.0
Status,,27,4,1,13,1575420030,26.40,244.0,52.0,1,0,0,21.4
Status,,27,5,1,30,1575420030,22.50,126.0,42.0,1,0,0,17.5
Status,,27,6,1,15,1575420030,19.40,282.0,31.0,1,0,0,14.4
Status,,27,7,1,2,1575420030,0.00,53.0,19.0,0,0,0,0.0
Status,,27,8,1,24,1575420030,0.00,312.0,11.0,0,0,0,0.0
Status,,27,9,1,7,1575420030,27.50,128.0,10.0,1,0,0,22.5
Status,,27,10,1,21,1575420030,0.00,38.0,8.0,0,0,0,0.0
Status,,27,11,1,6,1575420030,0.00,165.0,6.0,0,0,0,0.0
Status,,27,12,3,20,1602000000,0.00,124.0,47.0,0,0,0,0.0
Status,,27,13,3,9,1602000000,0.00,72.0,37.0,0,0,0,0.0
Status,,27,14,3,8,1602000000,20.50,253.0,28.0,0,0,0,15.5
Status,,27,15,3,19,1602000000,0.00,39.0,28.0,0,0,0,0.0
Status,,27,16,3,11,1602000000,29.30,304.0,23.0,0,0,0,24.3
Status,,27,17,6,21,1575420030,0.00,330.0,67.0,0,0,0,0.0
Status,,27,18,6,19,1575420030,0.00,250.0,50.0,0,0,0,0.0
Status,,27,19,6,27,1575420030,0.00,60.0,37.0,0,0,0,0.0
Status,,27,20,6,29,1575420030,0.00,192.0,30.0,0,0,0,0.0
Status,,27,21,6,13,1575420030,0.00,124.0,24.0,0,0,0,0.0
Status,,27,22,6,15,1575420030,0.00,68.0,23.0,0,0,0,0.0
Status,,27,23,6,4,1575420030,0.00,315.0,20.0,0,0,0,0.0
Status,,27,24,6,26,1575420030,0.00,169.0,2.0,0,0,0,0.0
Status,,27,25,6,6,1575420030,0.00,329.0,1.0,0,0,0,0.0
Status,,27,26,6,34,1575420030,0.00,24.0,1.0,0,0,0,0.0
Fix,GPS,37.4248266667,-122.1585400000,-0.5999999999999979,0.0,5.5,0.0,1732151037366,2.1,179.9,29921471000000,85.4,0,,,
Raw,1732151037369,16514000000,,33353073.878863223,-1416186238855000064,0.0,233.2937692662504,1423.566857162648,0.0,0,13,0.0,16431,349455299091586,487,21.361000061035156,697.8507548965067,0.14999,16,0.0,0.0,1575420030,,,,0,4.477943948715898,1,6.0,21.361000061035156,0.0,0.0,0.0,66.7128,C,29921471000000,
Raw,1732151037369,16514000000,,33353073.878863223,-1416186238855000064,0.0,233.2937692662504,1423.566857162648,0.0,0,7,0.0,16431,349455288095357,487,22.511999130249023,1030.7667479522734,0.14999,16,0.0,0.0,1575420030,,,,0,6.338935792612265,1,6.0,22.511999130249023,0.0,0.0,0.0,66.7128,C,29921471000000,
Raw,1732151037369,16514000000,,33353073.878863223,-1416186238855000064,0.0,233.2937692662504,1423.566857162648,0.0,0,15,0.0,16431,349455294513555,1797,14.399999618530273,490.2304157724216,0.14999,16,0.0,0.0,1575420030,,,,0,0.0,1,6.0,14.399999618530273,0.0,0.0,0.0,66.7128,C,29921471000000,
Raw,1732151037369,16514000000,,33353073.878863223,-1416186238855000064,0.0,233.2937692662504,1423.566857162648,0.0,0,30,0.0,16431,349455296674998,396,17.520000457763672,875.3548902962725,0.14999,16,0.0,0.0,1575420030,,,,0,0.0,1,6.0,17.520000457763672,0.0,0.0,0.0,66.7128,C,29921471000000,
Raw,1732151037369,16514000000,,33353073.878863223,-1416186238855000064,0.0,233.2937692662504,1423.566857162648,0.0,0,22,0.0,16431,349455300083414,797,13.199999809265137,491.54425978285565,0.14999,16,0.0,0.0,1575420030,,,,0,0.0,1,6.0,13.199999809265137,0.0,0.0,0.0,66.7128,C,29921471000000,
Raw,1732151037369,16514000000,,33353073.878863223,-1416186238855000064,0.0,233.2937692662504,1423.566857162648,0.0,0,8,0.0,17,419795,487,5.0,926.8674311513774,0.14999,16,0.0,0.0,1605374980,,,,0,0.0,3,6.0,20.0,0.0,0.0,-9.278575228483438,66.7128,C,29921471000000,
Raw,1732151037369,16514000000,,33353073.878863223,-1416186238855000064,0.0,233.2937692662504,1423.566857162648,0.0,0,11,0.0,17,964236,316,15.5,-49.66802914788125,0.14999,16,0.0,0.0,1602000000,,,,0,10.264828695491628,3,6.0,15.5,0.0,0.0,-9.278575228483438,66.7128,C,29921471000000,
Fix,FLP,37.4248240000,-122.1585564000,2.9793834492030884,0.054229837,17.696,,1732151037623,2.1,,29921471000000,12.739981,0,,,
Status,1732151037366,27,0,1,17,1575420030,0.00,122.0,79.0,0,0,0,0.0
Status,1732151037366,27,1,1,22,1575420030,0.00,357.0,68.0,0,0,0,0.0
Status,1732151037366,27,2,1,14,1575420030,0.00,44.0,57.0,0,0,0,0.0
Status,1732151037366,27,3,1,19,1575420030,0.00,198.0,54.0,0,0,0,0.0
Status,1732151037366,27,4,1,13,1575420030,26.40,244.0,52.0,0,0,0,21.4
Status,1732151037366,27,5,1,30,1575420030,0.00,126.0,42.0,0,0,0,0.0
Status,1732151037366,27,6,1,15,1575420030,0.00,282.0,31.0,0,0,0,0.0
Status,1732151037366,27,7,1,2,1575420030,0.00,53.0,19.0,0,0,0,0.0
Status,1732151037366,27,8,1,24,1575420030,0.00,312.0,11.0,0,0,0,0.0
Status,1732151037366,27,9,1,7,1575420030,0.00,128.0,10.0,0,0,0,0.0
Status,1732151037366,27,10,1,21,1575420030,0.00,38.0,8.0,0,0,0,0.0
Status,1732151037366,27,11,1,6,1575420030,0.00,165.0,6.0,0,0,0,0.0
Status,1732151037366,27,12,3,20,1602000000,0.00,124.0,47.0,0,0,0,0.0
Status,1732151037366,27,13,3,9,1602000000,0.00,72.0,37.0,0,0,0,0.0
Status,1732151037366,27,14,3,8,1602000000,20.60,253.0,28.0,0,0,0,15.6
Status,1732151037366,27,15,3,19,1602000000,0.00,39.0,28.0,0,0,0,0.0
Status,1732151037366,27,16,3,11,1602000000,26.10,304.0,23.0,0,0,0,21.1
Status,1732151037366,27,17,6,21,1575420030,0.00,330.0,67.0,0,0,0,0.0
Status,1732151037366,27,18,6,19,1575420030,0.00,250.0,50.0,0,0,0,0.0
Status,1732151037366,27,19,6,27,1575420030,0.00,60.0,37.0,0,0,0,0.0
Status,1732151037366,27,20,6,29,1575420030,0.00,192.0,30.0,0,0,0,0.0
Status,1732151037366,27,21,6,13,1575420030,0.00,124.0,24.0,0,0,0,0.0
Status,1732151037366,27,22,6,15,1575420030,0.00,68.0,23.0,0,0,0,0.0
Status,1732151037366,27,23,6,4,1575420030,0.00,315.0,20.0,0,0,0,0.0
Status,1732151037366,27,24,6,26,1575420030,0.00,169.0,2.0,0,0,0,0.0
Status,1732151037366,27,25,6,6,1575420030,0.00,329.0,1.0,0,0,0,0.0
Status,1732151037366,27,26,6,34,1575420030,0.00,24.0,1.0,0,0,0,0.0
Status,,27,0,1,17,1575420030,0.00,122.0,79.0,0,0,0,0.0
Status,,27,1,1,22,1575420030,0.00,358.0,68.0,0,0,0,0.0
Status,,27,2,1,14,1575420030,0.00,44.0,57.0,0,0,0,0.0
Status,,27,3,1,19,1575420030,0.00,198.0,54.0,0,0,0,0.0
Status,,27,4,1,13,1575420030,26.40,244.0,52.0,0,0,0,21.4
Status,,27,5,1,30,1575420030,0.00,126.0,42.0,0,0,0,0.0
Status,,27,6,1,15,1575420030,0.00,282.0,31.0,0,0,0,0.0
Status,,27,7,1,2,1575420030,0.00,53.0,19.0,0,0,0,0.0
Status,,27,8,1,24,1575420030,0.00,312.0,11.0,0,0,0,0.0
Status,,27,9,1,7,1575420030,0.00,128.0,10.0,0,0,0,0.0
Status,,27,10,1,21,1575420030,0.00,38.0,8.0,0,0,0,0.0
Status,,27,11,1,6,1575420030,0.00,165.0,6.0,0,0,0,0.0
Status,,27,12,3,20,1602000000,0.00,124.0,47.0,0,0,0,0.0
Status,,27,13,3,9,1602000000,0.00,72.0,37.0,0,0,0,0.0
Status,,27,14,3,8,1602000000,20.70,253.0,28.0,0,0,0,15.700001
Status,,27,15,3,19,1602000000,0.00,39.0,28.0,0,0,0,0.0
Status,,27,16,3,11,1602000000,22.30,304.0,23.0,0,0,0,17.3
Status,,27,17,6,21,1575420030,0.00,330.0,67.0,0,0,0,0.0
Status,,27,18,6,19,1575420030,0.00,250.0,50.0,0,0,0,0.0
Status,,27,19,6,27,1575420030,0.00,60.0,37.0,0,0,0,0.0
Status,,27,20,6,29,1575420030,0.00,192.0,30.0,0,0,0,0.0
Status,,27,21,6,13,1575420030,0.00,124.0,24.0,0,0,0,0.0
Status,,27,22,6,15,1575420030,0.00,68.0,23.0,0,0,0,0.0
Status,,27,23,6,4,1575420030,0.00,315.0,20.0,0,0,0,0.0
Status,,27,24,6,26,1575420030,0.00,169.0,2.0,0,0,0,0.0
Status,,27,25,6,6,1575420030,0.00,329.0,1.0,0,0,0,0.0
Status,,27,26,6,34,1575420030,0.00,24.0,1.0,0,0,0,0.0
Status,,27,0,1,17,1575420030,0.00,122.0,79.0,0,0,0,0.0
Status,,27,1,1,22,1575420030,0.00,358.0,68.0,0,0,0,0.0
Status,,27,2,1,14,1575420030,0.00,44.0,57.0,0,0,0,0.0
Status,,27,3,1,19,1575420030,0.00,198.0,54.0,0,0,0,0.0
Status,,27,4,1,13,1575420030,21.60,244.0,52.0,0,0,0,16.6
Status,,27,5,1,30,1575420030,0.00,126.0,42.0,0,0,0,0.0
Status,,27,6,1,15,1575420030,0.00,282.0,31.0,0,0,0,0.0
Status,,27,7,1,2,1575420030,0.00,53.0,19.0,0,0,0,0.0
Status,,27,8,1,24,1575420030,0.00,312.0,11.0,0,0,0,0.0
Status,,27,9,1,7,1575420030,0.00,128.0,10.0,0,0,0,0.0
Status,,27,10,1,21,1575420030,0.00,38.0,8.0,0,0,0,0.0
Status,,27,11,1,6,1575420030,0.00,165.0,6.0,0,0,0,0.0
Status,,27,12,3,20,1602000000,0.00,124.0,47.0,0,0,0,0.0
Status,,27,13,3,9,1602000000,0.00,72.0,37.0,0,0,0,0.0
Status,,27,14,3,8,1602000000,23.90,253.0,28.0,0,0,0,18.9
Status,,27,15,3,19,1602000000,0.00,39.0,28.0,0,0,0,0.0
Status,,27,16,3,11,1602000000,28.90,304.0,23.0,0,0,0,23.9
Status,,27,17,6,21,1575420030,0.00,330.0,67.0,0,0,0,0.0
Status,,27,18,6,19,1575420030,0.00,250.0,50.0,0,0,0,0.0
Status,,27,19,6,27,1575420030,0.00,60.0,37.0,0,0,0,0.0
Status,,27,20,6,29,1575420030,0.00,192.0,30.0,0,0,0,0.0
Status,,27,21,6,13,1575420030,0.00,124.0,24.0,0,0,0,0.0
Status,,27,22,6,15,1575420030,0.00,68.0,23.0,0,0,0,0.0
Status,,27,23,6,4,1575420030,0.00,315.0,20.0,0,0,0,0.0
Status,,27,24,6,26,1575420030,0.00,169.0,2.0,0,0,0,0.0
Status,,27,25,6,6,1575420030,0.00,329.0,1.0,0,0,0,0.0
Status,,27,26,6,34,1575420030,0.00,24.0,1.0,0,0,0,0.0
Fix,FLP,37.4248253000,-122.1585458000,2.968765758673409,0.040376525,5.5,,1732151041121,2.1,,29924969000000,12.655594,0,,,
Fix,NLP,37.4257108000,-122.1580981000,5.400000095367432,,68.4,,1732151041121,,,29924969000000,13.898563,0,,,
Status,,27,0,1,17,1575420030,0.00,122.0,79.0,0,0,0,0.0
Status,,27,1,1,22,1575420030,0.00,358.0,68.0,0,0,0,0.0
Status,,27,2,1,14,1575420030,0.00,44.0,57.0,0,0,0,0.0
Status,,27,3,1,19,1575420030,0.00,198.0,54.0,0,0,0,0.0
Status,,27,4,1,13,1575420030,21.60,244.0,52.0,1,0,0,16.6
Status,,27,5,1,30,1575420030,25.40,126.0,42.0,1,0,0,20.4
Status,,27,6,1,15,1575420030,19.70,282.0,31.0,1,0,0,14.700001
Status,,27,7,1,2,1575420030,0.00,53.0,19.0,0,0,0,0.0
Status,,27,8,1,24,1575420030,0.00,312.0,11.0,0,0,0,0.0
Status,,27,9,1,7,1575420030,23.30,128.0,10.0,1,0,0,18.3
Status,,27,10,1,21,1575420030,25.80,38.0,8.0,1,0,0,20.8
Status,,27,11,1,6,1575420030,0.00,165.0,6.0,0,0,0,0.0
Status,,27,12,3,20,1602000000,0.00,124.0,47.0,0,0,0,0.0
Status,,27,13,3,9,1602000000,0.00,72.0,37.0,0,0,0,0.0
Status,,27,14,3,8,1602000000,0.00,253.0,28.0,0,0,0,0.0
Status,,27,15,3,19,1602000000,0.00,39.0,28.0,0,0,0,0.0
Status,,27,16,3,11,1602000000,21.10,304.0,23.0,0,0,0,16.1
Status,,27,17,6,21,1575420030,0.00,330.0,67.0,0,0,0,0.0
Status,,27,18,6,19,1575420030,0.00,250.0,50.0,0,0,0,0.0
Status,,27,19,6,27,1575420030,0.00,60.0,37.0,0,0,0,0.0
Status,,27,20,6,29,1575420030,0.00,192.0,30.0,0,0,0,0.0
Status,,27,21,6,13,1575420030,0.00,124.0,24.0,0,0,0,0.0
Status,,27,22,6,15,1575420030,0.00,68.0,23.0,0,0,0,0.0
Status,,27,23,6,4,1575420030,0.00,315.0,20.0,0,0,0,0.0
Status,,27,24,6,26,1575420030,0.00,169.0,2.0,0,0,0,0.0
Status,,27,25,6,6,1575420030,0.00,329.0,1.0,0,0,0,0.0
Status,,27,26,6,34,1575420030,0.00,24.0,1.0,0,0,0,0.0
Fix,GPS,37.4247950000,-122.1585366667,-0.5,0.0,5.7,0.0,1732151041366,2.1,179.9,29925471000000,61.6,0,,,
Fix,FLP,37.4248115000,-122.1585419000,2.7290143873662904,0.08927837,5.55,,1732151041624,2.1,,29925471000000,12.741729,0,,,
Raw,1732151041367,20514000000,,33353073.878863223,-1416186238853000192,0.0,138.6420688012597,1412.2564296239898,0.0,0,13,0.0,16431,349459297082291,797,16.635000228881836,694.1674387425028,0.14999,16,0.0,0.0,1575420030,,,,0,0.0,1,6.0,16.635000228881836,0.0,0.0,0.0,66.7128,C,29925471000000,
Raw,1732151041367,20514000000,,33353073.878863223,-1416186238853000192,0.0,138.6420688012597,1412.2564296239898,0.0,0,21,0.0,16431,349459283627176,487,20.82200050354004,886.4763847192485,0.14999,16,0.0,0.0,1575420030,,,,0,3.5883785142858544,1,6.0,20.82200050354004,0.0,0.0,0.0,66.7128,C,29925471000000,
Raw,1732151041367,20514000000,,33353073.878863223,-1416186238853000192,0.0,138.6420688012597,1412.2564296239898,0.0,0,11,0.0,17,964926,797,16.0,-53.07874475225792,0.14999,16,0.0,0.0,1602000000,,,,0,0.0,3,6.0,16.0,0.0,0.0,-9.278575228483438,66.7128,C,29925471000000,
Raw,1732151041367,20514000000,,33353073.878863223,-1416186238853000192,0.0,138.6420688012597,1412.2564296239898,0.0,0,15,0.0,16431,349459292507172,797,14.699999809265137,488.68646322649676,0.14999,16,0.0,0.0,1575420030,,,,0,0.0,1,6.0,14.699999809265137,0.0,0.0,0.0,66.7128,C,29925471000000,
Raw,1732151041367,20514000000,,33353073.878863223,-1416186238853000192,0.0,138.6420688012597,1412.2564296239898,0.0,0,7,0.0,16431,349459286081616,797,18.263999938964844,1027.9725529677069,0.14999,16,0.0,0.0,1575420030,,,,0,0.0,1,6.0,18.263999938964844,0.0,0.0,0.0,66.7128,C,29925471000000,
Raw,1732151041367,20514000000,,33353073.878863223,-1416186238853000192,0.0,138.6420688012597,1412.2564296239898,0.0,0,30,0.0,16431,349459294663459,797,20.38599967956543,872.660673823391,0.14999,16,0.0,0.0,1575420030,,,,0,2.8789321510414765,1,6.0,20.38599967956543,0.0,0.0,0.0,66.7128,C,29925471000000,
Status,1732151041366,27,0,1,17,1575420030,0.00,122.0,79.0,0,0,0,0.0
Status,1732151041366,27,1,1,22,1575420030,0.00,358.0,68.0,0,0,0,0.0
Status,1732151041366,27,2,1,14,1575420030,0.00,44.0,57.0,0,0,0,0.0
Status,1732151041366,27,3,1,19,1575420030,0.00,198.0,54.0,0,0,0,0.0
Status,1732151041366,27,4,1,13,1575420030,21.60,244.0,52.0,1,0,0,16.6
Status,1732151041366,27,5,1,30,1575420030,25.40,126.0,42.0,1,0,0,20.4
Status,1732151041366,27,6,1,15,1575420030,19.70,282.0,31.0,1,0,0,14.700001
Status,1732151041366,27,7,1,2,1575420030,0.00,53.0,19.0,0,0,0,0.0
Status,1732151041366,27,8,1,24,1575420030,0.00,312.0,11.0,0,0,0,0.0
Status,1732151041366,27,9,1,7,1575420030,25.10,128.0,10.0,1,0,0,20.1
Status,1732151041366,27,10,1,21,1575420030,24.80,38.0,8.0,1,0,0,19.8
Status,1732151041366,27,11,1,6,1575420030,0.00,165.0,6.0,0,0,0,0.0
Status,1732151041366,27,12,3,20,1602000000,0.00,124.0,47.0,0,0,0,0.0
Status,1732151041366,27,13,3,9,1602000000,0.00,72.0,37.0,0,0,0,0.0
Status,1732151041366,27,14,3,8,1602000000,0.00,253.0,28.0,0,0,0,0.0
Status,1732151041366,27,15,3,19,1602000000,0.00,39.0,28.0,0,0,0,0.0
Status,1732151041366,27,16,3,11,1602000000,21.10,304.0,23.0,0,0,0,16.1
Status,1732151041366,27,17,6,21,1575420030,0.00,330.0,67.0,0,0,0,0.0
Status,1732151041366,27,18,6,19,1575420030,0.00,250.0,50.0,0,0,0,0.0
Status,1732151041366,27,19,6,27,1575420030,0.00,60.0,37.0,0,0,0,0.0
Status,1732151041366,27,20,6,29,1575420030,0.00,192.0,30.0,0,0,0,0.0
Status,1732151041366,27,21,6,13,1575420030,0.00,124.0,24.0,0,0,0,0.0
Status,1732151041366,27,22,6,15,1575420030,0.00,68.0,23.0,0,0,0,0.0
Status,1732151041366,27,23,6,4,1575420030,0.00,315.0,20.0,0,0,0,0.0
Status,1732151041366,27,24,6,26,1575420030,0.00,169.0,2.0,0,0,0,0.0
Status,1732151041366,27,25,6,6,1575420030,0.00,329.0,1.0,0,0,0,0.0
Status,1732151041366,27,26,6,34,1575420030,0.00,24.0,1.0,0,0,0,0.0
Fix,GPS,37.4247716667,-122.1585500000,-0.5,0.0,5.6,0.0,1732151042366,2.0,179.9,29926471000000,62.0,0,,,
Fix,FLP,37.4247927000,-122.1585455000,2.683174423502088,0.15314156,5.575,180.0,1732151042623,2.0,179.9,29926471000000,10.128044,0,,,
Raw,1732151042365,21514000000,,33353073.878863223,-1416186238851999744,0.0,137.65823897061205,1407.132497702354,0.0,0,13,0.0,16431,349460296079977,797,16.635000228881836,693.1413581620769,0.14999,16,0.0,0.0,1575420030,,,,0,0.0,1,6.0,16.635000228881836,0.0,0.0,0.0,66.7128,C,29926471000000,
Raw,1732151042365,21514000000,,33353073.878863223,-1416186238851999744,0.0,137.65823897061205,1407.132497702354,0.0,0,21,0.0,16431,349460282624285,487,19.756999969482422,884.7179336656795,0.14999,16,0.0,0.0,1575420030,,,,0,1.7979369265689815,1,6.0,19.756999969482422,0.0,0.0,0.0,66.7128,C,29926471000000,
Raw,1732151042365,21514000000,,33353073.878863223,-1416186238851999744,0.0,137.65823897061205,1407.132497702354,0.0,0,11,0.0,17,965104,797,17.0,-54.73377767482694,0.14999,16,0.0,0.0,1602000000,,,,0,0.0,3,6.0,17.0,0.0,0.0,-9.278575228483438,66.7128,C,29926471000000,
Raw,1732151042365,21514000000,,33353073.878863223,-1416186238851999744,0.0,137.65823897061205,1407.132497702354,0.0,0,15,0.0,16431,349460291505544,797,14.699999809265137,486.8081030006885,0.14999,16,0.0,0.0,1575420030,,,,0,0.0,1,6.0,14.699999809265137,0.0,0.0,0.0,66.7128,C,29926471000000,
Raw,1732151042365,21514000000,,33353073.878863223,-1416186238851999744,0.0,137.65823897061205,1407.132497702354,0.0,0,7,0.0,16431,349460285078172,487,20.1299991607666,1026.5260237205755,0.14999,16,0.0,0.0,1575420030,,,,0,2.404175211945759,1,6.0,20.1299991607666,0.0,0.0,0.0,66.7128,C,29926471000000,
Raw,1732151042365,21514000000,,33353073.878863223,-1416186238851999744,0.0,137.65823897061205,1407.132497702354,0.0,0,30,0.0,16431,349460293660551,797,20.38599967956543,870.4145952332763,0.14999,16,0.0,0.0,1575420030,,,,0,2.8789321510414765,1,6.0,20.38599967956543,0.0,0.0,0.0,66.7128,C,29926471000000,
Status,1732151042366,27,0,1,17,1575420030,0.00,122.0,79.0,0,0,0,0.0
Status,1732151042366,27,1,1,22,1575420030,0.00,358.0,68.0,0,0,0,0.0
Status,1732151042366,27,2,1,14,1575420030,0.00,44.0,57.0,0,0,0,0.0
Status,1732151042366,27,3,1,19,1575420030,0.00,198.0,54.0,0,0,0,0.0
Status,1732151042366,27,4,1,13,1575420030,21.60,244.0,52.0,1,0,0,16.6
Status,1732151042366,27,5,1,30,1575420030,18.90,126.0,42.0,1,0,0,13.9
Status,1732151042366,27,6,1,15,1575420030,19.80,282.0,31.0,1,0,0,14.799999
Status,1732151042366,27,7,1,2,1575420030,0.00,53.0,19.0,0,0,0,0.0
Status,1732151042366,27,8,1,24,1575420030,0.00,312.0,11.0,0,0,0,0.0
Status,1732151042366,27,9,1,7,1575420030,25.20,128.0,10.0,1,0,0,20.2
Status,1732151042366,27,10,1,21,1575420030,24.80,38.0,8.0,1,0,0,19.8
Status,1732151042366,27,11,1,6,1575420030,0.00,165.0,6.0,0,0,0,0.0
Status,1732151042366,27,12,3,20,1602000000,0.00,124.0,47.0,0,0,0,0.0
Status,1732151042366,27,13,3,9,1602000000,0.00,72.0,37.0,0,0,0,0.0
Status,1732151042366,27,14,3,8,1602000000,0.00,253.0,28.0,0,0,0,0.0
Status,1732151042366,27,15,3,19,1602000000,0.00,39.0,28.0,0,0,0,0.0
Status,1732151042366,27,16,3,11,1602000000,21.90,304.0,23.0,0,0,0,16.9
Status,1732151042366,27,17,6,21,1575420030,0.00,330.0,67.0,0,0,0,0.0
Status,1732151042366,27,18,6,19,1575420030,0.00,250.0,50.0,0,0,0,0.0
Status,1732151042366,27,19,6,27,1575420030,0.00,60.0,37.0,0,0,0,0.0
Status,1732151042366,27,20,6,29,1575420030,0.00,192.0,30.0,0,0,0,0.0
Status,1732151042366,27,21,6,13,1575420030,0.00,124.0,24.0,0,0,0,0.0
Status,1732151042366,27,22,6,15,1575420030,0.00,68.0,23.0,0,0,0,0.0
Status,1732151042366,27,23,6,4,1575420030,0.00,315.0,20.0,0,0,0,0.0
Status,1732151042366,27,24,6,26,1575420030,0.00,169.0,2.0,0,0,0,0.0
Status,1732151042366,27,25,6,6,1575420030,0.00,329.0,1.0,0,0,0,0.0
Status,1732151042366,27,26,6,34,1575420030,0.00,24.0,1.0,0,0,0,0.0
Fix,GPS,37.4247883333,-122.1585733333,-0.5,0.0,5.5,0.0,1732151043363,1.9,179.9,29927471000000,62.4,0,,,
Raw,1732151043365,22514000000,,32614549.629530706,-1416186238851999744,0.0,137.65407807205514,1402.9588231618118,0.0,0,13,0.0,16431,349461296077674,797,16.638999938964844,691.6301587995805,0.14999,16,0.0,0.0,1575420030,,,,0,0.0,1,6.0,16.638999938964844,0.0,0.0,0.0,66.7128,C,29927471000000,
Raw,1732151043365,22514000000,,32614549.629530706,-1416186238851999744,0.0,137.65407807205514,1402.9588231618118,0.0,0,21,0.0,16431,349461282621335,797,19.756999969482422,883.3545649835651,0.14999,16,0.0,0.0,1575420030,,,,0,1.7979369265689815,1,6.0,19.756999969482422,0.0,0.0,0.0,66.7128,C,29927471000000,
Raw,1732151043365,22514000000,,32614549.629530706,-1416186238851999744,0.0,137.65407807205514,1402.9588231618118,0.0,0,11,0.0,17,965288,797,16.0,-56.278566444403296,0.14999,16,0.0,0.0,1602000000,,,,0,0.0,3,6.0,16.0,0.0,0.0,-9.278575228483438,66.7128,C,29927471000000,
Raw,1732151043365,22514000000,,32614549.629530706,-1416186238851999744,0.0,137.65407807205514,1402.9588231618118,0.0,0,15,0.0,16431,349461291503907,797,14.800999641418457,484.69136464130395,0.14999,16,0.0,0.0,1575420030,,,,0,0.0,1,6.0,14.800999641418457,0.0,0.0,0.0,66.7128,C,29927471000000,
Raw,1732151043365,22514000000,,32614549.629530706,-1416186238851999744,0.0,137.65407807205514,1402.9588231618118,0.0,0,7,0.0,16431,349461285074744,487,20.155000686645508,1025.6802947118788,0.14999,16,0.0,0.0,1575420030,,,,0,3.329078970998501,1,6.0,20.155000686645508,0.0,0.0,0.0,66.7128,C,29927471000000,
Raw,1732151043365,22514000000,,32614549.629530706,-1416186238851999744,0.0,137.65407807205514,1402.9588231618118,0.0,0,30,0.0,16431,349461293657600,797,13.899999618530273,871.083596426708,0.14999,16,0.0,0.0,1575420030,,,,0,0.0,1,6.0,13.899999618530273,0.0,0.0,0.0,66.7128,C,29927471000000,
Fix,FLP,37.4247900000,-122.1585580000,3.146300276854457,0.15025571,5.575,180.0,1732151043623,1.9,179.9,29927471000000,12.857135,0,,,
Status,1732151043363,27,0,1,17,1575420030,0.00,122.0,79.0,0,0,0,0.0
Status,1732151043363,27,1,1,22,1575420030,0.00,358.0,68.0,0,0,0,0.0
Status,1732151043363,27,2,1,14,1575420030,0.00,44.0,57.0,0,0,0,0.0
Status,1732151043363,27,3,1,19,1575420030,0.00,198.0,54.0,0,0,0,0.0
Status,1732151043363,27,4,1,13,1575420030,21.60,244.0,52.0,1,0,0,16.6
Status,1732151043363,27,5,1,30,1575420030,18.90,126.0,42.0,1,0,0,13.9
Status,1732151043363,27,6,1,15,1575420030,19.90,282.0,31.0,1,0,0,14.9
Status,1732151043363,27,7,1,2,1575420030,0.00,53.0,19.0,0,0,0,0.0
Status,1732151043363,27,8,1,24,1575420030,0.00,312.0,11.0,0,0,0,0.0
Status,1732151043363,27,9,1,7,1575420030,25.10,128.0,10.0,1,0,0,20.1
Status,1732151043363,27,10,1,21,1575420030,24.80,38.0,8.0,1,0,0,19.8
Status,1732151043363,27,11,1,6,1575420030,0.00,165.0,6.0,0,0,0,0.0
Status,1732151043363,27,12,3,20,1602000000,0.00,124.0,47.0,0,0,0,0.0
Status,1732151043363,27,13,3,9,1602000000,0.00,72.0,37.0,0,0,0,0.0
Status,1732151043363,27,14,3,8,1602000000,0.00,253.0,28.0,0,0,0,0.0
Status,1732151043363,27,15,3,19,1602000000,0.00,39.0,28.0,0,0,0,0.0
Status,1732151043363,27,16,3,11,1602000000,21.80,304.0,23.0,0,0,0,16.8
Status,1732151043363,27,17,6,21,1575420030,0.00,330.0,67.0,0,0,0,0.0
Status,1732151043363,27,18,6,19,1575420030,0.00,250.0,50.0,0,0,0,0.0
Status,1732151043363,27,19,6,27,1575420030,0.00,60.0,37.0,0,0,0,0.0
Status,1732151043363,27,20,6,29,1575420030,0.00,192.0,30.0,0,0,0,0.0
Status,1732151043363,27,21,6,13,1575420030,0.00,124.0,24.0,0,0,0,0.0
Status,1732151043363,27,22,6,15,1575420030,0.00,68.0,23.0,0,0,0,0.0
Status,1732151043363,27,23,6,4,1575420030,0.00,315.0,20.0,0,0,0,0.0
Status,1732151043363,27,24,6,26,1575420030,0.00,169.0,2.0,0,0,0,0.0
Status,1732151043363,27,25,6,6,1575420030,0.00,329.0,1.0,0,0,0,0.0
Status,1732151043363,27,26,6,34,1575420030,0.00,24.0,1.0,0,0,0,0.0
Fix,GPS,37.4248100000,-122.1585916667,-0.5,0.0,5.5,0.0,1732151044362,1.9,151.6,29928471000000,62.8,0,,,
Raw,1732151044362,23514000000,,31772430.3791525,-1416186238848999936,0.0,138.03488299900351,1399.3562631116697,0.0,0,13,0.0,16431,349462293075369,797,16.64299964904785,690.8898903956817,0.14999,16,0.0,0.0,1575420030,,,,0,0.0,1,6.0,16.64299964904785,0.0,0.0,0.0,66.7128,C,29928471000000,
Raw,1732151044362,23514000000,,31772430.3791525,-1416186238848999936,0.0,138.03488299900351,1399.3562631116697,0.0,0,21,0.0,16431,349462279618390,1797,19.756999969482422,882.6798958633557,0.14999,16,0.0,0.0,1575420030,,,,0,1.7979369265689815,1,6.0,19.756999969482422,0.0,0.0,0.0,66.7128,C,29928471000000,
Raw,1732151044362,23514000000,,31772430.3791525,-1416186238848999936,0.0,138.03488299900351,1399.3562631116697,0.0,0,11,0.0,17,965475,487,18.0,-55.97533791418686,0.14999,16,0.0,0.0,1602000000,,,,0,0.0,3,6.0,18.0,0.0,0.0,-9.278575228483438,66.7128,C,29928471000000,
Raw,1732151044362,23514000000,,31772430.3791525,-1416186238848999936,0.0,138.03488299900351,1399.3562631116697,0.0,0,15,0.0,16431,349462288502292,797,14.897000312805176,483.8155770373191,0.14999,16,0.0,0.0,1575420030,,,,0,0.0,1,6.0,14.897000312805176,0.0,0.0,0.0,66.7128,C,29928471000000,
Raw,1732151044362,23514000000,,31772430.3791525,-1416186238848999936,0.0,138.03488299900351,1399.3562631116697,0.0,0,7,0.0,16431,349462282071323,797,20.128999710083008,1025.5561578237644,0.14999,16,0.0,0.0,1575420030,,,,0,1.5860754566204989,1,6.0,20.128999710083008,0.0,0.0,0.0,66.7128,C,29928471000000,
Raw,1732151044362,23514000000,,31772430.3791525,-1416186238848999936,0.0,138.03488299900351,1399.3562631116697,0.0,0,30,0.0,16431,349462290654700,1797,13.899999618530273,868.5898944781912,0.14999,16,0.0,0.0,1575420030,,,,0,0.0,1,6.0,13.899999618530273,0.0,0.0,0.0,66.7128,C,29928471000000,
Fix,FLP,37.4247987000,-122.1585731000,5.400000095367432,0.10600723,5.56,180.0,1732151044623,1.9,151.6,29928471000000,13.048995,0,,,
Status,1732151044362,27,0,1,17,1575420030,0.00,122.0,79.0,0,0,0,0.0
Status,1732151044362,27,1,1,22,1575420030,0.00,358.0,68.0,0,0,0,0.0
Status,1732151044362,27,2,1,14,1575420030,0.00,44.0,57.0,0,0,0,0.0
Status,1732151044362,27,3,1,19,1575420030,0.00,198.0,54.0,0,0,0,0.0
Status,1732151044362,27,4,1,13,1575420030,18.70,244.0,52.0,1,0,0,13.700001
Status,1732151044362,27,5,1,30,1575420030,18.90,126.0,42.0,1,0,0,13.9
Status,1732151044362,27,6,1,15,1575420030,20.00,282.0,31.0,1,0,0,15.0
Status,1732151044362,27,7,1,2,1575420030,0.00,53.0,19.0,0,0,0,0.0
Status,1732151044362,27,8,1,24,1575420030,0.00,312.0,11.0,0,0,0,0.0
Status,1732151044362,27,9,1,7,1575420030,25.10,128.0,10.0,1,0,0,20.1
Status,1732151044362,27,10,1,21,1575420030,0.00,38.0,8.0,0,0,0,0.0
Status,1732151044362,27,11,1,6,1575420030,0.00,165.0,6.0,0,0,0,0.0
Status,1732151044362,27,12,3,20,1602000000,0.00,124.0,47.0,0,0,0,0.0
Status,1732151044362,27,13,3,9,1602000000,0.00,72.0,37.0,0,0,0,0.0
Status,1732151044362,27,14,3,8,1602000000,0.00,253.0,28.0,0,0,0,0.0
Status,1732151044362,27,15,3,19,1602000000,0.00,39.0,28.0,0,0,0,0.0
Status,1732151044362,27,16,3,11,1602000000,25.30,304.0,23.0,0,0,0,20.3
Status,1732151044362,27,17,6,21,1575420030,0.00,330.0,67.0,0,0,0,0.0
Status,1732151044362,27,18,6,19,1575420030,0.00,250.0,50.0,0,0,0,0.0
Status,1732151044362,27,19,6,27,1575420030,0.00,60.0,37.0,0,0,0,0.0
Status,1732151044362,27,20,6,29,1575420030,0.00,192.0,30.0,0,0,0,0.0
Status,1732151044362,27,21,6,13,1575420030,0.00,124.0,24.0,0,0,0,0.0
Status,1732151044362,27,22,6,15,1575420030,0.00,68.0,23.0,0,0,0,0.0
Status,1732151044362,27,23,6,4,1575420030,0.00,315.0,20.0,0,0,0,0.0
Status,1732151044362,27,24,6,26,1575420030,0.00,169.0,2.0,0,0,0,0.0
Status,1732151044362,27,25,6,6,1575420030,0.00,329.0,1.0,0,0,0,0.0
Status,1732151044362,27,26,6,34,1575420030,0.00,24.0,1.0,0,0,0,0.0
Fix,GPS,37.4248300000,-122.1586050000,-0.5,0.0,5.5,0.0,1732151045360,1.9,171.7,29929471000000,63.3,0,,,
Raw,1732151045362,24514000000,,31291961.32078813,-1416186238848000000,0.0,138.50651512442005,1400.0168508628362,0.0,0,13,0.0,16431,349463292073073,797,13.699999809265137,691.8406154250142,0.14999,16,0.0,0.0,1575420030,,,,0,0.0,1,6.0,13.699999809265137,0.0,0.0,0.0,66.7128,C,29929471000000,
Raw,1732151045362,24514000000,,31291961.32078813,-1416186238848000000,0.0,138.50651512442005,1400.0168508628362,0.0,0,11,0.0,17,965663,487,20.0,-55.467017795580844,0.14999,16,0.0,0.0,1602000000,,,,0,4.668014763610766,3,6.0,20.0,0.0,0.0,-9.278575228483438,66.7128,C,29929471000000,
Raw,1732151045362,24514000000,,31291961.32078813,-1416186238848000000,0.0,138.50651512442005,1400.0168508628362,0.0,0,15,0.0,16431,349463287500676,487,14.98799991607666,485.0538332045786,0.14999,16,0.0,0.0,1575420030,,,,0,0.0,1,6.0,14.98799991607666,0.0,0.0,0.0,66.7128,C,29929471000000,
Raw,1732151045362,24514000000,,31291961.32078813,-1416186238848000000,0.0,138.50651512442005,1400.0168508628362,0.0,0,7,0.0,16431,349463281067904,1797,20.104000091552734,1024.8716395193183,0.14999,16,0.0,0.0,1575420030,,,,0,1.5860754566204989,1,6.0,20.104000091552734,0.0,0.0,0.0,66.7128,C,29929471000000,
Raw,1732151045362,24514000000,,31291961.32078813,-1416186238848000000,0.0,138.50651512442005,1400.0168508628362,0.0,0,30,0.0,16431,349463289651803,1797,13.899999618530273,868.8669724724708,0.14999,16,0.0,0.0,1575420030,,,,0,0.0,1,6.0,13.899999618530273,0.0,0.0,0.0,66.7128,C,29929471000000,
Fix,FLP,37.4248128000,-122.1585874000,5.400000095367432,0.047095306,5.55,,1732151045623,1.9,,29929471000000,13.058999,0,,,
Fix,FLP,37.4248192000,-122.1585939000,5.400000095367432,0.022028746,5.542,,1732151045995,1.9,,29929842000000,12.916497,0,,,
Fix,NLP,37.4256950000,-122.1580795000,5.400000095367432,,26.457,,1732151045994,,,29929842000000,27.833094,0,,,
Status,1732151045360,27,0,1,17,1575420030,0.00,122.0,79.0,0,0,0,0.0
Status,1732151045360,27,1,1,22,1575420030,0.00,358.0,68.0,0,0,0,0.0
Status,1732151045360,27,2,1,14,1575420030,0.00,44.0,57.0,0,0,0,0.0
Status,1732151045360,27,3,1,19,1575420030,0.00,198.0,54.0,0,0,0,0.0
Status,1732151045360,27,4,1,13,1575420030,18.70,244.0,52.0,1,0,0,13.700001
Status,1732151045360,27,5,1,30,1575420030,18.80,126.0,42.0,1,0,0,13.799999
Status,1732151045360,27,6,1,15,1575420030,25.10,282.0,31.0,1,0,0,20.1
Status,1732151045360,27,7,1,2,1575420030,0.00,53.0,19.0,0,0,0,0.0
Status,1732151045360,27,8,1,24,1575420030,0.00,312.0,11.0,0,0,0,0.0
Status,1732151045360,27,9,1,7,1575420030,21.60,128.0,10.0,1,0,0,16.6
Status,1732151045360,27,10,1,21,1575420030,0.00,38.0,8.0,0,0,0,0.0
Status,1732151045360,27,11,1,6,1575420030,0.00,165.0,6.0,0,0,0,0.0
Status,1732151045360,27,12,3,20,1602000000,0.00,124.0,47.0,0,0,0,0.0
Status,1732151045360,27,13,3,9,1602000000,0.00,72.0,37.0,0,0,0,0.0
Status,1732151045360,27,14,3,8,1602000000,22.80,253.0,28.0,1,0,0,17.8
Status,1732151045360,27,15,3,19,1602000000,0.00,39.0,28.0,0,0,0,0.0
Status,1732151045360,27,16,3,11,1602000000,27.60,304.0,23.0,0,0,0,22.6
Status,1732151045360,27,17,6,21,1575420030,0.00,330.0,67.0,0,0,0,0.0
Status,1732151045360,27,18,6,19,1575420030,0.00,250.0,50.0,0,0,0,0.0
Status,1732151045360,27,19,6,27,1575420030,0.00,60.0,37.0,0,0,0,0.0
Status,1732151045360,27,20,6,29,1575420030,0.00,192.0,30.0,0,0,0,0.0
Status,1732151045360,27,21,6,13,1575420030,0.00,124.0,24.0,0,0,0,0.0
Status,1732151045360,27,22,6,15,1575420030,0.00,68.0,23.0,0,0,0,0.0
Status,1732151045360,27,23,6,4,1575420030,0.00,315.0,20.0,0,0,0,0.0
Status,1732151045360,27,24,6,26,1575420030,0.00,169.0,2.0,0,0,0,0.0
Status,1732151045360,27,25,6,6,1575420030,0.00,329.0,1.0,0,0,0,0.0
Status,1732151045360,27,26,6,34,1575420030,0.00,24.0,1.0,0,0,0,0.0
Fix,GPS,37.4248533333,-122.1586033333,-0.5,0.0,5.5,0.0,1732151046363,1.8,168.6,29930471000000,68.3,0,,,
Raw,1732151046361,25514000000,,30866740.48351143,-1416186238847000064,0.0,148.02962854632744,1403.708509569254,0.0,0,13,0.0,16431,349464291070763,487,13.699999809265137,693.3576685479532,0.14999,16,0.0,0.0,1575420030,,,,0,0.0,1,6.0,13.699999809265137,0.0,0.0,0.0,66.7128,C,29930471000000,
Raw,1732151046361,25514000000,,30866740.48351143,-1416186238847000064,0.0,148.02962854632744,1403.708509569254,0.0,0,8,0.0,17,391741,797,5.0,922.4166026784569,0.14999,16,0.0,0.0,1605374980,,,,0,0.4844191351042255,3,6.0,16.0,0.0,0.0,-9.278575228483438,66.7128,C,29930471000000,
Raw,1732151046361,25514000000,,30866740.48351143,-1416186238847000064,0.0,148.02962854632744,1403.708509569254,0.0,0,11,0.0,17,965846,396,17.799999237060547,-54.2833437318702,0.14999,16,0.0,0.0,1602000000,,,,0,7.999769129829524,3,6.0,17.799999237060547,0.0,0.0,-9.278575228483438,66.7128,C,29930471000000,
Raw,1732151046361,25514000000,,30866740.48351143,-1416186238847000064,0.0,148.02962854632744,1403.708509569254,0.0,0,15,0.0,16431,349464286499011,487,20.07699966430664,486.2950162520593,0.14999,16,0.0,0.0,1575420030,,,,0,2.3060285220508754,1,6.0,20.07699966430664,0.0,0.0,0.0,66.7128,C,29930471000000,
Raw,1732151046361,25514000000,,30866740.48351143,-1416186238847000064,0.0,148.02962854632744,1403.708509569254,0.0,0,7,0.0,16431,349464280064474,797,16.635000228881836,1026.124715921349,0.14999,16,0.0,0.0,1575420030,,,,0,0.0,1,6.0,16.635000228881836,0.0,0.0,0.0,66.7128,C,29930471000000,
Raw,1732151046361,25514000000,,30866740.48351143,-1416186238847000064,0.0,148.02962854632744,1403.708509569254,0.0,0,30,0.0,16431,349464288648856,1797,13.819999694824219,870.4560361405361,0.14999,16,0.0,0.0,1575420030,,,,0,0.0,1,6.0,13.819999694824219,0.0,0.0,0.0,66.7128,C,29930471000000,
Fix,FLP,37.4248323000,-122.1585974000,5.400000095367432,0.023456,5.542,,1732151046624,1.8,,29930471000000,11.596958,0,,,
Status,1732151046363,29,0,1,17,1575420030,0.00,122.0,79.0,0,0,0,0.0
Status,1732151046363,29,1,1,22,1575420030,0.00,358.0,68.0,0,0,0,0.0
Status,1732151046363,29,2,1,14,1575420030,0.00,44.0,57.0,0,0,0,0.0
Status,1732151046363,29,3,1,19,1575420030,0.00,198.0,54.0,0,0,0,0.0
Status,1732151046363,29,4,1,13,1575420030,27.90,244.0,52.0,1,0,0,22.9
Status,1732151046363,29,5,2,133,1575420030,0.00,191.0,45.0,0,0,0,0.0
Status,1732151046363,29,6,1,30,1575420030,18.70,127.0,42.0,1,0,0,13.700001
Status,1732151046363,29,7,1,15,1575420030,25.10,282.0,31.0,1,0,0,20.1
Status,1732151046363,29,8,1,2,1575420030,0.00,53.0,19.0,0,0,0,0.0
Status,1732151046363,29,9,1,24,1575420030,0.00,312.0,11.0,0,0,0,0.0
Status,1732151046363,29,10,1,7,1575420030,21.60,128.0,10.0,1,0,0,16.6
Status,1732151046363,29,11,1,21,1575420030,0.00,38.0,8.0,0,0,0,0.0
Status,1732151046363,29,12,1,6,1575420030,0.00,165.0,6.0,0,0,0,0.0
Status,1732151046363,29,13,3,20,1602000000,0.00,124.0,47.0,0,0,0,0.0
Status,1732151046363,29,14,3,9,1602000000,0.00,72.0,37.0,0,0,0,0.0
Status,1732151046363,29,15,3,8,1602000000,22.90,253.0,28.0,1,0,0,17.9
Status,1732151046363,29,16,3,19,1602000000,0.00,39.0,28.0,0,0,0,0.0
Status,1732151046363,29,17,3,11,1602000000,34.70,304.0,23.0,0,0,0,29.7
Status,1732151046363,29,18,3,17,1602000000,25.40,0.0,0.0,0,0,0,20.4
Status,1732151046363,29,19,6,21,1575420030,0.00,330.0,67.0,0,0,0,0.0
Status,1732151046363,29,20,6,19,1575420030,0.00,250.0,50.0,0,0,0,0.0
Status,1732151046363,29,21,6,27,1575420030,0.00,60.0,37.0,0,0,0,0.0
Status,1732151046363,29,22,6,29,1575420030,0.00,192.0,30.0,0,0,0,0.0
Status,1732151046363,29,23,6,13,1575420030,0.00,124.0,24.0,0,0,0,0.0
Status,1732151046363,29,24,6,15,1575420030,0.00,68.0,23.0,0,0,0,0.0
Status,1732151046363,29,25,6,4,1575420030,0.00,315.0,20.0,0,0,0,0.0
Status,1732151046363,29,26,6,26,1575420030,0.00,169.0,2.0,0,0,0,0.0
Status,1732151046363,29,27,6,6,1575420030,0.00,329.0,1.0,0,0,0,0.0
Status,1732151046363,29,28,6,34,1575420030,0.00,24.0,1.0,0,0,0,0.0
Fix,GPS,37.4248966667,-122.1585400000,-0.5999999999999979,0.0,5.6,0.0,1732151047368,1.8,109.3,29931471000000,66.6,0,,,
Raw,1732151047362,26514000000,,30339122.1402908,-1416186238848999936,0.0,144.43333974713067,1406.953205737879,0.0,0,13,0.0,16431,349465293068362,396,22.87299919128418,694.5378981533656,0.14999,16,0.0,0.0,1575420030,,,,0,6.8801004472929845,1,6.0,22.87299919128418,0.0,0.0,0.0,66.7128,C,29931471000000,
Raw,1732151047362,26514000000,,30339122.1402908,-1416186238848999936,0.0,144.43333974713067,1406.953205737879,0.0,0,8,0.0,17,388748,487,5.0,926.3538880480527,0.14999,16,0.0,0.0,1605374980,,,,0,0.6796158808873498,3,6.0,19.0,0.0,0.0,-9.278575228483438,66.7128,C,29931471000000,
Raw,1732151047362,26514000000,,30339122.1402908,-1416186238848999936,0.0,144.43333974713067,1406.953205737879,0.0,0,11,0.0,17,966025,74,17.899999618530273,-53.665236336164575,0.14999,16,0.0,0.0,1602000000,,,,0,16.595671932336202,3,6.0,17.899999618530273,0.0,0.0,-9.278575228483438,66.7128,C,29931471000000,
Raw,1732151047362,26514000000,,30339122.1402908,-1416186238848999936,0.0,144.43333974713067,1406.953205737879,0.0,0,15,0.0,16431,349465288497356,487,20.089000701904297,487.32142204139876,0.14999,16,0.0,0.0,1575420030,,,,0,2.786034050126206,1,6.0,20.089000701904297,0.0,0.0,0.0,66.7128,C,29931471000000,
Raw,1732151047362,26514000000,,30339122.1402908,-1416186238848999936,0.0,144.43333974713067,1406.953205737879,0.0,0,7,0.0,16431,349465282061051,797,16.635000228881836,1026.6787789930759,0.14999,16,0.0,0.0,1575420030,,,,0,0.0,1,6.0,16.635000228881836,0.0,0.0,0.0,66.7128,C,29931471000000,
Raw,1732151047362,26514000000,,30339122.1402908,-1416186238848999936,0.0,144.43333974713067,1406.953205737879,0.0,0,30,0.0,16431,349465290645952,1797,13.744000434875488,871.0709597374988,0.14999,16,0.0,0.0,1575420030,,,,0,0.0,1,6.0,13.744000434875488,0.0,0.0,0.0,66.7128,C,29931471000000,
Fix,FLP,37.4248600000,-122.1585736000,5.400000095367432,0.112631634,5.528,0.00000034452583,1732151047623,1.8,109.3,29931471000000,12.05082,0,,,
Status,1732151047368,29,0,1,17,1575420030,0.00,122.0,79.0,0,0,0,0.0
Status,1732151047368,29,1,1,22,1575420030,0.00,358.0,68.0,0,0,0,0.0
Status,1732151047368,29,2,1,14,1575420030,0.00,44.0,57.0,0,0,0,0.0
Status,1732151047368,29,3,1,19,1575420030,0.00,198.0,54.0,0,0,0,0.0
Status,1732151047368,29,4,1,13,1575420030,27.80,244.0,52.0,1,0,0,22.8
Status,1732151047368,29,5,2,133,1575420030,0.00,191.0,45.0,0,0,0,0.0
Status,1732151047368,29,6,1,30,1575420030,19.60,127.0,42.0,1,0,0,14.6
Status,1732151047368,29,7,1,15,1575420030,25.10,282.0,31.0,1,0,0,20.1
Status,1732151047368,29,8,1,2,1575420030,0.00,53.0,19.0,0,0,0,0.0
Status,1732151047368,29,9,1,24,1575420030,0.00,312.0,11.0,0,0,0,0.0
Status,1732151047368,29,10,1,7,1575420030,21.60,128.0,10.0,1,0,0,16.6
Status,1732151047368,29,11,1,21,1575420030,0.00,38.0,8.0,0,0,0,0.0
Status,1732151047368,29,12,1,6,1575420030,0.00,165.0,6.0,0,0,0,0.0
Status,1732151047368,29,13,3,20,1602000000,0.00,124.0,47.0,0,0,0,0.0
Status,1732151047368,29,14,3,9,1602000000,0.00,72.0,37.0,0,0,0,0.0
Status,1732151047368,29,15,3,8,1602000000,22.90,253.0,28.0,1,0,0,17.9
Status,1732151047368,29,16,3,19,1602000000,0.00,39.0,28.0,0,0,0,0.0
Status,1732151047368,29,17,3,11,1602000000,34.80,304.0,23.0,0,0,0,29.8
Status,1732151047368,29,18,3,17,1602000000,29.00,0.0,0.0,0,0,0,24.0
Status,1732151047368,29,19,6,21,1575420030,0.00,330.0,67.0,0,0,0,0.0
Status,1732151047368,29,20,6,19,1575420030,0.00,250.0,50.0,0,0,0,0.0
Status,1732151047368,29,21,6,27,1575420030,0.00,60.0,37.0,0,0,0,0.0
Status,1732151047368,29,22,6,29,1575420030,0.00,192.0,30.0,0,0,0,0.0
Status,1732151047368,29,23,6,13,1575420030,0.00,124.0,24.0,0,0,0,0.0
Status,1732151047368,29,24,6,15,1575420030,0.00,68.0,23.0,0,0,0,0.0
Status,1732151047368,29,25,6,4,1575420030,0.00,315.0,20.0,0,0,0,0.0
Status,1732151047368,29,26,6,26,1575420030,0.00,169.0,2.0,0,0,0,0.0
Status,1732151047368,29,27,6,6,1575420030,0.00,329.0,1.0,0,0,0,0.0
Status,1732151047368,29,28,6,34,1575420030,0.00,24.0,1.0,0,0,0,0.0
Fix,GPS,37.4249316667,-122.1585016667,-0.6999999999999993,0.0,5.6,0.0,1732151048374,1.9,89.1,29932471000000,67.0,0,,,
Raw,1732151048369,27514000000,,29968982.74205417,-1416186238855000064,0.0,145.21122418590284,1410.7818810243007,0.0,0,13,0.0,16431,349466299066040,487,22.77199935913086,695.7095329517792,0.14999,16,0.0,0.0,1575420030,,,,0,3.673119573150947,1,6.0,22.77199935913086,0.0,0.0,0.0,66.7128,C,29932471000000,
Raw,1732151048369,27514000000,,29968982.74205417,-1416186238855000064,0.0,145.21122418590284,1410.7818810243007,0.0,0,8,0.0,17,385666,487,5.0,925.187291729882,0.14999,16,0.0,0.0,1605374980,,,,0,0.6796158808873498,3,6.0,20.0,0.0,0.0,-9.278575228483438,66.7128,C,29932471000000,
Raw,1732151048369,27514000000,,29968982.74205417,-1416186238855000064,0.0,145.21122418590284,1410.7818810243007,0.0,0,11,0.0,17,966203,74,17.899999618530273,-53.37370382881018,0.14999,16,0.0,0.0,1602000000,,,,0,16.73736984865782,3,6.0,17.899999618530273,0.0,0.0,-9.278575228483438,66.7128,C,29932471000000,
Raw,1732151048369,27514000000,,29968982.74205417,-1416186238855000064,0.0,145.21122418590284,1410.7818810243007,0.0,0,15,0.0,16431,349466294495716,797,20.07699966430664,488.68925073146943,0.14999,16,0.0,0.0,1575420030,,,,0,2.004753593333359,1,6.0,20.07699966430664,0.0,0.0,0.0,66.7128,C,29932471000000,
Raw,1732151048369,27514000000,,29968982.74205417,-1416186238855000064,0.0,145.21122418590284,1410.7818810243007,0.0,0,7,0.0,16431,349466288057625,797,16.635000228881836,1028.041218506866,0.14999,16,0.0,0.0,1575420030,,,,0,0.0,1,6.0,16.635000228881836,0.0,0.0,0.0,66.7128,C,29932471000000,
Raw,1732151048369,27514000000,,29968982.74205417,-1416186238855000064,0.0,145.21122418590284,1410.7818810243007,0.0,0,30,0.0,16431,349466296643070,797,14.600000381469727,872.2000850850796,0.14999,16,0.0,0.0,1575420030,,,,0,0.0,1,6.0,14.600000381469727,0.0,0.0,0.0,66.7128,C,29932471000000,
Fix,FLP,37.4248927000,-122.1585425000,5.400000095367432,0.20913729,5.528,0.000000063056504,1732151048624,1.9,89.1,29932471000000,14.83717,0,,,
Status,1732151048374,29,0,1,17,1575420030,0.00,122.0,79.0,0,0,0,0.0
Status,1732151048374,29,1,1,22,1575420030,0.00,358.0,68.0,0,0,0,0.0
Status,1732151048374,29,2,1,14,1575420030,0.00,44.0,57.0,0,0,0,0.0
Status,1732151048374,29,3,1,19,1575420030,0.00,198.0,54.0,0,0,0,0.0
Status,1732151048374,29,4,1,13,1575420030,27.70,244.0,52.0,1,0,0,22.7
Status,1732151048374,29,5,2,133,1575420030,0.00,191.0,45.0,0,0,0,0.0
Status,1732151048374,29,6,1,30,1575420030,19.60,127.0,42.0,1,0,0,14.6
Status,1732151048374,29,7,1,15,1575420030,25.10,282.0,31.0,1,0,0,20.1
Status,1732151048374,29,8,1,2,1575420030,0.00,53.0,19.0,0,0,0,0.0
Status,1732151048374,29,9,1,24,1575420030,0.00,312.0,11.0,0,0,0,0.0
Status,1732151048374,29,10,1,7,1575420030,21.80,128.0,10.0,1,0,0,16.8
Status,1732151048374,29,11,1,21,1575420030,0.00,38.0,8.0,0,0,0,0.0
Status,1732151048374,29,12,1,6,1575420030,0.00,165.0,6.0,0,0,0,0.0
Status,1732151048374,29,13,3,20,1602000000,0.00,124.0,47.0,0,0,0,0.0
Status,1732151048374,29,14,3,9,1602000000,0.00,72.0,37.0,0,0,0,0.0
Status,1732151048374,29,15,3,8,1602000000,23.20,253.0,28.0,1,0,0,18.2
Status,1732151048374,29,16,3,19,1602000000,0.00,39.0,28.0,0,0,0,0.0
Status,1732151048374,29,17,3,11,1602000000,34.00,304.0,23.0,0,0,0,29.0
Status,1732151048374,29,18,3,17,1602000000,24.90,0.0,0.0,0,0,0,19.9
Status,1732151048374,29,19,6,21,1575420030,0.00,330.0,67.0,0,0,0,0.0
Status,1732151048374,29,20,6,19,1575420030,0.00,250.0,50.0,0,0,0,0.0
Status,1732151048374,29,21,6,27,1575420030,0.00,60.0,37.0,0,0,0,0.0
Status,1732151048374,29,22,6,29,1575420030,0.00,192.0,30.0,0,0,0,0.0
Status,1732151048374,29,23,6,13,1575420030,0.00,124.0,24.0,0,0,0,0.0
Status,1732151048374,29,24,6,15,1575420030,0.00,68.0,23.0,0,0,0,0.0
Status,1732151048374,29,25,6,4,1575420030,0.00,315.0,20.0,0,0,0,0.0
Status,1732151048374,29,26,6,26,1575420030,0.00,169.0,2.0,0,0,0,0.0
Status,1732151048374,29,27,6,6,1575420030,0.00,329.0,1.0,0,0,0,0.0
Status,1732151048374,29,28,6,34,1575420030,0.00,24.0,1.0,0,0,0,0.0
Fix,GPS,37.4249500000,-122.1584966667,-0.6999999999999993,0.0,5.6,0.0,1732151049375,1.9,92.5,29933471000000,67.5,0,,,
Raw,1732151049374,28514000000,,29837708.59238894,-1416186238860000256,0.0,146.04432005843142,1412.0057988344122,0.0,0,13,0.0,16431,349467304063718,797,22.676000595092773,695.9945088768146,0.14999,16,0.0,0.0,1575420030,,,,0,3.673119573150947,1,6.0,22.676000595092773,0.0,0.0,0.0,66.7128,C,29933471000000,
Raw,1732151049374,28514000000,,29837708.59238894,-1416186238860000256,0.0,146.04432005843142,1412.0057988344122,0.0,0,8,0.0,17,382593,797,5.0,923.0716619210501,0.14999,16,0.0,0.0,1605374980,,,,0,1.240190352892221,3,6.0,17.0,0.0,0.0,-9.278575228483438,66.7128,C,29933471000000,
Raw,1732151049374,28514000000,,29837708.59238894,-1416186238860000256,0.0,146.04432005843142,1412.0057988344122,0.0,0,11,0.0,17,966386,235,18.200000762939453,-52.99294345954337,0.14999,16,0.0,0.0,1602000000,,,,0,15.85028432563308,3,6.0,18.200000762939453,0.0,0.0,-9.278575228483438,66.7128,C,29933471000000,
Raw,1732151049374,28514000000,,29837708.59238894,-1416186238860000256,0.0,146.04432005843142,1412.0057988344122,0.0,0,15,0.0,16431,349467299494085,487,20.06599998474121,489.1226148378813,0.14999,16,0.0,0.0,1575420030,,,,0,2.004753593333359,1,6.0,20.06599998474121,0.0,0.0,0.0,66.7128,C,29933471000000,
Raw,1732151049374,28514000000,,29837708.59238894,-1416186238860000256,0.0,146.04432005843142,1412.0057988344122,0.0,0,7,0.0,16431,349467293054200,797,16.7549991607666,1028.0686289724301,0.14999,16,0.0,0.0,1575420030,,,,0,0.5630250076728718,1,6.0,16.7549991607666,0.0,0.0,0.0,66.7128,C,29933471000000,
Raw,1732151049374,28514000000,,29837708.59238894,-1416186238860000256,0.0,146.04432005843142,1412.0057988344122,0.0,0,30,0.0,16431,349467301640159,1797,14.600000381469727,872.8012569908441,0.14999,16,0.0,0.0,1575420030,,,,0,0.0,1,6.0,14.600000381469727,0.0,0.0,0.0,66.7128,C,29933471000000,
Fix,FLP,37.4249196000,-122.1585224000,5.400000095367432,0.2791337,5.542,0.000000021319996,1732151049623,1.9,92.5,29933471000000,15.574592,0,,,
Status,1732151049375,29,0,1,17,1575420030,0.00,122.0,79.0,0,0,0,0.0
Status,1732151049375,29,1,1,22,1575420030,0.00,358.0,68.0,0,0,0,0.0
Status,1732151049375,29,2,1,14,1575420030,0.00,44.0,57.0,0,0,0,0.0
Status,1732151049375,29,3,1,19,1575420030,0.00,198.0,54.0,0,0,0,0.0
Status,1732151049375,29,4,1,13,1575420030,24.20,244.0,52.0,1,0,0,19.2
Status,1732151049375,29,5,2,133,1575420030,0.00,191.0,45.0,0,0,0,0.0
Status,1732151049375,29,6,1,30,1575420030,19.60,127.0,42.0,1,0,0,14.6
Status,1732151049375,29,7,1,15,1575420030,25.10,282.0,31.0,1,0,0,20.1
Status,1732151049375,29,8,1,2,1575420030,0.00,53.0,19.0,0,0,0,0.0
Status,1732151049375,29,9,1,24,1575420030,0.00,312.0,11.0,0,0,0,0.0
Status,1732151049375,29,10,1,7,1575420030,21.90,128.0,10.0,1,0,0,16.9
Status,1732151049375,29,11,1,21,1575420030,0.00,38.0,8.0,0,0,0,0.0
Status,1732151049375,29,12,1,6,1575420030,0.00,165.0,6.0,0,0,0,0.0
Status,1732151049375,29,13,3,20,1602000000,0.00,124.0,47.0,0,0,0,0.0
Status,1732151049375,29,14,3,9,1602000000,0.00,72.0,37.0,0,0,0,0.0
Status,1732151049375,29,15,3,8,1602000000,23.10,253.0,28.0,1,0,0,18.1
Status,1732151049375,29,16,3,19,1602000000,0.00,39.0,28.0,0,0,0,0.0
Status,1732151049375,29,17,3,11,1602000000,34.70,304.0,23.0,0,0,0,29.7
Status,1732151049375,29,18,3,17,1602000000,24.90,0.0,0.0,0,0,0,19.9
Status,1732151049375,29,19,6,21,1575420030,0.00,330.0,67.0,0,0,0,0.0
Status,1732151049375,29,20,6,19,1575420030,0.00,250.0,50.0,0,0,0,0.0
Status,1732151049375,29,21,6,27,1575420030,0.00,60.0,37.0,0,0,0,0.0
Status,1732151049375,29,22,6,29,1575420030,0.00,192.0,30.0,0,0,0,0.0
Status,1732151049375,29,23,6,13,1575420030,0.00,124.0,24.0,0,0,0,0.0
Status,1732151049375,29,24,6,15,1575420030,0.00,68.0,23.0,0,0,0,0.0
Status,1732151049375,29,25,6,4,1575420030,0.00,315.0,20.0,0,0,0,0.0
Status,1732151049375,29,26,6,26,1575420030,0.00,169.0,2.0,0,0,0,0.0
Status,1732151049375,29,27,6,6,1575420030,0.00,329.0,1.0,0,0,0,0.0
Status,1732151049375,29,28,6,34,1575420030,0.00,24.0,1.0,0,0,0,0.0
Fix,GPS,37.4249616667,-122.1585000000,-0.6999999999999993,0.0,5.7,0.0,1732151050375,1.9,102.7,29934471000000,68.0,0,,,
Fix,FLP,37.4249397000,-122.1585127000,5.400000095367432,0.3217163,5.571,0.000000011745712,1732151050623,1.9,102.7,29934471000000,13.790476,0,,,
Raw,1732151050375,29514000000,,29706784.685023665,-1416186238861000192,0.0,146.902279526618,1414.5989510480938,0.0,0,13,0.0,16431,349468305061426,487,19.17799949645996,697.0237950879591,0.14999,16,0.0,0.0,1575420030,,,,0,0.8010094736670279,1,6.0,19.17799949645996,0.0,0.0,0.0,66.7128,C,29934471000000,
Raw,1732151050375,29514000000,,29706784.685023665,-1416186238861000192,0.0,146.902279526618,1414.5989510480938,0.0,0,8,0.0,17,379530,797,5.0,922.7220659945325,0.14999,16,0.0,0.0,1605374980,,,,0,0.0,3,6.0,15.0,0.0,0.0,-9.278575228483438,66.7128,C,29934471000000,
Raw,1732151050375,29514000000,,29706784.685023665,-1416186238861000192,0.0,146.902279526618,1414.5989510480938,0.0,0,11,0.0,17,966557,74,18.1299991607666,-52.826640634473634,0.14999,16,0.0,0.0,1602000000,,,,0,16.633204503714573,3,6.0,18.1299991607666,0.0,0.0,-9.278575228483438,66.7128,C,29934471000000,
Raw,1732151050375,29514000000,,29706784.685023665,-1416186238861000192,0.0,146.902279526618,1414.5989510480938,0.0,0,15,0.0,16431,349468300492435,487,20.07900047302246,489.6163284269507,0.14999,16,0.0,0.0,1575420030,,,,0,2.786034050126206,1,6.0,20.07900047302246,0.0,0.0,0.0,66.7128,C,29934471000000,
Raw,1732151050375,29514000000,,29706784.685023665,-1416186238861000192,0.0,146.902279526618,1414.5989510480938,0.0,0,7,0.0,16431,349468294050769,487,16.868999481201172,1029.3547837668027,0.14999,16,0.0,0.0,1575420030,,,,0,0.5630250076728718,1,6.0,16.868999481201172,0.0,0.0,0.0,66.7128,C,29934471000000,
Raw,1732151050375,29514000000,,29706784.685023665,-1416186238861000192,0.0,146.902279526618,1414.5989510480938,0.0,0,30,0.0,16431,349468302637246,1797,14.600000381469727,873.7758616461088,0.14999,16,0.0,0.0,1575420030,,,,0,0.0,1,6.0,14.600000381469727,0.0,0.0,0.0,66.7128,C,29934471000000,
Fix,FLP,37.4249492000,-122.1585079000,5.400000095367432,0.33239254,5.616,0.000000008683678,1732151051163,1.9,102.7,29935011000000,12.568044,0,,,
Fix,NLP,37.4257234000,-122.1580906000,5.400000095367432,,60.0,,1732151051163,,,29935011000000,8.913918,0,,,
Status,1732151050375,29,0,1,17,1575420030,0.00,122.0,79.0,0,0,0,0.0
Status,1732151050375,29,1,1,22,1575420030,0.00,358.0,68.0,0,0,0,0.0
Status,1732151050375,29,2,1,14,1575420030,0.00,44.0,57.0,0,0,0,0.0
Status,1732151050375,29,3,1,19,1575420030,25.80,198.0,54.0,1,0,0,20.8
Status,1732151050375,29,4,1,13,1575420030,27.70,244.0,52.0,1,0,0,22.7
Status,1732151050375,29,5,2,133,1575420030,0.00,191.0,45.0,0,0,0,0.0
Status,1732151050375,29,6,1,30,1575420030,17.10,127.0,42.0,1,0,0,12.1
Status,1732151050375,29,7,1,15,1575420030,25.10,282.0,31.0,1,0,0,20.1
Status,1732151050375,29,8,1,2,1575420030,0.00,53.0,19.0,0,0,0,0.0
Status,1732151050375,29,9,1,24,1575420030,0.00,312.0,11.0,0,0,0,0.0
Status,1732151050375,29,10,1,7,1575420030,22.00,128.0,10.0,1,0,0,17.0
Status,1732151050375,29,11,1,21,1575420030,0.00,38.0,8.0,0,0,0,0.0
Status,1732151050375,29,12,1,6,1575420030,0.00,165.0,6.0,0,0,0,0.0
Status,1732151050375,29,13,3,20,1602000000,0.00,124.0,47.0,0,0,0,0.0
Status,1732151050375,29,14,3,9,1602000000,0.00,72.0,37.0,0,0,0,0.0
Status,1732151050375,29,15,3,8,1602000000,23.10,253.0,28.0,1,0,0,18.1
Status,1732151050375,29,16,3,19,1602000000,0.00,39.0,28.0,0,0,0,0.0
Status,1732151050375,29,17,3,11,1602000000,34.60,304.0,23.0,0,0,0,29.599998
Status,1732151050375,29,18,3,17,1602000000,25.70,0.0,0.0,0,0,0,20.7
Status,1732151050375,29,19,6,21,1575420030,0.00,330.0,67.0,0,0,0,0.0
Status,1732151050375,29,20,6,19,1575420030,0.00,250.0,50.0,0,0,0,0.0
Status,1732151050375,29,21,6,27,1575420030,0.00,60.0,37.0,0,0,0,0.0
Status,1732151050375,29,22,6,29,1575420030,0.00,192.0,30.0,0,0,0,0.0
Status,1732151050375,29,23,6,13,1575420030,0.00,124.0,24.0,0,0,0,0.0
Status,1732151050375,29,24,6,15,1575420030,0.00,68.0,23.0,0,0,0,0.0
Status,1732151050375,29,25,6,4,1575420030,0.00,315.0,20.0,0,0,0,0.0
Status,1732151050375,29,26,6,26,1575420030,0.00,169.0,2.0,0,0,0,0.0
Status,1732151050375,29,27,6,6,1575420030,0.00,329.0,1.0,0,0,0,0.0
Status,1732151050375,29,28,6,34,1575420030,0.00,24.0,1.0,0,0,0,0.0
Fix,GPS,37.4249800000,-122.1585150000,-0.5,0.0,5.9,0.0,1732151051375,1.9,111.2,29935471000000,68.2,0,,,
Fix,FLP,37.4249605000,-122.1585103000,5.400000095367432,0.34884453,5.657,0.0,1732151051623,1.9,111.2,29935471000000,11.853222,0,,,
Raw,1732151051376,30514000000,,31714667.084787037,-1416186238862000128,0.0,147.67890424380872,1415.132691852381,0.0,0,13,0.0,16431,349469306059159,396,22.73200035095215,697.3593177698317,0.14999,16,0.0,0.0,1575420030,,,,0,6.703432194736244,1,6.0,22.73200035095215,0.0,0.0,0.0,66.7128,C,29935471000000,
Raw,1732151051376,30514000000,,31714667.084787037,-1416186238862000128,0.0,147.67890424380872,1415.132691852381,0.0,0,19,0.0,16431,349469305738237,487,20.774999618530273,-36.602727795634706,0.14999,16,0.0,0.0,1575420030,,,,0,3.502802554700355,1,6.0,20.774999618530273,0.0,0.0,0.0,66.7128,C,29935471000000,
Raw,1732151051376,30514000000,,31714667.084787037,-1416186238862000128,0.0,147.67890424380872,1415.132691852381,0.0,0,8,0.0,17,376438,487,5.0,923.9327949231451,0.14999,16,0.0,0.0,1605374980,,,,0,1.0573227640948248,3,6.0,18.0,0.0,0.0,-8.389672499282048,66.7128,C,29935471000000,
Raw,1732151051376,30514000000,,31714667.084787037,-1416186238862000128,0.0,147.67890424380872,1415.132691852381,0.0,0,11,0.0,17,966728,74,18.128000259399414,-52.053332497899355,0.14999,16,0.0,0.0,1602000000,,,,0,16.4879521281968,3,6.0,18.128000259399414,0.0,0.0,-8.389672499282048,66.7128,C,29935471000000,
Raw,1732151051376,30514000000,,31714667.084787037,-1416186238862000128,0.0,147.67890424380872,1415.132691852381,0.0,0,15,0.0,16431,349469301490875,487,20.115999221801758,489.70710817222607,0.14999,16,0.0,0.0,1575420030,,,,0,3.5883785142858544,1,6.0,20.115999221801758,0.0,0.0,0.0,66.7128,C,29935471000000,
Raw,1732151051376,30514000000,,31714667.084787037,-1416186238862000128,0.0,147.67890424380872,1415.132691852381,0.0,0,7,0.0,16431,349469295047335,487,16.97800064086914,1029.3988263453703,0.14999,16,0.0,0.0,1575420030,,,,0,0.5630250076728718,1,6.0,16.97800064086914,0.0,0.0,0.0,66.7128,C,29935471000000,
Raw,1732151051376,30514000000,,31714667.084787037,-1416186238862000128,0.0,147.67890424380872,1415.132691852381,0.0,0,30,0.0,16431,349469303634296,1797,12.100000381469727,874.4051873520967,0.14999,16,0.0,0.0,1575420030,,,,0,0.0,1,6.0,12.100000381469727,0.0,0.0,0.0,66.7128,C,29935471000000,
Status,1732151051375,29,0,1,17,1575420030,0.00,122.0,79.0,0,0,0,0.0
Status,1732151051375,29,1,1,22,1575420030,0.00,358.0,68.0,0,0,0,0.0
Status,1732151051375,29,2,1,14,1575420030,0.00,44.0,57.0,0,0,0,0.0
Status,1732151051375,29,3,1,19,1575420030,27.70,198.0,54.0,1,0,0,22.7
Status,1732151051375,29,4,1,13,1575420030,27.60,244.0,52.0,1,0,0,22.6
Status,1732151051375,29,5,2,133,1575420030,0.00,191.0,45.0,0,0,0,0.0
Status,1732151051375,29,6,1,30,1575420030,17.10,127.0,42.0,1,0,0,12.1
Status,1732151051375,29,7,1,15,1575420030,25.10,282.0,31.0,1,0,0,20.1
Status,1732151051375,29,8,1,2,1575420030,0.00,53.0,19.0,0,0,0,0.0
Status,1732151051375,29,9,1,24,1575420030,0.00,312.0,11.0,0,0,0,0.0
Status,1732151051375,29,10,1,7,1575420030,26.50,128.0,10.0,1,0,0,21.5
Status,1732151051375,29,11,1,21,1575420030,0.00,38.0,8.0,0,0,0,0.0
Status,1732151051375,29,12,1,6,1575420030,0.00,165.0,6.0,0,0,0,0.0
Status,1732151051375,29,13,3,20,1602000000,0.00,124.0,47.0,0,0,0,0.0
Status,1732151051375,29,14,3,9,1602000000,0.00,72.0,37.0,0,0,0,0.0
Status,1732151051375,29,15,3,8,1602000000,26.70,253.0,28.0,1,0,0,21.7
Status,1732151051375,29,16,3,19,1602000000,0.00,39.0,28.0,0,0,0,0.0
Status,1732151051375,29,17,3,11,1602000000,26.80,304.0,23.0,0,0,0,21.8
Status,1732151051375,29,18,3,17,1602000000,34.70,0.0,0.0,0,0,0,29.7
Status,1732151051375,29,19,6,21,1575420030,0.00,330.0,67.0,0,0,0,0.0
Status,1732151051375,29,20,6,19,1575420030,0.00,250.0,50.0,0,0,0,0.0
Status,1732151051375,29,21,6,27,1575420030,0.00,60.0,37.0,0,0,0,0.0
Status,1732151051375,29,22,6,29,1575420030,0.00,192.0,30.0,0,0,0,0.0
Status,1732151051375,29,23,6,13,1575420030,0.00,124.0,24.0,0,0,0,0.0
Status,1732151051375,29,24,6,15,1575420030,0.00,68.0,23.0,0,0,0,0.0
Status,1732151051375,29,25,6,4,1575420030,0.00,315.0,20.0,0,0,0,0.0
Status,1732151051375,29,26,6,26,1575420030,0.00,169.0,2.0,0,0,0,0.0
Status,1732151051375,29,27,6,6,1575420030,0.00,329.0,1.0,0,0,0,0.0
Status,1732151051375,29,28,6,34,1575420030,0.00,24.0,1.0,0,0,0,0.0
Fix,GPS,37.4250100000,-122.1584850000,-0.5999999999999979,0.0,5.9,0.0,1732151052378,1.8,100.6,29936471000000,68.2,0,,,
Raw,1732151052376,31514000000,,31085398.419195723,-1416186238862000128,0.0,147.41801463184552,1417.0045283062072,0.0,0,13,0.0,16431,349470306056823,487,22.61400032043457,697.9463198586518,0.14999,16,0.0,0.0,1575420030,,,,0,2.8789321510414765,1,6.0,22.61400032043457,0.0,0.0,0.0,66.7128,C,29936471000000,
Raw,1732151052376,31514000000,,31085398.419195723,-1416186238862000128,0.0,147.41801463184552,1417.0045283062072,0.0,0,19,0.0,16431,349470305738402,487,22.695999145507812,-35.839508934127984,0.14999,16,0.0,0.0,1575420030,,,,0,6.643735123747001,1,6.0,22.695999145507812,0.0,0.0,0.0,66.7128,C,29936471000000,
Raw,1732151052376,31514000000,,31085398.419195723,-1416186238862000128,0.0,147.41801463184552,1417.0045283062072,0.0,0,8,0.0,17,373358,487,5.0,926.3150440562174,0.14999,16,0.0,0.0,1605374980,,,,0,6.7700035039091215,3,6.0,18.0,0.0,0.0,21.67830050103189,66.7128,C,29936471000000,
Raw,1732151052376,31514000000,,31085398.419195723,-1416186238862000128,0.0,147.41801463184552,1417.0045283062072,0.0,0,11,0.0,17,966902,487,21.700000762939453,-52.40996982001319,0.14999,16,0.0,0.0,1602000000,,,,0,6.916182784143405,3,6.0,21.700000762939453,0.0,0.0,21.67830050103189,66.7128,C,29936471000000,
Raw,1732151052376,31514000000,,31085398.419195723,-1416186238862000128,0.0,147.41801463184552,1417.0045283062072,0.0,0,15,0.0,16431,349470301489208,487,20.05299949645996,490.5978553862308,0.14999,16,0.0,0.0,1575420030,,,,0,0.19335689379260934,1,6.0,20.05299949645996,0.0,0.0,0.0,66.7128,C,29936471000000,
Raw,1732151052376,31514000000,,31085398.419195723,-1416186238862000128,0.0,147.41801463184552,1417.0045283062072,0.0,0,7,0.0,16431,349470295043916,797,21.48699951171875,1029.506424037314,0.14999,16,0.0,0.0,1575420030,,,,0,4.705534863585873,1,6.0,21.48699951171875,0.0,0.0,0.0,66.7128,C,29936471000000,
Raw,1732151052376,31514000000,,31085398.419195723,-1416186238862000128,0.0,147.41801463184552,1417.0045283062072,0.0,0,30,0.0,16431,349470303631377,1797,12.100000381469727,875.3815574271773,0.14999,16,0.0,0.0,1575420030,,,,0,0.0,1,6.0,12.100000381469727,0.0,0.0,0.0,66.7128,C,29936471000000,
Fix,FLP,37.4249823000,-122.1585003000,5.400000095367432,0.38830772,5.714,0.000000015158676,1732151052623,1.8,100.6,29936471000000,13.221571,0,,,
Status,1732151052378,29,0,1,17,1575420030,0.00,122.0,79.0,0,0,0,0.0
Status,1732151052378,29,1,1,22,1575420030,0.00,358.0,68.0,0,0,0,0.0
Status,1732151052378,29,2,1,14,1575420030,0.00,44.0,57.0,0,0,0,0.0
Status,1732151052378,29,3,1,19,1575420030,27.70,198.0,54.0,1,0,0,22.7
Status,1732151052378,29,4,1,13,1575420030,34.40,244.0,52.0,1,0,0,29.400002
Status,1732151052378,29,5,2,133,1575420030,0.00,191.0,45.0,0,0,0,0.0
Status,1732151052378,29,6,1,30,1575420030,21.50,127.0,42.0,1,0,0,16.5
Status,1732151052378,29,7,1,15,1575420030,25.10,282.0,31.0,1,0,0,20.1
Status,1732151052378,29,8,1,2,1575420030,0.00,53.0,19.0,0,0,0,0.0
Status,1732151052378,29,9,1,24,1575420030,0.00,312.0,11.0,0,0,0,0.0
Status,1732151052378,29,10,1,7,1575420030,26.50,128.0,10.0,1,0,0,21.5
Status,1732151052378,29,11,1,21,1575420030,0.00,38.0,8.0,0,0,0,0.0
Status,1732151052378,29,12,1,6,1575420030,0.00,165.0,6.0,0,0,0,0.0
Status,1732151052378,29,13,3,20,1602000000,0.00,124.0,47.0,0,0,0,0.0
