# 
# Header Description:
# 
# Version: v3.1.0.3 Platform: 13 Manufacturer: samsung Model: SM-S135DL GNSS Hardware Model Name: MediaTek,MT6631,MTK_MNLD_default,MNL_VER_default
# 
# Raw,utcTimeMillis,TimeNanos,LeapSecond,TimeUncertaintyNanos,FullBiasNanos,BiasNanos,BiasUncertaintyNanos,DriftNanosPerSecond,DriftUncertaintyNanosPerSecond,HardwareClockDiscontinuityCount,Svid,TimeOffsetNanos,State,ReceivedSvTimeNanos,ReceivedSvTimeUncertaintyNanos,Cn0DbHz,PseudorangeRateMetersPerSecond,PseudorangeRateUncertaintyMetersPerSecond,AccumulatedDeltaRangeState,AccumulatedDeltaRangeMeters,AccumulatedDeltaRangeUncertaintyMeters,CarrierFrequencyHz,CarrierCycles,CarrierPhase,CarrierPhaseUncertainty,MultipathIndicator,SnrInDb,ConstellationType,AgcDb,BasebandCn0DbHz,FullInterSignalBiasNanos,FullInterSignalBiasUncertaintyNanos,SatelliteInterSignalBiasNanos,SatelliteInterSignalBiasUncertaintyNanos,CodeType,ChipsetElapsedRealtimeNanos,IsFullTracking
# 
# UncalAccel,utcTimeMillis,elapsedRealtimeNanos,UncalAccelXMps2,UncalAccelYMps2,UncalAccelZMps2,BiasXMps2,BiasYMps2,BiasZMps2
# 
# Accel,utcTimeMillis,elapsedRealtimeNanos,AccelXMps2,AccelYMps2,AccelZMps2
# 
# UncalGyro,utcTimeMillis,elapsedRealtimeNanos,UncalGyroXRadPerSec,UncalGyroYRadPerSec,UncalGyroZRadPerSec,DriftXRadPerSec,DriftYRadPerSec,DriftZRadPerSec
# 
# Gyro,utcTimeMillis,elapsedRealtimeNanos,GyroXRadPerSec,GyroYRadPerSec,GyroZRadPerSec
# 
# UncalMag,utcTimeMillis,elapsedRealtimeNanos,UncalMagXMicroT,UncalMagYMicroT,UncalMagZMicroT,BiasXMicroT,BiasYMicroT,BiasZMicroT
# 
# Mag,utcTimeMillis,elapsedRealtimeNanos,MagXMicroT,MagYMicroT,MagZMicroT
# 
# Pressure,utcTimeMillis,elapsedRealtimeNanos,PressureHpa
# 
# OrientationDeg,utcTimeMillis,elapsedRealtimeNanos,yawDeg,rollDeg,pitchDeg
# 
# Fix,Provider,LatitudeDegrees,LongitudeDegrees,AltitudeMeters,SpeedMps,AccuracyMeters,BearingDegrees,UnixTimeMillis,SpeedAccuracyMps,BearingAccuracyDegrees,elapsedRealtimeNanos,VerticalAccuracyMeters,MockLocation,NumberOfUsedSignals,VerticalSpeedAccuracyMps,SolutionType
# 
# Nav,Svid,Type,Status,MessageId,Sub-messageId,Data(Bytes)
# 
# Status,UnixTimeMillis,SignalCount,SignalIndex,ConstellationType,Svid,CarrierFrequencyHz,Cn0DbHz,AzimuthDegrees,ElevationDegrees,UsedInFix,HasAlmanacData,HasEphemerisData,BasebandCn0DbHz
# 
# Agc,utcTimeMillis,TimeNanos,LeapSecond,TimeUncertaintyNanos,FullBiasNanos,BiasNanos,BiasUncertaintyNanos,DriftNanosPerSecond,DriftUncertaintyNanosPerSecond,HardwareClockDiscontinuityCount,AgcDb,CarrierFrequencyHz,ConstellationType
# 
Fix,FLP,37.4255283000,-122.1582103000,5.400000095367432,0.22867338,18.912,180.0,1732152455243,1.9,98.3,31339091000000,15.778619,0,,,
Status,,28,0,1,17,1575420030,0.00,66.0,76.0,0,0,0,0.0
Status,,28,1,1,22,1575420030,0.00,22.0,65.0,0,0,0,0.0
Status,,28,2,1,19,1575420030,0.00,202.0,65.0,0,0,0,0.0
Status,,28,3,1,14,1575420030,0.00,57.0,50.0,0,0,0,0.0
Status,,28,4,2,133,1575420030,0.00,191.0,45.0,0,0,0,0.0
Status,,28,5,1,13,1575420030,0.00,230.0,44.0,0,0,0,0.0
Status,,28,6,1,30,1575420030,0.00,134.0,33.0,0,0,0,0.0
Status,,28,7,1,15,1575420030,24.80,270.0,29.0,1,0,0,19.8
Status,,28,8,1,24,1575420030,22.20,313.0,20.0,1,0,0,17.2
Status,,28,9,1,2,1575420030,0.00,44.0,15.0,0,0,0,0.0
Status,,28,10,1,6,1575420030,23.80,160.0,15.0,1,0,0,18.8
Status,,28,11,1,21,1575420030,0.00,31.0,2.0,0,0,0,0.0
Status,,28,12,1,7,1575420030,25.10,133.0,1.0,1,0,0,20.1
Status,,28,13,1,12,1575420030,0.00,269.0,1.0,0,0,0,0.0
Status,,28,14,3,20,1602000000,0.00,106.0,56.0,0,0,0,0.0
Status,,28,15,3,9,1602000000,0.00,86.0,31.0,0,0,0,0.0
Status,,28,16,3,11,1602000000,0.00,314.0,31.0,0,0,0,0.0
Status,,28,17,3,19,1602000000,0.00,30.0,20.0,0,0,0,0.0
Status,,28,18,3,8,1602000000,0.00,243.0,19.0,0,0,0,0.0
Status,,28,19,6,21,1575420030,0.00,352.0,68.0,0,0,0,0.0
Status,,28,20,6,19,1575420030,0.00,239.0,44.0,0,0,0,0.0
Status,,28,21,6,27,1575420030,0.00,67.0,32.0,0,0,0,0.0
Status,,28,22,6,13,1575420030,0.00,117.0,31.0,0,0,0,0.0
Status,,28,23,6,4,1575420030,0.00,308.0,24.0,0,0,0,0.0
Status,,28,24,6,15,1575420030,0.00,58.0,23.0,0,0,0,0.0
Status,,28,25,6,29,1575420030,0.00,190.0,22.0,0,0,0,0.0
Status,,28,26,6,26,1575420030,0.00,166.0,9.0,0,0,0,0.0
Status,,28,27,6,6,1575420030,0.00,326.0,7.0,0,0,0,0.0
Fix,GPS,37.4255000000,-122.1582316667,22.3,0.0,5.7,0.0,1732152456000,1.9,92.6,31340091000000,69.1,0,,,
Fix,FLP,37.4255119000,-122.1582216000,5.400000095367432,0.25774238,18.897,180.0,1732152456243,1.9,92.6,31340091000000,15.765256,0,,,
Raw,1732152456002,18550000000,,995687.8860174661,-1416187655452000256,0.0,132.5095278269611,1038.8740277412057,0.0,0,15,0.0,16431,350873926072196,797,19.753999710083008,542.2418670973569,0.14999,16,0.0,0.0,1575420030,,,,0,0.0,1,6.0,19.753999710083008,0.0,0.0,0.0,66.7128,C,31340091000000,
Raw,1732152456002,18550000000,,995687.8860174661,-1416187655452000256,0.0,132.5095278269611,1038.8740277412057,0.0,0,24,0.0,16431,350873923550330,797,17.160999298095703,-312.01788244227754,0.14999,16,0.0,0.0,1575420030,,,,0,0.0,1,6.0,17.160999298095703,0.0,0.0,0.0,66.7128,C,31340091000000,
Raw,1732152456002,18550000000,,995687.8860174661,-1416187655452000256,0.0,132.5095278269611,1038.8740277412057,0.0,0,6,0.0,16431,350873921366767,487,18.756000518798828,-348.70228413361036,0.14999,16,0.0,0.0,1575420030,,,,0,0.11086919276342844,1,6.0,18.756000518798828,0.0,0.0,0.0,66.7128,C,31340091000000,
Raw,1732152456002,18550000000,,995687.8860174661,-1416187655452000256,0.0,132.5095278269611,1038.8740277412057,0.0,0,7,0.0,16431,350873917381632,487,20.143999099731445,962.5510191788483,0.14999,16,0.0,0.0,1575420030,,,,0,2.5263653422240506,1,6.0,20.143999099731445,0.0,0.0,0.0,66.7128,C,31340091000000,
Status,1732152456000,28,0,1,17,1575420030,0.00,66.0,76.0,0,0,0,0.0
Status,1732152456000,28,1,1,22,1575420030,0.00,22.0,65.0,0,0,0,0.0
Status,1732152456000,28,2,1,19,1575420030,0.00,202.0,65.0,0,0,0,0.0
Status,1732152456000,28,3,1,14,1575420030,0.00,57.0,50.0,0,0,0,0.0
Status,1732152456000,28,4,2,133,1575420030,0.00,191.0,45.0,0,0,0,0.0
Status,1732152456000,28,5,1,13,1575420030,26.20,230.0,44.0,1,0,0,21.2
Status,1732152456000,28,6,1,30,1575420030,0.00,134.0,33.0,0,0,0,0.0
Status,1732152456000,28,7,1,15,1575420030,24.70,270.0,29.0,1,0,0,19.7
Status,1732152456000,28,8,1,24,1575420030,22.20,313.0,20.0,1,0,0,17.2
Status,1732152456000,28,9,1,2,1575420030,0.00,44.0,15.0,0,0,0,0.0
Status,1732152456000,28,10,1,6,1575420030,27.80,160.0,15.0,1,0,0,22.8
Status,1732152456000,28,11,1,21,1575420030,0.00,31.0,2.0,0,0,0,0.0
Status,1732152456000,28,12,1,7,1575420030,28.70,133.0,1.0,0,0,0,23.7
Status,1732152456000,28,13,1,12,1575420030,0.00,269.0,1.0,0,0,0,0.0
Status,1732152456000,28,14,3,20,1602000000,0.00,106.0,56.0,0,0,0,0.0
Status,1732152456000,28,15,3,9,1602000000,0.00,86.0,31.0,0,0,0,0.0
Status,1732152456000,28,16,3,11,1602000000,0.00,314.0,31.0,0,0,0,0.0
Status,1732152456000,28,17,3,19,1602000000,0.00,30.0,20.0,0,0,0,0.0
Status,1732152456000,28,18,3,8,1602000000,0.00,243.0,19.0,0,0,0,0.0
Status,1732152456000,28,19,6,21,1575420030,0.00,352.0,68.0,0,0,0,0.0
Status,1732152456000,28,20,6,19,1575420030,0.00,239.0,44.0,0,0,0,0.0
Status,1732152456000,28,21,6,27,1575420030,0.00,67.0,32.0,0,0,0,0.0
Status,1732152456000,28,22,6,13,1575420030,0.00,117.0,31.0,0,0,0,0.0
Status,1732152456000,28,23,6,4,1575420030,0.00,308.0,24.0,0,0,0,0.0
Status,1732152456000,28,24,6,15,1575420030,0.00,58.0,23.0,0,0,0,0.0
Status,1732152456000,28,25,6,29,1575420030,0.00,190.0,22.0,0,0,0,0.0
Status,1732152456000,28,26,6,26,1575420030,0.00,166.0,9.0,0,0,0,0.0
Status,1732152456000,28,27,6,6,1575420030,0.00,326.0,7.0,0,0,0,0.0
Fix,GPS,37.4254933333,-122.1582500000,22.3,0.0,5.6,0.0,1732152457000,1.9,88.9,31341091000000,75.2,0,,,
Fix,FLP,37.4255018000,-122.1582350000,5.400000095367432,0.26883933,16.207,180.0,1732152457243,1.9,88.9,31341091000000,14.479639,0,,,
Raw,1732152457002,19550000000,,995623.3622128012,-1416187655452000256,0.0,136.31906585831368,1037.3643710485171,0.0,0,15,0.0,16431,350874926070389,487,19.69700050354004,541.2512342884996,0.14999,16,0.0,0.0,1575420030,,,,0,0.0,1,6.0,19.69700050354004,0.0,0.0,0.0,66.7128,C,31341091000000,
Raw,1732152457002,19550000000,,995623.3622128012,-1416187655452000256,0.0,136.31906585831368,1037.3643710485171,0.0,0,24,0.0,16431,350874923551371,797,17.16699981689453,-312.7720419126232,0.14999,16,0.0,0.0,1575420030,,,,0,0.0,1,6.0,17.16699981689453,0.0,0.0,0.0,66.7128,C,31341091000000,
Raw,1732152457002,19550000000,,995623.3622128012,-1416187655452000256,0.0,136.31906585831368,1037.3643710485171,0.0,0,6,0.0,16431,350874921367937,396,22.798999786376953,-348.11495683587674,0.14999,16,0.0,0.0,1575420030,,,,0,6.801171990133947,1,6.0,22.798999786376953,0.0,0.0,0.0,66.7128,C,31341091000000,
Raw,1732152457002,19550000000,,995623.3622128012,-1416187655452000256,0.0,136.31906585831368,1037.3643710485171,0.0,0,7,0.0,16431,350874917378441,396,23.733999252319336,961.6178554308434,0.14999,16,0.0,0.0,1575420030,,,,0,8.21432794977454,1,6.0,23.733999252319336,0.0,0.0,0.0,66.7128,C,31341091000000,
Raw,1732152457002,19550000000,,995623.3622128012,-1416187655452000256,0.0,136.31906585831368,1037.3643710485171,0.0,0,13,0.0,16431,350874929703052,396,21.194000244140625,732.0182254312174,0.14999,16,0.0,0.0,1575420030,,,,0,4.251092385601996,1,6.0,21.194000244140625,0.0,0.0,0.0,66.7128,C,31341091000000,
Fix,FLP,37.4254974000,-122.1582412000,5.400000095367432,0.26620063,13.514,180.0,1732152457865,1.9,88.9,31341712000000,16.666233,0,,,
Fix,NLP,37.4256523000,-122.1580682000,5.400000095367432,,25.967,,1732152457865,,,31341712000000,39.98176,0,,,
Status,1732152457000,28,0,1,17,1575420030,0.00,66.0,76.0,0,0,0,0.0
Status,1732152457000,28,1,1,22,1575420030,0.00,22.0,65.0,0,0,0,0.0
Status,1732152457000,28,2,1,19,1575420030,0.00,202.0,65.0,0,0,0,0.0
Status,1732152457000,28,3,1,14,1575420030,0.00,57.0,50.0,0,0,0,0.0
Status,1732152457000,28,4,2,133,1575420030,0.00,191.0,45.0,0,0,0,0.0
Status,1732152457000,28,5,1,13,1575420030,31.10,230.0,44.0,1,0,0,26.1
Status,1732152457000,28,6,1,30,1575420030,0.00,134.0,33.0,0,0,0,0.0
Status,1732152457000,28,7,1,15,1575420030,24.60,270.0,29.0,1,0,0,19.6
Status,1732152457000,28,8,1,24,1575420030,22.20,313.0,20.0,1,0,0,17.2
Status,1732152457000,28,9,1,2,1575420030,0.00,44.0,15.0,0,0,0,0.0
Status,1732152457000,28,10,1,6,1575420030,35.10,160.0,15.0,1,0,0,30.099998
Status,1732152457000,28,11,1,21,1575420030,0.00,31.0,2.0,0,0,0,0.0
Status,1732152457000,28,12,1,7,1575420030,27.90,133.0,1.0,0,0,0,22.9
Status,1732152457000,28,13,1,12,1575420030,0.00,269.0,1.0,0,0,0,0.0
Status,1732152457000,28,14,3,20,1602000000,0.00,106.0,56.0,0,0,0,0.0
Status,1732152457000,28,15,3,9,1602000000,0.00,86.0,31.0,0,0,0,0.0
Status,1732152457000,28,16,3,11,1602000000,0.00,314.0,31.0,0,0,0,0.0
Status,1732152457000,28,17,3,19,1602000000,0.00,30.0,20.0,0,0,0,0.0
Status,1732152457000,28,18,3,8,1602000000,26.20,243.0,19.0,1,0,0,21.2
Status,1732152457000,28,19,6,21,1575420030,0.00,352.0,68.0,0,0,0,0.0
Status,1732152457000,28,20,6,19,1575420030,0.00,239.0,44.0,0,0,0,0.0
Status,1732152457000,28,21,6,27,1575420030,0.00,67.0,32.0,0,0,0,0.0
Status,1732152457000,28,22,6,13,1575420030,0.00,117.0,31.0,0,0,0,0.0
Status,1732152457000,28,23,6,4,1575420030,0.00,308.0,24.0,0,0,0,0.0
Status,1732152457000,28,24,6,15,1575420030,0.00,58.0,23.0,0,0,0,0.0
Status,1732152457000,28,25,6,29,1575420030,0.00,190.0,22.0,0,0,0,0.0
Status,1732152457000,28,26,6,26,1575420030,0.00,166.0,9.0,0,0,0,0.0
Status,1732152457000,28,27,6,6,1575420030,0.00,326.0,7.0,0,0,0,0.0
Fix,GPS,37.4254800000,-122.1582700000,22.3,0.0,5.5,0.0,1732152458000,1.8,87.8,31342091000000,72.2,0,,,
Fix,FLP,37.4254905000,-122.1582515000,5.400000095367432,0.27113914,9.514,180.0,1732152458244,1.8,87.8,31342091000000,16.48298,0,,,
Raw,1732152458002,20550000000,,995517.7683289151,-1416187655452000256,0.0,127.94116659854346,1032.8144136003646,0.0,0,15,0.0,16431,350875926068596,797,19.58099937438965,540.3647612487863,0.14999,16,0.0,0.0,1575420030,,,,0,0.0,1,6.0,19.58099937438965,0.0,0.0,0.0,66.7128,C,31342091000000,
Raw,1732152458002,20550000000,,995517.7683289151,-1416187655452000256,0.0,127.94116659854346,1032.8144136003646,0.0,0,24,0.0,16431,350875923552370,797,17.23200035095215,-314.2630783224842,0.14999,16,0.0,0.0,1575420030,,,,0,0.0,1,6.0,17.23200035095215,0.0,0.0,0.0,66.7128,C,31342091000000,
Raw,1732152458002,20550000000,,995517.7683289151,-1416187655452000256,0.0,127.94116659854346,1032.8144136003646,0.0,0,6,0.0,16431,350875921369118,74,30.13800048828125,-349.2719107747678,0.14999,16,0.0,0.0,1575420030,,,,0,16.723915676282672,1,6.0,30.13800048828125,0.0,0.0,0.0,66.7128,C,31342091000000,
Raw,1732152458002,20550000000,,995517.7683289151,-1416187655452000256,0.0,127.94116659854346,1032.8144136003646,0.0,0,8,0.0,17,4452,487,5.0,931.334763761674,0.14999,16,0.0,0.0,1605374980,,,,0,5.996927452901955,3,6.0,18.0,0.0,0.0,87.52823418744457,66.7128,C,31342091000000,
Raw,1732152458002,20550000000,,995517.7683289151,-1416187655452000256,0.0,127.94116659854346,1032.8144136003646,0.0,0,7,0.0,16431,350875917375246,487,22.871999740600586,960.4167195381361,0.14999,16,0.0,0.0,1575420030,,,,0,6.923081214327988,1,6.0,22.871999740600586,0.0,0.0,0.0,66.7128,C,31342091000000,
Raw,1732152458002,20550000000,,995517.7683289151,-1416187655452000256,0.0,127.94116659854346,1032.8144136003646,0.0,0,13,0.0,16431,350875929700613,316,26.104999542236328,730.2783577441328,0.14999,16,0.0,0.0,1575420030,,,,0,11.551620462120548,1,6.0,26.104999542236328,0.0,0.0,0.0,66.7128,C,31342091000000,
Status,1732152458000,28,0,1,17,1575420030,0.00,66.0,76.0,0,0,0,0.0
Status,1732152458000,28,1,1,22,1575420030,0.00,22.0,65.0,0,0,0,0.0
Status,1732152458000,28,2,1,19,1575420030,0.00,202.0,65.0,0,0,0,0.0
Status,1732152458000,28,3,1,14,1575420030,0.00,57.0,50.0,0,0,0,0.0
Status,1732152458000,28,4,2,133,1575420030,0.00,191.0,45.0,0,0,0,0.0
Status,1732152458000,28,5,1,13,1575420030,30.20,230.0,44.0,1,0,0,25.2
Status,1732152458000,28,6,1,30,1575420030,0.00,134.0,33.0,0,0,0,0.0
Status,1732152458000,28,7,1,15,1575420030,24.50,270.0,29.0,1,0,0,19.5
Status,1732152458000,28,8,1,24,1575420030,22.30,313.0,20.0,1,0,0,17.3
Status,1732152458000,28,9,1,2,1575420030,0.00,44.0,15.0,0,0,0,0.0
Status,1732152458000,28,10,1,6,1575420030,31.00,160.0,15.0,1,0,0,26.0
Status,1732152458000,28,11,1,21,1575420030,0.00,31.0,2.0,0,0,0,0.0
Status,1732152458000,28,12,1,7,1575420030,27.00,133.0,1.0,0,0,0,22.0
Status,1732152458000,28,13,1,12,1575420030,0.00,269.0,1.0,0,0,0,0.0
Status,1732152458000,28,14,3,20,1602000000,0.00,106.0,56.0,0,0,0,0.0
Status,1732152458000,28,15,3,9,1602000000,0.00,86.0,31.0,0,0,0,0.0
Status,1732152458000,28,16,3,11,1602000000,0.00,314.0,31.0,0,0,0,0.0
Status,1732152458000,28,17,3,19,1602000000,0.00,30.0,20.0,0,0,0,0.0
Status,1732152458000,28,18,3,8,1602000000,21.40,243.0,19.0,1,0,0,16.4
Status,1732152458000,28,19,6,21,1575420030,0.00,352.0,68.0,0,0,0,0.0
Status,1732152458000,28,20,6,19,1575420030,0.00,239.0,44.0,0,0,0,0.0
Status,1732152458000,28,21,6,27,1575420030,0.00,67.0,32.0,0,0,0,0.0
Status,1732152458000,28,22,6,13,1575420030,0.00,117.0,31.0,0,0,0,0.0
Status,1732152458000,28,23,6,4,1575420030,0.00,308.0,24.0,0,0,0,0.0
Status,1732152458000,28,24,6,15,1575420030,0.00,58.0,23.0,0,0,0,0.0
Status,1732152458000,28,25,6,29,1575420030,0.00,190.0,22.0,0,0,0,0.0
Status,1732152458000,28,26,6,26,1575420030,0.00,166.0,9.0,0,0,0,0.0
Status,1732152458000,28,27,6,6,1575420030,0.00,326.0,7.0,0,0,0,0.0
Fix,GPS,37.4254650000,-122.1582866667,22.3,0.0,5.5,0.0,1732152459000,1.8,82.0,31343091000000,72.2,0,,,
Fix,FLP,37.4254783000,-122.1582662000,5.400000095367432,0.2863545,9.485,180.0,1732152459244,1.8,82.0,31343091000000,16.465706,0,,,
Raw,1732152459002,21550000000,,995486.2882174307,-1416187655452000256,0.0,128.31011232838165,1030.5029201968027,0.0,0,15,0.0,16431,350876926066794,797,19.47100067138672,539.8404780218503,0.14999,16,0.0,0.0,1575420030,,,,0,0.0,1,6.0,19.47100067138672,0.0,0.0,0.0,66.7128,C,31343091000000,
Raw,1732152459002,21550000000,,995486.2882174307,-1416187655452000256,0.0,128.31011232838165,1030.5029201968027,0.0,0,24,0.0,16431,350876923553418,1797,17.29400062561035,-314.9618129022907,0.14999,16,0.0,0.0,1575420030,,,,0,0.0,1,6.0,17.29400062561035,0.0,0.0,0.0,66.7128,C,31343091000000,
Raw,1732152459002,21550000000,,995486.2882174307,-1416187655452000256,0.0,128.31011232838165,1030.5029201968027,0.0,0,6,0.0,16431,350876921370283,316,26.0310001373291,-349.8733149726132,0.14999,16,0.0,0.0,1575420030,,,,0,11.480278051693416,1,6.0,26.0310001373291,0.0,0.0,0.0,66.7128,C,31343091000000,
Raw,1732152459002,21550000000,,995486.2882174307,-1416187655452000256,0.0,128.31011232838165,1030.5029201968027,0.0,0,8,0.0,17,1306,797,5.0,928.4605819151009,0.14999,16,0.0,0.0,1605374980,,,,0,0.0,3,6.0,17.0,0.0,0.0,87.52823418744457,66.7128,C,31343091000000,
Raw,1732152459002,21550000000,,995486.2882174307,-1416187655452000256,0.0,128.31011232838165,1030.5029201968027,0.0,0,7,0.0,16431,350876917372074,487,22.017000198364258,960.089001870187,0.14999,16,0.0,0.0,1575420030,,,,0,5.6193823448414575,1,6.0,22.017000198364258,0.0,0.0,0.0,66.7128,C,31343091000000,
Raw,1732152459002,21550000000,,995486.2882174307,-1416187655452000256,0.0,128.31011232838165,1030.5029201968027,0.0,0,13,0.0,16431,350876929698177,396,25.21299934387207,730.0898294911505,0.14999,16,0.0,0.0,1575420030,,,,0,10.333221880654373,1,6.0,25.21299934387207,0.0,0.0,0.0,66.7128,C,31343091000000,
Status,1732152459000,28,0,1,17,1575420030,0.00,66.0,76.0,0,0,0,0.0
Status,1732152459000,28,1,1,22,1575420030,0.00,22.0,65.0,0,0,0,0.0
Status,1732152459000,28,2,1,19,1575420030,0.00,202.0,65.0,0,0,0,0.0
Status,1732152459000,28,3,1,14,1575420030,0.00,57.0,50.0,0,0,0,0.0
Status,1732152459000,28,4,2,133,1575420030,0.00,191.0,45.0,0,0,0,0.0
Status,1732152459000,28,5,1,13,1575420030,0.00,230.0,44.0,0,0,0,0.0
Status,1732152459000,28,6,1,30,1575420030,0.00,134.0,33.0,0,0,0,0.0
Status,1732152459000,28,7,1,15,1575420030,24.40,270.0,29.0,1,0,0,19.4
Status,1732152459000,28,8,1,24,1575420030,18.80,313.0,20.0,1,0,0,13.799999
Status,1732152459000,28,9,1,2,1575420030,0.00,44.0,15.0,0,0,0,0.0
Status,1732152459000,28,10,1,6,1575420030,28.30,160.0,15.0,1,0,0,23.3
Status,1732152459000,28,11,1,21,1575420030,0.00,31.0,2.0,0,0,0,0.0
Status,1732152459000,28,12,1,7,1575420030,0.00,133.0,1.0,0,0,0,0.0
Status,1732152459000,28,13,1,12,1575420030,0.00,269.0,1.0,0,0,0,0.0
Status,1732152459000,28,14,3,20,1602000000,0.00,106.0,56.0,0,0,0,0.0
Status,1732152459000,28,15,3,9,1602000000,0.00,86.0,31.0,0,0,0,0.0
Status,1732152459000,28,16,3,11,1602000000,0.00,314.0,31.0,0,0,0,0.0
Status,1732152459000,28,17,3,19,1602000000,0.00,30.0,20.0,0,0,0,0.0
Status,1732152459000,28,18,3,8,1602000000,0.00,243.0,19.0,0,0,0,0.0
Status,1732152459000,28,19,6,21,1575420030,0.00,352.0,68.0,0,0,0,0.0
Status,1732152459000,28,20,6,19,1575420030,0.00,239.0,44.0,0,0,0,0.0
Status,1732152459000,28,21,6,27,1575420030,0.00,67.0,32.0,0,0,0,0.0
Status,1732152459000,28,22,6,13,1575420030,0.00,117.0,31.0,0,0,0,0.0
Status,1732152459000,28,23,6,4,1575420030,0.00,308.0,24.0,0,0,0,0.0
Status,1732152459000,28,24,6,15,1575420030,0.00,58.0,23.0,0,0,0,0.0
Status,1732152459000,28,25,6,29,1575420030,0.00,190.0,22.0,0,0,0,0.0
Status,1732152459000,28,26,6,26,1575420030,0.00,166.0,9.0,0,0,0,0.0
Status,1732152459000,28,27,6,6,1575420030,0.00,326.0,7.0,0,0,0,0.0
Fix,GPS,37.4254566667,-122.1582966667,22.3,0.0,31.1,0.0,1732152460000,1.9,82.1,31344091000000,72.4,0,,,
Fix,FLP,37.4254811000,-122.1582608000,5.400000095367432,0.25507393,12.478,180.0,1732152460243,1.5,45.0,31344091000000,16.418667,0,,,
Status,1732152460000,28,0,1,17,1575420030,0.00,66.0,76.0,0,0,0,0.0
Status,1732152460000,28,1,1,22,1575420030,0.00,22.0,65.0,0,0,0,0.0
Status,1732152460000,28,2,1,19,1575420030,0.00,202.0,65.0,0,0,0,0.0
Status,1732152460000,28,3,1,14,1575420030,0.00,57.0,50.0,0,0,0,0.0
Status,1732152460000,28,4,2,133,1575420030,0.00,191.0,45.0,0,0,0,0.0
Status,1732152460000,28,5,1,13,1575420030,0.00,230.0,44.0,0,0,0,0.0
Status,1732152460000,28,6,1,30,1575420030,0.00,134.0,33.0,0,0,0,0.0
Status,1732152460000,28,7,1,15,1575420030,27.90,270.0,29.0,1,0,0,22.9
Status,1732152460000,28,8,1,24,1575420030,18.80,313.0,20.0,1,0,0,13.799999
Status,1732152460000,28,9,1,2,1575420030,0.00,44.0,15.0,0,0,0,0.0
Status,1732152460000,28,10,1,6,1575420030,24.10,160.0,15.0,1,0,0,19.1
Status,1732152460000,28,11,1,21,1575420030,0.00,31.0,2.0,0,0,0,0.0
Status,1732152460000,28,12,1,7,1575420030,29.80,133.0,1.0,1,0,0,24.8
Status,1732152460000,28,13,1,12,1575420030,0.00,269.0,1.0,0,0,0,0.0
Status,1732152460000,28,14,3,20,1602000000,0.00,106.0,56.0,0,0,0,0.0
Status,1732152460000,28,15,3,9,1602000000,0.00,86.0,31.0,0,0,0,0.0
Status,1732152460000,28,16,3,11,1602000000,0.00,314.0,31.0,0,0,0,0.0
Status,1732152460000,28,17,3,19,1602000000,0.00,30.0,20.0,0,0,0,0.0
Status,1732152460000,28,18,3,8,1602000000,0.00,243.0,19.0,0,0,0,0.0
Status,1732152460000,28,19,6,21,1575420030,0.00,352.0,68.0,0,0,0,0.0
Status,1732152460000,28,20,6,19,1575420030,0.00,239.0,44.0,0,0,0,0.0
Status,1732152460000,28,21,6,27,1575420030,0.00,67.0,32.0,0,0,0,0.0
Status,1732152460000,28,22,6,13,1575420030,0.00,117.0,31.0,0,0,0,0.0
Status,1732152460000,28,23,6,4,1575420030,0.00,308.0,24.0,0,0,0,0.0
Status,1732152460000,28,24,6,15,1575420030,0.00,58.0,23.0,0,0,0,0.0
Status,1732152460000,28,25,6,29,1575420030,0.00,190.0,22.0,0,0,0,0.0
Status,1732152460000,28,26,6,26,1575420030,0.00,166.0,9.0,0,0,0,0.0
Status,1732152460000,28,27,6,6,1575420030,0.00,326.0,7.0,0,0,0,0.0
Fix,GPS,37.4254550000,-122.1582700000,22.3,0.0,5.6,0.0,1732152461000,1.9,86.8,31345091000000,65.1,0,,,
Raw,1732152461002,23550000000,,995323.1545271229,-1416187655452000256,0.0,116.99174295939093,1026.655175997635,0.0,0,15,0.0,16431,350878926063168,487,22.871999740600586,539.0276415718308,0.14999,16,0.0,0.0,1575420030,,,,0,6.923081214327988,1,6.0,22.871999740600586,0.0,0.0,0.0,66.7128,C,31345091000000,
Raw,1732152461002,23550000000,,995323.1545271229,-1416187655452000256,0.0,116.99174295939093,1026.655175997635,0.0,0,24,0.0,16431,350878923555523,1797,13.800000190734863,-315.4263970643961,0.14999,16,0.0,0.0,1575420030,,,,0,0.0,1,6.0,13.800000190734863,0.0,0.0,0.0,66.7128,C,31345091000000,
Raw,1732152461002,23550000000,,995323.1545271229,-1416187655452000256,0.0,116.99174295939093,1026.655175997635,0.0,0,6,0.0,16431,350878921372618,487,19.08300018310547,-349.7238117892477,0.14999,16,0.0,0.0,1575420030,,,,0,0.6257392847300434,1,6.0,19.08300018310547,0.0,0.0,0.0,66.7128,C,31345091000000,
Raw,1732152461002,23550000000,,995323.1545271229,-1416187655452000256,0.0,116.99174295939093,1026.655175997635,0.0,0,7,0.0,16431,350878917365710,316,24.768999099731445,960.1056339831904,0.14999,16,0.0,0.0,1575420030,,,,0,9.697385192177347,1,6.0,24.768999099731445,0.0,0.0,0.0,66.7128,C,31345091000000,
Fix,FLP,37.4254662000,-122.1582656000,5.400000095367432,0.2786814,8.592,180.0,1732152461243,1.9,86.8,31345091000000,18.301249,0,,,
Status,1732152461000,28,0,1,17,1575420030,0.00,66.0,76.0,0,0,0,0.0
Status,1732152461000,28,1,1,22,1575420030,0.00,22.0,65.0,0,0,0,0.0
Status,1732152461000,28,2,1,19,1575420030,0.00,202.0,65.0,0,0,0,0.0
Status,1732152461000,28,3,1,14,1575420030,0.00,57.0,50.0,0,0,0,0.0
Status,1732152461000,28,4,2,133,1575420030,0.00,191.0,45.0,0,0,0,0.0
Status,1732152461000,28,5,1,13,1575420030,26.30,230.0,44.0,1,0,0,21.3
Status,1732152461000,28,6,1,30,1575420030,0.00,134.0,33.0,0,0,0,0.0
Status,1732152461000,28,7,1,15,1575420030,25.10,270.0,29.0,1,0,0,20.1
Status,1732152461000,28,8,1,24,1575420030,18.80,313.0,20.0,1,0,0,13.799999
Status,1732152461000,28,9,1,2,1575420030,0.00,44.0,15.0,0,0,0,0.0
Status,1732152461000,28,10,1,6,1575420030,25.00,160.0,15.0,1,0,0,20.0
Status,1732152461000,28,11,1,21,1575420030,0.00,31.0,2.0,0,0,0,0.0
Status,1732152461000,28,12,1,7,1575420030,30.70,133.0,1.0,0,0,0,25.7
Status,1732152461000,28,13,1,12,1575420030,0.00,269.0,1.0,0,0,0,0.0
Status,1732152461000,28,14,3,20,1602000000,0.00,106.0,56.0,0,0,0,0.0
Status,1732152461000,28,15,3,9,1602000000,0.00,86.0,31.0,0,0,0,0.0
Status,1732152461000,28,16,3,11,1602000000,0.00,314.0,31.0,0,0,0,0.0
Status,1732152461000,28,17,3,19,1602000000,0.00,30.0,20.0,0,0,0,0.0
Status,1732152461000,28,18,3,8,1602000000,0.00,243.0,19.0,0,0,0,0.0
Status,1732152461000,28,19,6,21,1575420030,0.00,352.0,68.0,0,0,0,0.0
Status,1732152461000,28,20,6,19,1575420030,0.00,239.0,44.0,0,0,0,0.0
Status,1732152461000,28,21,6,27,1575420030,0.00,67.0,32.0,0,0,0,0.0
Status,1732152461000,28,22,6,13,1575420030,0.00,117.0,31.0,0,0,0,0.0
Status,1732152461000,28,23,6,4,1575420030,0.00,308.0,24.0,0,0,0,0.0
Status,1732152461000,28,24,6,15,1575420030,0.00,58.0,23.0,0,0,0,0.0
Status,1732152461000,28,25,6,29,1575420030,0.00,190.0,22.0,0,0,0,0.0
Status,1732152461000,28,26,6,26,1575420030,0.00,166.0,9.0,0,0,0,0.0
Status,1732152461000,28,27,6,6,1575420030,0.00,326.0,7.0,0,0,0,0.0
Fix,GPS,37.4254516667,-122.1582750000,22.3,0.0,5.6,0.0,1732152462000,1.9,93.7,31346091000000,61.3,0,,,
Raw,1732152462002,24550000000,,995276.9767476938,-1416187655452000256,0.0,115.11382891742815,1025.2960101164697,0.0,0,15,0.0,16431,350879926061376,487,20.143999099731445,539.5016103340107,0.14999,16,0.0,0.0,1575420030,,,,0,2.5263653422240506,1,6.0,20.143999099731445,0.0,0.0,0.0,66.7128,C,31346091000000,
Raw,1732152462002,24550000000,,995276.9767476938,-1416187655452000256,0.0,115.11382891742815,1025.2960101164697,0.0,0,24,0.0,16431,350879923556576,1797,13.800000190734863,-316.11351704014993,0.14999,16,0.0,0.0,1575420030,,,,0,0.0,1,6.0,13.800000190734863,0.0,0.0,0.0,66.7128,C,31346091000000,
Raw,1732152462002,24550000000,,995276.9767476938,-1416187655452000256,0.0,115.11382891742815,1025.2960101164697,0.0,0,6,0.0,16431,350879921373786,487,19.976999282836914,-351.14664724411165,0.14999,16,0.0,0.0,1575420030,,,,0,2.2197727025998084,1,6.0,19.976999282836914,0.0,0.0,0.0,66.7128,C,31346091000000,
Raw,1732152462002,24550000000,,995276.9767476938,-1416187655452000256,0.0,115.11382891742815,1025.2960101164697,0.0,0,7,0.0,16431,350879917362508,396,25.658000946044922,960.005376721008,0.14999,16,0.0,0.0,1575420030,,,,0,10.963767281045147,1,6.0,25.658000946044922,0.0,0.0,0.0,66.7128,C,31346091000000,
Raw,1732152462002,24550000000,,995276.9767476938,-1416187655452000256,0.0,115.11382891742815,1025.2960101164697,0.0,0,13,0.0,16431,350879929690885,487,21.285999298095703,730.7879601115462,0.14999,16,0.0,0.0,1575420030,,,,0,4.414212477960249,1,6.0,21.285999298095703,0.0,0.0,0.0,66.7128,C,31346091000000,
Fix,FLP,37.4254580000,-122.1582699000,5.400000095367432,0.28301883,8.578,180.0,1732152462244,1.9,93.7,31346091000000,20.567244,0,,,
Fix,FLP,37.4254542000,-122.1582721000,5.400000095367432,0.2772007,9.074,180.0,1732152463031,1.9,93.7,31346879000000,16.183197,0,,,
Fix,NLP,37.4257054000,-122.1581057000,5.400000095367432,,20.224,,1732152463031,,,31346879000000,13.819285,0,,,
Status,1732152462000,27,0,1,17,1575420030,0.00,66.0,76.0,0,0,0,0.0
Status,1732152462000,27,1,1,22,1575420030,0.00,22.0,65.0,0,0,0,0.0
Status,1732152462000,27,2,1,19,1575420030,0.00,202.0,65.0,0,0,0,0.0
Status,1732152462000,27,3,1,14,1575420030,0.00,57.0,50.0,0,0,0,0.0
Status,1732152462000,27,4,1,13,1575420030,26.30,230.0,44.0,1,0,0,21.3
Status,1732152462000,27,5,1,30,1575420030,0.00,134.0,33.0,0,0,0,0.0
Status,1732152462000,27,6,1,15,1575420030,28.60,270.0,29.0,1,0,0,23.6
Status,1732152462000,27,7,1,24,1575420030,18.20,313.0,20.0,1,0,0,13.200001
Status,1732152462000,27,8,1,2,1575420030,0.00,44.0,15.0,0,0,0,0.0
Status,1732152462000,27,9,1,6,1575420030,24.90,160.0,15.0,1,0,0,19.9
Status,1732152462000,27,10,1,21,1575420030,0.00,31.0,2.0,0,0,0,0.0
Status,1732152462000,27,11,1,7,1575420030,29.60,133.0,1.0,0,0,0,24.6
Status,1732152462000,27,12,1,12,1575420030,0.00,269.0,1.0,0,0,0,0.0
Status,1732152462000,27,13,3,20,1602000000,0.00,106.0,56.0,0,0,0,0.0
Status,1732152462000,27,14,3,9,1602000000,0.00,86.0,31.0,0,0,0,0.0
Status,1732152462000,27,15,3,11,1602000000,0.00,314.0,31.0,0,0,0,0.0
Status,1732152462000,27,16,3,19,1602000000,0.00,30.0,20.0,0,0,0,0.0
Status,1732152462000,27,17,3,8,1602000000,0.00,243.0,19.0,0,0,0,0.0
Status,1732152462000,27,18,6,21,1575420030,0.00,352.0,68.0,0,0,0,0.0
Status,1732152462000,27,19,6,19,1575420030,0.00,239.0,44.0,0,0,0,0.0
Status,1732152462000,27,20,6,27,1575420030,0.00,67.0,32.0,0,0,0,0.0
Status,1732152462000,27,21,6,13,1575420030,0.00,117.0,31.0,0,0,0,0.0
Status,1732152462000,27,22,6,4,1575420030,0.00,308.0,24.0,0,0,0,0.0
Status,1732152462000,27,23,6,15,1575420030,0.00,58.0,23.0,0,0,0,0.0
Status,1732152462000,27,24,6,29,1575420030,0.00,190.0,22.0,0,0,0,0.0
Status,1732152462000,27,25,6,26,1575420030,0.00,166.0,9.0,0,0,0,0.0
Status,1732152462000,27,26,6,6,1575420030,0.00,326.0,7.0,0,0,0,0.0
Fix,GPS,37.4254466667,-122.1582816667,22.3,0.0,5.7,0.0,1732152463000,1.9,97.9,31347091000000,61.5,0,,,
Raw,1732152463002,25550000000,,995249.040754721,-1416187655452000256,0.0,116.07470382148063,1027.7055367404619,0.0,0,15,0.0,16431,350880926059581,396,23.566999435424805,540.7247210575856,0.14999,16,0.0,0.0,1575420030,,,,0,7.949493726270201,1,6.0,23.566999435424805,0.0,0.0,0.0,66.7128,C,31347091000000,
Raw,1732152463002,25550000000,,995249.040754721,-1416187655452000256,0.0,116.07470382148063,1027.7055367404619,0.0,0,24,0.0,16431,350880923557641,1797,13.199999809265137,-315.43099644760093,0.14999,16,0.0,0.0,1575420030,,,,0,0.0,1,6.0,13.199999809265137,0.0,0.0,0.0,66.7128,C,31347091000000,
Raw,1732152463002,25550000000,,995249.040754721,-1416187655452000256,0.0,116.07470382148063,1027.7055367404619,0.0,0,6,0.0,16431,350880921374955,797,19.868000030517578,-350.7008322821553,0.14999,16,0.0,0.0,1575420030,,,,0,2.009195367727299,1,6.0,19.868000030517578,0.0,0.0,0.0,66.7128,C,31347091000000,
Raw,1732152463002,25550000000,,995249.040754721,-1416187655452000256,0.0,116.07470382148063,1027.7055367404619,0.0,0,7,0.0,16431,350880917359276,316,24.5939998626709,960.8791666130959,0.14999,16,0.0,0.0,1575420030,,,,0,9.474657869818156,1,6.0,24.5939998626709,0.0,0.0,0.0,66.7128,C,31347091000000,
Raw,1732152463002,25550000000,,995249.040754721,-1416187655452000256,0.0,116.07470382148063,1027.7055367404619,0.0,0,13,0.0,16431,350880929688447,797,21.285999298095703,730.8793438162323,0.14999,16,0.0,0.0,1575420030,,,,0,4.414212477960249,1,6.0,21.285999298095703,0.0,0.0,0.0,66.7128,C,31347091000000,
Fix,FLP,37.4254515000,-122.1582752000,5.400000095367432,0.272996,8.592,180.0,1732152463243,1.9,97.9,31347091000000,16.363777,0,,,
Status,1732152463000,27,0,1,17,1575420030,0.00,66.0,76.0,0,0,0,0.0
Status,1732152463000,27,1,1,22,1575420030,0.00,22.0,65.0,0,0,0,0.0
Status,1732152463000,27,2,1,19,1575420030,0.00,202.0,65.0,0,0,0,0.0
Status,1732152463000,27,3,1,14,1575420030,0.00,57.0,50.0,0,0,0,0.0
Status,1732152463000,27,4,1,13,1575420030,26.30,230.0,44.0,1,0,0,21.3
Status,1732152463000,27,5,1,30,1575420030,0.00,134.0,32.0,0,0,0,0.0
Status,1732152463000,27,6,1,15,1575420030,28.60,270.0,29.0,1,0,0,23.6
Status,1732152463000,27,7,1,24,1575420030,18.20,313.0,20.0,1,0,0,13.200001
Status,1732152463000,27,8,1,2,1575420030,0.00,44.0,15.0,0,0,0,0.0
Status,1732152463000,27,9,1,6,1575420030,24.90,160.0,15.0,1,0,0,19.9
Status,1732152463000,27,10,1,21,1575420030,0.00,31.0,2.0,0,0,0,0.0
Status,1732152463000,27,11,1,7,1575420030,0.00,133.0,1.0,0,0,0,0.0
Status,1732152463000,27,12,1,12,1575420030,0.00,269.0,1.0,0,0,0,0.0
Status,1732152463000,27,13,3,20,1602000000,0.00,106.0,56.0,0,0,0,0.0
Status,1732152463000,27,14,3,9,1602000000,0.00,86.0,31.0,0,0,0,0.0
Status,1732152463000,27,15,3,11,1602000000,0.00,314.0,31.0,0,0,0,0.0
Status,1732152463000,27,16,3,19,1602000000,0.00,30.0,20.0,0,0,0,0.0
Status,1732152463000,27,17,3,8,1602000000,0.00,243.0,19.0,0,0,0,0.0
Status,1732152463000,27,18,6,21,1575420030,0.00,352.0,68.0,0,0,0,0.0
Status,1732152463000,27,19,6,19,1575420030,0.00,239.0,44.0,0,0,0,0.0
Status,1732152463000,27,20,6,27,1575420030,0.00,67.0,32.0,0,0,0,0.0
Status,1732152463000,27,21,6,13,1575420030,0.00,117.0,31.0,0,0,0,0.0
Status,1732152463000,27,22,6,4,1575420030,0.00,308.0,24.0,0,0,0,0.0
Status,1732152463000,27,23,6,15,1575420030,0.00,58.0,23.0,0,0,0,0.0
Status,1732152463000,27,24,6,29,1575420030,0.00,190.0,22.0,0,0,0,0.0
Status,1732152463000,27,25,6,26,1575420030,0.00,166.0,9.0,0,0,0,0.0
Status,1732152463000,27,26,6,6,1575420030,0.00,326.0,7.0,0,0,0,0.0
Fix,GPS,37.4254416667,-122.1582933333,22.3,0.0,5.7,0.0,1732152464000,2.0,100.9,31348091000000,61.8,0,,,
Fix,FLP,37.4254461000,-122.1582824000,5.400000095367432,0.27163142,8.621,180.0,1732152464243,2.0,100.9,31348091000000,16.921787,0,,,
Raw,1732152464002,26550000000,,995227.1506109737,-1416187655452000256,0.0,117.30696601734167,1028.653987962167,0.0,0,15,0.0,16431,350881926057779,487,23.566999435424805,540.3914748381073,0.14999,16,0.0,0.0,1575420030,,,,0,7.949493726270201,1,6.0,23.566999435424805,0.0,0.0,0.0,66.7128,C,31348091000000,
Raw,1732152464002,26550000000,,995227.1506109737,-1416187655452000256,0.0,117.30696601734167,1028.653987962167,0.0,0,24,0.0,16431,350881923558692,797,13.199999809265137,-314.93858369418547,0.14999,16,0.0,0.0,1575420030,,,,0,0.0,1,6.0,13.199999809265137,0.0,0.0,0.0,66.7128,C,31348091000000,
Raw,1732152464002,26550000000,,995227.1506109737,-1416187655452000256,0.0,117.30696601734167,1028.653987962167,0.0,0,6,0.0,16431,350881921376123,487,19.868000030517578,-349.7224180367614,0.14999,16,0.0,0.0,1575420030,,,,0,2.009195367727299,1,6.0,19.868000030517578,0.0,0.0,0.0,66.7128,C,31348091000000,
Raw,1732152464002,26550000000,,995227.1506109737,-1416187655452000256,0.0,117.30696601734167,1028.653987962167,0.0,0,13,0.0,16431,350881929686008,797,21.285999298095703,731.2572830321051,0.14999,16,0.0,0.0,1575420030,,,,0,4.414212477960249,1,6.0,21.285999298095703,0.0,0.0,0.0,66.7128,C,31348091000000,
Status,1732152464000,27,0,1,17,1575420030,0.00,66.0,76.0,0,0,0,0.0
Status,1732152464000,27,1,1,22,1575420030,0.00,22.0,65.0,0,0,0,0.0
Status,1732152464000,27,2,1,19,1575420030,0.00,202.0,65.0,0,0,0,0.0
Status,1732152464000,27,3,1,14,1575420030,0.00,57.0,50.0,0,0,0,0.0
Status,1732152464000,27,4,1,13,1575420030,27.60,230.0,44.0,1,0,0,22.6
Status,1732152464000,27,5,1,30,1575420030,0.00,134.0,32.0,0,0,0,0.0
Status,1732152464000,27,6,1,15,1575420030,28.50,270.0,29.0,1,0,0,23.5
Status,1732152464000,27,7,1,24,1575420030,19.30,313.0,20.0,1,0,0,14.299999
Status,1732152464000,27,8,1,2,1575420030,0.00,44.0,15.0,0,0,0,0.0
Status,1732152464000,27,9,1,6,1575420030,24.80,160.0,15.0,1,0,0,19.8
Status,1732152464000,27,10,1,21,1575420030,0.00,31.0,2.0,0,0,0,0.0
Status,1732152464000,27,11,1,7,1575420030,0.00,133.0,1.0,0,0,0,0.0
Status,1732152464000,27,12,1,12,1575420030,0.00,269.0,1.0,0,0,0,0.0
Status,1732152464000,27,13,3,20,1602000000,0.00,106.0,56.0,0,0,0,0.0
Status,1732152464000,27,14,3,9,1602000000,0.00,86.0,31.0,0,0,0,0.0
Status,1732152464000,27,15,3,11,1602000000,0.00,314.0,31.0,0,0,0,0.0
Status,1732152464000,27,16,3,19,1602000000,0.00,30.0,20.0,0,0,0,0.0
Status,1732152464000,27,17,3,8,1602000000,0.00,243.0,19.0,0,0,0,0.0
Status,1732152464000,27,18,6,21,1575420030,0.00,352.0,68.0,0,0,0,0.0
Status,1732152464000,27,19,6,19,1575420030,0.00,239.0,44.0,0,0,0,0.0
Status,1732152464000,27,20,6,27,1575420030,0.00,67.0,32.0,0,0,0,0.0
Status,1732152464000,27,21,6,13,1575420030,0.00,117.0,31.0,0,0,0,0.0
Status,1732152464000,27,22,6,4,1575420030,0.00,308.0,24.0,0,0,0,0.0
Status,1732152464000,27,23,6,15,1575420030,0.00,58.0,23.0,0,0,0,0.0
Status,1732152464000,27,24,6,29,1575420030,0.00,190.0,22.0,0,0,0,0.0
Status,1732152464000,27,25,6,26,1575420030,0.00,166.0,9.0,0,0,0,0.0
Status,1732152464000,27,26,6,6,1575420030,0.00,326.0,7.0,0,0,0,0.0
Fix,GPS,37.4254483333,-122.1582950000,22.3,0.0,5.7,0.0,1732152465000,2.0,109.0,31349091000000,61.0,0,,,
Fix,FLP,37.4254458000,-122.1582877000,5.400000095367432,0.25678343,8.649,180.0,1732152465243,2.0,109.0,31349091000000,16.815498,0,,,
Raw,1732152465002,27550000000,,995165.7539697012,-1416187655452000256,0.0,117.2995476569176,1033.418752929314,0.0,0,15,0.0,16431,350882926055965,487,23.464000701904297,541.9807243398375,0.14999,16,0.0,0.0,1575420030,,,,0,4.809093641875393,1,6.0,23.464000701904297,0.0,0.0,0.0,66.7128,C,31349091000000,
Raw,1732152465002,27550000000,,995165.7539697012,-1416187655452000256,0.0,117.2995476569176,1033.418752929314,0.0,0,24,0.0,16431,350882923559754,797,14.300000190734863,-314.07394611009113,0.14999,16,0.0,0.0,1575420030,,,,0,0.0,1,6.0,14.300000190734863,0.0,0.0,0.0,66.7128,C,31349091000000,
Raw,1732152465002,27550000000,,995165.7539697012,-1416187655452000256,0.0,117.2995476569176,1033.418752929314,0.0,0,6,0.0,16431,350882921377284,797,19.775999069213867,-348.25516833600017,0.14999,16,0.0,0.0,1575420030,,,,0,0.0,1,6.0,19.775999069213867,0.0,0.0,0.0,66.7128,C,31349091000000,
Raw,1732152465002,27550000000,,995165.7539697012,-1416187655452000256,0.0,117.2995476569176,1033.418752929314,0.0,0,13,0.0,16431,350882929683512,487,22.57200050354004,732.4436451484573,0.14999,16,0.0,0.0,1575420030,,,,0,6.488696220463264,1,6.0,22.57200050354004,0.0,0.0,0.0,66.7128,C,31349091000000,
Status,1732152465000,27,0,1,17,1575420030,0.00,66.0,76.0,0,0,0,0.0
Status,1732152465000,27,1,1,22,1575420030,0.00,22.0,65.0,0,0,0,0.0
Status,1732152465000,27,2,1,19,1575420030,0.00,202.0,65.0,0,0,0,0.0
Status,1732152465000,27,3,1,14,1575420030,0.00,57.0,50.0,0,0,0,0.0
Status,1732152465000,27,4,1,13,1575420030,27.60,230.0,44.0,1,0,0,22.6
Status,1732152465000,27,5,1,30,1575420030,0.00,134.0,32.0,0,0,0,0.0
Status,1732152465000,27,6,1,15,1575420030,24.40,270.0,29.0,1,0,0,19.4
Status,1732152465000,27,7,1,24,1575420030,19.30,313.0,20.0,1,0,0,14.299999
Status,1732152465000,27,8,1,2,1575420030,0.00,44.0,15.0,0,0,0,0.0
Status,1732152465000,27,9,1,6,1575420030,24.70,160.0,15.0,1,0,0,19.7
Status,1732152465000,27,10,1,21,1575420030,0.00,31.0,2.0,0,0,0,0.0
Status,1732152465000,27,11,1,7,1575420030,0.00,133.0,1.0,0,0,0,0.0
Status,1732152465000,27,12,1,12,1575420030,0.00,269.0,1.0,0,0,0,0.0
Status,1732152465000,27,13,3,20,1602000000,0.00,106.0,56.0,0,0,0,0.0
Status,1732152465000,27,14,3,9,1602000000,0.00,86.0,31.0,0,0,0,0.0
Status,1732152465000,27,15,3,11,1602000000,0.00,314.0,31.0,0,0,0,0.0
Status,1732152465000,27,16,3,19,1602000000,0.00,30.0,20.0,0,0,0,0.0
Status,1732152465000,27,17,3,8,1602000000,24.50,243.0,19.0,1,0,0,19.5
Status,1732152465000,27,18,6,21,1575420030,0.00,352.0,68.0,0,0,0,0.0
Status,1732152465000,27,19,6,19,1575420030,0.00,239.0,44.0,0,0,0,0.0
Status,1732152465000,27,20,6,27,1575420030,0.00,67.0,32.0,0,0,0,0.0
Status,1732152465000,27,21,6,13,1575420030,0.00,117.0,31.0,0,0,0,0.0
Status,1732152465000,27,22,6,4,1575420030,0.00,308.0,24.0,0,0,0,0.0
Status,1732152465000,27,23,6,15,1575420030,0.00,58.0,23.0,0,0,0,0.0
Status,1732152465000,27,24,6,29,1575420030,0.00,190.0,22.0,0,0,0,0.0
Status,1732152465000,27,25,6,26,1575420030,0.00,166.0,9.0,0,0,0,0.0
Status,1732152465000,27,26,6,6,1575420030,0.00,326.0,7.0,0,0,0,0.0
Fix,GPS,37.4254550000,-122.1582966667,22.3,0.0,5.7,0.0,1732152466000,1.9,118.3,31350091000000,61.7,0,,,
Fix,FLP,37.4254487000,-122.1582916000,5.400000095367432,0.2330007,5.657,180.0,1732152466243,1.9,118.3,31350091000000,15.101865,0,,,
Raw,1732152466002,28550000000,,995114.3642512847,-1416187655452000256,0.0,118.78445401439055,1037.3453308753037,0.0,0,15,0.0,16431,350883926054150,487,19.39699935913086,543.3314563327426,0.14999,16,0.0,0.0,1575420030,,,,0,1.2291686478936237,1,6.0,19.39699935913086,0.0,0.0,0.0,66.7128,C,31350091000000,
Raw,1732152466002,28550000000,,995114.3642512847,-1416187655452000256,0.0,118.78445401439055,1037.3453308753037,0.0,0,24,0.0,16431,350883923560801,797,14.300000190734863,-313.0348571731262,0.14999,16,0.0,0.0,1575420030,,,,0,0.0,1,6.0,14.300000190734863,0.0,0.0,0.0,66.7128,C,31350091000000,
Raw,1732152466002,28550000000,,995114.3642512847,-1416187655452000256,0.0,118.78445401439055,1037.3453308753037,0.0,0,6,0.0,16431,350883921378445,487,19.687999725341797,-347.5808708831204,0.14999,16,0.0,0.0,1575420030,,,,0,0.0,1,6.0,19.687999725341797,0.0,0.0,0.0,66.7128,C,31350091000000,
Raw,1732152466002,28550000000,,995114.3642512847,-1416187655452000256,0.0,118.78445401439055,1037.3453308753037,0.0,0,8,0.0,17,979422,487,5.0,932.0190927727629,0.14999,16,0.0,0.0,1605374980,,,,0,3.4631993953455535,3,6.0,20.0,0.0,0.0,87.52823418744457,66.7128,C,31350091000000,
Raw,1732152466002,28550000000,,995114.3642512847,-1416187655452000256,0.0,118.78445401439055,1037.3453308753037,0.0,0,13,0.0,16431,350883929681068,797,22.57200050354004,733.7580466598858,0.14999,16,0.0,0.0,1575420030,,,,0,6.488696220463264,1,6.0,22.57200050354004,0.0,0.0,0.0,66.7128,C,31350091000000,
Status,1732152466000,27,0,1,17,1575420030,0.00,66.0,76.0,0,0,0,0.0
Status,1732152466000,27,1,1,22,1575420030,0.00,22.0,65.0,0,0,0,0.0
Status,1732152466000,27,2,1,19,1575420030,0.00,202.0,65.0,0,0,0,0.0
Status,1732152466000,27,3,1,14,1575420030,0.00,57.0,50.0,0,0,0,0.0
Status,1732152466000,27,4,1,13,1575420030,27.60,230.0,44.0,1,0,0,22.6
Status,1732152466000,27,5,1,30,1575420030,0.00,134.0,32.0,0,0,0,0.0
Status,1732152466000,27,6,1,15,1575420030,29.40,270.0,29.0,1,0,0,24.4
Status,1732152466000,27,7,1,24,1575420030,25.90,313.0,20.0,1,0,0,20.9
Status,1732152466000,27,8,1,2,1575420030,0.00,44.0,15.0,0,0,0,0.0
Status,1732152466000,27,9,1,6,1575420030,24.80,160.0,15.0,1,0,0,19.8
Status,1732152466000,27,10,1,21,1575420030,0.00,31.0,2.0,0,0,0,0.0
Status,1732152466000,27,11,1,7,1575420030,0.00,133.0,1.0,0,0,0,0.0
Status,1732152466000,27,12,1,12,1575420030,0.00,269.0,1.0,0,0,0,0.0
Status,1732152466000,27,13,3,20,1602000000,0.00,106.0,56.0,0,0,0,0.0
Status,1732152466000,27,14,3,9,1602000000,0.00,86.0,31.0,0,0,0,0.0
Status,1732152466000,27,15,3,11,1602000000,0.00,314.0,31.0,0,0,0,0.0
Status,1732152466000,27,16,3,19,1602000000,0.00,30.0,20.0,0,0,0,0.0
Status,1732152466000,27,17,3,8,1602000000,21.90,243.0,19.0,1,0,0,16.9
Status,1732152466000,27,18,6,21,1575420030,0.00,352.0,68.0,0,0,0,0.0
Status,1732152466000,27,19,6,19,1575420030,0.00,239.0,44.0,0,0,0,0.0
Status,1732152466000,27,20,6,27,1575420030,0.00,67.0,32.0,0,0,0,0.0
Status,1732152466000,27,21,6,13,1575420030,0.00,117.0,31.0,0,0,0,0.0
Status,1732152466000,27,22,6,4,1575420030,0.00,308.0,24.0,0,0,0,0.0
Status,1732152466000,27,23,6,15,1575420030,0.00,58.0,23.0,0,0,0,0.0
Status,1732152466000,27,24,6,29,1575420030,0.00,190.0,22.0,0,0,0,0.0
Status,1732152466000,27,25,6,26,1575420030,0.00,166.0,9.0,0,0,0,0.0
Status,1732152466000,27,26,6,6,1575420030,0.00,326.0,7.0,0,0,0,0.0
Fix,FLP,37.4254559000,-122.1582917000,5.400000095367432,0.19905587,5.657,180.0,1732152467243,1.9,131.1,31351091000000,16.259687,0,,,
Fix,GPS,37.4254666667,-122.1582916667,22.3,0.0,5.6,0.0,1732152467000,1.9,131.1,31351091000000,57.8,0,,,
Raw,1732152467002,29550000000,,995037.5402706094,-1416187655452000256,0.0,111.15549104594011,1039.575244594147,0.0,0,15,0.0,16431,350884926052347,396,24.358999252319336,543.9422451306626,0.14999,16,0.0,0.0,1575420030,,,,0,9.10597060282935,1,6.0,24.358999252319336,0.0,0.0,0.0,66.7128,C,31351091000000,
Raw,1732152467002,29550000000,,995037.5402706094,-1416187655452000256,0.0,111.15549104594011,1039.575244594147,0.0,0,24,0.0,16431,350884923561859,396,20.86199951171875,-312.7028188724695,0.14999,16,0.0,0.0,1575420030,,,,0,3.742504807842275,1,6.0,20.86199951171875,0.0,0.0,0.0,66.7128,C,31351091000000,
Raw,1732152467002,29550000000,,995037.5402706094,-1416187655452000256,0.0,111.15549104594011,1039.575244594147,0.0,0,6,0.0,16431,350884921379614,487,19.760000228881836,-347.3246991761355,0.14999,16,0.0,0.0,1575420030,,,,0,4.168369001869222,1,6.0,19.760000228881836,0.0,0.0,0.0,66.7128,C,31351091000000,
Raw,1732152467002,29550000000,,995037.5402706094,-1416187655452000256,0.0,111.15549104594011,1039.575244594147,0.0,0,8,0.0,17,976381,487,5.0,931.8668170301222,0.14999,16,0.0,0.0,1605374980,,,,0,0.0,3,6.0,19.0,0.0,0.0,87.52823418744457,66.7128,C,31351091000000,
Raw,1732152467002,29550000000,,995037.5402706094,-1416187655452000256,0.0,111.15549104594011,1039.575244594147,0.0,0,13,0.0,16431,350884929678620,396,22.57200050354004,734.2953847017769,0.14999,16,0.0,0.0,1575420030,,,,0,6.488696220463264,1,6.0,22.57200050354004,0.0,0.0,0.0,66.7128,C,31351091000000,
Fix,FLP,37.4254597000,-122.1582917000,5.400000095367432,0.17797685,5.657,180.0,1732152467897,1.9,131.1,31351745000000,16.281078,0,,,
Fix,NLP,37.4256981000,-122.1580927000,5.400000095367432,,20.428,,1732152467897,,,31351745000000,22.793139,0,,,
Status,1732152467000,29,0,1,17,1575420030,0.00,66.0,76.0,0,0,0,0.0
Status,1732152467000,29,1,1,22,1575420030,0.00,22.0,65.0,0,0,0,0.0
Status,1732152467000,29,2,1,19,1575420030,0.00,202.0,65.0,0,0,0,0.0
Status,1732152467000,29,3,1,14,1575420030,0.00,57.0,50.0,0,0,0,0.0
Status,1732152467000,29,4,2,135,1575420030,0.00,197.0,45.0,0,0,0,0.0
Status,1732152467000,29,5,1,13,1575420030,27.60,230.0,44.0,1,0,0,22.6
Status,1732152467000,29,6,1,30,1575420030,0.00,134.0,32.0,0,0,0,0.0
Status,1732152467000,29,7,1,15,1575420030,29.30,270.0,29.0,1,0,0,24.3
Status,1732152467000,29,8,1,24,1575420030,25.80,313.0,20.0,1,0,0,20.8
Status,1732152467000,29,9,1,2,1575420030,0.00,44.0,15.0,0,0,0,0.0
Status,1732152467000,29,10,1,6,1575420030,24.80,160.0,15.0,1,0,0,19.8
Status,1732152467000,29,11,1,21,1575420030,0.00,31.0,2.0,0,0,0,0.0
Status,1732152467000,29,12,1,7,1575420030,0.00,133.0,1.0,0,0,0,0.0
Status,1732152467000,29,13,1,12,1575420030,0.00,269.0,1.0,0,0,0,0.0
Status,1732152467000,29,14,3,20,1602000000,0.00,106.0,56.0,0,0,0,0.0
Status,1732152467000,29,15,3,9,1602000000,0.00,86.0,31.0,0,0,0,0.0
Status,1732152467000,29,16,3,11,1602000000,0.00,314.0,31.0,0,0,0,0.0
Status,1732152467000,29,17,3,19,1602000000,0.00,30.0,20.0,0,0,0,0.0
Status,1732152467000,29,18,3,8,1602000000,24.10,243.0,19.0,1,0,0,19.1
Status,1732152467000,29,19,3,17,1602000000,31.80,0.0,0.0,0,0,0,26.8
Status,1732152467000,29,20,6,21,1575420030,0.00,352.0,68.0,0,0,0,0.0
Status,1732152467000,29,21,6,19,1575420030,0.00,239.0,44.0,0,0,0,0.0
Status,1732152467000,29,22,6,27,1575420030,0.00,67.0,32.0,0,0,0,0.0
Status,1732152467000,29,23,6,13,1575420030,0.00,117.0,31.0,0,0,0,0.0
Status,1732152467000,29,24,6,4,1575420030,0.00,308.0,24.0,0,0,0,0.0
Status,1732152467000,29,25,6,15,1575420030,0.00,58.0,23.0,0,0,0,0.0
Status,1732152467000,29,26,6,29,1575420030,0.00,190.0,22.0,0,0,0,0.0
Status,1732152467000,29,27,6,26,1575420030,0.00,166.0,9.0,0,0,0,0.0
Status,1732152467000,29,28,6,6,1575420030,0.00,326.0,7.0,0,0,0,0.0
Fix,GPS,37.4254816667,-122.1582850000,22.3,0.0,5.6,0.0,1732152468000,1.8,157.5,31352091000000,57.2,0,,,
Fix,FLP,37.4254671000,-122.1582894000,5.400000095367432,0.14946266,5.657,180.0,1732152468243,1.8,157.5,31352091000000,16.254065,0,,,
Raw,1732152468002,30550000000,,994960.0908572556,-1416187655452000256,0.0,109.68939144096589,1042.3144402226676,0.0,0,15,0.0,16431,350885926050520,396,24.333999633789062,544.1829461850494,0.14999,16,0.0,0.0,1575420030,,,,0,8.420530859498097,1,6.0,24.333999633789062,0.0,0.0,0.0,66.7128,C,31352091000000,
Raw,1732152468002,30550000000,,994960.0908572556,-1416187655452000256,0.0,109.68939144096589,1042.3144402226676,0.0,0,24,0.0,16431,350885923562947,487,20.8439998626709,-311.74117611532756,0.14999,16,0.0,0.0,1575420030,,,,0,3.1088778477084187,1,6.0,20.8439998626709,0.0,0.0,0.0,66.7128,C,31352091000000,
Raw,1732152468002,30550000000,,994960.0908572556,-1416187655452000256,0.0,109.68939144096589,1042.3144402226676,0.0,0,6,0.0,16431,350885921380771,797,19.82900047302246,-346.7062447395408,0.14999,16,0.0,0.0,1575420030,,,,0,4.168369001869222,1,6.0,19.82900047302246,0.0,0.0,0.0,66.7128,C,31352091000000,
Raw,1732152468002,30550000000,,994960.0908572556,-1416187655452000256,0.0,109.68939144096589,1042.3144402226676,0.0,0,8,0.0,17,973314,487,5.0,934.5795136430327,0.14999,16,0.0,0.0,1605374980,,,,0,2.732862718830304,3,6.0,20.0,0.0,0.0,87.52823418744457,66.7128,C,31352091000000,
Raw,1732152468002,30550000000,,994960.0908572556,-1416187655452000256,0.0,109.68939144096589,1042.3144402226676,0.0,0,13,0.0,16431,350885929676236,396,22.607999801635742,735.4296669335573,0.14999,16,0.0,0.0,1575420030,,,,0,7.5646128681448355,1,6.0,22.607999801635742,0.0,0.0,0.0,66.7128,C,31352091000000,
Status,1732152468000,29,0,1,17,1575420030,0.00,66.0,76.0,0,0,0,0.0
Status,1732152468000,29,1,1,22,1575420030,0.00,22.0,65.0,0,0,0,0.0
Status,1732152468000,29,2,1,19,1575420030,0.00,202.0,65.0,0,0,0,0.0
Status,1732152468000,29,3,1,14,1575420030,0.00,57.0,50.0,0,0,0,0.0
Status,1732152468000,29,4,2,135,1575420030,0.00,197.0,45.0,0,0,0,0.0
Status,1732152468000,29,5,1,13,1575420030,27.60,230.0,44.0,1,0,0,22.6
Status,1732152468000,29,6,1,30,1575420030,0.00,134.0,32.0,0,0,0,0.0
Status,1732152468000,29,7,1,15,1575420030,34.00,270.0,29.0,1,0,0,29.0
Status,1732152468000,29,8,1,24,1575420030,25.80,313.0,20.0,1,0,0,20.8
Status,1732152468000,29,9,1,2,1575420030,0.00,44.0,15.0,0,0,0,0.0
Status,1732152468000,29,10,1,6,1575420030,24.90,160.0,15.0,1,0,0,19.9
Status,1732152468000,29,11,1,21,1575420030,0.00,31.0,2.0,0,0,0,0.0
Status,1732152468000,29,12,1,7,1575420030,0.00,133.0,1.0,0,0,0,0.0
Status,1732152468000,29,13,1,12,1575420030,0.00,269.0,1.0,0,0,0,0.0
Status,1732152468000,29,14,3,20,1602000000,0.00,106.0,56.0,0,0,0,0.0
Status,1732152468000,29,15,3,9,1602000000,0.00,86.0,31.0,0,0,0,0.0
Status,1732152468000,29,16,3,11,1602000000,0.00,314.0,31.0,0,0,0,0.0
Status,1732152468000,29,17,3,19,1602000000,0.00,30.0,20.0,0,0,0,0.0
Status,1732152468000,29,18,3,8,1602000000,22.20,243.0,19.0,1,0,0,17.2
Status,1732152468000,29,19,3,17,1602000000,27.80,0.0,0.0,0,0,0,22.8
Status,1732152468000,29,20,6,21,1575420030,0.00,352.0,68.0,0,0,0,0.0
Status,1732152468000,29,21,6,19,1575420030,0.00,239.0,44.0,0,0,0,0.0
Status,1732152468000,29,22,6,27,1575420030,0.00,67.0,32.0,0,0,0,0.0
Status,1732152468000,29,23,6,13,1575420030,0.00,117.0,31.0,0,0,0,0.0
Status,1732152468000,29,24,6,4,1575420030,0.00,308.0,24.0,0,0,0,0.0
Status,1732152468000,29,25,6,15,1575420030,0.00,58.0,23.0,0,0,0,0.0
Status,1732152468000,29,26,6,29,1575420030,0.00,190.0,22.0,0,0,0,0.0
Status,1732152468000,29,27,6,26,1575420030,0.00,166.0,9.0,0,0,0,0.0
Status,1732152468000,29,28,6,6,1575420030,0.00,326.0,7.0,0,0,0,0.0
Fix,GPS,37.4254933333,-122.1582750000,22.3,0.0,5.5,0.0,1732152469000,1.8,179.9,31353091000000,57.2,0,,,
Fix,FLP,37.4254776000,-122.1582834000,5.400000095367432,0.11158767,5.628,180.0,1732152469243,1.8,179.9,31353091000000,16.076216,0,,,
Raw,1732152469002,31550000000,,994905.9909305657,-1416187655452000256,0.0,109.13363790772178,1045.3999608754025,0.0,0,15,0.0,16431,350886926048708,235,29.041000366210938,544.728553825026,0.14999,16,0.0,0.0,1575420030,,,,0,15.370278797557749,1,6.0,29.041000366210938,0.0,0.0,0.0,66.7128,C,31353091000000,
Raw,1732152469002,31550000000,,994905.9909305657,-1416187655452000256,0.0,109.13363790772178,1045.3999608754025,0.0,0,24,0.0,16431,350886923563986,487,20.82699966430664,-310.5460798167277,0.14999,16,0.0,0.0,1575420030,,,,0,3.1088778477084187,1,6.0,20.82699966430664,0.0,0.0,0.0,66.7128,C,31353091000000,
Raw,1732152469002,31550000000,,994905.9909305657,-1416187655452000256,0.0,109.13363790772178,1045.3999608754025,0.0,0,6,0.0,16431,350886921381929,487,19.900999069213867,-345.9058126866494,0.14999,16,0.0,0.0,1575420030,,,,0,4.414212477960249,1,6.0,19.900999069213867,0.0,0.0,0.0,66.7128,C,31353091000000,
Raw,1732152469002,31550000000,,994905.9909305657,-1416187655452000256,0.0,109.13363790772178,1045.3999608754025,0.0,0,8,0.0,17,970201,797,5.0,935.9768943352294,0.14999,16,0.0,0.0,1605374980,,,,0,0.0,3,6.0,16.0,0.0,0.0,87.52823418744457,66.7128,C,31353091000000,
Raw,1732152469002,31550000000,,994905.9909305657,-1416187655452000256,0.0,109.13363790772178,1045.3999608754025,0.0,0,13,0.0,16431,350886929673782,487,22.642000198364258,736.2671263441684,0.14999,16,0.0,0.0,1575420030,,,,0,7.5646128681448355,1,6.0,22.642000198364258,0.0,0.0,0.0,66.7128,C,31353091000000,
Status,1732152469000,29,0,1,17,1575420030,0.00,66.0,76.0,0,0,0,0.0
Status,1732152469000,29,1,1,22,1575420030,0.00,22.0,65.0,0,0,0,0.0
Status,1732152469000,29,2,1,19,1575420030,0.00,202.0,65.0,0,0,0,0.0
Status,1732152469000,29,3,1,14,1575420030,0.00,57.0,50.0,0,0,0,0.0
Status,1732152469000,29,4,2,135,1575420030,0.00,197.0,45.0,0,0,0,0.0
Status,1732152469000,29,5,1,13,1575420030,27.70,230.0,44.0,1,0,0,22.7
Status,1732152469000,29,6,1,30,1575420030,0.00,134.0,32.0,0,0,0,0.0
Status,1732152469000,29,7,1,15,1575420030,31.00,270.0,29.0,1,0,0,26.0
Status,1732152469000,29,8,1,24,1575420030,25.80,313.0,20.0,1,0,0,20.8
Status,1732152469000,29,9,1,2,1575420030,0.00,44.0,15.0,0,0,0,0.0
Status,1732152469000,29,10,1,6,1575420030,24.90,160.0,15.0,1,0,0,19.9
Status,1732152469000,29,11,1,21,1575420030,0.00,31.0,2.0,0,0,0,0.0
Status,1732152469000,29,12,1,7,1575420030,0.00,133.0,1.0,0,0,0,0.0
Status,1732152469000,29,13,1,12,1575420030,0.00,269.0,1.0,0,0,0,0.0
Status,1732152469000,29,14,3,20,1602000000,0.00,106.0,56.0,0,0,0,0.0
Status,1732152469000,29,15,3,9,1602000000,0.00,86.0,31.0,0,0,0,0.0
Status,1732152469000,29,16,3,11,1602000000,0.00,314.0,31.0,0,0,0,0.0
Status,1732152469000,29,17,3,19,1602000000,0.00,30.0,20.0,0,0,0,0.0
Status,1732152469000,29,18,3,8,1602000000,0.00,243.0,19.0,0,0,0,0.0
Status,1732152469000,29,19,3,17,1602000000,27.10,0.0,0.0,0,0,0,22.1
Status,1732152469000,29,20,6,21,1575420030,0.00,352.0,68.0,0,0,0,0.0
Status,1732152469000,29,21,6,19,1575420030,0.00,239.0,44.0,0,0,0,0.0
Status,1732152469000,29,22,6,27,1575420030,0.00,67.0,32.0,0,0,0,0.0
Status,1732152469000,29,23,6,13,1575420030,0.00,117.0,31.0,0,0,0,0.0
Status,1732152469000,29,24,6,4,1575420030,0.00,308.0,24.0,0,0,0,0.0
Status,1732152469000,29,25,6,15,1575420030,0.00,58.0,23.0,0,0,0,0.0
Status,1732152469000,29,26,6,29,1575420030,0.00,190.0,22.0,0,0,0,0.0
Status,1732152469000,29,27,6,26,1575420030,0.00,166.0,9.0,0,0,0,0.0
Status,1732152469000,29,28,6,6,1575420030,0.00,326.0,7.0,0,0,0,0.0
Fix,GPS,37.4255016667,-122.1582866667,22.3,0.0,5.5,0.0,1732152470000,1.8,179.9,31354091000000,57.3,0,,,
Fix,FLP,37.4254880000,-122.1582848000,5.400000095367432,0.07670562,5.6,,1732152470243,1.8,,31354091000000,15.412306,0,,,
Raw,1732152470002,32550000000,,994860.542822595,-1416187655452000256,0.0,108.81193809941796,1047.012617681996,0.0,0,15,0.0,16431,350887926046889,316,26.006000518798828,545.125308699464,0.14999,16,0.0,0.0,1575420030,,,,0,11.444385894678387,1,6.0,26.006000518798828,0.0,0.0,0.0,66.7128,C,31354091000000,
Raw,1732152470002,32550000000,,994860.542822595,-1416187655452000256,0.0,108.81193809941796,1047.012617681996,0.0,0,24,0.0,16431,350887923565028,487,20.844999313354492,-310.37014179453837,0.14999,16,0.0,0.0,1575420030,,,,0,4.251092385601996,1,6.0,20.844999313354492,0.0,0.0,0.0,66.7128,C,31354091000000,
Raw,1732152470002,32550000000,,994860.542822595,-1416187655452000256,0.0,108.81193809941796,1047.012617681996,0.0,0,6,0.0,16431,350887921383027,487,19.90999984741211,-345.3108197502411,0.14999,16,0.0,0.0,1575420030,,,,0,2.4253654874912196,1,6.0,19.90999984741211,0.0,0.0,0.0,66.7128,C,31354091000000,
Raw,1732152470002,32550000000,,994860.542822595,-1416187655452000256,0.0,108.81193809941796,1047.012617681996,0.0,0,13,0.0,16431,350887929671364,487,22.69300079345703,736.6742879038376,0.14999,16,0.0,0.0,1575420030,,,,0,8.109361238647628,1,6.0,22.69300079345703,0.0,0.0,0.0,66.7128,C,31354091000000,
Status,1732152470000,29,0,1,17,1575420030,0.00,66.0,76.0,0,0,0,0.0
Status,1732152470000,29,1,1,22,1575420030,0.00,22.0,65.0,0,0,0,0.0
Status,1732152470000,29,2,1,19,1575420030,0.00,202.0,65.0,0,0,0,0.0
Status,1732152470000,29,3,1,14,1575420030,0.00,57.0,50.0,0,0,0,0.0
Status,1732152470000,29,4,2,135,1575420030,0.00,197.0,45.0,0,0,0,0.0
Status,1732152470000,29,5,1,13,1575420030,27.70,230.0,44.0,1,0,0,22.7
Status,1732152470000,29,6,1,30,1575420030,0.00,134.0,32.0,0,0,0,0.0
Status,1732152470000,29,7,1,15,1575420030,28.80,270.0,29.0,1,0,0,23.8
Status,1732152470000,29,8,1,24,1575420030,26.00,313.0,20.0,1,0,0,21.0
Status,1732152470000,29,9,1,2,1575420030,0.00,44.0,15.0,0,0,0,0.0
Status,1732152470000,29,10,1,6,1575420030,27.90,160.0,15.0,1,0,0,22.9
Status,1732152470000,29,11,1,21,1575420030,0.00,31.0,2.0,0,0,0,0.0
Status,1732152470000,29,12,1,7,1575420030,0.00,133.0,1.0,0,0,0,0.0
Status,1732152470000,29,13,1,12,1575420030,0.00,269.0,1.0,0,0,0,0.0
Status,1732152470000,29,14,3,20,1602000000,0.00,106.0,56.0,0,0,0,0.0
Status,1732152470000,29,15,3,9,1602000000,0.00,86.0,31.0,0,0,0,0.0
Status,1732152470000,29,16,3,11,1602000000,0.00,314.0,31.0,0,0,0,0.0
Status,1732152470000,29,17,3,19,1602000000,0.00,30.0,20.0,0,0,0,0.0
Status,1732152470000,29,18,3,8,1602000000,22.90,243.0,19.0,1,0,0,17.9
Status,1732152470000,29,19,3,17,1602000000,29.40,0.0,0.0,0,0,0,24.4
Status,1732152470000,29,20,6,21,1575420030,0.00,352.0,68.0,0,0,0,0.0
Status,1732152470000,29,21,6,19,1575420030,0.00,239.0,44.0,0,0,0,0.0
Status,1732152470000,29,22,6,27,1575420030,0.00,67.0,32.0,0,0,0,0.0
Status,1732152470000,29,23,6,13,1575420030,0.00,117.0,31.0,0,0,0,0.0
Status,1732152470000,29,24,6,4,1575420030,0.00,308.0,24.0,0,0,0,0.0
Status,1732152470000,29,25,6,15,1575420030,0.00,58.0,23.0,0,0,0,0.0
Status,1732152470000,29,26,6,29,1575420030,0.00,190.0,22.0,0,0,0,0.0
Status,1732152470000,29,27,6,26,1575420030,0.00,166.0,9.0,0,0,0,0.0
Status,1732152470000,29,28,6,6,1575420030,0.00,326.0,7.0,0,0,0,0.0
Fix,GPS,37.4255066667,-122.1582883333,22.3,0.0,5.5,0.0,1732152471000,1.7,179.9,31355091000000,61.6,0,,,
Raw,1732152471002,33550000000,,994823.2253394447,-1416187655452000256,0.0,115.89217143677537,1048.2068302496307,0.0,0,15,0.0,16431,350888926045067,396,23.798999786376953,546.1572894987487,0.14999,16,0.0,0.0,1575420030,,,,0,8.318041297074915,1,6.0,23.798999786376953,0.0,0.0,0.0,66.7128,C,31355091000000,
Raw,1732152471002,33550000000,,994823.2253394447,-1416187655452000256,0.0,115.89217143677537,1048.2068302496307,0.0,0,24,0.0,16431,350888923566053,487,20.959999084472656,-310.1225184361362,0.14999,16,0.0,0.0,1575420030,,,,0,7.33677319152501,1,6.0,20.959999084472656,0.0,0.0,0.0,66.7128,C,31355091000000,
Raw,1732152471002,33550000000,,994823.2253394447,-1416187655452000256,0.0,115.89217143677537,1048.2068302496307,0.0,0,6,0.0,16431,350888921384227,487,22.94300079345703,-345.00228940818687,0.14999,16,0.0,0.0,1575420030,,,,0,7.043303059366289,1,6.0,22.94300079345703,0.0,0.0,0.0,66.7128,C,31355091000000,
Raw,1732152471002,33550000000,,994823.2253394447,-1416187655452000256,0.0,115.89217143677537,1048.2068302496307,0.0,0,8,0.0,17,963970,316,5.0,933.5044651366053,0.14999,16,0.0,0.0,1605374980,,,,0,0.7007430172095139,3,6.0,24.0,0.0,0.0,87.52823418744457,66.7128,C,31355091000000,
Raw,1732152471002,33550000000,,994823.2253394447,-1416187655452000256,0.0,115.89217143677537,1048.2068302496307,0.0,0,13,0.0,16431,350888929668905,797,22.740999221801758,737.2282116003158,0.14999,16,0.0,0.0,1575420030,,,,0,8.109361238647628,1,6.0,22.740999221801758,0.0,0.0,0.0,66.7128,C,31355091000000,
Fix,FLP,37.4254962000,-122.1582864000,7.082674690096746,0.049477275,5.571,,1732152471244,1.7,,31355091000000,13.920622,0,,,
Status,1732152471000,29,0,1,17,1575420030,0.00,66.0,76.0,0,0,0,0.0
Status,1732152471000,29,1,1,22,1575420030,0.00,22.0,65.0,0,0,0,0.0
Status,1732152471000,29,2,1,19,1575420030,0.00,202.0,65.0,0,0,0,0.0
Status,1732152471000,29,3,1,14,1575420030,0.00,57.0,50.0,0,0,0,0.0
Status,1732152471000,29,4,2,135,1575420030,0.00,197.0,45.0,0,0,0,0.0
Status,1732152471000,29,5,1,13,1575420030,24.10,230.0,44.0,1,0,0,19.1
Status,1732152471000,29,6,1,30,1575420030,0.00,134.0,32.0,0,0,0,0.0
Status,1732152471000,29,7,1,15,1575420030,28.80,270.0,29.0,1,0,0,23.8
Status,1732152471000,29,8,1,24,1575420030,26.10,313.0,20.0,1,0,0,21.1
Status,1732152471000,29,9,1,2,1575420030,0.00,44.0,15.0,0,0,0,0.0
Status,1732152471000,29,10,1,6,1575420030,27.90,160.0,15.0,1,0,0,22.9
Status,1732152471000,29,11,1,21,1575420030,0.00,31.0,2.0,0,0,0,0.0
Status,1732152471000,29,12,1,7,1575420030,0.00,133.0,1.0,0,0,0,0.0
Status,1732152471000,29,13,1,12,1575420030,0.00,269.0,1.0,0,0,0,0.0
Status,1732152471000,29,14,3,20,1602000000,0.00,106.0,56.0,0,0,0,0.0
Status,1732152471000,29,15,3,9,1602000000,0.00,86.0,31.0,0,0,0,0.0
Status,1732152471000,29,16,3,11,1602000000,0.00,314.0,31.0,0,0,0,0.0
Status,1732152471000,29,17,3,19,1602000000,0.00,30.0,20.0,0,0,0,0.0
Status,1732152471000,29,18,3,8,1602000000,28.80,243.0,19.0,1,0,0,23.8
