# 
# Header Description:
# 
# Version: v3.1.0.3 Platform: 13 Manufacturer: samsung Model: SM-S135DL GNSS Hardware Model Name: MediaTek,MT6631,MTK_MNLD_default,MNL_VER_default
# 
# Raw,utcTimeMillis,TimeNanos,LeapSecond,TimeUncertaintyNanos,FullBiasNanos,BiasNanos,BiasUncertaintyNanos,DriftNanosPerSecond,DriftUncertaintyNanosPerSecond,HardwareClockDiscontinuityCount,Svid,TimeOffsetNanos,State,ReceivedSvTimeNanos,ReceivedSvTimeUncertaintyNanos,Cn0DbHz,PseudorangeRateMetersPerSecond,PseudorangeRateUncertaintyMetersPerSecond,AccumulatedDeltaRangeState,AccumulatedDeltaRangeMeters,AccumulatedDeltaRangeUncertaintyMeters,CarrierFrequencyHz,CarrierCycles,CarrierPhase,CarrierPhaseUncertainty,MultipathIndicator,SnrInDb,ConstellationType,AgcDb,BasebandCn0DbHz,FullInterSignalBiasNanos,FullInterSignalBiasUncertaintyNanos,SatelliteInterSignalBiasNanos,SatelliteInterSignalBiasUncertaintyNanos,CodeType,ChipsetElapsedRealtimeNanos,IsFullTracking
# 
# UncalAccel,utcTimeMillis,elapsedRealtimeNanos,UncalAccelXMps2,UncalAccelYMps2,UncalAccelZMps2,BiasXMps2,BiasYMps2,BiasZMps2
# 
# Accel,utcTimeMillis,elapsedRealtimeNanos,AccelXMps2,AccelYMps2,AccelZMps2
# 
# UncalGyro,utcTimeMillis,elapsedRealtimeNanos,UncalGyroXRadPerSec,UncalGyroYRadPerSec,UncalGyroZRadPerSec,DriftXRadPerSec,DriftYRadPerSec,DriftZRadPerSec
# 
# Gyro,utcTimeMillis,elapsedRealtimeNanos,GyroXRadPerSec,GyroYRadPerSec,GyroZRadPerSec
# 
# UncalMag,utcTimeMillis,elapsedRealtimeNanos,UncalMagXMicroT,UncalMagYMicroT,UncalMagZMicroT,BiasXMicroT,BiasYMicroT,BiasZMicroT
# 
# Mag,utcTimeMillis,elapsedRealtimeNanos,MagXMicroT,MagYMicroT,MagZMicroT
# 
# Pressure,utcTimeMillis,elapsedRealtimeNanos,PressureHpa
# 
# OrientationDeg,utcTimeMillis,elapsedRealtimeNanos,yawDeg,rollDeg,pitchDeg
# 
# Fix,Provider,LatitudeDegrees,LongitudeDegrees,AltitudeMeters,SpeedMps,AccuracyMeters,BearingDegrees,UnixTimeMillis,SpeedAccuracyMps,BearingAccuracyDegrees,elapsedRealtimeNanos,VerticalAccuracyMeters,MockLocation,NumberOfUsedSignals,VerticalSpeedAccuracyMps,SolutionType
# 
# Nav,Svid,Type,Status,MessageId,Sub-messageId,Data(Bytes)
# 
# Status,UnixTimeMillis,SignalCount,SignalIndex,ConstellationType,Svid,CarrierFrequencyHz,Cn0DbHz,AzimuthDegrees,ElevationDegrees,UsedInFix,HasAlmanacData,HasEphemerisData,BasebandCn0DbHz
# 
# Agc,utcTimeMillis,TimeNanos,LeapSecond,TimeUncertaintyNanos,FullBiasNanos,BiasNanos,BiasUncertaintyNanos,DriftNanosPerSecond,DriftUncertaintyNanosPerSecond,HardwareClockDiscontinuityCount,AgcDb,CarrierFrequencyHz,ConstellationType
# 
Fix,FLP,37.4255560000,-122.1581650000,5.400000095367432,0.072195575,6.0,,1732151903242,2.0,,30787090000000,14.059875,0,,,
Fix,FLP,37.4255627000,-122.1581610000,5.400000095367432,0.0867246,6.0,,1732151904041,2.0,,30787888000000,15.3689,0,,,
Fix,NLP,37.4256750000,-122.1580777000,5.400000095367432,,98.4,,1732151904040,,,30787888000000,47.075466,0,,,
Status,,27,0,1,17,1575420030,0.00,83.0,79.0,0,0,0,0.0
Status,,27,1,1,22,1575420030,0.00,13.0,66.0,0,0,0,0.0
Status,,27,2,1,19,1575420030,0.00,200.0,61.0,0,0,0,0.0
Status,,27,3,1,14,1575420030,0.00,52.0,53.0,0,0,0,0.0
Status,,27,4,1,13,1575420030,29.50,234.0,48.0,1,0,0,24.5
Status,,27,5,2,133,1575420030,0.00,191.0,45.0,0,0,0,0.0
Status,,27,6,1,30,1575420030,24.80,131.0,36.0,1,0,0,19.8
Status,,27,7,1,15,1575420030,21.10,275.0,30.0,1,0,0,16.1
Status,,27,8,1,2,1575420030,22.30,47.0,17.0,1,0,0,17.3
Status,,27,9,1,24,1575420030,0.00,313.0,16.0,0,0,0,0.0
Status,,27,10,1,6,1575420030,21.80,162.0,12.0,1,0,0,16.8
Status,,27,11,1,21,1575420030,0.00,34.0,5.0,0,0,0,0.0
Status,,27,12,1,7,1575420030,31.20,132.0,4.0,0,0,0,26.2
Status,,27,13,3,20,1602000000,0.00,114.0,53.0,0,0,0,0.0
Status,,27,14,3,9,1602000000,0.00,81.0,33.0,0,0,0,0.0
Status,,27,15,3,11,1602000000,0.00,310.0,28.0,0,0,0,0.0
Status,,27,16,3,8,1602000000,21.40,247.0,23.0,1,0,0,16.4
Status,,27,17,3,19,1602000000,0.00,33.0,23.0,0,0,0,0.0
Status,,27,18,6,21,1575420030,0.00,343.0,68.0,0,0,0,0.0
Status,,27,19,6,19,1575420030,0.00,243.0,46.0,0,0,0,0.0
Status,,27,20,6,27,1575420030,0.00,64.0,34.0,0,0,0,0.0
Status,,27,21,6,13,1575420030,0.00,120.0,28.0,0,0,0,0.0
Status,,27,22,6,29,1575420030,0.00,191.0,25.0,0,0,0,0.0
Status,,27,23,6,15,1575420030,0.00,62.0,24.0,0,0,0,0.0
Status,,27,24,6,4,1575420030,0.00,311.0,23.0,0,0,0,0.0
Status,,27,25,6,26,1575420030,0.00,167.0,6.0,0,0,0,0.0
Status,,27,26,6,6,1575420030,0.00,327.0,5.0,0,0,0,0.0
Fix,GPS,37.4255800000,-122.1581533333,23.400000000000002,0.0,5.9,0.0,1732151904000,1.9,179.9,30788090000000,55.8,0,,,
Raw,1732151904000,18509000000,,705801.6637129678,-1416187103491000064,0.0,123.55293283181197,1142.7344658232269,0.0,0,15,0.0,16431,350321925048373,797,16.075000762939453,512.0305629950545,0.14999,16,0.0,0.0,1575420030,,,,0,0.0,1,6.0,16.075000762939453,0.0,0.0,0.0,66.7128,C,30788090000000,
Raw,1732151904000,18509000000,,705801.6637129678,-1416187103491000064,0.0,123.55293283181197,1142.7344658232269,0.0,0,7,0.0,16431,350321917174777,316,26.23900032043457,978.5064188916983,0.14999,16,0.0,0.0,1575420030,,,,0,11.751883126017471,1,6.0,26.23900032043457,0.0,0.0,0.0,66.7128,C,30788090000000,
Raw,1732151904000,18509000000,,705801.6637129678,-1416187103491000064,0.0,123.55293283181197,1142.7344658232269,0.0,0,30,0.0,16431,350321926160005,797,19.805999755859375,852.7558441484831,0.14999,16,0.0,0.0,1575420030,,,,0,0.6796158808873498,1,6.0,19.805999755859375,0.0,0.0,0.0,66.7128,C,30788090000000,
Raw,1732151904000,18509000000,,705801.6637129678,-1416187103491000064,0.0,123.55293283181197,1142.7344658232269,0.0,0,13,0.0,16431,350321929039751,396,24.545000076293945,709.8767017662694,0.14999,16,0.0,0.0,1575420030,,,,0,9.413467834168435,1,6.0,24.545000076293945,0.0,0.0,0.0,66.7128,C,30788090000000,
Raw,1732151904000,18509000000,,705801.6637129678,-1416187103491000064,0.0,123.55293283181197,1142.7344658232269,0.0,0,6,0.0,16431,350321918760023,797,16.81999969482422,-314.2031469655726,0.14999,16,0.0,0.0,1575420030,,,,0,0.0,1,6.0,16.81999969482422,0.0,0.0,0.0,66.7128,C,30788090000000,
Raw,1732151904000,18509000000,,705801.6637129678,-1416187103491000064,0.0,123.55293283181197,1142.7344658232269,0.0,0,8,0.0,17,724603,487,5.0,923.4652080918509,0.14999,16,0.0,0.0,1605374980,,,,0,0.0,3,6.0,20.0,0.0,0.0,108.87378579149073,66.7128,C,30788090000000,
Raw,1732151904000,18509000000,,705801.6637129678,-1416187103491000064,0.0,123.55293283181197,1142.7344658232269,0.0,0,2,0.0,16431,350321918893604,797,17.29400062561035,679.0404855075192,0.14999,16,0.0,0.0,1575420030,,,,0,0.0,1,6.0,17.29400062561035,0.0,0.0,0.0,66.7128,C,30788090000000,
Fix,FLP,37.4255685000,-122.1581586000,5.400000095367432,0.098571874,5.985,,1732151904242,1.9,,30788090000000,15.919448,0,,,
Status,1732151904000,27,0,1,17,1575420030,0.00,83.0,79.0,0,0,0,0.0
Status,1732151904000,27,1,1,22,1575420030,0.00,13.0,66.0,0,0,0,0.0
Status,1732151904000,27,2,1,19,1575420030,0.00,200.0,61.0,0,0,0,0.0
Status,1732151904000,27,3,1,14,1575420030,0.00,52.0,53.0,0,0,0,0.0
Status,1732151904000,27,4,1,13,1575420030,29.50,234.0,48.0,1,0,0,24.5
Status,1732151904000,27,5,2,133,1575420030,0.00,191.0,45.0,0,0,0,0.0
Status,1732151904000,27,6,1,30,1575420030,24.80,131.0,36.0,1,0,0,19.8
Status,1732151904000,27,7,1,15,1575420030,21.10,275.0,30.0,1,0,0,16.1
Status,1732151904000,27,8,1,2,1575420030,22.30,47.0,17.0,1,0,0,17.3
Status,1732151904000,27,9,1,24,1575420030,0.00,313.0,16.0,0,0,0,0.0
Status,1732151904000,27,10,1,6,1575420030,0.00,162.0,12.0,0,0,0,0.0
Status,1732151904000,27,11,1,21,1575420030,0.00,34.0,5.0,0,0,0,0.0
Status,1732151904000,27,12,1,7,1575420030,30.50,132.0,4.0,0,0,0,25.5
Status,1732151904000,27,13,3,20,1602000000,0.00,114.0,53.0,0,0,0,0.0
Status,1732151904000,27,14,3,9,1602000000,0.00,81.0,33.0,0,0,0,0.0
Status,1732151904000,27,15,3,11,1602000000,0.00,310.0,28.0,0,0,0,0.0
Status,1732151904000,27,16,3,8,1602000000,29.00,247.0,23.0,1,0,0,24.0
Status,1732151904000,27,17,3,19,1602000000,0.00,33.0,23.0,0,0,0,0.0
Status,1732151904000,27,18,6,21,1575420030,0.00,343.0,68.0,0,0,0,0.0
Status,1732151904000,27,19,6,19,1575420030,0.00,243.0,46.0,0,0,0,0.0
Status,1732151904000,27,20,6,27,1575420030,0.00,64.0,34.0,0,0,0,0.0
Status,1732151904000,27,21,6,13,1575420030,0.00,120.0,28.0,0,0,0,0.0
Status,1732151904000,27,22,6,29,1575420030,0.00,191.0,25.0,0,0,0,0.0
Status,1732151904000,27,23,6,15,1575420030,0.00,62.0,24.0,0,0,0,0.0
Status,1732151904000,27,24,6,4,1575420030,0.00,311.0,23.0,0,0,0,0.0
Status,1732151904000,27,25,6,26,1575420030,0.00,167.0,6.0,0,0,0,0.0
Status,1732151904000,27,26,6,6,1575420030,0.00,327.0,5.0,0,0,0,0.0
Fix,GPS,37.4255716667,-122.1581550000,23.400000000000002,0.0,5.9,0.0,1732151905000,1.9,179.9,30789090000000,56.3,0,,,
Raw,1732151905000,19509000000,,705799.7874149323,-1416187103491000064,0.0,123.65420681228386,1141.7862036877464,0.0,0,15,0.0,16431,350322925046667,797,16.075000762939453,511.4275327526418,0.14999,16,0.0,0.0,1575420030,,,,0,0.0,1,6.0,16.075000762939453,0.0,0.0,0.0,66.7128,C,30789090000000,
Raw,1732151905000,19509000000,,705799.7874149323,-1416187103491000064,0.0,123.65420681228386,1141.7862036877464,0.0,0,7,0.0,16431,350322917171518,316,25.516000747680664,978.2505259352106,0.14999,16,0.0,0.0,1575420030,,,,0,10.762485914201859,1,6.0,25.516000747680664,0.0,0.0,0.0,66.7128,C,30789090000000,
Raw,1732151905000,19509000000,,705799.7874149323,-1416187103491000064,0.0,123.65420681228386,1141.7862036877464,0.0,0,30,0.0,16431,350322926157149,487,19.797000885009766,852.8575880799842,0.14999,16,0.0,0.0,1575420030,,,,0,1.652479456850617,1,6.0,19.797000885009766,0.0,0.0,0.0,66.7128,C,30789090000000,
Raw,1732151905000,19509000000,,705799.7874149323,-1416187103491000064,0.0,123.65420681228386,1141.7862036877464,0.0,0,13,0.0,16431,350322929037385,396,24.545000076293945,708.9557101233117,0.14999,16,0.0,0.0,1575420030,,,,0,9.413467834168435,1,6.0,24.545000076293945,0.0,0.0,0.0,66.7128,C,30789090000000,
Raw,1732151905000,19509000000,,705799.7874149323,-1416187103491000064,0.0,123.65420681228386,1141.7862036877464,0.0,0,8,0.0,17,721599,316,5.0,923.4121395396252,0.14999,16,0.0,0.0,1605374980,,,,0,9.827159811365455,3,6.0,25.0,0.0,0.0,108.87378579149073,66.7128,C,30789090000000,
Raw,1732151905000,19509000000,,705799.7874149323,-1416187103491000064,0.0,123.65420681228386,1141.7862036877464,0.0,0,2,0.0,16431,350322918891342,797,17.29400062561035,677.9541019028519,0.14999,16,0.0,0.0,1575420030,,,,0,0.0,1,6.0,17.29400062561035,0.0,0.0,0.0,66.7128,C,30789090000000,
Fix,FLP,37.4255703000,-122.1581572000,5.400000095367432,0.09729516,5.971,,1732151905243,1.9,,30789090000000,14.981805,0,,,
Status,1732151905000,27,0,1,17,1575420030,0.00,83.0,79.0,0,0,0,0.0
Status,1732151905000,27,1,1,22,1575420030,0.00,13.0,66.0,0,0,0,0.0
Status,1732151905000,27,2,1,19,1575420030,0.00,200.0,61.0,0,0,0,0.0
Status,1732151905000,27,3,1,14,1575420030,0.00,52.0,53.0,0,0,0,0.0
Status,1732151905000,27,4,1,13,1575420030,25.30,234.0,48.0,1,0,0,20.3
Status,1732151905000,27,5,2,133,1575420030,0.00,191.0,45.0,0,0,0,0.0
Status,1732151905000,27,6,1,30,1575420030,33.40,131.0,36.0,1,0,0,28.400002
Status,1732151905000,27,7,1,15,1575420030,21.10,275.0,30.0,1,0,0,16.1
Status,1732151905000,27,8,1,2,1575420030,22.30,47.0,17.0,1,0,0,17.3
Status,1732151905000,27,9,1,24,1575420030,0.00,313.0,16.0,0,0,0,0.0
Status,1732151905000,27,10,1,6,1575420030,0.00,162.0,12.0,0,0,0,0.0
Status,1732151905000,27,11,1,21,1575420030,0.00,34.0,5.0,0,0,0,0.0
Status,1732151905000,27,12,1,7,1575420030,32.10,132.0,4.0,0,0,0,27.099998
Status,1732151905000,27,13,3,20,1602000000,0.00,114.0,53.0,0,0,0,0.0
Status,1732151905000,27,14,3,9,1602000000,0.00,81.0,33.0,0,0,0,0.0
Status,1732151905000,27,15,3,11,1602000000,0.00,310.0,28.0,0,0,0,0.0
Status,1732151905000,27,16,3,8,1602000000,25.30,247.0,23.0,1,0,0,20.3
Status,1732151905000,27,17,3,19,1602000000,0.00,33.0,23.0,0,0,0,0.0
Status,1732151905000,27,18,6,21,1575420030,0.00,343.0,68.0,0,0,0,0.0
Status,1732151905000,27,19,6,19,1575420030,0.00,243.0,46.0,0,0,0,0.0
Status,1732151905000,27,20,6,27,1575420030,0.00,64.0,34.0,0,0,0,0.0
Status,1732151905000,27,21,6,13,1575420030,0.00,120.0,28.0,0,0,0,0.0
Status,1732151905000,27,22,6,29,1575420030,0.00,191.0,25.0,0,0,0,0.0
Status,1732151905000,27,23,6,15,1575420030,0.00,62.0,24.0,0,0,0,0.0
Status,1732151905000,27,24,6,4,1575420030,0.00,311.0,23.0,0,0,0,0.0
Status,1732151905000,27,25,6,26,1575420030,0.00,167.0,6.0,0,0,0,0.0
Status,1732151905000,27,26,6,6,1575420030,0.00,327.0,5.0,0,0,0,0.0
Fix,GPS,37.4255633333,-122.1581650000,23.400000000000002,0.0,5.9,0.0,1732151906000,1.8,179.9,30790090000000,56.5,0,,,
Raw,1732151906000,20509000000,,705796.4517739803,-1416187103491000064,0.0,123.4118440146902,1141.0508889883613,0.0,0,15,0.0,16431,350323925044961,487,16.075000762939453,511.17572813678066,0.14999,16,0.0,0.0,1575420030,,,,0,0.0,1,6.0,16.075000762939453,0.0,0.0,0.0,66.7128,C,30790090000000,
Raw,1732151906000,20509000000,,705796.4517739803,-1416187103491000064,0.0,123.4118440146902,1141.0508889883613,0.0,0,7,0.0,16431,350323917168257,316,27.079999923706055,978.3996574512464,0.14999,16,0.0,0.0,1575420030,,,,0,12.864387399989065,1,6.0,27.079999923706055,0.0,0.0,0.0,66.7128,C,30790090000000,
Raw,1732151906000,20509000000,,705796.4517739803,-1416187103491000064,0.0,123.4118440146902,1141.0508889883613,0.0,0,30,0.0,16431,350323926154279,316,28.430999755859375,853.689007896488,0.14999,16,0.0,0.0,1575420030,,,,0,14.60739091436707,1,6.0,28.430999755859375,0.0,0.0,0.0,66.7128,C,30790090000000,
Raw,1732151906000,20509000000,,705796.4517739803,-1416187103491000064,0.0,123.4118440146902,1141.0508889883613,0.0,0,13,0.0,16431,350323929035024,487,20.33300018310547,708.7184934501407,0.14999,16,0.0,0.0,1575420030,,,,0,2.8338625735631364,1,6.0,20.33300018310547,0.0,0.0,0.0,66.7128,C,30790090000000,
Raw,1732151906000,20509000000,,705796.4517739803,-1416187103491000064,0.0,123.4118440146902,1141.0508889883613,0.0,0,8,0.0,17,718516,487,5.0,923.8291197618382,0.14999,16,0.0,0.0,1605374980,,,,0,4.640532579761982,3,6.0,20.0,0.0,0.0,108.87378579149073,66.7128,C,30790090000000,
Raw,1732151906000,20509000000,,705796.4517739803,-1416187103491000064,0.0,123.4118440146902,1141.0508889883613,0.0,0,2,0.0,16431,350323918889079,797,17.29400062561035,678.0962646564561,0.14999,16,0.0,0.0,1575420030,,,,0,0.0,1,6.0,17.29400062561035,0.0,0.0,0.0,66.7128,C,30790090000000,
Fix,FLP,37.4255678000,-122.1581604000,5.400000095367432,0.08407034,5.957,,1732151906242,1.8,,30790090000000,12.373871,0,,,
Status,1732151906000,27,0,1,17,1575420030,0.00,83.0,79.0,0,0,0,0.0
Status,1732151906000,27,1,1,22,1575420030,0.00,13.0,66.0,0,0,0,0.0
Status,1732151906000,27,2,1,19,1575420030,0.00,200.0,61.0,0,0,0,0.0
Status,1732151906000,27,3,1,14,1575420030,0.00,52.0,53.0,0,0,0,0.0
Status,1732151906000,27,4,1,13,1575420030,26.40,234.0,48.0,1,0,0,21.4
Status,1732151906000,27,5,2,133,1575420030,0.00,191.0,45.0,0,0,0,0.0
Status,1732151906000,27,6,1,30,1575420030,32.60,131.0,36.0,1,0,0,27.599998
Status,1732151906000,27,7,1,15,1575420030,23.00,275.0,30.0,1,0,0,18.0
Status,1732151906000,27,8,1,2,1575420030,19.90,47.0,17.0,1,0,0,14.9
Status,1732151906000,27,9,1,24,1575420030,0.00,313.0,16.0,0,0,0,0.0
Status,1732151906000,27,10,1,6,1575420030,0.00,162.0,12.0,0,0,0,0.0
Status,1732151906000,27,11,1,21,1575420030,0.00,34.0,5.0,0,0,0,0.0
Status,1732151906000,27,12,1,7,1575420030,36.80,132.0,4.0,0,0,0,31.8
Status,1732151906000,27,13,3,20,1602000000,0.00,114.0,53.0,0,0,0,0.0
Status,1732151906000,27,14,3,9,1602000000,0.00,81.0,33.0,0,0,0,0.0
Status,1732151906000,27,15,3,11,1602000000,0.00,310.0,28.0,0,0,0,0.0
Status,1732151906000,27,16,3,8,1602000000,23.00,247.0,23.0,1,0,0,18.0
Status,1732151906000,27,17,3,19,1602000000,0.00,33.0,23.0,0,0,0,0.0
Status,1732151906000,27,18,6,21,1575420030,0.00,343.0,68.0,0,0,0,0.0
Status,1732151906000,27,19,6,19,1575420030,0.00,243.0,46.0,0,0,0,0.0
Status,1732151906000,27,20,6,27,1575420030,0.00,64.0,34.0,0,0,0,0.0
Status,1732151906000,27,21,6,13,1575420030,0.00,120.0,28.0,0,0,0,0.0
Status,1732151906000,27,22,6,29,1575420030,0.00,191.0,25.0,0,0,0,0.0
Status,1732151906000,27,23,6,15,1575420030,0.00,62.0,24.0,0,0,0,0.0
Status,1732151906000,27,24,6,4,1575420030,0.00,311.0,23.0,0,0,0,0.0
Status,1732151906000,27,25,6,26,1575420030,0.00,167.0,6.0,0,0,0,0.0
Status,1732151906000,27,26,6,6,1575420030,0.00,327.0,5.0,0,0,0,0.0
Fix,GPS,37.4255566667,-122.1581683333,23.400000000000002,0.0,5.9,0.0,1732151907000,1.9,179.9,30791090000000,57.1,0,,,
Raw,1732151907000,21509000000,,705794.5754759448,-1416187103491000064,0.0,124.24776471743172,1141.032086573875,0.0,0,15,0.0,16431,350324925043245,487,17.972000122070312,511.1660647862089,0.14999,16,0.0,0.0,1575420030,,,,0,0.0,1,6.0,17.972000122070312,0.0,0.0,0.0,66.7128,C,30791090000000,
Raw,1732151907000,21509000000,,705794.5754759448,-1416187103491000064,0.0,124.24776471743172,1141.032086573875,0.0,0,7,0.0,16431,350324917164991,74,31.77400016784668,978.1550074314817,0.14999,16,0.0,0.0,1575420030,,,,0,18.66872992762434,1,6.0,31.77400016784668,0.0,0.0,0.0,66.7128,C,30791090000000,
Raw,1732151907000,21509000000,,705794.5754759448,-1416187103491000064,0.0,124.24776471743172,1141.032086573875,0.0,0,30,0.0,16431,350324926151433,235,27.618000030517578,853.776163885299,0.14999,16,0.0,0.0,1575420030,,,,0,13.563279825558219,1,6.0,27.618000030517578,0.0,0.0,0.0,66.7128,C,30791090000000,
Raw,1732151907000,21509000000,,705794.5754759448,-1416187103491000064,0.0,124.24776471743172,1141.032086573875,0.0,0,13,0.0,16431,350324929032659,487,21.388999938964844,709.2669815119223,0.14999,16,0.0,0.0,1575420030,,,,0,4.55858961694108,1,6.0,21.388999938964844,0.0,0.0,0.0,66.7128,C,30791090000000,
Raw,1732151907000,21509000000,,705794.5754759448,-1416187103491000064,0.0,124.24776471743172,1141.032086573875,0.0,0,8,0.0,17,715434,797,5.0,925.7656660026784,0.14999,16,0.0,0.0,1605374980,,,,0,0.8937707307331308,3,6.0,17.0,0.0,0.0,108.87378579149073,66.7128,C,30791090000000,
Raw,1732151907000,21509000000,,705794.5754759448,-1416187103491000064,0.0,124.24776471743172,1141.032086573875,0.0,0,2,0.0,16431,350324918886817,1797,14.899999618530273,677.9964719784359,0.14999,16,0.0,0.0,1575420030,,,,0,0.0,1,6.0,14.899999618530273,0.0,0.0,0.0,66.7128,C,30791090000000,
Fix,FLP,37.4255634000,-122.1581637000,5.400000095367432,0.06688306,5.942,,1732151907242,1.9,,30791090000000,13.644095,0,,,
Status,1732151907000,27,0,1,17,1575420030,0.00,83.0,79.0,0,0,0,0.0
Status,1732151907000,27,1,1,22,1575420030,0.00,13.0,66.0,0,0,0,0.0
Status,1732151907000,27,2,1,19,1575420030,0.00,200.0,61.0,0,0,0,0.0
Status,1732151907000,27,3,1,14,1575420030,0.00,52.0,53.0,0,0,0,0.0
Status,1732151907000,27,4,1,13,1575420030,24.70,234.0,48.0,1,0,0,19.7
Status,1732151907000,27,5,2,133,1575420030,0.00,191.0,45.0,0,0,0,0.0
Status,1732151907000,27,6,1,30,1575420030,34.80,131.0,36.0,1,0,0,29.8
Status,1732151907000,27,7,1,15,1575420030,23.10,275.0,30.0,1,0,0,18.1
Status,1732151907000,27,8,1,2,1575420030,19.90,47.0,17.0,1,0,0,14.9
Status,1732151907000,27,9,1,24,1575420030,0.00,313.0,16.0,0,0,0,0.0
Status,1732151907000,27,10,1,6,1575420030,0.00,162.0,12.0,0,0,0,0.0
Status,1732151907000,27,11,1,21,1575420030,0.00,34.0,5.0,0,0,0,0.0
Status,1732151907000,27,12,1,7,1575420030,34.10,132.0,4.0,0,0,0,29.099998
Status,1732151907000,27,13,3,20,1602000000,0.00,114.0,53.0,0,0,0,0.0
Status,1732151907000,27,14,3,9,1602000000,0.00,81.0,33.0,0,0,0,0.0
Status,1732151907000,27,15,3,11,1602000000,0.00,310.0,28.0,0,0,0,0.0
Status,1732151907000,27,16,3,8,1602000000,23.00,247.0,23.0,1,0,0,18.0
Status,1732151907000,27,17,3,19,1602000000,0.00,33.0,23.0,0,0,0,0.0
Status,1732151907000,27,18,6,21,1575420030,0.00,343.0,68.0,0,0,0,0.0
Status,1732151907000,27,19,6,19,1575420030,0.00,243.0,46.0,0,0,0,0.0
Status,1732151907000,27,20,6,27,1575420030,0.00,64.0,34.0,0,0,0,0.0
Status,1732151907000,27,21,6,13,1575420030,0.00,120.0,28.0,0,0,0,0.0
Status,1732151907000,27,22,6,29,1575420030,0.00,191.0,25.0,0,0,0,0.0
Status,1732151907000,27,23,6,15,1575420030,0.00,62.0,24.0,0,0,0,0.0
Status,1732151907000,27,24,6,4,1575420030,0.00,311.0,23.0,0,0,0,0.0
Status,1732151907000,27,25,6,26,1575420030,0.00,167.0,6.0,0,0,0,0.0
Status,1732151907000,27,26,6,6,1575420030,0.00,327.0,5.0,0,0,0,0.0
Fix,GPS,37.4255516667,-122.1581683333,23.400000000000002,0.0,6.0,0.0,1732151908000,1.9,179.9,30792090000000,57.8,0,,,
Fix,FLP,37.4255587000,-122.1581656000,5.400000095367432,0.04997103,5.942,,1732151908243,1.9,,30792090000000,17.973726,0,,,
Raw,1732151908000,22509000000,,705793.220371808,-1416187103491000064,0.0,125.52255206001182,1141.453943846578,0.0,0,15,0.0,16431,350325925041556,797,18.052000045776367,511.08290422119205,0.14999,16,0.0,0.0,1575420030,,,,0,0.0,1,6.0,18.052000045776367,0.0,0.0,0.0,66.7128,C,30792090000000,
Raw,1732151908000,22509000000,,705793.220371808,-1416187103491000064,0.0,125.52255206001182,1141.453943846578,0.0,0,7,0.0,16431,350325917161732,235,29.066999435424805,978.556222313876,0.14999,16,0.0,0.0,1575420030,,,,0,15.398687292671125,1,6.0,29.066999435424805,0.0,0.0,0.0,66.7128,C,30792090000000,
Raw,1732151908000,22509000000,,705793.220371808,-1416187103491000064,0.0,125.52255206001182,1141.453943846578,0.0,0,30,0.0,16431,350325926148587,316,29.836999893188477,854.5215427149808,0.14999,16,0.0,0.0,1575420030,,,,0,16.359803653376044,1,6.0,29.836999893188477,0.0,0.0,0.0,66.7128,C,30792090000000,
Raw,1732151908000,22509000000,,705793.220371808,-1416187103491000064,0.0,125.52255206001182,1141.453943846578,0.0,0,13,0.0,16431,350325929030292,487,19.70400047302246,709.7637148980454,0.14999,16,0.0,0.0,1575420030,,,,0,1.7667691273392028,1,6.0,19.70400047302246,0.0,0.0,0.0,66.7128,C,30792090000000,
Raw,1732151908000,22509000000,,705793.220371808,-1416187103491000064,0.0,125.52255206001182,1141.453943846578,0.0,0,8,0.0,17,712346,487,5.0,925.3840648152824,0.14999,16,0.0,0.0,1605374980,,,,0,0.8937707307331308,3,6.0,20.0,0.0,0.0,108.87378579149073,66.7128,C,30792090000000,
Raw,1732151908000,22509000000,,705793.220371808,-1416187103491000064,0.0,125.52255206001182,1141.453943846578,0.0,0,2,0.0,16431,350325918884553,1797,14.899999618530273,678.9773949783053,0.14999,16,0.0,0.0,1575420030,,,,0,0.0,1,6.0,14.899999618530273,0.0,0.0,0.0,66.7128,C,30792090000000,
Fix,FLP,37.4255562000,-122.1581666000,5.400000095367432,0.041012228,5.942,,1732151908687,1.9,,30792535000000,10.597779,0,,,
Fix,NLP,37.4256495000,-122.1581194000,5.400000095367432,,27.615,,1732151908687,,,30792535000000,39.415783,0,,,
Status,1732151908000,27,0,1,17,1575420030,0.00,83.0,79.0,0,0,0,0.0
Status,1732151908000,27,1,1,22,1575420030,0.00,13.0,66.0,0,0,0,0.0
Status,1732151908000,27,2,1,19,1575420030,21.60,200.0,61.0,1,0,0,16.6
Status,1732151908000,27,3,1,14,1575420030,0.00,52.0,53.0,0,0,0,0.0
Status,1732151908000,27,4,1,13,1575420030,24.80,234.0,48.0,1,0,0,19.8
Status,1732151908000,27,5,2,133,1575420030,0.00,191.0,45.0,0,0,0,0.0
Status,1732151908000,27,6,1,30,1575420030,29.60,131.0,36.0,1,0,0,24.6
Status,1732151908000,27,7,1,15,1575420030,23.10,275.0,30.0,1,0,0,18.1
Status,1732151908000,27,8,1,2,1575420030,18.20,47.0,17.0,1,0,0,13.200001
Status,1732151908000,27,9,1,24,1575420030,0.00,313.0,16.0,0,0,0,0.0
Status,1732151908000,27,10,1,6,1575420030,0.00,162.0,12.0,0,0,0,0.0
Status,1732151908000,27,11,1,21,1575420030,0.00,34.0,5.0,0,0,0,0.0
Status,1732151908000,27,12,1,7,1575420030,32.30,132.0,4.0,0,0,0,27.3
Status,1732151908000,27,13,3,20,1602000000,0.00,114.0,53.0,0,0,0,0.0
Status,1732151908000,27,14,3,9,1602000000,0.00,81.0,33.0,0,0,0,0.0
Status,1732151908000,27,15,3,11,1602000000,0.00,310.0,28.0,0,0,0,0.0
Status,1732151908000,27,16,3,8,1602000000,23.80,247.0,23.0,1,0,0,18.8
Status,1732151908000,27,17,3,19,1602000000,0.00,33.0,23.0,0,0,0,0.0
Status,1732151908000,27,18,6,21,1575420030,0.00,343.0,68.0,0,0,0,0.0
Status,1732151908000,27,19,6,19,1575420030,0.00,243.0,46.0,0,0,0,0.0
Status,1732151908000,27,20,6,27,1575420030,0.00,64.0,34.0,0,0,0,0.0
Status,1732151908000,27,21,6,13,1575420030,0.00,120.0,28.0,0,0,0,0.0
Status,1732151908000,27,22,6,29,1575420030,0.00,191.0,25.0,0,0,0,0.0
Status,1732151908000,27,23,6,15,1575420030,0.00,62.0,24.0,0,0,0,0.0
Status,1732151908000,27,24,6,4,1575420030,0.00,311.0,23.0,0,0,0,0.0
Status,1732151908000,27,25,6,26,1575420030,0.00,167.0,6.0,0,0,0,0.0
Status,1732151908000,27,26,6,6,1575420030,0.00,327.0,5.0,0,0,0,0.0
Fix,GPS,37.4255616667,-122.1581616667,23.3,0.0,6.2,0.0,1732151909000,1.9,179.9,30793090000000,57.7,0,,,
Raw,1732151909000,23509000000,,996732.2543517756,-1416187103491000064,0.0,125.95426755309512,1145.1731091638292,0.0,0,15,0.0,16431,350326925039849,797,18.052000045776367,512.3939607266534,0.14999,16,0.0,0.0,1575420030,,,,0,0.0,1,6.0,18.052000045776367,0.0,0.0,0.0,66.7128,C,30793090000000,
Raw,1732151909000,23509000000,,996732.2543517756,-1416187103491000064,0.0,125.95426755309512,1145.1731091638292,0.0,0,7,0.0,16431,350326917158467,235,27.27899932861328,979.6333142353011,0.14999,16,0.0,0.0,1575420030,,,,0,13.113909467375999,1,6.0,27.27899932861328,0.0,0.0,0.0,66.7128,C,30793090000000,
Raw,1732151909000,23509000000,,996732.2543517756,-1416187103491000064,0.0,125.95426755309512,1145.1731091638292,0.0,0,30,0.0,16431,350326926145740,396,24.63800048828125,855.1491959179853,0.14999,16,0.0,0.0,1575420030,,,,0,9.50711714716098,1,6.0,24.63800048828125,0.0,0.0,0.0,66.7128,C,30793090000000,
Raw,1732151909000,23509000000,,996732.2543517756,-1416187103491000064,0.0,125.95426755309512,1145.1731091638292,0.0,0,19,0.0,16431,350326930834834,797,16.615999221801758,-39.56138557358663,0.14999,16,0.0,0.0,1575420030,,,,0,0.0,1,6.0,16.615999221801758,0.0,0.0,0.0,66.7128,C,30793090000000,
Raw,1732151909000,23509000000,,996732.2543517756,-1416187103491000064,0.0,125.95426755309512,1145.1731091638292,0.0,0,13,0.0,16431,350326929027923,396,19.797000885009766,711.3317329035673,0.14999,16,0.0,0.0,1575420030,,,,0,4.881822807789594,1,6.0,19.797000885009766,0.0,0.0,0.0,66.7128,C,30793090000000,
Raw,1732151909000,23509000000,,996732.2543517756,-1416187103491000064,0.0,125.95426755309512,1145.1731091638292,0.0,0,8,0.0,17,709263,797,5.0,923.6025298094658,0.14999,16,0.0,0.0,1605374980,,,,0,2.3006184380154515,3,6.0,17.0,0.0,0.0,108.55006293741206,66.7128,C,30793090000000,
Raw,1732151909000,23509000000,,996732.2543517756,-1416187103491000064,0.0,125.95426755309512,1145.1731091638292,0.0,0,2,0.0,16431,350326918882287,797,13.199999809265137,679.8393844326756,0.14999,16,0.0,0.0,1575420030,,,,0,0.0,1,6.0,13.199999809265137,0.0,0.0,0.0,66.7128,C,30793090000000,
Fix,FLP,37.4255582000,-122.1581650000,5.400000095367432,0.044234436,5.971,,1732151909242,1.9,,30793090000000,11.999733,0,,,
Status,1732151909000,27,0,1,17,1575420030,0.00,83.0,79.0,0,0,0,0.0
Status,1732151909000,27,1,1,22,1575420030,0.00,13.0,66.0,0,0,0,0.0
Status,1732151909000,27,2,1,19,1575420030,21.60,200.0,61.0,1,0,0,16.6
Status,1732151909000,27,3,1,14,1575420030,0.00,52.0,53.0,0,0,0,0.0
Status,1732151909000,27,4,1,13,1575420030,29.00,234.0,48.0,1,0,0,24.0
Status,1732151909000,27,5,2,133,1575420030,0.00,191.0,45.0,0,0,0,0.0
Status,1732151909000,27,6,1,30,1575420030,38.70,131.0,36.0,1,0,0,33.7
Status,1732151909000,27,7,1,15,1575420030,23.10,275.0,30.0,1,0,0,18.1
Status,1732151909000,27,8,1,2,1575420030,18.20,47.0,17.0,1,0,0,13.200001
Status,1732151909000,27,9,1,24,1575420030,0.00,313.0,16.0,0,0,0,0.0
Status,1732151909000,27,10,1,6,1575420030,0.00,162.0,12.0,0,0,0,0.0
Status,1732151909000,27,11,1,21,1575420030,0.00,34.0,5.0,0,0,0,0.0
Status,1732151909000,27,12,1,7,1575420030,36.30,132.0,4.0,0,0,0,31.3
Status,1732151909000,27,13,3,20,1602000000,0.00,114.0,53.0,0,0,0,0.0
Status,1732151909000,27,14,3,9,1602000000,0.00,81.0,33.0,0,0,0,0.0
Status,1732151909000,27,15,3,11,1602000000,0.00,310.0,28.0,0,0,0,0.0
Status,1732151909000,27,16,3,8,1602000000,22.70,247.0,23.0,1,0,0,17.7
Status,1732151909000,27,17,3,19,1602000000,0.00,33.0,23.0,0,0,0,0.0
Status,1732151909000,27,18,6,21,1575420030,0.00,343.0,68.0,0,0,0,0.0
Status,1732151909000,27,19,6,19,1575420030,0.00,243.0,46.0,0,0,0,0.0
Status,1732151909000,27,20,6,27,1575420030,0.00,64.0,34.0,0,0,0,0.0
Status,1732151909000,27,21,6,13,1575420030,0.00,120.0,28.0,0,0,0,0.0
Status,1732151909000,27,22,6,29,1575420030,0.00,191.0,25.0,0,0,0,0.0
Status,1732151909000,27,23,6,15,1575420030,0.00,62.0,24.0,0,0,0,0.0
Status,1732151909000,27,24,6,4,1575420030,0.00,311.0,23.0,0,0,0,0.0
Status,1732151909000,27,25,6,26,1575420030,0.00,167.0,6.0,0,0,0,0.0
Status,1732151909000,27,26,6,6,1575420030,0.00,327.0,5.0,0,0,0,0.0
Fix,GPS,37.4255750000,-122.1581533333,23.3,0.0,6.1,0.0,1732151910000,1.9,179.9,30794090000000,57.9,0,,,
Raw,1732151910000,24509000000,,705832.5183917736,-1416187103491000064,0.0,126.28724123332985,1145.3794185361928,0.0,0,15,0.0,16431,350327925038140,797,18.052000045776367,512.0833397558698,0.14999,16,0.0,0.0,1575420030,,,,0,0.0,1,6.0,18.052000045776367,0.0,0.0,0.0,66.7128,C,30794090000000,
Raw,1732151910000,24509000000,,705832.5183917736,-1416187103491000064,0.0,126.28724123332985,1145.3794185361928,0.0,0,7,0.0,16431,350327917155203,74,31.275999069213867,979.3017869772227,0.14999,16,0.0,0.0,1575420030,,,,0,18.0816220605736,1,6.0,31.275999069213867,0.0,0.0,0.0,66.7128,C,30794090000000,
Raw,1732151910000,24509000000,,705832.5183917736,-1416187103491000064,0.0,126.28724123332985,1145.3794185361928,0.0,0,30,0.0,16431,350327926142889,58,33.65299987792969,855.0162319307906,0.14999,16,0.0,0.0,1575420030,,,,0,20.838994474312855,1,6.0,33.65299987792969,0.0,0.0,0.0,66.7128,C,30794090000000,
Raw,1732151910000,24509000000,,705832.5183917736,-1416187103491000064,0.0,126.28724123332985,1145.3794185361928,0.0,0,19,0.0,16431,350327930834965,797,16.615999221801758,-39.330951829182354,0.14999,16,0.0,0.0,1575420030,,,,0,0.0,1,6.0,16.615999221801758,0.0,0.0,0.0,66.7128,C,30794090000000,
Raw,1732151910000,24509000000,,705832.5183917736,-1416187103491000064,0.0,126.28724123332985,1145.3794185361928,0.0,0,13,0.0,16431,350327929025547,487,24.010000228881836,711.2655761188835,0.14999,16,0.0,0.0,1575420030,,,,0,8.625538528414001,1,6.0,24.010000228881836,0.0,0.0,0.0,66.7128,C,30794090000000,
Raw,1732151910000,24509000000,,705832.5183917736,-1416187103491000064,0.0,126.28724123332985,1145.3794185361928,0.0,0,8,0.0,17,706176,487,5.0,926.5349776437918,0.14999,16,0.0,0.0,1605374980,,,,0,0.3013213985971124,3,6.0,19.0,0.0,0.0,105.88201426652796,66.7128,C,30794090000000,
Raw,1732151910000,24509000000,,705832.5183917736,-1416187103491000064,0.0,126.28724123332985,1145.3794185361928,0.0,0,2,0.0,16431,350327918880019,797,13.199999809265137,680.3047119294403,0.14999,16,0.0,0.0,1575420030,,,,0,0.0,1,6.0,13.199999809265137,0.0,0.0,0.0,66.7128,C,30794090000000,
Fix,FLP,37.4255651000,-122.1581604000,5.400000095367432,0.06020369,6.0,,1732151910242,1.9,,30794090000000,11.745157,0,,,
Status,1732151910000,27,0,1,17,1575420030,0.00,83.0,79.0,0,0,0,0.0
Status,1732151910000,27,1,1,22,1575420030,0.00,13.0,66.0,0,0,0,0.0
Status,1732151910000,27,2,1,19,1575420030,19.40,200.0,61.0,1,0,0,14.4
Status,1732151910000,27,3,1,14,1575420030,0.00,52.0,53.0,0,0,0,0.0
Status,1732151910000,27,4,1,13,1575420030,30.10,234.0,48.0,1,0,0,25.1
Status,1732151910000,27,5,2,133,1575420030,0.00,191.0,45.0,0,0,0,0.0
Status,1732151910000,27,6,1,30,1575420030,29.50,131.0,36.0,1,0,0,24.5
Status,1732151910000,27,7,1,15,1575420030,23.00,275.0,30.0,1,0,0,18.0
Status,1732151910000,27,8,1,2,1575420030,18.20,47.0,17.0,1,0,0,13.200001
Status,1732151910000,27,9,1,24,1575420030,0.00,313.0,16.0,0,0,0,0.0
Status,1732151910000,27,10,1,6,1575420030,24.60,162.0,12.0,1,0,0,19.6
Status,1732151910000,27,11,1,21,1575420030,0.00,34.0,5.0,0,0,0,0.0
Status,1732151910000,27,12,1,7,1575420030,34.00,132.0,4.0,0,0,0,29.0
Status,1732151910000,27,13,3,20,1602000000,0.00,114.0,53.0,0,0,0,0.0
Status,1732151910000,27,14,3,9,1602000000,0.00,81.0,33.0,0,0,0,0.0
Status,1732151910000,27,15,3,11,1602000000,0.00,310.0,28.0,0,0,0,0.0
Status,1732151910000,27,16,3,8,1602000000,24.20,247.0,23.0,1,0,0,19.2
Status,1732151910000,27,17,3,19,1602000000,0.00,33.0,23.0,0,0,0,0.0
Status,1732151910000,27,18,6,21,1575420030,0.00,343.0,68.0,0,0,0,0.0
Status,1732151910000,27,19,6,19,1575420030,0.00,243.0,46.0,0,0,0,0.0
Status,1732151910000,27,20,6,27,1575420030,0.00,64.0,34.0,0,0,0,0.0
Status,1732151910000,27,21,6,13,1575420030,0.00,120.0,28.0,0,0,0,0.0
Status,1732151910000,27,22,6,29,1575420030,0.00,191.0,25.0,0,0,0,0.0
Status,1732151910000,27,23,6,15,1575420030,0.00,62.0,24.0,0,0,0,0.0
Status,1732151910000,27,24,6,4,1575420030,0.00,311.0,23.0,0,0,0,0.0
Status,1732151910000,27,25,6,26,1575420030,0.00,167.0,6.0,0,0,0,0.0
Status,1732151910000,27,26,6,6,1575420030,0.00,327.0,5.0,0,0,0,0.0
Fix,GPS,37.4255783333,-122.1581550000,23.3,0.0,6.2,0.0,1732151911000,1.9,179.9,30795090000000,53.2,0,,,
Raw,1732151911000,25509000000,,705809.6900990084,-1416187103491000064,0.0,122.9276146734592,1148.0037448687162,0.0,0,15,0.0,16431,350328925036441,797,17.964000701904297,513.2539060107105,0.14999,16,0.0,0.0,1575420030,,,,0,0.0,1,6.0,17.964000701904297,0.0,0.0,0.0,66.7128,C,30795090000000,
Raw,1732151911000,25509000000,,705809.6900990084,-1416187103491000064,0.0,122.9276146734592,1148.0037448687162,0.0,0,7,0.0,16431,350328917151931,316,29.0310001373291,980.5901717755734,0.14999,16,0.0,0.0,1575420030,,,,0,15.351288050144436,1,6.0,29.0310001373291,0.0,0.0,0.0,66.7128,C,30795090000000,
Raw,1732151911000,25509000000,,705809.6900990084,-1416187103491000064,0.0,122.9276146734592,1148.0037448687162,0.0,0,30,0.0,16431,350328926140039,396,24.513999938964844,855.3052032796202,0.14999,16,0.0,0.0,1575420030,,,,0,9.366261796029015,1,6.0,24.513999938964844,0.0,0.0,0.0,66.7128,C,30795090000000,
Raw,1732151911000,25509000000,,705809.6900990084,-1416187103491000064,0.0,122.9276146734592,1148.0037448687162,0.0,0,19,0.0,16431,350328930835130,797,14.399999618530273,-39.24820938991139,0.14999,16,0.0,0.0,1575420030,,,,0,0.0,1,6.0,14.399999618530273,0.0,0.0,0.0,66.7128,C,30795090000000,
Raw,1732151911000,25509000000,,705809.6900990084,-1416187103491000064,0.0,122.9276146734592,1148.0037448687162,0.0,0,13,0.0,16431,350328929023179,316,25.132999420166016,712.2832477259753,0.14999,16,0.0,0.0,1575420030,,,,0,10.2220409752806,1,6.0,25.132999420166016,0.0,0.0,0.0,66.7128,C,30795090000000,
Raw,1732151911000,25509000000,,705809.6900990084,-1416187103491000064,0.0,122.9276146734592,1148.0037448687162,0.0,0,8,0.0,17,703089,396,5.0,926.1555648503021,0.14999,16,0.0,0.0,1605374980,,,,0,2.9268996913834924,3,6.0,22.0,0.0,0.0,102.27867908074126,66.7128,C,30795090000000,
Raw,1732151911000,25509000000,,705809.6900990084,-1416187103491000064,0.0,122.9276146734592,1148.0037448687162,0.0,0,2,0.0,16431,350328918877748,797,13.199999809265137,681.4380185344802,0.14999,16,0.0,0.0,1575420030,,,,0,0.0,1,6.0,13.199999809265137,0.0,0.0,0.0,66.7128,C,30795090000000,
Raw,1732151911000,25509000000,,705809.6900990084,-1416187103491000064,0.0,122.9276146734592,1148.0037448687162,0.0,0,6,0.0,16431,350328918767452,487,19.642000198364258,-314.3784810283512,0.14999,16,0.0,0.0,1575420030,,,,0,1.652479456850617,1,6.0,19.642000198364258,0.0,0.0,0.0,66.7128,C,30795090000000,
Fix,FLP,37.4255708000,-122.1581583000,5.400000095367432,0.07182843,6.042,,1732151911242,1.9,,30795090000000,12.649893,0,,,
Status,1732151911000,27,0,1,17,1575420030,0.00,83.0,79.0,0,0,0,0.0
Status,1732151911000,27,1,1,22,1575420030,0.00,13.0,66.0,0,0,0,0.0
Status,1732151911000,27,2,1,19,1575420030,19.40,200.0,61.0,1,0,0,14.4
Status,1732151911000,27,3,1,14,1575420030,0.00,52.0,53.0,0,0,0,0.0
Status,1732151911000,27,4,1,13,1575420030,30.40,234.0,48.0,1,0,0,25.4
Status,1732151911000,27,5,2,133,1575420030,0.00,191.0,45.0,0,0,0,0.0
Status,1732151911000,27,6,1,30,1575420030,32.00,131.0,36.0,1,0,0,27.0
Status,1732151911000,27,7,1,15,1575420030,22.90,275.0,30.0,1,0,0,17.9
Status,1732151911000,27,8,1,2,1575420030,19.70,47.0,17.0,1,0,0,14.700001
Status,1732151911000,27,9,1,24,1575420030,0.00,313.0,16.0,0,0,0,0.0
Status,1732151911000,27,10,1,6,1575420030,24.60,162.0,12.0,1,0,0,19.6
Status,1732151911000,27,11,1,21,1575420030,0.00,34.0,5.0,0,0,0,0.0
Status,1732151911000,27,12,1,7,1575420030,32.30,132.0,4.0,0,0,0,27.3
Status,1732151911000,27,13,3,20,1602000000,0.00,114.0,53.0,0,0,0,0.0
Status,1732151911000,27,14,3,9,1602000000,0.00,81.0,33.0,0,0,0,0.0
Status,1732151911000,27,15,3,11,1602000000,0.00,310.0,28.0,0,0,0,0.0
Status,1732151911000,27,16,3,8,1602000000,30.70,247.0,23.0,1,0,0,25.7
Status,1732151911000,27,17,3,19,1602000000,0.00,33.0,23.0,0,0,0,0.0
Status,1732151911000,27,18,6,21,1575420030,0.00,343.0,68.0,0,0,0,0.0
Status,1732151911000,27,19,6,19,1575420030,0.00,243.0,46.0,0,0,0,0.0
Status,1732151911000,27,20,6,27,1575420030,0.00,64.0,34.0,0,0,0,0.0
Status,1732151911000,27,21,6,13,1575420030,0.00,120.0,28.0,0,0,0,0.0
Status,1732151911000,27,22,6,29,1575420030,0.00,191.0,25.0,0,0,0,0.0
Status,1732151911000,27,23,6,15,1575420030,0.00,62.0,24.0,0,0,0,0.0
Status,1732151911000,27,24,6,4,1575420030,0.00,311.0,23.0,0,0,0,0.0
Status,1732151911000,27,25,6,26,1575420030,0.00,167.0,6.0,0,0,0,0.0
Status,1732151911000,27,26,6,6,1575420030,0.00,327.0,5.0,0,0,0,0.0
Fix,GPS,37.4253800000,-122.1582683333,23.3,0.0,5.9,0.0,1732151912000,1.8,179.9,30796090000000,52.0,0,,,
Raw,1732151912000,26509000000,,705779.9820467798,-1416187103491000064,0.0,113.35309443146055,1150.317930563113,0.0,0,15,0.0,16431,350329925034727,797,17.8799991607666,513.9265309606067,0.14999,16,0.0,0.0,1575420030,,,,0,0.0,1,6.0,17.8799991607666,0.0,0.0,0.0,66.7128,C,30796090000000,
Raw,1732151912000,26509000000,,705779.9820467798,-1416187103491000064,0.0,113.35309443146055,1150.317930563113,0.0,0,7,0.0,16431,350329917148663,235,27.343000411987305,980.3671713777627,0.14999,16,0.0,0.0,1575420030,,,,0,13.205662675904188,1,6.0,27.343000411987305,0.0,0.0,0.0,66.7128,C,30796090000000,
Raw,1732151912000,26509000000,,705779.9820467798,-1416187103491000064,0.0,113.35309443146055,1150.317930563113,0.0,0,30,0.0,16431,350329926137188,396,27.034000396728516,856.7442991801578,0.14999,16,0.0,0.0,1575420030,,,,0,12.800870556520076,1,6.0,27.034000396728516,0.0,0.0,0.0,66.7128,C,30796090000000,
Raw,1732151912000,26509000000,,705779.9820467798,-1416187103491000064,0.0,113.35309443146055,1150.317930563113,0.0,0,19,0.0,16431,350329930835260,797,14.399999618530273,-38.21864442826965,0.14999,16,0.0,0.0,1575420030,,,,0,0.0,1,6.0,14.399999618530273,0.0,0.0,0.0,66.7128,C,30796090000000,
Raw,1732151912000,26509000000,,705779.9820467798,-1416187103491000064,0.0,113.35309443146055,1150.317930563113,0.0,0,13,0.0,16431,350329929020802,487,25.382999420166016,712.660954649767,0.14999,16,0.0,0.0,1575420030,,,,0,10.558582427700593,1,6.0,25.382999420166016,0.0,0.0,0.0,66.7128,C,30796090000000,
Raw,1732151912000,26509000000,,705779.9820467798,-1416187103491000064,0.0,113.35309443146055,1150.317930563113,0.0,0,8,0.0,17,699998,316,5.0,926.1436198668973,0.14999,16,0.0,0.0,1605374980,,,,0,11.896993330933316,3,6.0,25.0,0.0,0.0,105.69388852931746,66.7128,C,30796090000000,
Raw,1732151912000,26509000000,,705779.9820467798,-1416187103491000064,0.0,113.35309443146055,1150.317930563113,0.0,0,2,0.0,16431,350329918875483,797,14.699999809265137,682.1353593618004,0.14999,16,0.0,0.0,1575420030,,,,0,0.0,1,6.0,14.699999809265137,0.0,0.0,0.0,66.7128,C,30796090000000,
Raw,1732151912000,26509000000,,705779.9820467798,-1416187103491000064,0.0,113.35309443146055,1150.317930563113,0.0,0,6,0.0,16431,350329918768498,797,19.642000198364258,-313.678492071307,0.14999,16,0.0,0.0,1575420030,,,,0,1.652479456850617,1,6.0,19.642000198364258,0.0,0.0,0.0,66.7128,C,30796090000000,
Fix,FLP,37.4254865000,-122.1582055000,5.400000095367432,0.15928572,6.042,180.0,1732151912242,1.8,179.9,30796090000000,12.534147,0,,,
Status,1732151912000,27,0,1,17,1575420030,0.00,83.0,79.0,0,0,0,0.0
Status,1732151912000,27,1,1,22,1575420030,0.00,13.0,66.0,0,0,0,0.0
Status,1732151912000,27,2,1,19,1575420030,19.60,200.0,61.0,1,0,0,14.6
Status,1732151912000,27,3,1,14,1575420030,0.00,52.0,53.0,0,0,0,0.0
Status,1732151912000,27,4,1,13,1575420030,32.10,234.0,48.0,1,0,0,27.099998
Status,1732151912000,27,5,2,135,1575420030,0.00,197.0,45.0,0,0,0,0.0
Status,1732151912000,27,6,1,30,1575420030,31.80,131.0,36.0,1,0,0,26.8
Status,1732151912000,27,7,1,15,1575420030,19.80,275.0,30.0,1,0,0,14.799999
Status,1732151912000,27,8,1,2,1575420030,19.70,47.0,17.0,1,0,0,14.700001
Status,1732151912000,27,9,1,24,1575420030,0.00,313.0,16.0,0,0,0,0.0
Status,1732151912000,27,10,1,6,1575420030,24.60,162.0,12.0,1,0,0,19.6
Status,1732151912000,27,11,1,21,1575420030,0.00,34.0,5.0,0,0,0,0.0
Status,1732151912000,27,12,1,7,1575420030,31.10,132.0,4.0,0,0,0,26.1
Status,1732151912000,27,13,3,20,1602000000,0.00,114.0,53.0,0,0,0,0.0
Status,1732151912000,27,14,3,9,1602000000,0.00,81.0,33.0,0,0,0,0.0
Status,1732151912000,27,15,3,11,1602000000,0.00,310.0,28.0,0,0,0,0.0
Status,1732151912000,27,16,3,8,1602000000,24.80,247.0,23.0,1,0,0,19.8
Status,1732151912000,27,17,3,19,1602000000,0.00,33.0,23.0,0,0,0,0.0
Status,1732151912000,27,18,6,21,1575420030,0.00,343.0,68.0,0,0,0,0.0
Status,1732151912000,27,19,6,19,1575420030,0.00,243.0,46.0,0,0,0,0.0
Status,1732151912000,27,20,6,27,1575420030,0.00,64.0,34.0,0,0,0,0.0
Status,1732151912000,27,21,6,13,1575420030,0.00,120.0,28.0,0,0,0,0.0
Status,1732151912000,27,22,6,29,1575420030,0.00,191.0,25.0,0,0,0,0.0
Status,1732151912000,27,23,6,15,1575420030,0.00,62.0,24.0,0,0,0,0.0
Status,1732151912000,27,24,6,4,1575420030,0.00,311.0,23.0,0,0,0,0.0
Status,1732151912000,27,25,6,26,1575420030,0.00,167.0,6.0,0,0,0,0.0
Status,1732151912000,27,26,6,6,1575420030,0.00,327.0,5.0,0,0,0,0.0
Fix,GPS,37.4252400000,-122.1583383333,23.3,0.0,5.7,0.0,1732151913000,1.7,108.9,30797090000000,52.3,0,,,
Raw,1732151913000,27509000000,,705737.1399083028,-1416187103491000064,0.0,112.26003783257934,1153.8755245684786,0.0,0,15,0.0,16431,350330925032990,797,14.800000190734863,515.1748686041839,0.14999,16,0.0,0.0,1575420030,,,,0,0.0,1,6.0,14.800000190734863,0.0,0.0,0.0,66.7128,C,30797090000000,
Raw,1732151913000,27509000000,,705737.1399083028,-1416187103491000064,0.0,112.26003783257934,1153.8755245684786,0.0,0,7,0.0,16431,350330917145394,316,26.139999389648438,981.5381092999331,0.14999,16,0.0,0.0,1575420030,,,,0,11.60681270348456,1,6.0,26.139999389648438,0.0,0.0,0.0,66.7128,C,30797090000000,
Raw,1732151913000,27509000000,,705737.1399083028,-1416187103491000064,0.0,112.26003783257934,1153.8755245684786,0.0,0,30,0.0,16431,350330926134337,316,26.78700065612793,857.1717166092948,0.14999,16,0.0,0.0,1575420030,,,,0,12.476126579106364,1,6.0,26.78700065612793,0.0,0.0,0.0,66.7128,C,30797090000000,
Raw,1732151913000,27509000000,,705737.1399083028,-1416187103491000064,0.0,112.26003783257934,1153.8755245684786,0.0,0,19,0.0,16431,350330930835387,797,14.600000381469727,-37.47707518871704,0.14999,16,0.0,0.0,1575420030,,,,0,0.0,1,6.0,14.600000381469727,0.0,0.0,0.0,66.7128,C,30797090000000,
Raw,1732151913000,27509000000,,705737.1399083028,-1416187103491000064,0.0,112.26003783257934,1153.8755245684786,0.0,0,13,0.0,16431,350330929018436,235,27.125,713.240662767242,0.14999,16,0.0,0.0,1575420030,,,,0,12.927443137081193,1,6.0,27.125,0.0,0.0,0.0,66.7128,C,30797090000000,
Raw,1732151913000,27509000000,,705737.1399083028,-1416187103491000064,0.0,112.26003783257934,1153.8755245684786,0.0,0,8,0.0,17,696951,487,5.0,926.9814100006594,0.14999,16,0.0,0.0,1605374980,,,,0,3.924737090296237,3,6.0,20.0,0.0,0.0,107.12345810314724,66.7128,C,30797090000000,
Raw,1732151913000,27509000000,,705737.1399083028,-1416187103491000064,0.0,112.26003783257934,1153.8755245684786,0.0,0,2,0.0,16431,350330918873205,797,14.699999809265137,683.747001820144,0.14999,16,0.0,0.0,1575420030,,,,0,0.0,1,6.0,14.699999809265137,0.0,0.0,0.0,66.7128,C,30797090000000,
Raw,1732151913000,27509000000,,705737.1399083028,-1416187103491000064,0.0,112.26003783257934,1153.8755245684786,0.0,0,6,0.0,16431,350330918769543,797,19.642000198364258,-312.3874591432324,0.14999,16,0.0,0.0,1575420030,,,,0,1.652479456850617,1,6.0,19.642000198364258,0.0,0.0,0.0,66.7128,C,30797090000000,
Fix,FLP,37.4253731000,-122.1582644000,5.400000095367432,0.45097098,6.014,180.0,1732151913242,1.7,108.9,30797090000000,12.493681,0,,,
Fix,FLP,37.4253178000,-122.1582936000,5.400000095367432,0.56985044,5.966,180.0,1732151913863,1.7,108.9,30797711000000,18.11685,0,,,
Fix,NLP,37.4256345000,-122.1580410000,5.400000095367432,,28.672,,1732151913863,,,30797711000000,67.60487,0,,,
Status,1732151913000,27,0,1,17,1575420030,0.00,83.0,79.0,0,0,0,0.0
Status,1732151913000,27,1,1,22,1575420030,0.00,13.0,66.0,0,0,0,0.0
Status,1732151913000,27,2,1,19,1575420030,19.60,200.0,61.0,1,0,0,14.6
Status,1732151913000,27,3,1,14,1575420030,0.00,52.0,53.0,0,0,0,0.0
Status,1732151913000,27,4,1,13,1575420030,31.80,234.0,48.0,1,0,0,26.8
Status,1732151913000,27,5,2,135,1575420030,0.00,197.0,45.0,0,0,0,0.0
Status,1732151913000,27,6,1,30,1575420030,37.90,131.0,36.0,1,0,0,32.9
Status,1732151913000,27,7,1,15,1575420030,19.80,275.0,30.0,1,0,0,14.799999
Status,1732151913000,27,8,1,2,1575420030,19.70,47.0,17.0,1,0,0,14.700001
Status,1732151913000,27,9,1,24,1575420030,0.00,313.0,16.0,0,0,0,0.0
Status,1732151913000,27,10,1,6,1575420030,19.40,162.0,12.0,1,0,0,14.4
Status,1732151913000,27,11,1,21,1575420030,0.00,34.0,5.0,0,0,0,0.0
Status,1732151913000,27,12,1,7,1575420030,35.70,132.0,4.0,0,0,0,30.7
Status,1732151913000,27,13,3,20,1602000000,0.00,114.0,53.0,0,0,0,0.0
Status,1732151913000,27,14,3,9,1602000000,0.00,81.0,33.0,0,0,0,0.0
Status,1732151913000,27,15,3,11,1602000000,0.00,310.0,28.0,0,0,0,0.0
Status,1732151913000,27,16,3,8,1602000000,24.80,247.0,23.0,1,0,0,19.8
Status,1732151913000,27,17,3,19,1602000000,0.00,33.0,23.0,0,0,0,0.0
Status,1732151913000,27,18,6,21,1575420030,0.00,343.0,68.0,0,0,0,0.0
Status,1732151913000,27,19,6,19,1575420030,0.00,243.0,46.0,0,0,0,0.0
Status,1732151913000,27,20,6,27,1575420030,0.00,64.0,34.0,0,0,0,0.0
Status,1732151913000,27,21,6,13,1575420030,0.00,120.0,28.0,0,0,0,0.0
Status,1732151913000,27,22,6,29,1575420030,0.00,191.0,25.0,0,0,0,0.0
Status,1732151913000,27,23,6,15,1575420030,0.00,62.0,24.0,0,0,0,0.0
Status,1732151913000,27,24,6,4,1575420030,0.00,311.0,23.0,0,0,0,0.0
Status,1732151913000,27,25,6,26,1575420030,0.00,167.0,6.0,0,0,0,0.0
Status,1732151913000,27,26,6,6,1575420030,0.00,327.0,5.0,0,0,0,0.0
Fix,GPS,37.4250466667,-122.1584083333,23.400000000000002,0.0,5.3,0.0,1732151914000,1.6,50.3,30798090000000,52.6,0,,,
Fix,FLP,37.4252125000,-122.1583368000,5.400000095367432,0.8086959,5.871,180.0,1732151914243,1.6,50.3,30798090000000,19.522047,0,,,
Raw,1732151914000,28509000000,,705658.7523459313,-1416187103491000064,0.0,110.73837050895698,1154.6617624515668,0.0,0,15,0.0,16431,350331925031269,797,14.800000190734863,515.9412466379929,0.14999,16,0.0,0.0,1575420030,,,,0,0.0,1,6.0,14.800000190734863,0.0,0.0,0.0,66.7128,C,30798090000000,
Raw,1732151914000,28509000000,,705658.7523459313,-1416187103491000064,0.0,110.73837050895698,1154.6617624515668,0.0,0,7,0.0,16431,350331917142121,74,30.659000396728516,981.6032439994603,0.14999,16,0.0,0.0,1575420030,,,,0,17.339250738709453,1,6.0,30.659000396728516,0.0,0.0,0.0,66.7128,C,30798090000000,
Raw,1732151914000,28509000000,,705658.7523459313,-1416187103491000064,0.0,110.73837050895698,1154.6617624515668,0.0,0,30,0.0,16431,350331926131477,58,32.94900131225586,857.209719593755,0.14999,16,0.0,0.0,1575420030,,,,0,20.031961930870228,1,6.0,32.94900131225586,0.0,0.0,0.0,66.7128,C,30798090000000,
Raw,1732151914000,28509000000,,705658.7523459313,-1416187103491000064,0.0,110.73837050895698,1154.6617624515668,0.0,0,19,0.0,16431,350331930835512,1797,14.600000381469727,-37.796941384326594,0.14999,16,0.0,0.0,1575420030,,,,0,0.0,1,6.0,14.600000381469727,0.0,0.0,0.0,66.7128,C,30798090000000,
Raw,1732151914000,28509000000,,705658.7523459313,-1416187103491000064,0.0,110.73837050895698,1154.6617624515668,0.0,0,13,0.0,16431,350331929016059,396,26.809999465942383,712.8256961936495,0.14999,16,0.0,0.0,1575420030,,,,0,12.50915281523816,1,6.0,26.809999465942383,0.0,0.0,0.0,66.7128,C,30798090000000,
Raw,1732151914000,28509000000,,705658.7523459313,-1416187103491000064,0.0,110.73837050895698,1154.6617624515668,0.0,0,8,0.0,17,693859,487,5.0,926.9525961475609,0.14999,16,0.0,0.0,1605374980,,,,0,4.3748461253911595,3,6.0,19.0,0.0,0.0,112.3494510748497,66.7128,C,30798090000000,
Raw,1732151914000,28509000000,,705658.7523459313,-1416187103491000064,0.0,110.73837050895698,1154.6617624515668,0.0,0,2,0.0,16431,350331918870913,797,14.680000305175781,684.9732252576049,0.14999,16,0.0,0.0,1575420030,,,,0,0.0,1,6.0,14.680000305175781,0.0,0.0,0.0,66.7128,C,30798090000000,
Raw,1732151914000,28509000000,,705658.7523459313,-1416187103491000064,0.0,110.73837050895698,1154.6617624515668,0.0,0,6,0.0,16431,350331918770587,797,14.399999618530273,-312.1305905600043,0.14999,16,0.0,0.0,1575420030,,,,0,0.0,1,6.0,14.399999618530273,0.0,0.0,0.0,66.7128,C,30798090000000,
Status,1732151914000,27,0,1,17,1575420030,0.00,83.0,79.0,0,0,0,0.0
Status,1732151914000,27,1,1,22,1575420030,0.00,13.0,66.0,0,0,0,0.0
Status,1732151914000,27,2,1,19,1575420030,19.60,200.0,61.0,1,0,0,14.6
Status,1732151914000,27,3,1,14,1575420030,0.00,52.0,53.0,0,0,0,0.0
Status,1732151914000,27,4,1,13,1575420030,34.30,234.0,48.0,1,0,0,29.3
Status,1732151914000,27,5,2,135,1575420030,0.00,197.0,45.0,0,0,0,0.0
Status,1732151914000,27,6,1,30,1575420030,30.30,131.0,36.0,1,0,0,25.3
Status,1732151914000,27,7,1,15,1575420030,19.80,275.0,30.0,1,0,0,14.799999
Status,1732151914000,27,8,1,2,1575420030,19.70,47.0,17.0,1,0,0,14.700001
Status,1732151914000,27,9,1,24,1575420030,0.00,313.0,16.0,0,0,0,0.0
Status,1732151914000,27,10,1,6,1575420030,19.40,162.0,12.0,1,0,0,14.4
Status,1732151914000,27,11,1,21,1575420030,0.00,34.0,5.0,0,0,0,0.0
Status,1732151914000,27,12,1,7,1575420030,31.30,132.0,4.0,0,0,0,26.3
Status,1732151914000,27,13,3,20,1602000000,0.00,114.0,53.0,0,0,0,0.0
Status,1732151914000,27,14,3,9,1602000000,0.00,81.0,33.0,0,0,0,0.0
Status,1732151914000,27,15,3,11,1602000000,0.00,310.0,28.0,0,0,0,0.0
Status,1732151914000,27,16,3,8,1602000000,24.90,247.0,23.0,1,0,0,19.9
Status,1732151914000,27,17,3,19,1602000000,0.00,33.0,23.0,0,0,0,0.0
Status,1732151914000,27,18,6,21,1575420030,0.00,343.0,68.0,0,0,0,0.0
Status,1732151914000,27,19,6,19,1575420030,0.00,243.0,46.0,0,0,0,0.0
Status,1732151914000,27,20,6,27,1575420030,0.00,64.0,34.0,0,0,0,0.0
Status,1732151914000,27,21,6,13,1575420030,0.00,120.0,28.0,0,0,0,0.0
Status,1732151914000,27,22,6,29,1575420030,0.00,191.0,25.0,0,0,0,0.0
Status,1732151914000,27,23,6,15,1575420030,0.00,62.0,24.0,0,0,0,0.0
Status,1732151914000,27,24,6,4,1575420030,0.00,311.0,23.0,0,0,0,0.0
Status,1732151914000,27,25,6,26,1575420030,0.00,167.0,6.0,0,0,0,0.0
Status,1732151914000,27,26,6,6,1575420030,0.00,327.0,5.0,0,0,0,0.0
Fix,GPS,37.4249283333,-122.1584666667,23.400000000000002,0.0,5.2,0.0,1732151915000,2.6,66.1,30799090000000,53.0,0,,,
Fix,FLP,37.4250795000,-122.1583943000,5.400000095367432,1.1275676,5.728,180.0,1732151915242,2.6,66.1,30799090000000,19.474302,0,,,
Raw,1732151915000,29509000000,,705649.0060200247,-1416187103491000064,0.0,110.58862905875053,1155.53383681147,0.0,0,15,0.0,16431,350332925029548,797,14.800000190734863,516.361416554201,0.14999,16,0.0,0.0,1575420030,,,,0,0.0,1,6.0,14.800000190734863,0.0,0.0,0.0,66.7128,C,30799090000000,
Raw,1732151915000,29509000000,,705649.0060200247,-1416187103491000064,0.0,110.58862905875053,1155.53383681147,0.0,0,7,0.0,16431,350332917138845,316,26.263999938964844,981.8766982372756,0.14999,16,0.0,0.0,1575420030,,,,0,11.787775283032502,1,6.0,26.263999938964844,0.0,0.0,0.0,66.7128,C,30799090000000,
Raw,1732151915000,29509000000,,705649.0060200247,-1416187103491000064,0.0,110.58862905875053,1155.53383681147,0.0,0,30,0.0,16431,350332926128619,316,25.301000595092773,856.5001137445553,0.14999,16,0.0,0.0,1575420030,,,,0,10.475661610462378,1,6.0,25.301000595092773,0.0,0.0,0.0,66.7128,C,30799090000000,
Raw,1732151915000,29509000000,,705649.0060200247,-1416187103491000064,0.0,110.58862905875053,1155.53383681147,0.0,0,19,0.0,16431,350332930835638,797,14.600000381469727,-37.72586000752447,0.14999,16,0.0,0.0,1575420030,,,,0,0.0,1,6.0,14.600000381469727,0.0,0.0,0.0,66.7128,C,30799090000000,
Raw,1732151915000,29509000000,,705649.0060200247,-1416187103491000064,0.0,110.58862905875053,1155.53383681147,0.0,0,13,0.0,16431,350332929013683,235,29.257999420166016,713.1002189750376,0.14999,16,0.0,0.0,1575420030,,,,0,15.631879543570992,1,6.0,29.257999420166016,0.0,0.0,0.0,66.7128,C,30799090000000,
Raw,1732151915000,29509000000,,705649.0060200247,-1416187103491000064,0.0,110.58862905875053,1155.53383681147,0.0,0,8,0.0,17,690772,487,5.0,927.6485965928163,0.14999,16,0.0,0.0,1605374980,,,,0,6.573703858037146,3,6.0,20.0,0.0,0.0,115.88091885971716,66.7128,C,30799090000000,
Raw,1732151915000,29509000000,,705649.0060200247,-1416187103491000064,0.0,110.58862905875053,1155.53383681147,0.0,0,2,0.0,16431,350332918868627,797,14.66100025177002,685.2227069526555,0.14999,16,0.0,0.0,1575420030,,,,0,0.0,1,6.0,14.66100025177002,0.0,0.0,0.0,66.7128,C,30799090000000,
Raw,1732151915000,29509000000,,705649.0060200247,-1416187103491000064,0.0,110.58862905875053,1155.53383681147,0.0,0,6,0.0,16431,350332918771627,797,14.399999618530273,-311.87683469066235,0.14999,16,0.0,0.0,1575420030,,,,0,0.0,1,6.0,14.399999618530273,0.0,0.0,0.0,66.7128,C,30799090000000,
Status,1732151915000,27,0,1,17,1575420030,0.00,83.0,79.0,0,0,0,0.0
Status,1732151915000,27,1,1,22,1575420030,0.00,13.0,66.0,0,0,0,0.0
Status,1732151915000,27,2,1,19,1575420030,19.00,200.0,61.0,1,0,0,14.0
Status,1732151915000,27,3,1,14,1575420030,0.00,52.0,53.0,0,0,0,0.0
Status,1732151915000,27,4,1,13,1575420030,33.10,234.0,48.0,1,0,0,28.099998
Status,1732151915000,27,5,2,135,1575420030,0.00,197.0,45.0,0,0,0,0.0
Status,1732151915000,27,6,1,30,1575420030,29.40,131.0,36.0,1,0,0,24.4
Status,1732151915000,27,7,1,15,1575420030,19.90,275.0,30.0,1,0,0,14.9
Status,1732151915000,27,8,1,2,1575420030,0.00,47.0,17.0,0,0,0,0.0
Status,1732151915000,27,9,1,24,1575420030,0.00,313.0,16.0,0,0,0,0.0
Status,1732151915000,27,10,1,6,1575420030,19.30,162.0,12.0,1,0,0,14.299999
Status,1732151915000,27,11,1,21,1575420030,0.00,34.0,5.0,0,0,0,0.0
Status,1732151915000,27,12,1,7,1575420030,26.00,132.0,4.0,0,0,0,21.0
Status,1732151915000,27,13,3,20,1602000000,0.00,114.0,53.0,0,0,0,0.0
Status,1732151915000,27,14,3,9,1602000000,0.00,81.0,33.0,0,0,0,0.0
Status,1732151915000,27,15,3,11,1602000000,0.00,310.0,28.0,0,0,0,0.0
Status,1732151915000,27,16,3,8,1602000000,25.00,247.0,23.0,1,0,0,20.0
Status,1732151915000,27,17,3,19,1602000000,0.00,33.0,23.0,0,0,0,0.0
Status,1732151915000,27,18,6,21,1575420030,0.00,343.0,68.0,0,0,0,0.0
Status,1732151915000,27,19,6,19,1575420030,0.00,243.0,46.0,0,0,0,0.0
Status,1732151915000,27,20,6,27,1575420030,0.00,64.0,34.0,0,0,0,0.0
Status,1732151915000,27,21,6,13,1575420030,0.00,120.0,28.0,0,0,0,0.0
Status,1732151915000,27,22,6,29,1575420030,0.00,191.0,25.0,0,0,0,0.0
Status,1732151915000,27,23,6,15,1575420030,0.00,62.0,24.0,0,0,0,0.0
Status,1732151915000,27,24,6,4,1575420030,0.00,311.0,23.0,0,0,0,0.0
Status,1732151915000,27,25,6,26,1575420030,0.00,167.0,6.0,0,0,0,0.0
Status,1732151915000,27,26,6,6,1575420030,0.00,327.0,5.0,0,0,0,0.0
Fix,GPS,37.4249350000,-122.1584750000,23.400000000000002,0.0,5.2,0.0,1732151916000,3.1,91.7,30800090000000,47.6,0,,,
Raw,1732151916000,30509000000,,705633.7871581813,-1416187103491000064,0.0,110.15263814696657,1153.9608161505646,0.0,0,15,0.0,16431,350333925027835,797,14.895999908447266,515.4432124162159,0.14999,16,0.0,0.0,1575420030,,,,0,0.0,1,6.0,14.895999908447266,0.0,0.0,0.0,66.7128,C,30800090000000,
Raw,1732151916000,30509000000,,705633.7871581813,-1416187103491000064,0.0,110.15263814696657,1153.9608161505646,0.0,0,7,0.0,16431,350333917135570,487,20.954999923706055,980.967228281538,0.14999,16,0.0,0.0,1575420030,,,,0,3.873632738237588,1,6.0,20.954999923706055,0.0,0.0,0.0,66.7128,C,30800090000000,
Raw,1732151916000,30509000000,,705633.7871581813,-1416187103491000064,0.0,110.15263814696657,1153.9608161505646,0.0,0,30,0.0,16431,350333926125761,396,24.423999786376953,856.2654058258596,0.14999,16,0.0,0.0,1575420030,,,,0,9.223084549100385,1,6.0,24.423999786376953,0.0,0.0,0.0,66.7128,C,30800090000000,
Raw,1732151916000,30509000000,,705633.7871581813,-1416187103491000064,0.0,110.15263814696657,1153.9608161505646,0.0,0,19,0.0,16431,350333930835764,797,14.0,-38.45367755587876,0.14999,16,0.0,0.0,1575420030,,,,0,0.0,1,6.0,14.0,0.0,0.0,0.0,66.7128,C,30800090000000,
Raw,1732151916000,30509000000,,705633.7871581813,-1416187103491000064,0.0,110.15263814696657,1153.9608161505646,0.0,0,13,0.0,16431,350333929011307,235,28.10300064086914,712.5782586689122,0.14999,16,0.0,0.0,1575420030,,,,0,14.182957674155231,1,6.0,28.10300064086914,0.0,0.0,0.0,66.7128,C,30800090000000,
Raw,1732151916000,30509000000,,705633.7871581813,-1416187103491000064,0.0,110.15263814696657,1153.9608161505646,0.0,0,8,0.0,17,687678,797,5.0,927.099400905436,0.14999,16,0.0,0.0,1605374980,,,,0,6.573703858037146,3,6.0,17.0,0.0,0.0,114.2794820987387,66.7128,C,30800090000000,
Raw,1732151916000,30509000000,,705633.7871581813,-1416187103491000064,0.0,110.15263814696657,1153.9608161505646,0.0,0,6,0.0,16431,350333918772667,797,14.300000190734863,-312.0231322433093,0.14999,16,0.0,0.0,1575420030,,,,0,0.0,1,6.0,14.300000190734863,0.0,0.0,0.0,66.7128,C,30800090000000,
Fix,FLP,37.4250062000,-122.1584313000,5.400000095367432,1.2848148,5.6,180.0,1732151916242,3.1,91.7,30800090000000,19.891632,0,,,
Status,1732151916000,27,0,1,17,1575420030,0.00,83.0,79.0,0,0,0,0.0
Status,1732151916000,27,1,1,22,1575420030,0.00,13.0,66.0,0,0,0,0.0
Status,1732151916000,27,2,1,19,1575420030,25.50,200.0,61.0,1,0,0,20.5
Status,1732151916000,27,3,1,14,1575420030,0.00,52.0,53.0,0,0,0,0.0
Status,1732151916000,27,4,1,13,1575420030,28.40,234.0,48.0,1,0,0,23.4
Status,1732151916000,27,5,2,135,1575420030,0.00,197.0,45.0,0,0,0,0.0
Status,1732151916000,27,6,1,30,1575420030,25.30,131.0,36.0,1,0,0,20.3
Status,1732151916000,27,7,1,15,1575420030,20.00,275.0,30.0,1,0,0,15.0
Status,1732151916000,27,8,1,2,1575420030,0.00,47.0,17.0,0,0,0,0.0
Status,1732151916000,27,9,1,24,1575420030,0.00,313.0,16.0,0,0,0,0.0
Status,1732151916000,27,10,1,6,1575420030,19.30,162.0,12.0,1,0,0,14.299999
Status,1732151916000,27,11,1,21,1575420030,0.00,34.0,5.0,0,0,0,0.0
Status,1732151916000,27,12,1,7,1575420030,31.00,132.0,4.0,0,0,0,26.0
Status,1732151916000,27,13,3,20,1602000000,0.00,114.0,53.0,0,0,0,0.0
Status,1732151916000,27,14,3,9,1602000000,0.00,81.0,33.0,0,0,0,0.0
Status,1732151916000,27,15,3,11,1602000000,0.00,310.0,28.0,0,0,0,0.0
Status,1732151916000,27,16,3,8,1602000000,25.10,247.0,23.0,1,0,0,20.1
Status,1732151916000,27,17,3,19,1602000000,0.00,33.0,23.0,0,0,0,0.0
Status,1732151916000,27,18,6,21,1575420030,0.00,343.0,68.0,0,0,0,0.0
Status,1732151916000,27,19,6,19,1575420030,0.00,243.0,46.0,0,0,0,0.0
Status,1732151916000,27,20,6,27,1575420030,0.00,64.0,34.0,0,0,0,0.0
Status,1732151916000,27,21,6,13,1575420030,0.00,120.0,28.0,0,0,0,0.0
Status,1732151916000,27,22,6,29,1575420030,0.00,191.0,25.0,0,0,0,0.0
Status,1732151916000,27,23,6,15,1575420030,0.00,62.0,24.0,0,0,0,0.0
Status,1732151916000,27,24,6,4,1575420030,0.00,311.0,23.0,0,0,0,0.0
Status,1732151916000,27,25,6,26,1575420030,0.00,167.0,6.0,0,0,0,0.0
Status,1732151916000,27,26,6,6,1575420030,0.00,327.0,5.0,0,0,0,0.0
Fix,GPS,37.4249433333,-122.1584850000,23.400000000000002,0.0,5.2,0.0,1732151917000,3.3,90.0,30801090000000,48.0,0,,,
Raw,1732151917000,31509000000,,705617.3174309809,-1416187103491000064,0.0,111.14587135386363,1148.9082694960484,0.0,0,15,0.0,16431,350334925026117,797,14.987000465393066,513.9772635511085,0.14999,16,0.0,0.0,1575420030,,,,0,0.0,1,6.0,14.987000465393066,0.0,0.0,0.0,66.7128,C,30801090000000,
Raw,1732151917000,31509000000,,705617.3174309809,-1416187103491000064,0.0,111.14587135386363,1148.9082694960484,0.0,0,7,0.0,16431,350334917132296,316,25.96299934387207,979.5764491338593,0.14999,16,0.0,0.0,1575420030,,,,0,11.38456033134629,1,6.0,25.96299934387207,0.0,0.0,0.0,66.7128,C,30801090000000,
