# 
# Header Description:
# 
# Version: v3.1.0.3 Platform: 13 Manufacturer: samsung Model: SM-S135DL GNSS Hardware Model Name: MediaTek,MT6631,MTK_MNLD_default,MNL_VER_default
# 
# Raw,utcTimeMillis,TimeNanos,LeapSecond,TimeUncertaintyNanos,FullBiasNanos,BiasNanos,BiasUncertaintyNanos,DriftNanosPerSecond,DriftUncertaintyNanosPerSecond,HardwareClockDiscontinuityCount,Svid,TimeOffsetNanos,State,ReceivedSvTimeNanos,ReceivedSvTimeUncertaintyNanos,Cn0DbHz,PseudorangeRateMetersPerSecond,PseudorangeRateUncertaintyMetersPerSecond,AccumulatedDeltaRangeState,AccumulatedDeltaRangeMeters,AccumulatedDeltaRangeUncertaintyMeters,CarrierFrequencyHz,CarrierCycles,CarrierPhase,CarrierPhaseUncertainty,MultipathIndicator,SnrInDb,ConstellationType,AgcDb,BasebandCn0DbHz,FullInterSignalBiasNanos,FullInterSignalBiasUncertaintyNanos,SatelliteInterSignalBiasNanos,SatelliteInterSignalBiasUncertaintyNanos,CodeType,ChipsetElapsedRealtimeNanos,IsFullTracking
# 
# UncalAccel,utcTimeMillis,elapsedRealtimeNanos,UncalAccelXMps2,UncalAccelYMps2,UncalAccelZMps2,BiasXMps2,BiasYMps2,BiasZMps2
# 
# Accel,utcTimeMillis,elapsedRealtimeNanos,AccelXMps2,AccelYMps2,AccelZMps2
# 
# UncalGyro,utcTimeMillis,elapsedRealtimeNanos,UncalGyroXRadPerSec,UncalGyroYRadPerSec,UncalGyroZRadPerSec,DriftXRadPerSec,DriftYRadPerSec,DriftZRadPerSec
# 
# Gyro,utcTimeMillis,elapsedRealtimeNanos,GyroXRadPerSec,GyroYRadPerSec,GyroZRadPerSec
# 
# UncalMag,utcTimeMillis,elapsedRealtimeNanos,UncalMagXMicroT,UncalMagYMicroT,UncalMagZMicroT,BiasXMicroT,BiasYMicroT,BiasZMicroT
# 
# Mag,utcTimeMillis,elapsedRealtimeNanos,MagXMicroT,MagYMicroT,MagZMicroT
# 
# Pressure,utcTimeMillis,elapsedRealtimeNanos,PressureHpa
# 
# OrientationDeg,utcTimeMillis,elapsedRealtimeNanos,yawDeg,rollDeg,pitchDeg
# 
# Fix,Provider,LatitudeDegrees,LongitudeDegrees,AltitudeMeters,SpeedMps,AccuracyMeters,BearingDegrees,UnixTimeMillis,SpeedAccuracyMps,BearingAccuracyDegrees,elapsedRealtimeNanos,VerticalAccuracyMeters,MockLocation,NumberOfUsedSignals,VerticalSpeedAccuracyMps,SolutionType
# 
# Nav,Svid,Type,Status,MessageId,Sub-messageId,Data(Bytes)
# 
# Status,UnixTimeMillis,SignalCount,SignalIndex,ConstellationType,Svid,CarrierFrequencyHz,Cn0DbHz,AzimuthDegrees,ElevationDegrees,UsedInFix,HasAlmanacData,HasEphemerisData,BasebandCn0DbHz
# 
# Agc,utcTimeMillis,TimeNanos,LeapSecond,TimeUncertaintyNanos,FullBiasNanos,BiasNanos,BiasUncertaintyNanos,DriftNanosPerSecond,DriftUncertaintyNanosPerSecond,HardwareClockDiscontinuityCount,AgcDb,CarrierFrequencyHz,ConstellationType
# 
Fix,FLP,37.4246633000,-122.1586515000,3.5107815516145715,0.73416007,34.818,0.07802143,1732151656142,1.5,45.0,30539989000000,15.804336,0,,,
Status,,18,0,1,17,1575420030,0.00,94.0,80.0,0,0,0,0.0
Status,,18,1,1,22,1575420030,0.00,9.0,67.0,0,0,0,0.0
Status,,18,2,1,19,1575420030,0.00,199.0,59.0,0,0,0,0.0
Status,,18,3,1,14,1575420030,0.00,50.0,54.0,0,0,0,0.0
Status,,18,4,1,13,1575420030,28.40,237.0,49.0,1,0,0,23.4
Status,,18,5,1,30,1575420030,36.80,130.0,38.0,1,0,0,31.8
Status,,18,6,1,15,1575420030,19.80,277.0,30.0,1,0,0,14.799999
Status,,18,7,1,2,1575420030,0.00,49.0,18.0,0,0,0,0.0
Status,,18,8,1,24,1575420030,0.00,313.0,15.0,0,0,0,0.0
Status,,18,9,1,6,1575420030,0.00,163.0,10.0,0,0,0,0.0
Status,,18,10,1,7,1575420030,29.90,131.0,6.0,0,0,0,24.9
Status,,18,11,1,21,1575420030,0.00,35.0,6.0,0,0,0,0.0
Status,,18,12,3,20,1602000000,0.00,117.0,51.0,0,0,0,0.0
Status,,18,13,3,9,1602000000,0.00,78.0,34.0,0,0,0,0.0
Status,,18,14,3,11,1602000000,0.00,308.0,27.0,0,0,0,0.0
Status,,18,15,3,19,1602000000,0.00,35.0,25.0,0,0,0,0.0
Status,,18,16,3,8,1602000000,0.00,248.0,24.0,0,0,0,0.0
Status,,18,17,3,17,1602000000,29.20,0.0,0.0,0,0,0,24.2
Fix,GPS,37.4246433333,-122.1585500000,23.500000000000004,0.0,37.1,0.0,1732151656275,2.2,179.9,30540367000000,86.9,0,,,
Fix,FLP,37.4248776000,-122.1585559000,3.5107815516145715,1.2561527,32.585,0.00001612779,1732151656519,1.5,45.0,30540367000000,17.516314,0,,,
Status,1732151656275,27,0,1,17,1575420030,0.00,94.0,80.0,0,0,0,0.0
Status,1732151656275,27,1,1,22,1575420030,0.00,9.0,67.0,0,0,0,0.0
Status,1732151656275,27,2,1,19,1575420030,0.00,199.0,59.0,0,0,0,0.0
Status,1732151656275,27,3,1,14,1575420030,0.00,50.0,54.0,0,0,0,0.0
Status,1732151656275,27,4,1,13,1575420030,28.40,237.0,49.0,1,0,0,23.4
Status,1732151656275,27,5,1,30,1575420030,42.30,130.0,38.0,1,0,0,37.3
Status,1732151656275,27,6,1,15,1575420030,22.30,277.0,30.0,1,0,0,17.3
Status,1732151656275,27,7,1,2,1575420030,0.00,49.0,18.0,0,0,0,0.0
Status,1732151656275,27,8,1,24,1575420030,0.00,313.0,15.0,0,0,0,0.0
Status,1732151656275,27,9,1,6,1575420030,0.00,163.0,10.0,0,0,0,0.0
Status,1732151656275,27,10,1,21,1575420030,0.00,35.0,6.0,0,0,0,0.0
Status,1732151656275,27,11,1,7,1575420030,42.20,131.0,6.0,0,0,0,37.2
Status,1732151656275,27,12,3,20,1602000000,0.00,117.0,51.0,0,0,0,0.0
Status,1732151656275,27,13,3,9,1602000000,0.00,78.0,34.0,0,0,0,0.0
Status,1732151656275,27,14,3,11,1602000000,0.00,308.0,27.0,0,0,0,0.0
Status,1732151656275,27,15,3,19,1602000000,0.00,35.0,25.0,0,0,0,0.0
Status,1732151656275,27,16,3,8,1602000000,0.00,248.0,24.0,0,0,0,0.0
Status,1732151656275,27,17,3,17,1602000000,30.00,0.0,0.0,0,0,0,25.0
Status,1732151656275,27,18,6,21,1575420030,0.00,340.0,68.0,0,0,0,0.0
Status,1732151656275,27,19,6,19,1575420030,0.00,245.0,47.0,0,0,0,0.0
Status,1732151656275,27,20,6,27,1575420030,0.00,63.0,35.0,0,0,0,0.0
Status,1732151656275,27,21,6,13,1575420030,0.00,121.0,27.0,0,0,0,0.0
Status,1732151656275,27,22,6,29,1575420030,0.00,192.0,26.0,0,0,0,0.0
Status,1732151656275,27,23,6,15,1575420030,0.00,64.0,24.0,0,0,0,0.0
Status,1732151656275,27,24,6,4,1575420030,0.00,312.0,22.0,0,0,0,0.0
Status,1732151656275,27,25,6,26,1575420030,0.00,168.0,5.0,0,0,0,0.0
Status,1732151656275,27,26,6,6,1575420030,0.00,328.0,4.0,0,0,0,0.0
Fix,GPS,37.4246550000,-122.1585200000,23.500000000000004,0.0,34.7,0.0,1732151657275,2.2,179.9,30541367000000,87.7,0,,,
Fix,FLP,37.4250252000,-122.1584840000,3.427323660307902,1.5021119,30.576,0.0000000015540953,1732151657519,1.5,45.0,30541367000000,17.917374,0,,,
Status,1732151657275,27,0,1,17,1575420030,0.00,94.0,80.0,0,0,0,0.0
Status,1732151657275,27,1,1,22,1575420030,0.00,9.0,67.0,0,0,0,0.0
Status,1732151657275,27,2,1,19,1575420030,0.00,199.0,59.0,0,0,0,0.0
Status,1732151657275,27,3,1,14,1575420030,0.00,50.0,54.0,0,0,0,0.0
Status,1732151657275,27,4,1,13,1575420030,30.50,237.0,49.0,1,0,0,25.5
Status,1732151657275,27,5,1,30,1575420030,25.70,130.0,38.0,1,0,0,20.7
Status,1732151657275,27,6,1,15,1575420030,22.30,277.0,30.0,1,0,0,17.3
Status,1732151657275,27,7,1,2,1575420030,0.00,49.0,18.0,0,0,0,0.0
Status,1732151657275,27,8,1,24,1575420030,0.00,313.0,15.0,0,0,0,0.0
Status,1732151657275,27,9,1,6,1575420030,0.00,163.0,10.0,0,0,0,0.0
Status,1732151657275,27,10,1,21,1575420030,0.00,35.0,6.0,0,0,0,0.0
Status,1732151657275,27,11,1,7,1575420030,29.30,131.0,6.0,1,0,0,24.3
Status,1732151657275,27,12,3,20,1602000000,0.00,117.0,51.0,0,0,0,0.0
Status,1732151657275,27,13,3,9,1602000000,22.40,78.0,34.0,1,0,0,17.4
Status,1732151657275,27,14,3,11,1602000000,0.00,308.0,27.0,0,0,0,0.0
Status,1732151657275,27,15,3,19,1602000000,0.00,35.0,25.0,0,0,0,0.0
Status,1732151657275,27,16,3,8,1602000000,24.20,248.0,24.0,1,0,0,19.2
Status,1732151657275,27,17,3,17,1602000000,28.90,0.0,0.0,0,0,0,23.9
Status,1732151657275,27,18,6,21,1575420030,0.00,340.0,68.0,0,0,0,0.0
Status,1732151657275,27,19,6,19,1575420030,0.00,245.0,47.0,0,0,0,0.0
Status,1732151657275,27,20,6,27,1575420030,0.00,63.0,35.0,0,0,0,0.0
Status,1732151657275,27,21,6,13,1575420030,0.00,121.0,27.0,0,0,0,0.0
Status,1732151657275,27,22,6,29,1575420030,0.00,192.0,26.0,0,0,0,0.0
Status,1732151657275,27,23,6,15,1575420030,0.00,64.0,24.0,0,0,0,0.0
Status,1732151657275,27,24,6,4,1575420030,0.00,312.0,22.0,0,0,0,0.0
Status,1732151657275,27,25,6,26,1575420030,0.00,168.0,5.0,0,0,0,0.0
Status,1732151657275,27,26,6,6,1575420030,0.00,328.0,4.0,0,0,0,0.0
Fix,GPS,37.4246766667,-122.1585333333,23.599999999999998,0.0,6.0,0.0,1732151659000,2.3,179.9,30543091000000,79.8,0,,,
Fix,FLP,37.4247394000,-122.1585229000,3.5937313697919686,0.6499653,24.432,0.0,1732151659243,2.3,179.9,30543091000000,17.542791,0,,,
Raw,1732151659000,23238000000,,996834.1998783705,-1416186853762999808,0.0,169.34304884969214,1210.3083790283342,0.0,0,13,0.0,16431,350076929618546,487,25.54199981689453,703.8466316342226,0.14999,16,0.0,0.0,1575420030,,,,0,10.79691657422935,1,6.0,25.54199981689453,0.0,0.0,0.0,66.7128,C,30543091000000,
Raw,1732151659000,23238000000,,996834.1998783705,-1416186853762999808,0.0,169.34304884969214,1210.3083790283342,0.0,0,30,0.0,16431,350076926859986,487,20.722999572753906,856.9446278708576,0.14999,16,0.0,0.0,1575420030,,,,0,3.4750637458284905,1,6.0,20.722999572753906,0.0,0.0,0.0,66.7128,C,30543091000000,
Raw,1732151659000,23238000000,,996834.1998783705,-1416186853762999808,0.0,169.34304884969214,1210.3083790283342,0.0,0,15,0.0,16431,350076925464087,797,17.3439998626709,502.9983035490666,0.14999,16,0.0,0.0,1575420030,,,,0,0.0,1,6.0,17.3439998626709,0.0,0.0,0.0,66.7128,C,30543091000000,
Raw,1732151659000,23238000000,,996834.1998783705,-1416186853762999808,0.0,169.34304884969214,1210.3083790283342,0.0,0,7,0.0,16431,350076917980401,316,24.349000930786133,990.3862075840626,0.14999,16,0.0,0.0,1575420030,,,,0,9.091595937342376,1,6.0,24.349000930786133,0.0,0.0,0.0,66.7128,C,30543091000000,
Raw,1732151659000,23238000000,,996834.1998783705,-1416186853762999808,0.0,169.34304884969214,1210.3083790283342,0.0,0,8,0.0,17,480554,487,5.0,921.9132720800278,0.14999,16,0.0,0.0,1605374980,,,,0,2.9268996913834924,3,6.0,19.0,0.0,0.0,108.7849709263062,66.7128,C,30543091000000,
Raw,1732151659000,23238000000,,996834.1998783705,-1416186853762999808,0.0,169.34304884969214,1210.3083790283342,0.0,0,9,0.0,17,577228,797,5.0,712.3655301653295,0.14999,16,0.0,0.0,1600875010,,,,0,0.0,3,6.0,15.0,0.0,0.0,108.7849709263062,66.7128,C,30543091000000,
Status,1732151659000,27,0,1,17,1575420030,0.00,94.0,80.0,0,0,0,0.0
Status,1732151659000,27,1,1,22,1575420030,0.00,9.0,67.0,0,0,0,0.0
Status,1732151659000,27,2,1,19,1575420030,26.30,199.0,59.0,1,0,0,21.3
Status,1732151659000,27,3,1,14,1575420030,0.00,50.0,54.0,0,0,0,0.0
Status,1732151659000,27,4,1,13,1575420030,23.90,237.0,49.0,1,0,0,18.9
Status,1732151659000,27,5,1,30,1575420030,25.70,130.0,38.0,1,0,0,20.7
Status,1732151659000,27,6,1,15,1575420030,22.30,277.0,30.0,1,0,0,17.3
Status,1732151659000,27,7,1,2,1575420030,0.00,49.0,18.0,0,0,0,0.0
Status,1732151659000,27,8,1,24,1575420030,0.00,313.0,15.0,0,0,0,0.0
Status,1732151659000,27,9,1,6,1575420030,19.10,163.0,10.0,1,0,0,14.1
Status,1732151659000,27,10,1,21,1575420030,0.00,35.0,6.0,0,0,0,0.0
Status,1732151659000,27,11,1,7,1575420030,29.30,131.0,6.0,1,0,0,24.3
Status,1732151659000,27,12,3,20,1602000000,0.00,117.0,51.0,0,0,0,0.0
Status,1732151659000,27,13,3,9,1602000000,0.00,78.0,34.0,0,0,0,0.0
Status,1732151659000,27,14,3,11,1602000000,0.00,308.0,27.0,0,0,0,0.0
Status,1732151659000,27,15,3,19,1602000000,0.00,35.0,25.0,0,0,0,0.0
Status,1732151659000,27,16,3,8,1602000000,24.20,248.0,24.0,1,0,0,19.2
Status,1732151659000,27,17,3,17,1602000000,24.40,0.0,0.0,0,0,0,19.4
Status,1732151659000,27,18,6,21,1575420030,0.00,340.0,68.0,0,0,0,0.0
Status,1732151659000,27,19,6,19,1575420030,0.00,245.0,47.0,0,0,0,0.0
Status,1732151659000,27,20,6,27,1575420030,0.00,63.0,35.0,0,0,0,0.0
Status,1732151659000,27,21,6,13,1575420030,0.00,121.0,27.0,0,0,0,0.0
Status,1732151659000,27,22,6,29,1575420030,0.00,192.0,26.0,0,0,0,0.0
Status,1732151659000,27,23,6,15,1575420030,0.00,64.0,24.0,0,0,0,0.0
Status,1732151659000,27,24,6,4,1575420030,0.00,312.0,22.0,0,0,0,0.0
Status,1732151659000,27,25,6,26,1575420030,0.00,168.0,5.0,0,0,0,0.0
Status,1732151659000,27,26,6,6,1575420030,0.00,328.0,4.0,0,0,0,0.0
Fix,GPS,37.4247466667,-122.1585316667,23.400000000000002,0.0,6.1,0.0,1732151660000,2.3,179.9,30544091000000,66.1,0,,,
Fix,FLP,37.4247458000,-122.1585274000,3.198755214569311,0.62850636,20.765,0.0,1732151660243,2.3,179.9,30544091000000,19.513395,0,,,
Raw,1732151660000,24238000000,,996863.1782591408,-1416186853762999808,0.0,161.95166428171797,1205.2481222613656,0.0,0,6,0.0,16431,350077918513061,797,14.100000381469727,-294.19257793536957,0.14999,16,0.0,0.0,1575420030,,,,0,0.0,1,6.0,14.100000381469727,0.0,0.0,0.0,66.7128,C,30544091000000,
Raw,1732151660000,24238000000,,996863.1782591408,-1416186853762999808,0.0,161.95166428171797,1205.2481222613656,0.0,0,13,0.0,16431,350077929616201,797,18.88800048828125,702.6761582962143,0.14999,16,0.0,0.0,1575420030,,,,0,0.21253810800221906,1,6.0,18.88800048828125,0.0,0.0,0.0,66.7128,C,30544091000000,
Raw,1732151660000,24238000000,,996863.1782591408,-1416186853762999808,0.0,161.95166428171797,1205.2481222613656,0.0,0,30,0.0,16431,350077926857128,487,20.722999572753906,856.3401109591262,0.14999,16,0.0,0.0,1575420030,,,,0,3.4750637458284905,1,6.0,20.722999572753906,0.0,0.0,0.0,66.7128,C,30544091000000,
Raw,1732151660000,24238000000,,996863.1782591408,-1416186853762999808,0.0,161.95166428171797,1205.2481222613656,0.0,0,19,0.0,16431,350077930800271,487,21.27899932861328,-44.69429723019174,0.14999,16,0.0,0.0,1575420030,,,,0,4.390213557041992,1,6.0,21.27899932861328,0.0,0.0,0.0,66.7128,C,30544091000000,
Raw,1732151660000,24238000000,,996863.1782591408,-1416186853762999808,0.0,161.95166428171797,1205.2481222613656,0.0,0,15,0.0,16431,350077925462389,797,17.297000885009766,500.9855391251612,0.14999,16,0.0,0.0,1575420030,,,,0,0.0,1,6.0,17.297000885009766,0.0,0.0,0.0,66.7128,C,30544091000000,
Raw,1732151660000,24238000000,,996863.1782591408,-1416186853762999808,0.0,161.95166428171797,1205.2481222613656,0.0,0,7,0.0,16431,350077917977099,487,24.349000930786133,989.2456534660939,0.14999,16,0.0,0.0,1575420030,,,,0,9.091595937342376,1,6.0,24.349000930786133,0.0,0.0,0.0,66.7128,C,30544091000000,
Raw,1732151660000,24238000000,,996863.1782591408,-1416186853762999808,0.0,161.95166428171797,1205.2481222613656,0.0,0,8,0.0,17,477477,797,5.0,920.4961046595956,0.14999,16,0.0,0.0,1605374980,,,,0,2.9268996913834924,3,6.0,16.0,0.0,0.0,108.47511675620655,66.7128,C,30544091000000,
Status,1732151660000,27,0,1,17,1575420030,0.00,94.0,80.0,0,0,0,0.0
Status,1732151660000,27,1,1,22,1575420030,0.00,9.0,67.0,0,0,0,0.0
Status,1732151660000,27,2,1,19,1575420030,0.00,199.0,59.0,0,0,0,0.0
Status,1732151660000,27,3,1,14,1575420030,0.00,50.0,54.0,0,0,0,0.0
Status,1732151660000,27,4,1,13,1575420030,23.90,237.0,49.0,1,0,0,18.9
Status,1732151660000,27,5,1,30,1575420030,25.70,130.0,38.0,1,0,0,20.7
Status,1732151660000,27,6,1,15,1575420030,0.00,277.0,30.0,0,0,0,0.0
Status,1732151660000,27,7,1,2,1575420030,0.00,49.0,18.0,0,0,0,0.0
Status,1732151660000,27,8,1,24,1575420030,0.00,313.0,15.0,0,0,0,0.0
Status,1732151660000,27,9,1,6,1575420030,19.10,163.0,10.0,1,0,0,14.1
Status,1732151660000,27,10,1,21,1575420030,0.00,35.0,6.0,0,0,0,0.0
Status,1732151660000,27,11,1,7,1575420030,29.80,131.0,6.0,1,0,0,24.8
Status,1732151660000,27,12,3,20,1602000000,0.00,117.0,51.0,0,0,0,0.0
Status,1732151660000,27,13,3,9,1602000000,0.00,78.0,34.0,0,0,0,0.0
Status,1732151660000,27,14,3,11,1602000000,0.00,308.0,27.0,0,0,0,0.0
Status,1732151660000,27,15,3,19,1602000000,0.00,35.0,25.0,0,0,0,0.0
Status,1732151660000,27,16,3,8,1602000000,0.00,248.0,24.0,0,0,0,0.0
Status,1732151660000,27,17,3,17,1602000000,22.50,0.0,0.0,0,0,0,17.5
Status,1732151660000,27,18,6,21,1575420030,0.00,340.0,68.0,0,0,0,0.0
Status,1732151660000,27,19,6,19,1575420030,0.00,245.0,47.0,0,0,0,0.0
Status,1732151660000,27,20,6,27,1575420030,0.00,63.0,35.0,0,0,0,0.0
Status,1732151660000,27,21,6,13,1575420030,0.00,121.0,27.0,0,0,0,0.0
Status,1732151660000,27,22,6,29,1575420030,0.00,192.0,26.0,0,0,0,0.0
Status,1732151660000,27,23,6,15,1575420030,0.00,64.0,24.0,0,0,0,0.0
Status,1732151660000,27,24,6,4,1575420030,0.00,312.0,22.0,0,0,0,0.0
Status,1732151660000,27,25,6,26,1575420030,0.00,168.0,5.0,0,0,0,0.0
Status,1732151660000,27,26,6,6,1575420030,0.00,328.0,4.0,0,0,0,0.0
Fix,GPS,37.4247866667,-122.1585250000,23.500000000000004,0.0,6.1,0.0,1732151661000,2.3,179.9,30545091000000,66.7,0,,,
Fix,FLP,37.4247675000,-122.1585263000,3.2318417505180337,0.6578383,14.296,0.0000000060470233,1732151661243,2.3,179.9,30545091000000,19.726725,0,,,
Raw,1732151661000,25238000000,,705966.7779400909,-1416186853762999808,0.0,163.4020110046939,1202.953850122518,0.0,0,6,0.0,16431,350078918514043,1797,14.100000381469727,-294.755142897263,0.14999,16,0.0,0.0,1575420030,,,,0,0.0,1,6.0,14.100000381469727,0.0,0.0,0.0,66.7128,C,30545091000000,
Raw,1732151661000,25238000000,,705966.7779400909,-1416186853762999808,0.0,163.4020110046939,1202.953850122518,0.0,0,13,0.0,16431,350078929613857,797,18.88800048828125,702.2801002980194,0.14999,16,0.0,0.0,1575420030,,,,0,0.21253810800221906,1,6.0,18.88800048828125,0.0,0.0,0.0,66.7128,C,30545091000000,
Raw,1732151661000,25238000000,,705966.7779400909,-1416186853762999808,0.0,163.4020110046939,1202.953850122518,0.0,0,30,0.0,16431,350078926854272,487,20.673999786376953,855.4375168489878,0.14999,16,0.0,0.0,1575420030,,,,0,3.3868813677273897,1,6.0,20.673999786376953,0.0,0.0,0.0,66.7128,C,30545091000000,
Raw,1732151661000,25238000000,,705966.7779400909,-1416186853762999808,0.0,163.4020110046939,1202.953850122518,0.0,0,7,0.0,16431,350078917973801,316,24.832000732421875,988.7317304659729,0.14999,16,0.0,0.0,1575420030,,,,0,9.797437074992578,1,6.0,24.832000732421875,0.0,0.0,0.0,66.7128,C,30545091000000,
Fix,NLP,37.4256901000,-122.1581223000,-0.4000000059604645,,98.4,,1732151661336,,,30545184000000,26.8105,0,,,
Status,1732151661000,28,0,1,17,1575420030,0.00,94.0,80.0,0,0,0,0.0
Status,1732151661000,28,1,1,22,1575420030,0.00,9.0,67.0,0,0,0,0.0
Status,1732151661000,28,2,1,19,1575420030,0.00,199.0,59.0,0,0,0,0.0
Status,1732151661000,28,3,1,14,1575420030,0.00,50.0,54.0,0,0,0,0.0
Status,1732151661000,28,4,1,13,1575420030,23.90,237.0,49.0,1,0,0,18.9
Status,1732151661000,28,5,2,133,1575420030,0.00,191.0,45.0,0,0,0,0.0
Status,1732151661000,28,6,1,30,1575420030,30.20,130.0,38.0,1,0,0,25.2
Status,1732151661000,28,7,1,15,1575420030,0.00,277.0,30.0,0,0,0,0.0
Status,1732151661000,28,8,1,2,1575420030,0.00,49.0,18.0,0,0,0,0.0
Status,1732151661000,28,9,1,24,1575420030,0.00,313.0,15.0,0,0,0,0.0
Status,1732151661000,28,10,1,6,1575420030,19.10,163.0,10.0,1,0,0,14.1
Status,1732151661000,28,11,1,21,1575420030,0.00,35.0,6.0,0,0,0,0.0
Status,1732151661000,28,12,1,7,1575420030,31.90,131.0,6.0,1,0,0,26.9
Status,1732151661000,28,13,3,20,1602000000,0.00,117.0,51.0,0,0,0,0.0
Status,1732151661000,28,14,3,9,1602000000,0.00,78.0,34.0,0,0,0,0.0
Status,1732151661000,28,15,3,11,1602000000,0.00,308.0,27.0,0,0,0,0.0
Status,1732151661000,28,16,3,19,1602000000,0.00,35.0,25.0,0,0,0,0.0
Status,1732151661000,28,17,3,8,1602000000,0.00,248.0,24.0,0,0,0,0.0
Status,1732151661000,28,18,3,17,1602000000,23.00,0.0,0.0,0,0,0,18.0
Status,1732151661000,28,19,6,21,1575420030,0.00,340.0,68.0,0,0,0,0.0
Status,1732151661000,28,20,6,19,1575420030,0.00,245.0,47.0,0,0,0,0.0
Status,1732151661000,28,21,6,27,1575420030,0.00,63.0,35.0,0,0,0,0.0
Status,1732151661000,28,22,6,13,1575420030,0.00,121.0,27.0,0,0,0,0.0
Status,1732151661000,28,23,6,29,1575420030,0.00,192.0,26.0,0,0,0,0.0
Status,1732151661000,28,24,6,15,1575420030,0.00,64.0,24.0,0,0,0,0.0
Status,1732151661000,28,25,6,4,1575420030,0.00,312.0,22.0,0,0,0,0.0
Status,1732151661000,28,26,6,26,1575420030,0.00,168.0,5.0,0,0,0,0.0
Status,1732151661000,28,27,6,6,1575420030,0.00,328.0,4.0,0,0,0,0.0
Fix,GPS,37.4248250000,-122.1585166667,23.500000000000004,0.0,6.1,0.0,1732151662000,2.3,171.8,30546091000000,53.8,0,,,
Fix,FLP,37.4247958000,-122.1585227000,5.400000095367432,0.60902303,9.493,0.00000000033963235,1732151662243,2.3,171.8,30546091000000,12.618452,0,,,
Raw,1732151662000,26238000000,,705911.4271480439,-1416186853762999808,0.0,137.27331131848803,1199.9142813787278,0.0,0,6,0.0,16431,350079918515029,797,14.100000381469727,-295.6167142258874,0.14999,16,0.0,0.0,1575420030,,,,0,0.0,1,6.0,14.100000381469727,0.0,0.0,0.0,66.7128,C,30546091000000,
Raw,1732151662000,26238000000,,705911.4271480439,-1416186853762999808,0.0,137.27331131848803,1199.9142813787278,0.0,0,13,0.0,16431,350079929611517,797,18.88800048828125,701.3278885993683,0.14999,16,0.0,0.0,1575420030,,,,0,0.21253810800221906,1,6.0,18.88800048828125,0.0,0.0,0.0,66.7128,C,30546091000000,
Raw,1732151662000,26238000000,,705911.4271480439,-1416186853762999808,0.0,137.27331131848803,1199.9142813787278,0.0,0,30,0.0,16431,350079926851417,316,25.183000564575195,855.4956827860834,0.14999,16,0.0,0.0,1575420030,,,,0,10.291554530848082,1,6.0,25.183000564575195,0.0,0.0,0.0,66.7128,C,30546091000000,
Raw,1732151662000,26238000000,,705911.4271480439,-1416186853762999808,0.0,137.27331131848803,1199.9142813787278,0.0,0,7,0.0,16431,350079917970500,235,26.868000030517578,988.628035280991,0.14999,16,0.0,0.0,1575420030,,,,0,12.567342020264714,1,6.0,26.868000030517578,0.0,0.0,0.0,66.7128,C,30546091000000,
Status,1732151662000,28,0,1,17,1575420030,0.00,94.0,80.0,0,0,0,0.0
Status,1732151662000,28,1,1,22,1575420030,0.00,9.0,67.0,0,0,0,0.0
Status,1732151662000,28,2,1,19,1575420030,0.00,199.0,59.0,0,0,0,0.0
Status,1732151662000,28,3,1,14,1575420030,0.00,50.0,54.0,0,0,0,0.0
Status,1732151662000,28,4,1,13,1575420030,21.50,237.0,49.0,1,0,0,16.5
Status,1732151662000,28,5,2,133,1575420030,0.00,191.0,45.0,0,0,0,0.0
Status,1732151662000,28,6,1,30,1575420030,29.20,130.0,38.0,1,0,0,24.2
Status,1732151662000,28,7,1,15,1575420030,0.00,277.0,30.0,0,0,0,0.0
Status,1732151662000,28,8,1,2,1575420030,0.00,49.0,18.0,0,0,0,0.0
Status,1732151662000,28,9,1,24,1575420030,0.00,313.0,15.0,0,0,0,0.0
Status,1732151662000,28,10,1,6,1575420030,19.10,163.0,10.0,1,0,0,14.1
Status,1732151662000,28,11,1,21,1575420030,0.00,35.0,6.0,0,0,0,0.0
Status,1732151662000,28,12,1,7,1575420030,30.60,131.0,6.0,1,0,0,25.6
Status,1732151662000,28,13,3,20,1602000000,0.00,117.0,51.0,0,0,0,0.0
Status,1732151662000,28,14,3,9,1602000000,0.00,78.0,34.0,0,0,0,0.0
Status,1732151662000,28,15,3,11,1602000000,0.00,308.0,27.0,0,0,0,0.0
Status,1732151662000,28,16,3,19,1602000000,0.00,35.0,25.0,0,0,0,0.0
Status,1732151662000,28,17,3,8,1602000000,0.00,248.0,24.0,0,0,0,0.0
Status,1732151662000,28,18,3,17,1602000000,22.10,0.0,0.0,0,0,0,17.1
Status,1732151662000,28,19,6,21,1575420030,0.00,340.0,68.0,0,0,0,0.0
Status,1732151662000,28,20,6,19,1575420030,0.00,245.0,47.0,0,0,0,0.0
Status,1732151662000,28,21,6,27,1575420030,0.00,63.0,35.0,0,0,0,0.0
Status,1732151662000,28,22,6,13,1575420030,0.00,121.0,27.0,0,0,0,0.0
Status,1732151662000,28,23,6,29,1575420030,19.60,192.0,26.0,1,0,0,14.6
Status,1732151662000,28,24,6,15,1575420030,0.00,64.0,24.0,0,0,0,0.0
Status,1732151662000,28,25,6,4,1575420030,0.00,312.0,22.0,0,0,0,0.0
Status,1732151662000,28,26,6,26,1575420030,0.00,168.0,5.0,0,0,0,0.0
Status,1732151662000,28,27,6,6,1575420030,0.00,328.0,4.0,0,0,0,0.0
Fix,GPS,37.4248450000,-122.1585000000,23.500000000000004,0.0,6.1,0.0,1732151663000,2.3,115.2,30547091000000,89.5,0,,,
Raw,1732151663000,27238000000,,705899.4396883727,-1416186853762999808,0.0,269.9004895064798,1196.3008673150862,0.0,0,6,0.0,16431,350080918516008,797,14.119999885559082,-295.6297690408426,0.14999,16,0.0,0.0,1575420030,,,,0,0.0,1,6.0,14.119999885559082,0.0,0.0,0.0,66.7128,C,30547091000000,
Raw,1732151663000,27238000000,,705899.4396883727,-1416186853762999808,0.0,269.9004895064798,1196.3008673150862,0.0,0,13,0.0,16431,350080929609169,797,16.518999099731445,700.3552351975844,0.14999,16,0.0,0.0,1575420030,,,,0,0.0,1,6.0,16.518999099731445,0.0,0.0,0.0,66.7128,C,30547091000000,
Raw,1732151663000,27238000000,,705899.4396883727,-1416186853762999808,0.0,269.9004895064798,1196.3008673150862,0.0,0,30,0.0,16431,350080926848559,487,24.17099952697754,854.5275823090882,0.14999,16,0.0,0.0,1575420030,,,,0,8.811381648486083,1,6.0,24.17099952697754,0.0,0.0,0.0,66.7128,C,30547091000000,
Raw,1732151663000,27238000000,,705899.4396883727,-1416186853762999808,0.0,269.9004895064798,1196.3008673150862,0.0,0,29,0.0,16431,350080913146286,797,14.600000381469727,918.0048313795357,0.14999,16,0.0,0.0,1575420030,,,,0,0.0,6,6.0,14.600000381469727,0.0,0.0,-9.008436167958047,66.7128,C,30547091000000,
Raw,1732151663000,27238000000,,705899.4396883727,-1416186853762999808,0.0,269.9004895064798,1196.3008673150862,0.0,0,7,0.0,16431,350080917967197,396,25.618999481201172,988.1409652454397,0.14999,16,0.0,0.0,1575420030,,,,0,10.872119551695487,1,6.0,25.618999481201172,0.0,0.0,0.0,66.7128,C,30547091000000,
Fix,FLP,37.4248185000,-122.1585142000,5.400000095367432,0.6079152,6.083,0.00000000033194814,1732151663243,2.3,115.2,30547091000000,17.84553,0,,,
Status,1732151663000,28,0,1,17,1575420030,0.00,94.0,80.0,0,0,0,0.0
Status,1732151663000,28,1,1,22,1575420030,0.00,9.0,67.0,0,0,0,0.0
Status,1732151663000,28,2,1,19,1575420030,0.00,199.0,59.0,0,0,0,0.0
Status,1732151663000,28,3,1,14,1575420030,0.00,50.0,54.0,0,0,0,0.0
Status,1732151663000,28,4,1,13,1575420030,21.50,237.0,49.0,1,0,0,16.5
Status,1732151663000,28,5,2,133,1575420030,0.00,191.0,45.0,0,0,0,0.0
Status,1732151663000,28,6,1,30,1575420030,24.80,130.0,38.0,1,0,0,19.8
Status,1732151663000,28,7,1,15,1575420030,0.00,277.0,30.0,0,0,0,0.0
Status,1732151663000,28,8,1,2,1575420030,0.00,49.0,18.0,0,0,0,0.0
Status,1732151663000,28,9,1,24,1575420030,0.00,313.0,15.0,0,0,0,0.0
Status,1732151663000,28,10,1,6,1575420030,19.10,163.0,10.0,1,0,0,14.1
Status,1732151663000,28,11,1,21,1575420030,0.00,35.0,6.0,0,0,0,0.0
Status,1732151663000,28,12,1,7,1575420030,25.60,131.0,6.0,1,0,0,20.6
Status,1732151663000,28,13,3,20,1602000000,0.00,117.0,51.0,0,0,0,0.0
Status,1732151663000,28,14,3,9,1602000000,0.00,78.0,34.0,0,0,0,0.0
Status,1732151663000,28,15,3,11,1602000000,0.00,308.0,27.0,0,0,0,0.0
Status,1732151663000,28,16,3,19,1602000000,0.00,35.0,25.0,0,0,0,0.0
Status,1732151663000,28,17,3,8,1602000000,0.00,248.0,24.0,0,0,0,0.0
Status,1732151663000,28,18,3,17,1602000000,23.80,0.0,0.0,0,0,0,18.8
Status,1732151663000,28,19,6,21,1575420030,0.00,340.0,68.0,0,0,0,0.0
Status,1732151663000,28,20,6,19,1575420030,0.00,245.0,47.0,0,0,0,0.0
Status,1732151663000,28,21,6,27,1575420030,0.00,63.0,35.0,0,0,0,0.0
Status,1732151663000,28,22,6,13,1575420030,0.00,121.0,27.0,0,0,0,0.0
Status,1732151663000,28,23,6,29,1575420030,17.50,192.0,26.0,1,0,0,12.5
Status,1732151663000,28,24,6,15,1575420030,0.00,64.0,24.0,0,0,0,0.0
Status,1732151663000,28,25,6,4,1575420030,0.00,312.0,22.0,0,0,0,0.0
Status,1732151663000,28,26,6,26,1575420030,0.00,168.0,5.0,0,0,0,0.0
Status,1732151663000,28,27,6,6,1575420030,0.00,328.0,4.0,0,0,0,0.0
Fix,GPS,37.4248566667,-122.1584866667,23.500000000000004,0.0,6.2,0.0,1732151664000,2.3,112.8,30548091000000,91.5,0,,,
Raw,1732151664000,28238000000,,705876.7156343873,-1416186853762999808,0.0,273.6276875544634,1196.8360094678994,0.0,0,6,0.0,16431,350081918516999,797,14.138999938964844,-296.9972725219998,0.14999,16,0.0,0.0,1575420030,,,,0,0.0,1,6.0,14.138999938964844,0.0,0.0,0.0,66.7128,C,30548091000000,
Raw,1732151664000,28238000000,,705876.7156343873,-1416186853762999808,0.0,273.6276875544634,1196.8360094678994,0.0,0,13,0.0,16431,350081929606832,797,16.518999099731445,700.8170783131334,0.14999,16,0.0,0.0,1575420030,,,,0,0.0,1,6.0,16.518999099731445,0.0,0.0,0.0,66.7128,C,30548091000000,
Raw,1732151664000,28238000000,,705876.7156343873,-1416186853762999808,0.0,273.6276875544634,1196.8360094678994,0.0,0,30,0.0,16431,350081926845706,487,19.844999313354492,854.4750842987703,0.14999,16,0.0,0.0,1575420030,,,,0,1.9439217013989705,1,6.0,19.844999313354492,0.0,0.0,0.0,66.7128,C,30548091000000,
Raw,1732151664000,28238000000,,705876.7156343873,-1416186853762999808,0.0,273.6276875544634,1196.8360094678994,0.0,0,29,0.0,16431,350081913143203,487,12.5,918.2268096921897,0.14999,16,0.0,0.0,1575420030,,,,0,0.0,6,6.0,12.5,0.0,0.0,-9.008436167958047,66.7128,C,30548091000000,
Raw,1732151664000,28238000000,,705876.7156343873,-1416186853762999808,0.0,273.6276875544634,1196.8360094678994,0.0,0,7,0.0,16431,350081917963901,396,20.624000549316406,988.0259342069024,0.14999,16,0.0,0.0,1575420030,,,,0,3.29779453920239,1,6.0,20.624000549316406,0.0,0.0,0.0,66.7128,C,30548091000000,
Fix,FLP,37.4248371000,-122.1585039000,5.400000095367432,0.5982731,6.1,0.00000000017047773,1732151664243,2.3,112.8,30548091000000,17.411293,0,,,
Status,1732151664000,28,0,1,17,1575420030,0.00,94.0,80.0,0,0,0,0.0
Status,1732151664000,28,1,1,22,1575420030,0.00,9.0,67.0,0,0,0,0.0
Status,1732151664000,28,2,1,19,1575420030,0.00,199.0,59.0,0,0,0,0.0
Status,1732151664000,28,3,1,14,1575420030,0.00,50.0,54.0,0,0,0,0.0
Status,1732151664000,28,4,1,13,1575420030,21.60,237.0,49.0,1,0,0,16.6
Status,1732151664000,28,5,2,133,1575420030,0.00,191.0,45.0,0,0,0,0.0
Status,1732151664000,28,6,1,30,1575420030,24.80,130.0,38.0,1,0,0,19.8
Status,1732151664000,28,7,1,15,1575420030,0.00,277.0,30.0,0,0,0,0.0
Status,1732151664000,28,8,1,2,1575420030,0.00,49.0,18.0,0,0,0,0.0
Status,1732151664000,28,9,1,24,1575420030,0.00,313.0,15.0,0,0,0,0.0
Status,1732151664000,28,10,1,6,1575420030,19.20,163.0,10.0,1,0,0,14.200001
Status,1732151664000,28,11,1,21,1575420030,0.00,35.0,6.0,0,0,0,0.0
Status,1732151664000,28,12,1,7,1575420030,26.00,131.0,6.0,1,0,0,21.0
Status,1732151664000,28,13,3,20,1602000000,0.00,117.0,51.0,0,0,0,0.0
Status,1732151664000,28,14,3,9,1602000000,0.00,78.0,34.0,0,0,0,0.0
Status,1732151664000,28,15,3,11,1602000000,0.00,308.0,27.0,0,0,0,0.0
Status,1732151664000,28,16,3,19,1602000000,0.00,35.0,25.0,0,0,0,0.0
Status,1732151664000,28,17,3,8,1602000000,0.00,248.0,24.0,0,0,0,0.0
Status,1732151664000,28,18,3,17,1602000000,24.30,0.0,0.0,0,0,0,19.3
Status,1732151664000,28,19,6,21,1575420030,0.00,340.0,68.0,0,0,0,0.0
Status,1732151664000,28,20,6,19,1575420030,0.00,245.0,47.0,0,0,0,0.0
Status,1732151664000,28,21,6,27,1575420030,0.00,63.0,35.0,0,0,0,0.0
Status,1732151664000,28,22,6,13,1575420030,0.00,121.0,27.0,0,0,0,0.0
Status,1732151664000,28,23,6,29,1575420030,21.50,192.0,26.0,1,0,0,16.5
Status,1732151664000,28,24,6,15,1575420030,0.00,64.0,24.0,0,0,0,0.0
Status,1732151664000,28,25,6,4,1575420030,0.00,312.0,22.0,0,0,0,0.0
Status,1732151664000,28,26,6,26,1575420030,0.00,168.0,5.0,0,0,0,0.0
Status,1732151664000,28,27,6,6,1575420030,0.00,328.0,4.0,0,0,0,0.0
Fix,GPS,37.4248816667,-122.1584583333,23.500000000000004,0.0,6.2,0.0,1732151665000,2.3,103.9,30549091000000,92.1,0,,,
Fix,FLP,37.4248589000,-122.1584866000,5.400000095367432,0.6459034,6.128,0.00000000021129061,1732151665243,2.3,103.9,30549091000000,16.478825,0,,,
Raw,1732151665000,29238000000,,705834.7074061483,-1416186853762999808,0.0,272.43474394129595,1197.366067909483,0.0,0,6,0.0,16431,350082918517990,1797,14.156999588012695,-296.7470474922898,0.14999,16,0.0,0.0,1575420030,,,,0,0.0,1,6.0,14.156999588012695,0.0,0.0,0.0,66.7128,C,30549091000000,
Raw,1732151665000,29238000000,,705834.7074061483,-1416186853762999808,0.0,272.43474394129595,1197.366067909483,0.0,0,13,0.0,16431,350082929604499,797,16.599000930786133,701.0588014526768,0.14999,16,0.0,0.0,1575420030,,,,0,0.0,1,6.0,16.599000930786133,0.0,0.0,0.0,66.7128,C,30549091000000,
Raw,1732151665000,29238000000,,705834.7074061483,-1416186853762999808,0.0,272.43474394129595,1197.366067909483,0.0,0,30,0.0,16431,350082926842857,797,19.844999313354492,854.1247878405428,0.14999,16,0.0,0.0,1575420030,,,,0,1.9439217013989705,1,6.0,19.844999313354492,0.0,0.0,0.0,66.7128,C,30549091000000,
Raw,1732151665000,29238000000,,705834.7074061483,-1416186853762999808,0.0,272.43474394129595,1197.366067909483,0.0,0,29,0.0,16431,350082913140124,797,16.5,918.4596592742369,0.14999,16,0.0,0.0,1575420030,,,,0,0.0,6,6.0,16.5,0.0,0.0,-9.008436167958047,66.7128,C,30549091000000,
Raw,1732151665000,29238000000,,705834.7074061483,-1416186853762999808,0.0,272.43474394129595,1197.366067909483,0.0,0,7,0.0,16431,350082917960605,487,21.003000259399414,988.5059425631897,0.14999,16,0.0,0.0,1575420030,,,,0,3.903026639853099,1,6.0,21.003000259399414,0.0,0.0,0.0,66.7128,C,30549091000000,
Fix,FLP,37.4248712000,-122.1584759000,5.400000095367432,0.5634323,6.142,0.00000000012803641,1732151666194,2.3,103.9,30550042000000,15.718773,0,,,
Fix,NLP,37.4256374000,-122.1580722000,-0.4000000059604645,,27.684,,1732151666194,,,30550042000000,50.754326,0,,,
Status,1732151665000,28,0,1,17,1575420030,0.00,94.0,80.0,0,0,0,0.0
Status,1732151665000,28,1,1,22,1575420030,0.00,9.0,67.0,0,0,0,0.0
Status,1732151665000,28,2,1,19,1575420030,0.00,199.0,59.0,0,0,0,0.0
Status,1732151665000,28,3,1,14,1575420030,0.00,50.0,54.0,0,0,0,0.0
Status,1732151665000,28,4,1,13,1575420030,25.40,237.0,49.0,1,0,0,20.4
Status,1732151665000,28,5,2,133,1575420030,0.00,191.0,45.0,0,0,0,0.0
Status,1732151665000,28,6,1,30,1575420030,24.70,130.0,38.0,1,0,0,19.7
Status,1732151665000,28,7,1,15,1575420030,0.00,277.0,30.0,0,0,0,0.0
Status,1732151665000,28,8,1,2,1575420030,0.00,49.0,18.0,0,0,0,0.0
Status,1732151665000,28,9,1,24,1575420030,0.00,313.0,15.0,0,0,0,0.0
Status,1732151665000,28,10,1,6,1575420030,17.10,163.0,10.0,1,0,0,12.1
Status,1732151665000,28,11,1,21,1575420030,0.00,35.0,6.0,0,0,0,0.0
Status,1732151665000,28,12,1,7,1575420030,26.00,131.0,6.0,1,0,0,21.0
Status,1732151665000,28,13,3,20,1602000000,0.00,117.0,51.0,0,0,0,0.0
Status,1732151665000,28,14,3,9,1602000000,0.00,78.0,34.0,0,0,0,0.0
Status,1732151665000,28,15,3,11,1602000000,0.00,308.0,27.0,0,0,0,0.0
Status,1732151665000,28,16,3,19,1602000000,0.00,35.0,25.0,0,0,0,0.0
Status,1732151665000,28,17,3,8,1602000000,0.00,248.0,24.0,0,0,0,0.0
Status,1732151665000,28,18,3,17,1602000000,26.80,0.0,0.0,0,0,0,21.8
Status,1732151665000,28,19,6,21,1575420030,0.00,340.0,68.0,0,0,0,0.0
Status,1732151665000,28,20,6,19,1575420030,0.00,245.0,47.0,0,0,0,0.0
Status,1732151665000,28,21,6,27,1575420030,0.00,63.0,35.0,0,0,0,0.0
Status,1732151665000,28,22,6,13,1575420030,0.00,121.0,27.0,0,0,0,0.0
Status,1732151665000,28,23,6,29,1575420030,0.00,192.0,26.0,0,0,0,0.0
Status,1732151665000,28,24,6,15,1575420030,0.00,64.0,24.0,0,0,0,0.0
Status,1732151665000,28,25,6,4,1575420030,0.00,312.0,22.0,0,0,0,0.0
Status,1732151665000,28,26,6,26,1575420030,0.00,168.0,5.0,0,0,0,0.0
Status,1732151665000,28,27,6,6,1575420030,0.00,328.0,4.0,0,0,0,0.0
Fix,GPS,37.4248916667,-122.1584366667,23.500000000000004,0.0,6.2,0.0,1732151666000,2.3,105.6,30550091000000,94.2,0,,,
Raw,1732151666000,30238000000,,705811.8269939933,-1416186853762999808,0.0,276.21268713742904,1199.8081104123535,0.0,0,6,0.0,16431,350083918519011,1797,12.100000381469727,-295.503634440831,0.14999,16,0.0,0.0,1575420030,,,,0,0.0,1,6.0,12.100000381469727,0.0,0.0,0.0,66.7128,C,30550091000000,
Raw,1732151666000,30238000000,,705811.8269939933,-1416186853762999808,0.0,276.21268713742904,1199.8081104123535,0.0,0,13,0.0,16431,350083929602144,487,20.375,701.7149336648182,0.14999,16,0.0,0.0,1575420030,,,,0,2.838116400788598,1,6.0,20.375,0.0,0.0,0.0,66.7128,C,30550091000000,
Raw,1732151666000,30238000000,,705811.8269939933,-1416186853762999808,0.0,276.21268713742904,1199.8081104123535,0.0,0,30,0.0,16431,350083926840005,487,19.676000595092773,855.5159386555512,0.14999,16,0.0,0.0,1575420030,,,,0,1.6241595937163633,1,6.0,19.676000595092773,0.0,0.0,0.0,66.7128,C,30550091000000,
Raw,1732151666000,30238000000,,705811.8269939933,-1416186853762999808,0.0,276.21268713742904,1199.8081104123535,0.0,0,7,0.0,16431,350083917957306,797,21.003000259399414,989.3273273617921,0.14999,16,0.0,0.0,1575420030,,,,0,3.903026639853099,1,6.0,21.003000259399414,0.0,0.0,0.0,66.7128,C,30550091000000,
Status,1732151666000,28,0,1,17,1575420030,0.00,94.0,80.0,0,0,0,0.0
Status,1732151666000,28,1,1,22,1575420030,0.00,9.0,67.0,0,0,0,0.0
Status,1732151666000,28,2,1,19,1575420030,0.00,199.0,59.0,0,0,0,0.0
Status,1732151666000,28,3,1,14,1575420030,0.00,50.0,54.0,0,0,0,0.0
Status,1732151666000,28,4,1,13,1575420030,25.40,237.0,49.0,1,0,0,20.4
Status,1732151666000,28,5,2,133,1575420030,0.00,191.0,45.0,0,0,0,0.0
Status,1732151666000,28,6,1,30,1575420030,24.70,130.0,38.0,1,0,0,19.7
Status,1732151666000,28,7,1,15,1575420030,16.90,277.0,30.0,1,0,0,11.9
Status,1732151666000,28,8,1,2,1575420030,0.00,49.0,18.0,0,0,0,0.0
Status,1732151666000,28,9,1,24,1575420030,0.00,313.0,15.0,0,0,0,0.0
Status,1732151666000,28,10,1,6,1575420030,17.10,163.0,10.0,1,0,0,12.1
Status,1732151666000,28,11,1,21,1575420030,0.00,35.0,6.0,0,0,0,0.0
Status,1732151666000,28,12,1,7,1575420030,26.00,131.0,6.0,1,0,0,21.0
Status,1732151666000,28,13,3,20,1602000000,0.00,117.0,51.0,0,0,0,0.0
Status,1732151666000,28,14,3,9,1602000000,0.00,78.0,34.0,0,0,0,0.0
Status,1732151666000,28,15,3,11,1602000000,0.00,308.0,27.0,0,0,0,0.0
Status,1732151666000,28,16,3,19,1602000000,0.00,35.0,25.0,0,0,0,0.0
Status,1732151666000,28,17,3,8,1602000000,25.00,248.0,24.0,1,0,0,20.0
Status,1732151666000,28,18,3,17,1602000000,24.10,0.0,0.0,0,0,0,19.1
Status,1732151666000,28,19,6,21,1575420030,0.00,340.0,68.0,0,0,0,0.0
Status,1732151666000,28,20,6,19,1575420030,0.00,245.0,47.0,0,0,0,0.0
Status,1732151666000,28,21,6,27,1575420030,0.00,63.0,35.0,0,0,0,0.0
Status,1732151666000,28,22,6,13,1575420030,0.00,121.0,27.0,0,0,0,0.0
Status,1732151666000,28,23,6,29,1575420030,0.00,192.0,26.0,0,0,0,0.0
Status,1732151666000,28,24,6,15,1575420030,0.00,64.0,24.0,0,0,0,0.0
Status,1732151666000,28,25,6,4,1575420030,0.00,312.0,22.0,0,0,0,0.0
Status,1732151666000,28,26,6,26,1575420030,0.00,168.0,5.0,0,0,0,0.0
Status,1732151666000,28,27,6,6,1575420030,0.00,328.0,4.0,0,0,0,0.0
Fix,GPS,37.4248983333,-122.1584233333,23.500000000000004,0.0,6.2,0.0,1732151667000,2.3,108.3,30551091000000,96.9,0,,,
Fix,FLP,37.4248877000,-122.1584508000,5.400000095367432,0.45520672,6.171,0.00000000027698815,1732151667243,2.3,108.3,30551091000000,15.913112,0,,,
Raw,1732151667000,31238000000,,705787.2266419724,-1416186853762999808,0.0,280.97636883327266,1203.0255490111442,0.0,0,6,0.0,16431,350084918519996,1797,12.100000381469727,-295.0563328095559,0.14999,16,0.0,0.0,1575420030,,,,0,0.0,1,6.0,12.100000381469727,0.0,0.0,0.0,66.7128,C,30551091000000,
Raw,1732151667000,31238000000,,705787.2266419724,-1416186853762999808,0.0,280.97636883327266,1203.0255490111442,0.0,0,13,0.0,16431,350084929599802,487,20.375,702.7129998202693,0.14999,16,0.0,0.0,1575420030,,,,0,2.838116400788598,1,6.0,20.375,0.0,0.0,0.0,66.7128,C,30551091000000,
Raw,1732151667000,31238000000,,705787.2266419724,-1416186853762999808,0.0,280.97636883327266,1203.0255490111442,0.0,0,30,0.0,16431,350084926837149,797,19.676000595092773,856.5375592280209,0.14999,16,0.0,0.0,1575420030,,,,0,1.6241595937163633,1,6.0,19.676000595092773,0.0,0.0,0.0,66.7128,C,30551091000000,
Raw,1732151667000,31238000000,,705787.2266419724,-1416186853762999808,0.0,280.97636883327266,1203.0255490111442,0.0,0,7,0.0,16431,350084917954005,797,21.003000259399414,989.589259912387,0.14999,16,0.0,0.0,1575420030,,,,0,3.903026639853099,1,6.0,21.003000259399414,0.0,0.0,0.0,66.7128,C,30551091000000,
Raw,1732151667000,31238000000,,705787.2266419724,-1416186853762999808,0.0,280.97636883327266,1203.0255490111442,0.0,0,8,0.0,17,456014,487,5.0,922.861211373736,0.14999,16,0.0,0.0,1605374980,,,,0,4.189975703652974,3,6.0,20.0,0.0,0.0,103.01650763593858,66.7128,C,30551091000000,
Raw,1732151667000,31238000000,,705787.2266419724,-1416186853762999808,0.0,280.97636883327266,1203.0255490111442,0.0,0,15,0.0,16431,350084925450649,797,11.899999618530273,502.47829449642205,0.14999,16,0.0,0.0,1575420030,,,,0,0.0,1,6.0,11.899999618530273,0.0,0.0,0.0,66.7128,C,30551091000000,
Status,1732151667000,28,0,1,17,1575420030,0.00,94.0,80.0,0,0,0,0.0
Status,1732151667000,28,1,1,22,1575420030,0.00,9.0,67.0,0,0,0,0.0
Status,1732151667000,28,2,1,19,1575420030,0.00,199.0,59.0,0,0,0,0.0
Status,1732151667000,28,3,1,14,1575420030,0.00,50.0,54.0,0,0,0,0.0
Status,1732151667000,28,4,1,13,1575420030,29.40,237.0,49.0,1,0,0,24.4
Status,1732151667000,28,5,2,133,1575420030,0.00,191.0,45.0,0,0,0,0.0
Status,1732151667000,28,6,1,30,1575420030,24.60,130.0,38.0,1,0,0,19.6
Status,1732151667000,28,7,1,15,1575420030,23.20,277.0,30.0,1,0,0,18.2
Status,1732151667000,28,8,1,2,1575420030,0.00,49.0,18.0,0,0,0,0.0
Status,1732151667000,28,9,1,24,1575420030,0.00,313.0,15.0,0,0,0,0.0
Status,1732151667000,28,10,1,6,1575420030,17.70,163.0,10.0,1,0,0,12.700001
Status,1732151667000,28,11,1,21,1575420030,0.00,35.0,6.0,0,0,0,0.0
Status,1732151667000,28,12,1,7,1575420030,23.60,131.0,6.0,1,0,0,18.6
Status,1732151667000,28,13,3,20,1602000000,0.00,117.0,51.0,0,0,0,0.0
Status,1732151667000,28,14,3,9,1602000000,0.00,78.0,34.0,0,0,0,0.0
Status,1732151667000,28,15,3,11,1602000000,0.00,308.0,27.0,0,0,0,0.0
Status,1732151667000,28,16,3,19,1602000000,0.00,35.0,25.0,0,0,0,0.0
Status,1732151667000,28,17,3,8,1602000000,25.10,248.0,24.0,1,0,0,20.1
Status,1732151667000,28,18,3,17,1602000000,25.90,0.0,0.0,0,0,0,20.9
Status,1732151667000,28,19,6,21,1575420030,0.00,340.0,68.0,0,0,0,0.0
Status,1732151667000,28,20,6,19,1575420030,0.00,245.0,47.0,0,0,0,0.0
Status,1732151667000,28,21,6,27,1575420030,0.00,63.0,35.0,0,0,0,0.0
Status,1732151667000,28,22,6,13,1575420030,0.00,121.0,27.0,0,0,0,0.0
Status,1732151667000,28,23,6,29,1575420030,22.80,192.0,26.0,1,0,0,17.8
Status,1732151667000,28,24,6,15,1575420030,0.00,64.0,24.0,0,0,0,0.0
Status,1732151667000,28,25,6,4,1575420030,0.00,312.0,22.0,0,0,0,0.0
Status,1732151667000,28,26,6,26,1575420030,0.00,168.0,5.0,0,0,0,0.0
Status,1732151667000,28,27,6,6,1575420030,0.00,328.0,4.0,0,0,0,0.0
Fix,GPS,37.4249133333,-122.1583966667,23.500000000000004,0.0,6.2,0.0,1732151668000,2.3,100.9,30552091000000,99.3,0,,,
Fix,FLP,37.4249005000,-122.1584310000,5.400000095367432,0.4494116,6.185,0.00000000031963301,1732151668243,2.3,100.9,30552091000000,15.918972,0,,,
Raw,1732151668000,32238000000,,705746.5735178702,-1416186853762999808,0.0,284.4235778542047,1203.4578614747495,0.0,0,6,0.0,16431,350085918520981,1797,12.699999809265137,-295.46442353754924,0.14999,16,0.0,0.0,1575420030,,,,0,0.0,1,6.0,12.699999809265137,0.0,0.0,0.0,66.7128,C,30552091000000,
Raw,1732151668000,32238000000,,705746.5735178702,-1416186853762999808,0.0,284.4235778542047,1203.4578614747495,0.0,0,13,0.0,16431,350085929597434,396,24.378000259399414,703.5648613399056,0.14999,16,0.0,0.0,1575420030,,,,0,9.137431872934071,1,6.0,24.378000259399414,0.0,0.0,0.0,66.7128,C,30552091000000,
Raw,1732151668000,32238000000,,705746.5735178702,-1416186853762999808,0.0,284.4235778542047,1203.4578614747495,0.0,0,30,0.0,16431,350085926834297,797,19.606000900268555,855.925887720193,0.14999,16,0.0,0.0,1575420030,,,,0,0.0,1,6.0,19.606000900268555,0.0,0.0,0.0,66.7128,C,30552091000000,
Raw,1732151668000,32238000000,,705746.5735178702,-1416186853762999808,0.0,284.4235778542047,1203.4578614747495,0.0,0,29,0.0,16431,350085913130910,487,17.799999237060547,920.1865186047826,0.14999,16,0.0,0.0,1575420030,,,,0,0.5875268282589978,6,6.0,17.799999237060547,0.0,0.0,-4.608517960404238,66.7128,C,30552091000000,
Raw,1732151668000,32238000000,,705746.5735178702,-1416186853762999808,0.0,284.4235778542047,1203.4578614747495,0.0,0,7,0.0,16431,350085917950698,797,18.55299949645996,989.2977798090822,0.14999,16,0.0,0.0,1575420030,,,,0,0.0,1,6.0,18.55299949645996,0.0,0.0,0.0,66.7128,C,30552091000000,
Raw,1732151668000,32238000000,,705746.5735178702,-1416186853762999808,0.0,284.4235778542047,1203.4578614747495,0.0,0,8,0.0,17,452892,396,5.0,922.0181326213672,0.14999,16,0.0,0.0,1605374980,,,,0,4.447354227439393,3,6.0,21.0,0.0,0.0,99.15938190601611,66.7128,C,30552091000000,
Raw,1732151668000,32238000000,,705746.5735178702,-1416186853762999808,0.0,284.4235778542047,1203.4578614747495,0.0,0,15,0.0,16431,350085925449114,487,18.204999923706055,502.3372002863906,0.14999,16,0.0,0.0,1575420030,,,,0,0.0,1,6.0,18.204999923706055,0.0,0.0,0.0,66.7128,C,30552091000000,
Status,1732151668000,28,0,1,17,1575420030,0.00,94.0,80.0,0,0,0,0.0
Status,1732151668000,28,1,1,22,1575420030,0.00,9.0,67.0,0,0,0,0.0
Status,1732151668000,28,2,1,19,1575420030,0.00,199.0,59.0,0,0,0,0.0
Status,1732151668000,28,3,1,14,1575420030,0.00,50.0,54.0,0,0,0,0.0
Status,1732151668000,28,4,1,13,1575420030,29.40,237.0,49.0,1,0,0,24.4
Status,1732151668000,28,5,2,133,1575420030,0.00,191.0,45.0,0,0,0,0.0
Status,1732151668000,28,6,1,30,1575420030,24.50,130.0,38.0,1,0,0,19.5
Status,1732151668000,28,7,1,15,1575420030,29.30,277.0,30.0,1,0,0,24.3
Status,1732151668000,28,8,1,2,1575420030,0.00,49.0,18.0,0,0,0,0.0
Status,1732151668000,28,9,1,24,1575420030,0.00,313.0,15.0,0,0,0,0.0
Status,1732151668000,28,10,1,6,1575420030,17.70,163.0,10.0,1,0,0,12.700001
Status,1732151668000,28,11,1,21,1575420030,0.00,35.0,6.0,0,0,0,0.0
Status,1732151668000,28,12,1,7,1575420030,23.60,131.0,6.0,1,0,0,18.6
Status,1732151668000,28,13,3,20,1602000000,0.00,117.0,51.0,0,0,0,0.0
Status,1732151668000,28,14,3,9,1602000000,0.00,78.0,34.0,0,0,0,0.0
Status,1732151668000,28,15,3,11,1602000000,0.00,308.0,27.0,0,0,0,0.0
Status,1732151668000,28,16,3,19,1602000000,0.00,35.0,25.0,0,0,0,0.0
Status,1732151668000,28,17,3,8,1602000000,23.60,248.0,24.0,1,0,0,18.6
Status,1732151668000,28,18,3,17,1602000000,26.80,0.0,0.0,0,0,0,21.8
Status,1732151668000,28,19,6,21,1575420030,0.00,340.0,68.0,0,0,0,0.0
Status,1732151668000,28,20,6,19,1575420030,0.00,245.0,47.0,0,0,0,0.0
Status,1732151668000,28,21,6,27,1575420030,0.00,63.0,35.0,0,0,0,0.0
Status,1732151668000,28,22,6,13,1575420030,0.00,121.0,27.0,0,0,0,0.0
Status,1732151668000,28,23,6,29,1575420030,20.50,192.0,26.0,1,0,0,15.5
Status,1732151668000,28,24,6,15,1575420030,0.00,64.0,24.0,0,0,0,0.0
Status,1732151668000,28,25,6,4,1575420030,0.00,312.0,22.0,0,0,0,0.0
Status,1732151668000,28,26,6,26,1575420030,0.00,168.0,5.0,0,0,0,0.0
Status,1732151668000,28,27,6,6,1575420030,0.00,328.0,4.0,0,0,0,0.0
Fix,GPS,37.4249400000,-122.1583933333,23.500000000000004,0.0,6.2,0.0,1732151669000,2.2,95.8,30553091000000,84.4,0,,,
Fix,FLP,37.4249197000,-122.1584168000,5.400000095367432,0.51721746,6.2,0.00000000014900263,1732151669243,2.2,95.8,30553091000000,18.647,0,,,
Raw,1732151669000,33238000000,,705713.5819440795,-1416186853762999808,0.0,229.69793854762872,1207.862759555606,0.0,0,6,0.0,16431,350086918521964,797,12.699999809265137,-294.38398661015697,0.14999,16,0.0,0.0,1575420030,,,,0,0.0,1,6.0,12.699999809265137,0.0,0.0,0.0,66.7128,C,30553091000000,
Raw,1732151669000,33238000000,,705713.5819440795,-1416186853762999808,0.0,229.69793854762872,1207.862759555606,0.0,0,13,0.0,16431,350086929595087,487,24.378000259399414,704.533426401063,0.14999,16,0.0,0.0,1575420030,,,,0,9.137431872934071,1,6.0,24.378000259399414,0.0,0.0,0.0,66.7128,C,30553091000000,
Raw,1732151669000,33238000000,,705713.5819440795,-1416186853762999808,0.0,229.69793854762872,1207.862759555606,0.0,0,30,0.0,16431,350086926831440,1797,19.538999557495117,857.34500650176,0.14999,16,0.0,0.0,1575420030,,,,0,0.0,1,6.0,19.538999557495117,0.0,0.0,0.0,66.7128,C,30553091000000,
Raw,1732151669000,33238000000,,705713.5819440795,-1416186853762999808,0.0,229.69793854762872,1207.862759555606,0.0,0,29,0.0,16431,350086913127831,797,15.5,920.4789278764117,0.14999,16,0.0,0.0,1575420030,,,,0,0.0,6,6.0,15.5,0.0,0.0,0.26731511022354,66.7128,C,30553091000000,
Raw,1732151669000,33238000000,,705713.5819440795,-1416186853762999808,0.0,229.69793854762872,1207.862759555606,0.0,0,7,0.0,16431,350086917947396,487,18.55299949645996,990.7798032861983,0.14999,16,0.0,0.0,1575420030,,,,0,0.0,1,6.0,18.55299949645996,0.0,0.0,0.0,66.7128,C,30553091000000,
Raw,1732151669000,33238000000,,705713.5819440795,-1416186853762999808,0.0,229.69793854762872,1207.862759555606,0.0,0,8,0.0,17,449832,487,5.0,923.6009796971155,0.14999,16,0.0,0.0,1605374980,,,,0,1.9696873784147026,3,6.0,19.0,0.0,0.0,94.85065342090212,66.7128,C,30553091000000,
Raw,1732151669000,33238000000,,705713.5819440795,-1416186853762999808,0.0,229.69793854762872,1207.862759555606,0.0,0,15,0.0,16431,350086925447349,487,24.26099967956543,503.880177205575,0.14999,16,0.0,0.0,1575420030,,,,0,8.952618738235818,1,6.0,24.26099967956543,0.0,0.0,0.0,66.7128,C,30553091000000,
Status,1732151669000,28,0,1,17,1575420030,0.00,94.0,80.0,0,0,0,0.0
Status,1732151669000,28,1,1,22,1575420030,0.00,9.0,67.0,0,0,0,0.0
Status,1732151669000,28,2,1,19,1575420030,0.00,199.0,59.0,0,0,0,0.0
Status,1732151669000,28,3,1,14,1575420030,0.00,50.0,54.0,0,0,0,0.0
Status,1732151669000,28,4,1,13,1575420030,26.00,237.0,49.0,1,0,0,21.0
Status,1732151669000,28,5,2,133,1575420030,0.00,191.0,45.0,0,0,0,0.0
Status,1732151669000,28,6,1,30,1575420030,24.50,130.0,38.0,1,0,0,19.5
Status,1732151669000,28,7,1,15,1575420030,26.70,277.0,30.0,1,0,0,21.7
Status,1732151669000,28,8,1,2,1575420030,0.00,49.0,18.0,0,0,0,0.0
Status,1732151669000,28,9,1,24,1575420030,0.00,313.0,15.0,0,0,0,0.0
Status,1732151669000,28,10,1,6,1575420030,17.70,163.0,10.0,1,0,0,12.700001
Status,1732151669000,28,11,1,21,1575420030,0.00,35.0,6.0,0,0,0,0.0
Status,1732151669000,28,12,1,7,1575420030,30.20,131.0,6.0,1,0,0,25.2
Status,1732151669000,28,13,3,20,1602000000,0.00,117.0,51.0,0,0,0,0.0
Status,1732151669000,28,14,3,9,1602000000,0.00,78.0,34.0,0,0,0,0.0
Status,1732151669000,28,15,3,11,1602000000,26.00,308.0,27.0,0,0,0,21.0
Status,1732151669000,28,16,3,19,1602000000,0.00,35.0,25.0,0,0,0,0.0
Status,1732151669000,28,17,3,8,1602000000,23.60,248.0,24.0,1,0,0,18.6
Status,1732151669000,28,18,3,17,1602000000,28.60,0.0,0.0,0,0,0,23.6
Status,1732151669000,28,19,6,21,1575420030,0.00,340.0,68.0,0,0,0,0.0
Status,1732151669000,28,20,6,19,1575420030,0.00,245.0,47.0,0,0,0,0.0
Status,1732151669000,28,21,6,27,1575420030,0.00,63.0,35.0,0,0,0,0.0
Status,1732151669000,28,22,6,13,1575420030,0.00,121.0,27.0,0,0,0,0.0
Status,1732151669000,28,23,6,29,1575420030,20.50,192.0,26.0,1,0,0,15.5
Status,1732151669000,28,24,6,15,1575420030,0.00,64.0,24.0,0,0,0,0.0
Status,1732151669000,28,25,6,4,1575420030,0.00,312.0,22.0,0,0,0,0.0
Status,1732151669000,28,26,6,26,1575420030,0.00,168.0,5.0,0,0,0,0.0
Status,1732151669000,28,27,6,6,1575420030,0.00,328.0,4.0,0,0,0,0.0
Fix,GPS,37.4249666667,-122.1583900000,23.500000000000004,0.0,6.2,0.0,1732151670000,2.2,85.8,30554091000000,84.7,0,,,
Fix,FLP,37.4249427000,-122.1584066000,5.400000095367432,0.603859,6.2,0.000000000065239536,1732151670243,2.2,85.8,30554091000000,20.637466,0,,,
Raw,1732151670000,34238000000,,705674.2318047241,-1416186853762999808,0.0,226.34710458990736,1208.414864550639,0.0,0,6,0.0,16431,350087918522945,1797,12.699999809265137,-293.9468129136158,0.14999,16,0.0,0.0,1575420030,,,,0,0.0,1,6.0,12.699999809265137,0.0,0.0,0.0,66.7128,C,30554091000000,
Raw,1732151670000,34238000000,,705674.2318047241,-1416186853762999808,0.0,226.34710458990736,1208.414864550639,0.0,0,13,0.0,16431,350087929592744,797,21.003000259399414,704.4524029231918,0.14999,16,0.0,0.0,1575420030,,,,0,3.903026639853099,1,6.0,21.003000259399414,0.0,0.0,0.0,66.7128,C,30554091000000,
Raw,1732151670000,34238000000,,705674.2318047241,-1416186853762999808,0.0,226.34710458990736,1208.414864550639,0.0,0,30,0.0,16431,350087926828580,1797,19.475000381469727,857.7225275918869,0.14999,16,0.0,0.0,1575420030,,,,0,0.0,1,6.0,19.475000381469727,0.0,0.0,0.0,66.7128,C,30554091000000,
Raw,1732151670000,34238000000,,705674.2318047241,-1416186853762999808,0.0,226.34710458990736,1208.414864550639,0.0,0,29,0.0,16431,350087913124759,1797,15.5,920.8076676295175,0.14999,16,0.0,0.0,1575420030,,,,0,0.0,6,6.0,15.5,0.0,0.0,5.05315971972414,66.7128,C,30554091000000,
Raw,1732151670000,34238000000,,705674.2318047241,-1416186853762999808,0.0,226.34710458990736,1208.414864550639,0.0,0,7,0.0,16431,350087917944083,316,25.1560001373291,990.4992873691191,0.14999,16,0.0,0.0,1575420030,,,,0,10.251434876896111,1,6.0,25.1560001373291,0.0,0.0,0.0,66.7128,C,30554091000000,
Raw,1732151670000,34238000000,,705674.2318047241,-1416186853762999808,0.0,226.34710458990736,1208.414864550639,0.0,0,8,0.0,17,446787,487,5.0,925.0204266945332,0.14999,16,0.0,0.0,1605374980,,,,0,1.9696873784147026,3,6.0,18.0,0.0,0.0,89.30250392551972,66.7128,C,30554091000000,
Raw,1732151670000,34238000000,,705674.2318047241,-1416186853762999808,0.0,226.34710458990736,1208.414864550639,0.0,0,11,0.0,17,115050,487,18.600000381469727,-109.28626699529214,0.14999,16,0.0,0.0,1602000000,,,,0,5.7285853125334985,3,6.0,18.600000381469727,0.0,0.0,89.30250392551972,66.7128,C,30554091000000,
Raw,1732151670000,34238000000,,705674.2318047241,-1416186853762999808,0.0,226.34710458990736,1208.414864550639,0.0,0,15,0.0,16431,350087925445647,487,21.709999084472656,503.5159432224844,0.14999,16,0.0,0.0,1575420030,,,,0,5.073299081728107,1,6.0,21.709999084472656,0.0,0.0,0.0,66.7128,C,30554091000000,
Status,1732151670000,27,0,1,17,1575420030,0.00,94.0,80.0,0,0,0,0.0
Status,1732151670000,27,1,1,22,1575420030,0.00,9.0,67.0,0,0,0,0.0
Status,1732151670000,27,2,1,19,1575420030,0.00,199.0,59.0,0,0,0,0.0
Status,1732151670000,27,3,1,14,1575420030,0.00,50.0,54.0,0,0,0,0.0
Status,1732151670000,27,4,1,13,1575420030,26.00,237.0,49.0,1,0,0,21.0
Status,1732151670000,27,5,1,30,1575420030,17.50,130.0,38.0,1,0,0,12.5
Status,1732151670000,27,6,1,15,1575420030,0.00,277.0,30.0,0,0,0,0.0
Status,1732151670000,27,7,1,2,1575420030,0.00,49.0,18.0,0,0,0,0.0
Status,1732151670000,27,8,1,24,1575420030,0.00,313.0,15.0,0,0,0,0.0
Status,1732151670000,27,9,1,6,1575420030,18.70,163.0,10.0,1,0,0,13.700001
Status,1732151670000,27,10,1,21,1575420030,0.00,35.0,6.0,0,0,0,0.0
Status,1732151670000,27,11,1,7,1575420030,29.40,131.0,6.0,1,0,0,24.4
Status,1732151670000,27,12,3,20,1602000000,0.00,117.0,51.0,0,0,0,0.0
Status,1732151670000,27,13,3,9,1602000000,0.00,78.0,34.0,0,0,0,0.0
Status,1732151670000,27,14,3,11,1602000000,29.20,308.0,27.0,0,0,0,24.2
Status,1732151670000,27,15,3,19,1602000000,0.00,35.0,25.0,0,0,0,0.0
Status,1732151670000,27,16,3,8,1602000000,0.00,248.0,24.0,0,0,0,0.0
Status,1732151670000,27,17,3,17,1602000000,25.00,0.0,0.0,0,0,0,20.0
Status,1732151670000,27,18,6,21,1575420030,0.00,340.0,68.0,0,0,0,0.0
Status,1732151670000,27,19,6,19,1575420030,0.00,245.0,47.0,0,0,0,0.0
Status,1732151670000,27,20,6,27,1575420030,0.00,63.0,35.0,0,0,0,0.0
Status,1732151670000,27,21,6,13,1575420030,0.00,121.0,27.0,0,0,0,0.0
Status,1732151670000,27,22,6,29,1575420030,19.10,192.0,26.0,1,0,0,14.1
Status,1732151670000,27,23,6,15,1575420030,0.00,64.0,24.0,0,0,0,0.0
Status,1732151670000,27,24,6,4,1575420030,0.00,312.0,22.0,0,0,0,0.0
Status,1732151670000,27,25,6,26,1575420030,0.00,168.0,5.0,0,0,0,0.0
Status,1732151670000,27,26,6,6,1575420030,0.00,328.0,4.0,0,0,0,0.0
Fix,GPS,37.4249783333,-122.1583783333,23.500000000000004,0.0,6.3,0.0,1732151671000,2.2,88.3,30555091000000,86.6,0,,,
Fix,FLP,37.4249607000,-122.1583960000,7.324030584185257,0.59102714,6.216,0.00000000005852221,1732151671243,2.2,88.3,30555091000000,15.021406,0,,,
Raw,1732151671000,35238000000,,705670.531328043,-1416186853762999808,0.0,229.59624465996302,1211.3356079407283,0.0,0,6,0.0,16431,350088918523925,797,13.699999809265137,-293.2187166147643,0.14999,16,0.0,0.0,1575420030,,,,0,0.0,1,6.0,13.699999809265137,0.0,0.0,0.0,66.7128,C,30555091000000,
Raw,1732151671000,35238000000,,705670.531328043,-1416186853762999808,0.0,229.59624465996302,1211.3356079407283,0.0,0,13,0.0,16431,350088929590394,797,21.003000259399414,704.9010983069531,0.14999,16,0.0,0.0,1575420030,,,,0,3.903026639853099,1,6.0,21.003000259399414,0.0,0.0,0.0,66.7128,C,30555091000000,
Raw,1732151671000,35238000000,,705670.531328043,-1416186853762999808,0.0,229.59624465996302,1211.3356079407283,0.0,0,30,0.0,16431,350088926825719,1797,12.5,858.3878121120218,0.14999,16,0.0,0.0,1575420030,,,,0,0.0,1,6.0,12.5,0.0,0.0,0.0,66.7128,C,30555091000000,
Raw,1732151671000,35238000000,,705670.531328043,-1416186853762999808,0.0,229.59624465996302,1211.3356079407283,0.0,0,29,0.0,16431,350088913121762,797,14.100000381469727,921.109647334886,0.14999,16,0.0,0.0,1575420030,,,,0,0.0,6,6.0,14.100000381469727,0.0,0.0,5.05315971972414,66.7128,C,30555091000000,
Raw,1732151671000,35238000000,,705670.531328043,-1416186853762999808,0.0,229.59624465996302,1211.3356079407283,0.0,0,7,0.0,16431,350088917940783,316,24.378000259399414,991.1432010177971,0.14999,16,0.0,0.0,1575420030,,,,0,9.137431872934071,1,6.0,24.378000259399414,0.0,0.0,0.0,66.7128,C,30555091000000,
Raw,1732151671000,35238000000,,705670.531328043,-1416186853762999808,0.0,229.59624465996302,1211.3356079407283,0.0,0,11,0.0,17,115404,316,24.0,-110.43147210880808,0.14999,16,0.0,0.0,1602000000,,,,0,10.044921009462366,3,6.0,24.0,0.0,0.0,89.30250392551972,66.7128,C,30555091000000,
Fix,NLP,37.4257233000,-122.1580902000,5.400000095367432,,60.0,,1732151671371,,,30555219000000,9.623403,0,,,
Status,1732151671000,28,0,1,17,1575420030,0.00,94.0,80.0,0,0,0,0.0
Status,1732151671000,28,1,1,22,1575420030,0.00,9.0,67.0,0,0,0,0.0
Status,1732151671000,28,2,1,19,1575420030,0.00,199.0,59.0,0,0,0,0.0
Status,1732151671000,28,3,1,14,1575420030,0.00,50.0,54.0,0,0,0,0.0
Status,1732151671000,28,4,1,13,1575420030,25.90,237.0,49.0,1,0,0,20.9
Status,1732151671000,28,5,2,135,1575420030,0.00,197.0,45.0,0,0,0,0.0
Status,1732151671000,28,6,1,30,1575420030,17.50,130.0,38.0,1,0,0,12.5
Status,1732151671000,28,7,1,15,1575420030,29.60,277.0,30.0,1,0,0,24.6
Status,1732151671000,28,8,1,2,1575420030,0.00,49.0,18.0,0,0,0,0.0
Status,1732151671000,28,9,1,24,1575420030,0.00,313.0,15.0,0,0,0,0.0
Status,1732151671000,28,10,1,6,1575420030,18.70,163.0,10.0,1,0,0,13.700001
Status,1732151671000,28,11,1,21,1575420030,0.00,35.0,6.0,0,0,0,0.0
Status,1732151671000,28,12,1,7,1575420030,33.40,131.0,6.0,1,0,0,28.400002
Status,1732151671000,28,13,3,20,1602000000,0.00,117.0,51.0,0,0,0,0.0
Status,1732151671000,28,14,3,9,1602000000,0.00,78.0,34.0,0,0,0,0.0
Status,1732151671000,28,15,3,11,1602000000,24.20,308.0,27.0,0,0,0,19.2
Status,1732151671000,28,16,3,19,1602000000,0.00,35.0,25.0,0,0,0,0.0
Status,1732151671000,28,17,3,8,1602000000,0.00,248.0,24.0,0,0,0,0.0
Status,1732151671000,28,18,3,17,1602000000,35.70,0.0,0.0,0,0,0,30.7
Status,1732151671000,28,19,6,21,1575420030,0.00,340.0,68.0,0,0,0,0.0
Status,1732151671000,28,20,6,19,1575420030,0.00,245.0,47.0,0,0,0,0.0
Status,1732151671000,28,21,6,27,1575420030,0.00,63.0,35.0,0,0,0,0.0
Status,1732151671000,28,22,6,13,1575420030,0.00,121.0,27.0,0,0,0,0.0
Status,1732151671000,28,23,6,29,1575420030,19.10,192.0,26.0,1,0,0,14.1
Status,1732151671000,28,24,6,15,1575420030,0.00,64.0,24.0,0,0,0,0.0
Status,1732151671000,28,25,6,4,1575420030,0.00,312.0,22.0,0,0,0,0.0
Status,1732151671000,28,26,6,26,1575420030,0.00,168.0,5.0,0,0,0,0.0
Status,1732151671000,28,27,6,6,1575420030,0.00,328.0,4.0,0,0,0,0.0
Fix,GPS,37.4250100000,-122.1583733333,23.500000000000004,0.0,6.3,0.0,1732151672000,2.2,78.2,30556091000000,82.7,0,,,
Fix,FLP,37.4249846000,-122.1583851000,5.400000095367432,0.55026126,6.242,0.00000000003490977,1732151672243,2.2,78.2,30556091000000,14.146844,0,,,
Raw,1732151672000,36238000000,,705667.0393289214,-1416186853762999808,0.0,212.12134870878452,1211.1175290121796,0.0,0,6,0.0,16431,350089918524904,797,13.699999809265137,-294.032249941027,0.14999,16,0.0,0.0,1575420030,,,,0,0.0,1,6.0,13.699999809265137,0.0,0.0,0.0,66.7128,C,30556091000000,
Raw,1732151672000,36238000000,,705667.0393289214,-1416186853762999808,0.0,212.12134870878452,1211.1175290121796,0.0,0,13,0.0,16431,350089929588057,797,20.889999389648438,704.9625163331835,0.14999,16,0.0,0.0,1575420030,,,,0,0.0,1,6.0,20.889999389648438,0.0,0.0,0.0,66.7128,C,30556091000000,
Raw,1732151672000,36238000000,,705667.0393289214,-1416186853762999808,0.0,212.12134870878452,1211.1175290121796,0.0,0,30,0.0,16431,350089926822856,1797,12.5,858.1294104010589,0.14999,16,0.0,0.0,1575420030,,,,0,0.0,1,6.0,12.5,0.0,0.0,0.0,66.7128,C,30556091000000,
Raw,1732151672000,36238000000,,705667.0393289214,-1416186853762999808,0.0,212.12134870878452,1211.1175290121796,0.0,0,29,0.0,16431,350089913118689,396,14.100000381469727,921.3259577207623,0.14999,16,0.0,0.0,1575420030,,,,0,0.0,6,6.0,14.100000381469727,0.0,0.0,5.241286164701816,66.7128,C,30556091000000,
Raw,1732151672000,36238000000,,705667.0393289214,-1416186853762999808,0.0,212.12134870878452,1211.1175290121796,0.0,0,7,0.0,16431,350089917937495,396,28.392000198364258,991.2046190440275,0.14999,16,0.0,0.0,1575420030,,,,0,14.542425094393248,1,6.0,28.392000198364258,0.0,0.0,0.0,66.7128,C,30556091000000,
Raw,1732151672000,36238000000,,705667.0393289214,-1416186853762999808,0.0,212.12134870878452,1211.1175290121796,0.0,0,15,0.0,16431,350089925442298,396,24.577999114990234,503.8634986341554,0.14999,16,0.0,0.0,1575420030,,,,0,9.407481281007014,1,6.0,24.577999114990234,0.0,0.0,0.0,66.7128,C,30556091000000,
