# 
# Header Description:
# 
# Version: v3.1.0.3 Platform: 13 Manufacturer: samsung Model: SM-S135DL GNSS Hardware Model Name: MediaTek,MT6631,MTK_MNLD_default,MNL_VER_default
# 
# Raw,utcTimeMillis,TimeNanos,LeapSecond,TimeUncertaintyNanos,FullBiasNanos,BiasNanos,BiasUncertaintyNanos,DriftNanosPerSecond,DriftUncertaintyNanosPerSecond,HardwareClockDiscontinuityCount,Svid,TimeOffsetNanos,State,ReceivedSvTimeNanos,ReceivedSvTimeUncertaintyNanos,Cn0DbHz,PseudorangeRateMetersPerSecond,PseudorangeRateUncertaintyMetersPerSecond,AccumulatedDeltaRangeState,AccumulatedDeltaRangeMeters,AccumulatedDeltaRangeUncertaintyMeters,CarrierFrequencyHz,CarrierCycles,CarrierPhase,CarrierPhaseUncertainty,MultipathIndicator,SnrInDb,ConstellationType,AgcDb,BasebandCn0DbHz,FullInterSignalBiasNanos,FullInterSignalBiasUncertaintyNanos,SatelliteInterSignalBiasNanos,SatelliteInterSignalBiasUncertaintyNanos,CodeType,ChipsetElapsedRealtimeNanos,IsFullTracking
# 
# UncalAccel,utcTimeMillis,elapsedRealtimeNanos,UncalAccelXMps2,UncalAccelYMps2,UncalAccelZMps2,BiasXMps2,BiasYMps2,BiasZMps2
# 
# Accel,utcTimeMillis,elapsedRealtimeNanos,AccelXMps2,AccelYMps2,AccelZMps2
# 
# UncalGyro,utcTimeMillis,elapsedRealtimeNanos,UncalGyroXRadPerSec,UncalGyroYRadPerSec,UncalGyroZRadPerSec,DriftXRadPerSec,DriftYRadPerSec,DriftZRadPerSec
# 
# Gyro,utcTimeMillis,elapsedRealtimeNanos,GyroXRadPerSec,GyroYRadPerSec,GyroZRadPerSec
# 
# UncalMag,utcTimeMillis,elapsedRealtimeNanos,UncalMagXMicroT,UncalMagYMicroT,UncalMagZMicroT,BiasXMicroT,BiasYMicroT,BiasZMicroT
# 
# Mag,utcTimeMillis,elapsedRealtimeNanos,MagXMicroT,MagYMicroT,MagZMicroT
# 
# Pressure,utcTimeMillis,elapsedRealtimeNanos,PressureHpa
# 
# OrientationDeg,utcTimeMillis,elapsedRealtimeNanos,yawDeg,rollDeg,pitchDeg
# 
# Fix,Provider,LatitudeDegrees,LongitudeDegrees,AltitudeMeters,SpeedMps,AccuracyMeters,BearingDegrees,UnixTimeMillis,SpeedAccuracyMps,BearingAccuracyDegrees,elapsedRealtimeNanos,VerticalAccuracyMeters,MockLocation,NumberOfUsedSignals,VerticalSpeedAccuracyMps,SolutionType
# 
# Nav,Svid,Type,Status,MessageId,Sub-messageId,Data(Bytes)
# 
# Status,UnixTimeMillis,SignalCount,SignalIndex,ConstellationType,Svid,CarrierFrequencyHz,Cn0DbHz,AzimuthDegrees,ElevationDegrees,UsedInFix,HasAlmanacData,HasEphemerisData,BasebandCn0DbHz
# 
# Agc,utcTimeMillis,TimeNanos,LeapSecond,TimeUncertaintyNanos,FullBiasNanos,BiasNanos,BiasUncertaintyNanos,DriftNanosPerSecond,DriftUncertaintyNanosPerSecond,HardwareClockDiscontinuityCount,AgcDb,CarrierFrequencyHz,ConstellationType
# 
Fix,FLP,37.4250311000,-122.1585905000,3.2341792667779314,0.27323115,5.116,180.0,1732152913494,1.6,55.9,31797342000000,15.219312,0,,,
Status,,27,0,1,17,1575420030,0.00,58.0,74.0,0,0,0,0.0
Status,,27,1,1,19,1575420030,0.00,203.0,69.0,0,0,0,0.0
Status,,27,2,1,22,1575420030,0.00,29.0,63.0,0,0,0,0.0
Status,,27,3,1,14,1575420030,0.00,61.0,48.0,0,0,0,0.0
Status,,27,4,2,135,1575420030,0.00,197.0,45.0,0,0,0,0.0
Status,,27,5,1,13,1575420030,26.90,226.0,42.0,1,0,0,21.9
Status,,27,6,1,30,1575420030,26.00,136.0,29.0,1,0,0,21.0
Status,,27,7,1,15,1575420030,23.90,266.0,28.0,1,0,0,18.9
Status,,27,8,1,24,1575420030,0.00,313.0,23.0,0,0,0,0.0
Status,,27,9,1,6,1575420030,30.10,158.0,18.0,1,0,0,25.1
Status,,27,10,1,2,1575420030,22.40,42.0,14.0,1,0,0,17.4
Status,,27,11,1,12,1575420030,25.00,272.0,3.0,0,0,0,20.0
Status,,27,12,3,20,1602000000,0.00,98.0,58.0,0,0,0,0.0
Status,,27,13,3,11,1602000000,0.00,318.0,33.0,0,0,0,0.0
Status,,27,14,3,9,1602000000,0.00,89.0,28.0,0,0,0,0.0
Status,,27,15,3,19,1602000000,0.00,28.0,17.0,0,0,0,0.0
Status,,27,16,3,8,1602000000,30.80,240.0,16.0,1,0,0,25.8
Status,,27,17,3,17,1602000000,25.40,0.0,0.0,0,0,0,20.4
Status,,27,18,6,21,1575420030,0.00,359.0,67.0,0,0,0,0.0
Status,,27,19,6,19,1575420030,0.00,236.0,41.0,0,0,0,0.0
Status,,27,20,6,13,1575420030,0.00,115.0,33.0,0,0,0,0.0
Status,,27,21,6,27,1575420030,0.00,69.0,30.0,0,0,0,0.0
Status,,27,22,6,4,1575420030,0.00,306.0,25.0,0,0,0,0.0
Status,,27,23,6,15,1575420030,0.00,56.0,23.0,0,0,0,0.0
Status,,27,24,6,29,1575420030,0.00,190.0,19.0,0,0,0,0.0
Status,,27,25,6,26,1575420030,0.00,165.0,11.0,0,0,0,0.0
Status,,27,26,6,6,1575420030,0.00,324.0,8.0,0,0,0,0.0
Fix,GPS,37.4250000000,-122.1585883333,25.400000000000002,0.0,4.9,0.0,1732152914000,1.6,55.0,31798091000000,38.6,0,,,
Raw,1732152913999,37238000000,,700600.5655585906,-1416188094761999872,0.0,88.84085293676564,1123.517081642787,0.0,0,2,0.0,16431,351331917493016,1797,17.385000228881836,764.6147975386012,0.14999,16,0.0,0.0,1575420030,,,,0,0.0,1,6.0,17.385000228881836,0.0,0.0,0.0,66.7128,C,31798091000000,
Raw,1732152913999,37238000000,,700600.5655585906,-1416188094761999872,0.0,88.84085293676564,1123.517081642787,0.0,0,30,0.0,16431,351331924215940,487,20.957000732421875,911.9051200815893,0.14999,16,0.0,0.0,1575420030,,,,0,3.8507600729122293,1,6.0,20.957000732421875,0.0,0.0,0.0,66.7128,C,31798091000000,
Raw,1732152913999,37238000000,,700600.5655585906,-1416188094761999872,0.0,88.84085293676564,1123.517081642787,0.0,0,15,0.0,16431,351331924177959,797,18.88599967956543,616.4365617449973,0.14999,16,0.0,0.0,1575420030,,,,0,0.0,1,6.0,18.88599967956543,0.0,0.0,0.0,66.7128,C,31798091000000,
Raw,1732152913999,37238000000,,700600.5655585906,-1416188094761999872,0.0,88.84085293676564,1123.517081642787,0.0,0,12,0.0,17,194340,487,20.01799964904785,-210.71790756650657,0.14999,16,0.0,0.0,1575420030,,,,0,1.5336758999818172,1,6.0,20.01799964904785,0.0,0.0,0.0,66.7128,C,31798091000000,
Raw,1732152913999,37238000000,,700600.5655585906,-1416188094761999872,0.0,88.84085293676564,1123.517081642787,0.0,0,13,0.0,16431,351331927525439,797,21.922000885009766,799.2278507431872,0.14999,16,0.0,0.0,1575420030,,,,0,5.469621916990458,1,6.0,21.922000885009766,0.0,0.0,0.0,66.7128,C,31798091000000,
Raw,1732152913999,37238000000,,700600.5655585906,-1416188094761999872,0.0,88.84085293676564,1123.517081642787,0.0,0,8,0.0,17,539778,396,5.0,981.8711618717035,0.14999,16,0.0,0.0,1605374980,,,,0,12.016032247899538,3,6.0,23.0,0.0,0.0,72.27870791469107,66.7128,C,31798091000000,
Raw,1732152913999,37238000000,,700600.5655585906,-1416188094761999872,0.0,88.84085293676564,1123.517081642787,0.0,0,6,0.0,16431,351331920867015,487,25.101999282836914,-318.43053763181814,0.14999,16,0.0,0.0,1575420030,,,,0,10.183461452803375,1,6.0,25.101999282836914,0.0,0.0,0.0,66.7128,C,31798091000000,
Fix,FLP,37.4250174000,-122.1585897000,3.162908986870126,0.28003955,5.085,180.0,1732152914243,1.6,55.0,31798091000000,16.72948,0,,,
Status,1732152914000,27,0,1,17,1575420030,0.00,58.0,74.0,0,0,0,0.0
Status,1732152914000,27,1,1,19,1575420030,0.00,203.0,69.0,0,0,0,0.0
Status,1732152914000,27,2,1,22,1575420030,0.00,29.0,63.0,0,0,0,0.0
Status,1732152914000,27,3,1,14,1575420030,0.00,61.0,48.0,0,0,0,0.0
Status,1732152914000,27,4,2,135,1575420030,0.00,197.0,45.0,0,0,0,0.0
Status,1732152914000,27,5,1,13,1575420030,26.80,226.0,42.0,1,0,0,21.8
Status,1732152914000,27,6,1,30,1575420030,26.00,136.0,29.0,1,0,0,21.0
Status,1732152914000,27,7,1,15,1575420030,23.80,266.0,28.0,1,0,0,18.8
Status,1732152914000,27,8,1,24,1575420030,0.00,313.0,23.0,0,0,0,0.0
Status,1732152914000,27,9,1,6,1575420030,29.70,158.0,18.0,1,0,0,24.7
Status,1732152914000,27,10,1,2,1575420030,0.00,42.0,14.0,0,0,0,0.0
Status,1732152914000,27,11,1,12,1575420030,25.80,272.0,3.0,0,0,0,20.8
Status,1732152914000,27,12,3,20,1602000000,0.00,98.0,58.0,0,0,0,0.0
Status,1732152914000,27,13,3,11,1602000000,0.00,318.0,33.0,0,0,0,0.0
Status,1732152914000,27,14,3,9,1602000000,0.00,89.0,28.0,0,0,0,0.0
Status,1732152914000,27,15,3,19,1602000000,0.00,28.0,17.0,0,0,0,0.0
Status,1732152914000,27,16,3,8,1602000000,32.30,240.0,16.0,1,0,0,27.3
Status,1732152914000,27,17,3,17,1602000000,26.70,0.0,0.0,0,0,0,21.7
Status,1732152914000,27,18,6,21,1575420030,0.00,359.0,67.0,0,0,0,0.0
Status,1732152914000,27,19,6,19,1575420030,0.00,236.0,41.0,0,0,0,0.0
Status,1732152914000,27,20,6,13,1575420030,0.00,115.0,33.0,0,0,0,0.0
Status,1732152914000,27,21,6,27,1575420030,0.00,69.0,30.0,0,0,0,0.0
Status,1732152914000,27,22,6,4,1575420030,0.00,306.0,25.0,0,0,0,0.0
Status,1732152914000,27,23,6,15,1575420030,0.00,56.0,23.0,0,0,0,0.0
Status,1732152914000,27,24,6,29,1575420030,0.00,190.0,19.0,0,0,0,0.0
Status,1732152914000,27,25,6,26,1575420030,0.00,165.0,11.0,0,0,0,0.0
Status,1732152914000,27,26,6,6,1575420030,0.00,324.0,8.0,0,0,0,0.0
Fix,GPS,37.4249750000,-122.1585633333,25.400000000000002,0.0,4.9,0.0,1732152915000,2.7,66.1,31799091000000,38.6,0,,,
Raw,1732152914999,38238000000,,700541.2536929131,-1416188094761999872,0.0,88.74976488685888,1118.0241247244576,0.0,0,30,0.0,16431,351332924212902,316,20.957000732421875,910.3744081842844,0.14999,16,0.0,0.0,1575420030,,,,0,3.8507600729122293,1,6.0,20.957000732421875,0.0,0.0,0.0,66.7128,C,31799091000000,
Raw,1732152914999,38238000000,,700541.2536929131,-1416188094761999872,0.0,88.74976488685888,1118.0241247244576,0.0,0,15,0.0,16431,351332924175906,797,18.815000534057617,614.7833390041453,0.14999,16,0.0,0.0,1575420030,,,,0,0.0,1,6.0,18.815000534057617,0.0,0.0,0.0,66.7128,C,31799091000000,
Raw,1732152914999,38238000000,,700541.2536929131,-1416188094761999872,0.0,88.74976488685888,1118.0241247244576,0.0,0,12,0.0,17,195058,487,20.768999099731445,-212.53155121853356,0.14999,16,0.0,0.0,1575420030,,,,0,3.592744379991276,1,6.0,20.768999099731445,0.0,0.0,0.0,66.7128,C,31799091000000,
Raw,1732152914999,38238000000,,700541.2536929131,-1416188094761999872,0.0,88.74976488685888,1118.0241247244576,0.0,0,13,0.0,16431,351332927522795,396,21.840999603271484,797.1703933228873,0.14999,16,0.0,0.0,1575420030,,,,0,5.327808323763388,1,6.0,21.840999603271484,0.0,0.0,0.0,66.7128,C,31799091000000,
Raw,1732152914999,38238000000,,700541.2536929131,-1416188094761999872,0.0,88.74976488685888,1118.0241247244576,0.0,0,8,0.0,17,536559,316,5.0,978.8619378845011,0.14999,16,0.0,0.0,1605374980,,,,0,13.898731426965224,3,6.0,24.0,0.0,0.0,72.27870791469107,66.7128,C,31799091000000,
Raw,1732152914999,38238000000,,700541.2536929131,-1416188094761999872,0.0,88.74976488685888,1118.0241247244576,0.0,0,6,0.0,16431,351332920868084,316,24.660999298095703,-319.9329098952345,0.14999,16,0.0,0.0,1575420030,,,,0,9.547624764326347,1,6.0,24.660999298095703,0.0,0.0,0.0,66.7128,C,31799091000000,
Fix,FLP,37.4249961000,-122.1585784000,3.374681772931859,0.4421876,5.042,180.0,1732152915243,2.7,66.1,31799091000000,17.112156,0,,,
Status,1732152915000,27,0,1,17,1575420030,0.00,58.0,74.0,0,0,0,0.0
Status,1732152915000,27,1,1,19,1575420030,0.00,203.0,69.0,0,0,0,0.0
Status,1732152915000,27,2,1,22,1575420030,0.00,29.0,63.0,0,0,0,0.0
Status,1732152915000,27,3,1,14,1575420030,0.00,61.0,48.0,0,0,0,0.0
Status,1732152915000,27,4,2,135,1575420030,0.00,197.0,45.0,0,0,0,0.0
Status,1732152915000,27,5,1,13,1575420030,30.60,226.0,42.0,1,0,0,25.6
Status,1732152915000,27,6,1,30,1575420030,33.50,136.0,29.0,1,0,0,28.5
Status,1732152915000,27,7,1,15,1575420030,18.90,266.0,28.0,1,0,0,13.9
Status,1732152915000,27,8,1,24,1575420030,0.00,313.0,23.0,0,0,0,0.0
Status,1732152915000,27,9,1,6,1575420030,33.50,158.0,18.0,1,0,0,28.5
Status,1732152915000,27,10,1,2,1575420030,0.00,42.0,14.0,0,0,0,0.0
Status,1732152915000,27,11,1,12,1575420030,28.10,272.0,3.0,0,0,0,23.1
Status,1732152915000,27,12,3,20,1602000000,0.00,98.0,58.0,0,0,0,0.0
Status,1732152915000,27,13,3,11,1602000000,0.00,318.0,33.0,0,0,0,0.0
Status,1732152915000,27,14,3,9,1602000000,0.00,89.0,28.0,0,0,0,0.0
Status,1732152915000,27,15,3,19,1602000000,0.00,28.0,17.0,0,0,0,0.0
Status,1732152915000,27,16,3,8,1602000000,29.50,240.0,16.0,1,0,0,24.5
Status,1732152915000,27,17,3,17,1602000000,26.70,0.0,0.0,0,0,0,21.7
Status,1732152915000,27,18,6,21,1575420030,0.00,359.0,67.0,0,0,0,0.0
Status,1732152915000,27,19,6,19,1575420030,0.00,236.0,41.0,0,0,0,0.0
Status,1732152915000,27,20,6,13,1575420030,0.00,115.0,33.0,0,0,0,0.0
Status,1732152915000,27,21,6,27,1575420030,0.00,69.0,30.0,0,0,0,0.0
Status,1732152915000,27,22,6,4,1575420030,0.00,306.0,25.0,0,0,0,0.0
Status,1732152915000,27,23,6,15,1575420030,0.00,56.0,23.0,0,0,0,0.0
Status,1732152915000,27,24,6,29,1575420030,0.00,190.0,19.0,0,0,0,0.0
Status,1732152915000,27,25,6,26,1575420030,0.00,165.0,11.0,0,0,0,0.0
Status,1732152915000,27,26,6,6,1575420030,0.00,324.0,8.0,0,0,0,0.0
Fix,GPS,37.4249633333,-122.1585666667,25.400000000000002,0.0,5.0,0.0,1732152916000,3.2,93.8,31800091000000,38.6,0,,,
Raw,1732152915999,39238000000,,700520.4580563531,-1416188094761999872,0.0,89.47991987460074,1112.483489164582,0.0,0,30,0.0,16431,351333924209873,396,28.450000762939453,908.3325607918314,0.14999,16,0.0,0.0,1575420030,,,,0,14.628607555458474,1,6.0,28.450000762939453,0.0,0.0,0.0,66.7128,C,31800091000000,
Raw,1732152915999,39238000000,,700520.4580563531,-1416188094761999872,0.0,89.47991987460074,1112.483489164582,0.0,0,15,0.0,16431,351333924173859,797,13.899999618530273,612.6189343097287,0.14999,16,0.0,0.0,1575420030,,,,0,0.0,1,6.0,13.899999618530273,0.0,0.0,0.0,66.7128,C,31800091000000,
Raw,1732152915999,39238000000,,700520.4580563531,-1416188094761999872,0.0,89.47991987460074,1112.483489164582,0.0,0,12,0.0,17,195793,396,23.054000854492188,-214.20089502981062,0.14999,16,0.0,0.0,1575420030,,,,0,7.187012763674011,1,6.0,23.054000854492188,0.0,0.0,0.0,66.7128,C,31800091000000,
Raw,1732152915999,39238000000,,700520.4580563531,-1416188094761999872,0.0,89.47991987460074,1112.483489164582,0.0,0,13,0.0,16431,351333927520152,316,25.597999572753906,796.4201828179196,0.14999,16,0.0,0.0,1575420030,,,,0,10.889701359590108,1,6.0,25.597999572753906,0.0,0.0,0.0,66.7128,C,31800091000000,
Raw,1732152915999,39238000000,,700520.4580563531,-1416188094761999872,0.0,89.47991987460074,1112.483489164582,0.0,0,8,0.0,17,533292,316,5.0,978.4460518592412,0.14999,16,0.0,0.0,1605374980,,,,0,10.50951782383186,3,6.0,25.0,0.0,0.0,72.27870791469107,66.7128,C,31800091000000,
Raw,1732152915999,39238000000,,700520.4580563531,-1416188094761999872,0.0,89.47991987460074,1112.483489164582,0.0,0,6,0.0,16431,351333920869151,235,28.450000762939453,-320.9326950120853,0.14999,16,0.0,0.0,1575420030,,,,0,14.628607555458474,1,6.0,28.450000762939453,0.0,0.0,0.0,66.7128,C,31800091000000,
Fix,FLP,37.4249777000,-122.1585732000,2.6614546735921047,0.5908272,5.014,180.0,1732152916244,3.2,93.8,31800091000000,17.33818,0,,,
Status,1732152916000,27,0,1,17,1575420030,0.00,58.0,74.0,0,0,0,0.0
Status,1732152916000,27,1,1,19,1575420030,0.00,203.0,69.0,0,0,0,0.0
Status,1732152916000,27,2,1,22,1575420030,0.00,29.0,63.0,0,0,0,0.0
Status,1732152916000,27,3,1,14,1575420030,0.00,61.0,48.0,0,0,0,0.0
Status,1732152916000,27,4,2,135,1575420030,0.00,197.0,45.0,0,0,0,0.0
Status,1732152916000,27,5,1,13,1575420030,32.10,226.0,42.0,1,0,0,27.099998
Status,1732152916000,27,6,1,30,1575420030,30.50,136.0,29.0,1,0,0,25.5
Status,1732152916000,27,7,1,15,1575420030,22.90,266.0,28.0,1,0,0,17.9
Status,1732152916000,27,8,1,24,1575420030,0.00,313.0,23.0,0,0,0,0.0
Status,1732152916000,27,9,1,6,1575420030,33.20,158.0,18.0,1,0,0,28.2
Status,1732152916000,27,10,1,2,1575420030,20.90,42.0,14.0,1,0,0,15.9
Status,1732152916000,27,11,1,12,1575420030,30.30,272.0,3.0,0,0,0,25.3
Status,1732152916000,27,12,3,20,1602000000,0.00,98.0,58.0,0,0,0,0.0
Status,1732152916000,27,13,3,11,1602000000,0.00,318.0,33.0,0,0,0,0.0
Status,1732152916000,27,14,3,9,1602000000,0.00,89.0,28.0,0,0,0,0.0
Status,1732152916000,27,15,3,19,1602000000,0.00,28.0,17.0,0,0,0,0.0
Status,1732152916000,27,16,3,8,1602000000,28.60,240.0,16.0,1,0,0,23.6
Status,1732152916000,27,17,3,17,1602000000,27.60,0.0,0.0,0,0,0,22.6
Status,1732152916000,27,18,6,21,1575420030,0.00,359.0,67.0,0,0,0,0.0
Status,1732152916000,27,19,6,19,1575420030,0.00,236.0,41.0,0,0,0,0.0
Status,1732152916000,27,20,6,13,1575420030,0.00,115.0,33.0,0,0,0,0.0
Status,1732152916000,27,21,6,27,1575420030,0.00,69.0,30.0,0,0,0,0.0
Status,1732152916000,27,22,6,4,1575420030,0.00,306.0,25.0,0,0,0,0.0
Status,1732152916000,27,23,6,15,1575420030,0.00,56.0,23.0,0,0,0,0.0
Status,1732152916000,27,24,6,29,1575420030,0.00,190.0,19.0,0,0,0,0.0
Status,1732152916000,27,25,6,26,1575420030,0.00,165.0,11.0,0,0,0,0.0
Status,1732152916000,27,26,6,6,1575420030,0.00,324.0,8.0,0,0,0,0.0
Fix,GPS,37.4249550000,-122.1585600000,25.400000000000002,0.0,5.0,0.0,1732152917000,3.3,82.3,31801091000000,39.4,0,,,
Raw,1732152916999,40238000000,,700478.8146638433,-1416188094761999872,0.0,94.63790078766667,1106.5010839838217,0.0,0,2,0.0,16431,351334917485390,797,15.937000274658203,759.5440472428858,0.14999,16,0.0,0.0,1575420030,,,,0,0.0,1,6.0,15.937000274658203,0.0,0.0,0.0,66.7128,C,31801091000000,
Raw,1732152916999,40238000000,,700478.8146638433,-1416188094761999872,0.0,94.63790078766667,1106.5010839838217,0.0,0,30,0.0,16431,351334924206841,396,25.54599952697754,907.6313174575495,0.14999,16,0.0,0.0,1575420030,,,,0,10.814006853194147,1,6.0,25.54599952697754,0.0,0.0,0.0,66.7128,C,31801091000000,
Raw,1732152916999,40238000000,,700478.8146638433,-1416188094761999872,0.0,94.63790078766667,1106.5010839838217,0.0,0,15,0.0,16431,351334924171797,797,17.871000289916992,611.0971424283364,0.14999,16,0.0,0.0,1575420030,,,,0,0.0,1,6.0,17.871000289916992,0.0,0.0,0.0,66.7128,C,31801091000000,
Raw,1732152916999,40238000000,,700478.8146638433,-1416188094761999872,0.0,94.63790078766667,1106.5010839838217,0.0,0,12,0.0,17,196518,316,25.31599998474121,-215.67576391083037,0.14999,16,0.0,0.0,1575420030,,,,0,10.46497325663957,1,6.0,25.31599998474121,0.0,0.0,0.0,66.7128,C,31801091000000,
Raw,1732152916999,40238000000,,700478.8146638433,-1416188094761999872,0.0,94.63790078766667,1106.5010839838217,0.0,0,13,0.0,16431,351334927517511,235,27.072999954223633,794.3625395639548,0.14999,16,0.0,0.0,1575420030,,,,0,12.869254126345867,1,6.0,27.072999954223633,0.0,0.0,0.0,66.7128,C,31801091000000,
Raw,1732152916999,40238000000,,700478.8146638433,-1416188094761999872,0.0,94.63790078766667,1106.5010839838217,0.0,0,8,0.0,17,530031,316,5.0,976.1826142786604,0.14999,16,0.0,0.0,1605374980,,,,0,9.311996006787098,3,6.0,24.0,0.0,0.0,66.80078979557882,66.7128,C,31801091000000,
Raw,1732152916999,40238000000,,700478.8146638433,-1416188094761999872,0.0,94.63790078766667,1106.5010839838217,0.0,0,6,0.0,16431,351334920870227,235,28.233999252319336,-322.8718693047132,0.14999,16,0.0,0.0,1575420030,,,,0,14.354817592988152,1,6.0,28.233999252319336,0.0,0.0,0.0,66.7128,C,31801091000000,
Fix,FLP,37.4249637000,-122.1585673000,2.6614546735921047,0.65500563,4.985,180.0,1732152917243,3.3,82.3,31801091000000,17.623228,0,,,
Status,1732152917000,26,0,1,17,1575420030,0.00,58.0,74.0,0,0,0,0.0
Status,1732152917000,26,1,1,19,1575420030,0.00,203.0,69.0,0,0,0,0.0
Status,1732152917000,26,2,1,22,1575420030,0.00,29.0,63.0,0,0,0,0.0
Status,1732152917000,26,3,1,14,1575420030,0.00,61.0,48.0,0,0,0,0.0
Status,1732152917000,26,4,2,135,1575420030,0.00,197.0,45.0,0,0,0,0.0
Status,1732152917000,26,5,1,13,1575420030,28.80,226.0,42.0,1,0,0,23.8
Status,1732152917000,26,6,1,30,1575420030,30.50,136.0,29.0,1,0,0,25.5
Status,1732152917000,26,7,1,15,1575420030,22.90,266.0,28.0,1,0,0,17.9
Status,1732152917000,26,8,1,24,1575420030,0.00,313.0,23.0,0,0,0,0.0
Status,1732152917000,26,9,1,6,1575420030,28.90,158.0,18.0,1,0,0,23.9
Status,1732152917000,26,10,1,2,1575420030,20.90,42.0,14.0,1,0,0,15.9
Status,1732152917000,26,11,1,12,1575420030,26.70,272.0,3.0,0,0,0,21.7
Status,1732152917000,26,12,3,20,1602000000,0.00,98.0,58.0,0,0,0,0.0
Status,1732152917000,26,13,3,11,1602000000,0.00,318.0,33.0,0,0,0,0.0
Status,1732152917000,26,14,3,9,1602000000,0.00,89.0,28.0,0,0,0,0.0
Status,1732152917000,26,15,3,19,1602000000,0.00,28.0,17.0,0,0,0,0.0
Status,1732152917000,26,16,3,8,1602000000,28.60,240.0,16.0,1,0,0,23.6
Status,1732152917000,26,17,6,21,1575420030,0.00,359.0,67.0,0,0,0,0.0
Status,1732152917000,26,18,6,19,1575420030,0.00,236.0,41.0,0,0,0,0.0
Status,1732152917000,26,19,6,13,1575420030,0.00,115.0,33.0,0,0,0,0.0
Status,1732152917000,26,20,6,27,1575420030,0.00,69.0,30.0,0,0,0,0.0
Status,1732152917000,26,21,6,4,1575420030,0.00,306.0,25.0,0,0,0,0.0
Status,1732152917000,26,22,6,15,1575420030,0.00,56.0,23.0,0,0,0,0.0
Status,1732152917000,26,23,6,29,1575420030,0.00,190.0,19.0,0,0,0,0.0
Status,1732152917000,26,24,6,26,1575420030,0.00,165.0,11.0,0,0,0,0.0
Status,1732152917000,26,25,6,6,1575420030,0.00,324.0,8.0,0,0,0,0.0
Fix,GPS,37.4249466667,-122.1585683333,25.400000000000002,0.0,5.1,0.0,1732152918000,3.7,134.6,31802091000000,39.5,0,,,
Raw,1732152917999,41238000000,,700475.0099483824,-1416188094761999872,0.0,95.56816063995193,1102.4099342358347,0.0,0,2,0.0,16431,351335917482859,797,15.937000274658203,758.1730129220966,0.14999,16,0.0,0.0,1575420030,,,,0,0.0,1,6.0,15.937000274658203,0.0,0.0,0.0,66.7128,C,31802091000000,
Raw,1732152917999,41238000000,,700475.0099483824,-1416188094761999872,0.0,95.56816063995193,1102.4099342358347,0.0,0,30,0.0,16431,351335924203815,487,25.54599952697754,907.1408094991986,0.14999,16,0.0,0.0,1575420030,,,,0,10.814006853194147,1,6.0,25.54599952697754,0.0,0.0,0.0,66.7128,C,31802091000000,
Raw,1732152917999,41238000000,,700475.0099483824,-1416188094761999872,0.0,95.56816063995193,1102.4099342358347,0.0,0,15,0.0,16431,351335924169763,487,17.871000289916992,610.5960419510894,0.14999,16,0.0,0.0,1575420030,,,,0,0.0,1,6.0,17.871000289916992,0.0,0.0,0.0,66.7128,C,31802091000000,
Raw,1732152917999,41238000000,,700475.0099483824,-1416188094761999872,0.0,95.56816063995193,1102.4099342358347,0.0,0,12,0.0,17,197241,487,21.67300033569336,-216.88851440759026,0.14999,16,0.0,0.0,1575420030,,,,0,5.037040097231868,1,6.0,21.67300033569336,0.0,0.0,0.0,66.7128,C,31802091000000,
Raw,1732152917999,41238000000,,700475.0099483824,-1416188094761999872,0.0,95.56816063995193,1102.4099342358347,0.0,0,13,0.0,16431,351335927514859,487,23.791000366210938,794.5165027552765,0.14999,16,0.0,0.0,1575420030,,,,0,8.321565252652553,1,6.0,23.791000366210938,0.0,0.0,0.0,66.7128,C,31802091000000,
Raw,1732152917999,41238000000,,700475.0099483824,-1416188094761999872,0.0,95.56816063995193,1102.4099342358347,0.0,0,8,0.0,17,526776,487,5.0,975.6472784193529,0.14999,16,0.0,0.0,1605374980,,,,0,9.311996006787098,3,6.0,18.0,0.0,0.0,64.98050453971862,66.7128,C,31802091000000,
Raw,1732152917999,41238000000,,700475.0099483824,-1416188094761999872,0.0,95.56816063995193,1102.4099342358347,0.0,0,6,0.0,16431,351335920871304,396,23.945999145507812,-322.83567819848514,0.14999,16,0.0,0.0,1575420030,,,,0,8.521825181113625,1,6.0,23.945999145507812,0.0,0.0,0.0,66.7128,C,31802091000000,
Fix,FLP,37.4249523000,-122.1585677000,2.32759605601177,0.6766897,4.985,180.0,1732152918243,3.7,134.6,31802091000000,18.278471,0,,,
Fix,FLP,37.4249499000,-122.1585679000,2.32759605601177,0.6239725,5.0,180.0,1732152918419,3.7,134.6,31802267000000,14.78988,0,,,
Fix,NLP,37.4255965000,-122.1580387000,12.5,,29.738,,1732152918419,,,31802267000000,47.837135,0,,,
Status,1732152918000,26,0,1,17,1575420030,0.00,58.0,74.0,0,0,0,0.0
Status,1732152918000,26,1,1,19,1575420030,0.00,203.0,69.0,0,0,0,0.0
Status,1732152918000,26,2,1,22,1575420030,0.00,29.0,63.0,0,0,0,0.0
Status,1732152918000,26,3,1,14,1575420030,0.00,61.0,48.0,0,0,0,0.0
Status,1732152918000,26,4,2,135,1575420030,0.00,197.0,45.0,0,0,0,0.0
Status,1732152918000,26,5,1,13,1575420030,28.80,226.0,42.0,1,0,0,23.8
Status,1732152918000,26,6,1,30,1575420030,24.40,136.0,29.0,1,0,0,19.4
Status,1732152918000,26,7,1,15,1575420030,22.90,266.0,28.0,1,0,0,17.9
Status,1732152918000,26,8,1,24,1575420030,19.20,313.0,23.0,1,0,0,14.200001
Status,1732152918000,26,9,1,6,1575420030,28.90,158.0,18.0,1,0,0,23.9
Status,1732152918000,26,10,1,2,1575420030,20.90,42.0,14.0,1,0,0,15.9
Status,1732152918000,26,11,1,12,1575420030,25.40,272.0,3.0,0,0,0,20.4
Status,1732152918000,26,12,3,20,1602000000,0.00,98.0,58.0,0,0,0,0.0
Status,1732152918000,26,13,3,11,1602000000,0.00,318.0,33.0,0,0,0,0.0
Status,1732152918000,26,14,3,9,1602000000,0.00,89.0,28.0,0,0,0,0.0
Status,1732152918000,26,15,3,19,1602000000,0.00,28.0,17.0,0,0,0,0.0
Status,1732152918000,26,16,3,8,1602000000,22.40,240.0,16.0,1,0,0,17.4
Status,1732152918000,26,17,6,21,1575420030,0.00,359.0,67.0,0,0,0,0.0
Status,1732152918000,26,18,6,19,1575420030,0.00,236.0,41.0,0,0,0,0.0
Status,1732152918000,26,19,6,13,1575420030,0.00,115.0,33.0,0,0,0,0.0
Status,1732152918000,26,20,6,27,1575420030,0.00,69.0,30.0,0,0,0,0.0
Status,1732152918000,26,21,6,4,1575420030,0.00,306.0,25.0,0,0,0,0.0
Status,1732152918000,26,22,6,15,1575420030,0.00,56.0,23.0,0,0,0,0.0
Status,1732152918000,26,23,6,29,1575420030,0.00,190.0,19.0,0,0,0,0.0
Status,1732152918000,26,24,6,26,1575420030,0.00,165.0,11.0,0,0,0,0.0
Status,1732152918000,26,25,6,6,1575420030,0.00,324.0,8.0,0,0,0,0.0
Fix,GPS,37.4250050000,-122.1585683333,25.400000000000002,0.0,5.1,0.0,1732152919000,3.7,179.9,31803091000000,47.9,0,,,
Raw,1732152918999,42238000000,,700444.5722246955,-1416188094761999872,0.0,97.74990298556054,1098.7056718183092,0.0,0,2,0.0,16431,351336917480330,316,15.937000274658203,757.9364466667525,0.14999,16,0.0,0.0,1575420030,,,,0,0.0,1,6.0,15.937000274658203,0.0,0.0,0.0,66.7128,C,31803091000000,
Raw,1732152918999,42238000000,,700444.5722246955,-1416188094761999872,0.0,97.74990298556054,1098.7056718183092,0.0,0,30,0.0,16431,351336924200791,797,19.42799949645996,905.9868753573612,0.14999,16,0.0,0.0,1575420030,,,,0,1.3095114681491191,1,6.0,19.42799949645996,0.0,0.0,0.0,66.7128,C,31803091000000,
Raw,1732152918999,42238000000,,700444.5722246955,-1416188094761999872,0.0,97.74990298556054,1098.7056718183092,0.0,0,15,0.0,16431,351336924167729,797,17.871000289916992,609.791614474404,0.14999,16,0.0,0.0,1575420030,,,,0,0.0,1,6.0,17.871000289916992,0.0,0.0,0.0,66.7128,C,31803091000000,
Raw,1732152918999,42238000000,,700444.5722246955,-1416188094761999872,0.0,97.74990298556054,1098.7056718183092,0.0,0,12,0.0,17,197967,487,20.420000076293945,-216.92823635345027,0.14999,16,0.0,0.0,1575420030,,,,0,2.959117419857419,1,6.0,20.420000076293945,0.0,0.0,0.0,66.7128,C,31803091000000,
Raw,1732152918999,42238000000,,700444.5722246955,-1416188094761999872,0.0,97.74990298556054,1098.7056718183092,0.0,0,13,0.0,16431,351336927512211,797,23.791000366210938,793.8146090031677,0.14999,16,0.0,0.0,1575420030,,,,0,8.321565252652553,1,6.0,23.791000366210938,0.0,0.0,0.0,66.7128,C,31803091000000,
Raw,1732152918999,42238000000,,700444.5722246955,-1416188094761999872,0.0,97.74990298556054,1098.7056718183092,0.0,0,8,0.0,17,523519,797,5.0,976.2408802664133,0.14999,16,0.0,0.0,1605374980,,,,0,0.0,3,6.0,17.0,0.0,0.0,63.57924443177146,66.7128,C,31803091000000,
Raw,1732152918999,42238000000,,700444.5722246955,-1416188094761999872,0.0,97.74990298556054,1098.7056718183092,0.0,0,24,0.0,16431,351336922989792,797,14.199999809265137,-273.4483375963697,0.14999,16,0.0,0.0,1575420030,,,,0,0.0,1,6.0,14.199999809265137,0.0,0.0,0.0,66.7128,C,31803091000000,
Raw,1732152918999,42238000000,,700444.5722246955,-1416188094761999872,0.0,97.74990298556054,1098.7056718183092,0.0,0,6,0.0,16431,351336920872383,487,23.945999145507812,-323.40316775249687,0.14999,16,0.0,0.0,1575420030,,,,0,8.521825181113625,1,6.0,23.945999145507812,0.0,0.0,0.0,66.7128,C,31803091000000,
Fix,FLP,37.4249733000,-122.1585681000,2.32759605601177,0.04897855,5.014,,1732152919243,3.7,,31803091000000,11.364085,0,,,
Status,1732152919000,26,0,1,17,1575420030,0.00,58.0,74.0,0,0,0,0.0
Status,1732152919000,26,1,1,19,1575420030,0.00,203.0,69.0,0,0,0,0.0
Status,1732152919000,26,2,1,22,1575420030,0.00,29.0,63.0,0,0,0,0.0
Status,1732152919000,26,3,1,14,1575420030,0.00,61.0,48.0,0,0,0,0.0
Status,1732152919000,26,4,2,135,1575420030,0.00,197.0,45.0,0,0,0,0.0
Status,1732152919000,26,5,1,13,1575420030,25.90,226.0,42.0,1,0,0,20.9
Status,1732152919000,26,6,1,30,1575420030,24.40,136.0,29.0,1,0,0,19.4
Status,1732152919000,26,7,1,15,1575420030,22.90,266.0,28.0,1,0,0,17.9
Status,1732152919000,26,8,1,24,1575420030,19.20,313.0,23.0,1,0,0,14.200001
Status,1732152919000,26,9,1,6,1575420030,23.40,158.0,18.0,1,0,0,18.4
Status,1732152919000,26,10,1,2,1575420030,26.90,42.0,14.0,1,0,0,21.9
Status,1732152919000,26,11,1,12,1575420030,25.80,272.0,3.0,0,0,0,20.8
Status,1732152919000,26,12,3,20,1602000000,0.00,98.0,58.0,0,0,0,0.0
Status,1732152919000,26,13,3,11,1602000000,0.00,318.0,33.0,0,0,0,0.0
Status,1732152919000,26,14,3,9,1602000000,0.00,89.0,28.0,0,0,0,0.0
Status,1732152919000,26,15,3,19,1602000000,0.00,28.0,17.0,0,0,0,0.0
Status,1732152919000,26,16,3,8,1602000000,22.40,240.0,16.0,1,0,0,17.4
Status,1732152919000,26,17,6,21,1575420030,0.00,359.0,67.0,0,0,0,0.0
Status,1732152919000,26,18,6,19,1575420030,0.00,236.0,41.0,0,0,0,0.0
Status,1732152919000,26,19,6,13,1575420030,0.00,115.0,33.0,0,0,0,0.0
Status,1732152919000,26,20,6,27,1575420030,0.00,69.0,30.0,0,0,0,0.0
Status,1732152919000,26,21,6,4,1575420030,0.00,306.0,25.0,0,0,0,0.0
Status,1732152919000,26,22,6,15,1575420030,0.00,56.0,23.0,0,0,0,0.0
Status,1732152919000,26,23,6,29,1575420030,0.00,190.0,19.0,0,0,0,0.0
Status,1732152919000,26,24,6,26,1575420030,0.00,165.0,11.0,0,0,0,0.0
Status,1732152919000,26,25,6,6,1575420030,0.00,324.0,8.0,0,0,0,0.0
Fix,GPS,37.4250250000,-122.1585850000,25.400000000000002,0.0,5.0,0.0,1732152920000,3.4,179.9,31804091000000,47.3,0,,,
Raw,1732152919999,43238000000,,700415.9586796543,-1416188094761999872,0.0,92.44896275969131,1095.5588782899122,0.0,0,2,0.0,16431,351337917477809,487,21.922000885009766,756.8723631018664,0.14999,16,0.0,0.0,1575420030,,,,0,5.469621916990458,1,6.0,21.922000885009766,0.0,0.0,0.0,66.7128,C,31804091000000,
Raw,1732152919999,43238000000,,700415.9586796543,-1416188094761999872,0.0,92.44896275969131,1095.5588782899122,0.0,0,30,0.0,16431,351337924197769,797,19.42799949645996,905.6271013822269,0.14999,16,0.0,0.0,1575420030,,,,0,1.3095114681491191,1,6.0,19.42799949645996,0.0,0.0,0.0,66.7128,C,31804091000000,
Raw,1732152919999,43238000000,,700415.9586796543,-1416188094761999872,0.0,92.44896275969131,1095.5588782899122,0.0,0,15,0.0,16431,351337924165695,487,17.871000289916992,609.2624066553498,0.14999,16,0.0,0.0,1575420030,,,,0,0.0,1,6.0,17.871000289916992,0.0,0.0,0.0,66.7128,C,31804091000000,
Raw,1732152919999,43238000000,,700415.9586796543,-1416188094761999872,0.0,92.44896275969131,1095.5588782899122,0.0,0,12,0.0,17,198693,487,20.816999435424805,-217.21901958051203,0.14999,16,0.0,0.0,1575420030,,,,0,3.67960400020692,1,6.0,20.816999435424805,0.0,0.0,0.0,66.7128,C,31804091000000,
Raw,1732152919999,43238000000,,700415.9586796543,-1416188094761999872,0.0,92.44896275969131,1095.5588782899122,0.0,0,13,0.0,16431,351337927509563,487,20.910999298095703,793.4211062178645,0.14999,16,0.0,0.0,1575420030,,,,0,3.765603610061402,1,6.0,20.910999298095703,0.0,0.0,0.0,66.7128,C,31804091000000,
Raw,1732152919999,43238000000,,700415.9586796543,-1416188094761999872,0.0,92.44896275969131,1095.5588782899122,0.0,0,8,0.0,17,520264,1797,5.0,974.93185597818,0.14999,16,0.0,0.0,1605374980,,,,0,0.0,3,6.0,14.0,0.0,0.0,63.073543617214426,66.7128,C,31804091000000,
Raw,1732152919999,43238000000,,700415.9586796543,-1416188094761999872,0.0,92.44896275969131,1095.5588782899122,0.0,0,24,0.0,16431,351337922990705,1797,14.199999809265137,-273.96913644208985,0.14999,16,0.0,0.0,1575420030,,,,0,0.0,1,6.0,14.199999809265137,0.0,0.0,0.0,66.7128,C,31804091000000,
Raw,1732152919999,43238000000,,700415.9586796543,-1416188094761999872,0.0,92.44896275969131,1095.5588782899122,0.0,0,6,0.0,16431,351337920873463,797,18.389999389648438,-323.91853096352037,0.14999,16,0.0,0.0,1575420030,,,,0,0.0,1,6.0,18.389999389648438,0.0,0.0,0.0,66.7128,C,31804091000000,
Fix,FLP,37.4250011000,-122.1585754000,2.406957070035226,0.6083876,5.028,0.0,1732152920243,3.4,179.9,31804091000000,10.158833,0,,,
Status,1732152920000,26,0,1,17,1575420030,0.00,58.0,74.0,0,0,0,0.0
Status,1732152920000,26,1,1,19,1575420030,0.00,203.0,69.0,0,0,0,0.0
Status,1732152920000,26,2,1,22,1575420030,0.00,29.0,63.0,0,0,0,0.0
Status,1732152920000,26,3,1,14,1575420030,0.00,61.0,48.0,0,0,0,0.0
Status,1732152920000,26,4,2,135,1575420030,0.00,197.0,45.0,0,0,0,0.0
Status,1732152920000,26,5,1,13,1575420030,30.20,226.0,42.0,1,0,0,25.2
Status,1732152920000,26,6,1,30,1575420030,24.40,136.0,29.0,1,0,0,19.4
Status,1732152920000,26,7,1,15,1575420030,23.00,266.0,28.0,1,0,0,18.0
Status,1732152920000,26,8,1,24,1575420030,24.00,313.0,23.0,1,0,0,19.0
Status,1732152920000,26,9,1,6,1575420030,23.40,158.0,18.0,1,0,0,18.4
Status,1732152920000,26,10,1,2,1575420030,26.90,42.0,14.0,1,0,0,21.9
Status,1732152920000,26,11,1,12,1575420030,24.40,272.0,3.0,0,0,0,19.4
Status,1732152920000,26,12,3,20,1602000000,0.00,98.0,58.0,0,0,0,0.0
Status,1732152920000,26,13,3,11,1602000000,0.00,318.0,33.0,0,0,0,0.0
Status,1732152920000,26,14,3,9,1602000000,0.00,89.0,28.0,0,0,0,0.0
Status,1732152920000,26,15,3,19,1602000000,0.00,28.0,17.0,0,0,0,0.0
Status,1732152920000,26,16,3,8,1602000000,22.30,240.0,16.0,1,0,0,17.3
Status,1732152920000,26,17,6,21,1575420030,0.00,359.0,67.0,0,0,0,0.0
Status,1732152920000,26,18,6,19,1575420030,0.00,236.0,41.0,0,0,0,0.0
Status,1732152920000,26,19,6,13,1575420030,0.00,115.0,33.0,0,0,0,0.0
Status,1732152920000,26,20,6,27,1575420030,0.00,69.0,30.0,0,0,0,0.0
Status,1732152920000,26,21,6,4,1575420030,0.00,306.0,25.0,0,0,0,0.0
Status,1732152920000,26,22,6,15,1575420030,0.00,56.0,23.0,0,0,0,0.0
Status,1732152920000,26,23,6,29,1575420030,0.00,190.0,19.0,0,0,0,0.0
Status,1732152920000,26,24,6,26,1575420030,0.00,165.0,11.0,0,0,0,0.0
Status,1732152920000,26,25,6,6,1575420030,0.00,324.0,8.0,0,0,0,0.0
Fix,GPS,37.4250633333,-122.1585850000,25.400000000000002,0.0,4.8,0.0,1732152921000,2.9,179.9,31805091000000,47.3,0,,,
Raw,1732152920999,44238000000,,700342.470339931,-1416188094761999872,0.0,90.37534651649,1095.9001673272433,0.0,0,2,0.0,16431,351338917475284,797,21.922000885009766,757.0489515418826,0.14999,16,0.0,0.0,1575420030,,,,0,5.469621916990458,1,6.0,21.922000885009766,0.0,0.0,0.0,66.7128,C,31805091000000,
Raw,1732152920999,44238000000,,700342.470339931,-1416188094761999872,0.0,90.37534651649,1095.9001673272433,0.0,0,30,0.0,16431,351338924194737,487,19.41200065612793,905.8238992332947,0.14999,16,0.0,0.0,1575420030,,,,0,0.7224036010983799,1,6.0,19.41200065612793,0.0,0.0,0.0,66.7128,C,31805091000000,
Raw,1732152920999,44238000000,,700342.470339931,-1416188094761999872,0.0,90.37534651649,1095.9001673272433,0.0,0,15,0.0,16431,351338924163666,487,17.989999771118164,610.2135498104282,0.14999,16,0.0,0.0,1575420030,,,,0,2.6727434713950062,1,6.0,17.989999771118164,0.0,0.0,0.0,66.7128,C,31805091000000,
Raw,1732152920999,44238000000,,700342.470339931,-1416188094761999872,0.0,90.37534651649,1095.9001673272433,0.0,0,12,0.0,17,199415,487,19.42799949645996,-217.48620193213884,0.14999,16,0.0,0.0,1575420030,,,,0,1.3095114681491191,1,6.0,19.42799949645996,0.0,0.0,0.0,66.7128,C,31805091000000,
Raw,1732152920999,44238000000,,700342.470339931,-1416188094761999872,0.0,90.37534651649,1095.9001673272433,0.0,0,13,0.0,16431,351338927506921,396,25.18400001525879,794.1265308096052,0.14999,16,0.0,0.0,1575420030,,,,0,10.305228255011775,1,6.0,25.18400001525879,0.0,0.0,0.0,66.7128,C,31805091000000,
Raw,1732152920999,44238000000,,700342.470339931,-1416188094761999872,0.0,90.37534651649,1095.9001673272433,0.0,0,8,0.0,17,517046,797,5.0,975.0017022170199,0.14999,16,0.0,0.0,1605374980,,,,0,0.0,3,6.0,17.0,0.0,0.0,60.358836269408215,66.7128,C,31805091000000,
Raw,1732152920999,44238000000,,700342.470339931,-1416188094761999872,0.0,90.37534651649,1095.9001673272433,0.0,0,24,0.0,16431,351338922991538,487,18.993000030517578,-273.5702444805061,0.14999,16,0.0,0.0,1575420030,,,,0,0.4759788568790446,1,6.0,18.993000030517578,0.0,0.0,0.0,66.7128,C,31805091000000,
Raw,1732152920999,44238000000,,700342.470339931,-1416188094761999872,0.0,90.37534651649,1095.9001673272433,0.0,0,6,0.0,16431,351338920874544,797,18.389999389648438,-324.26399574646194,0.14999,16,0.0,0.0,1575420030,,,,0,0.0,1,6.0,18.389999389648438,0.0,0.0,0.0,66.7128,C,31805091000000,
Fix,FLP,37.4250368000,-122.1585797000,2.9826467145360445,1.072735,5.014,0.0,1732152921243,2.9,179.9,31805091000000,12.621855,0,,,
Status,1732152921000,25,0,1,17,1575420030,0.00,58.0,74.0,0,0,0,0.0
Status,1732152921000,25,1,1,19,1575420030,0.00,203.0,69.0,0,0,0,0.0
Status,1732152921000,25,2,1,22,1575420030,0.00,29.0,63.0,0,0,0,0.0
Status,1732152921000,25,3,1,14,1575420030,0.00,61.0,48.0,0,0,0,0.0
Status,1732152921000,25,4,1,13,1575420030,25.80,226.0,42.0,1,0,0,20.8
Status,1732152921000,25,5,1,30,1575420030,24.40,136.0,29.0,1,0,0,19.4
Status,1732152921000,25,6,1,15,1575420030,26.00,266.0,28.0,1,0,0,21.0
Status,1732152921000,25,7,1,24,1575420030,0.00,313.0,23.0,0,0,0,0.0
Status,1732152921000,25,8,1,6,1575420030,0.00,158.0,18.0,0,0,0,0.0
Status,1732152921000,25,9,1,2,1575420030,18.00,42.0,14.0,1,0,0,13.0
Status,1732152921000,25,10,1,12,1575420030,23.10,272.0,3.0,0,0,0,18.1
Status,1732152921000,25,11,3,20,1602000000,0.00,98.0,58.0,0,0,0,0.0
Status,1732152921000,25,12,3,11,1602000000,0.00,318.0,33.0,0,0,0,0.0
Status,1732152921000,25,13,3,9,1602000000,0.00,89.0,28.0,0,0,0,0.0
Status,1732152921000,25,14,3,19,1602000000,0.00,28.0,17.0,0,0,0,0.0
Status,1732152921000,25,15,3,8,1602000000,22.20,240.0,16.0,1,0,0,17.2
Status,1732152921000,25,16,6,21,1575420030,0.00,359.0,67.0,0,0,0,0.0
Status,1732152921000,25,17,6,19,1575420030,0.00,236.0,41.0,0,0,0,0.0
Status,1732152921000,25,18,6,13,1575420030,0.00,115.0,33.0,0,0,0,0.0
Status,1732152921000,25,19,6,27,1575420030,0.00,69.0,30.0,0,0,0,0.0
Status,1732152921000,25,20,6,4,1575420030,0.00,306.0,25.0,0,0,0,0.0
Status,1732152921000,25,21,6,15,1575420030,0.00,56.0,23.0,0,0,0,0.0
Status,1732152921000,25,22,6,29,1575420030,0.00,190.0,19.0,0,0,0,0.0
Status,1732152921000,25,23,6,26,1575420030,0.00,165.0,11.0,0,0,0,0.0
Status,1732152921000,25,24,6,6,1575420030,0.00,324.0,8.0,0,0,0,0.0
Fix,GPS,37.4250233333,-122.1585950000,25.400000000000002,0.0,4.7,0.0,1732152922000,2.9,179.9,31806091000000,47.3,0,,,
Raw,1732152921999,45238000000,,700322.1958972698,-1416188094761999872,0.0,88.75508371131387,1097.1937208137908,0.0,0,2,0.0,16431,351339917472758,797,13.0,757.3956707020619,0.14999,16,0.0,0.0,1575420030,,,,0,0.0,1,6.0,13.0,0.0,0.0,0.0,66.7128,C,31806091000000,
Raw,1732152921999,45238000000,,700322.1958972698,-1416188094761999872,0.0,88.75508371131387,1097.1937208137908,0.0,0,30,0.0,16431,351339924191705,797,19.433000564575195,906.2410958108653,0.14999,16,0.0,0.0,1575420030,,,,0,1.9653617360752698,1,6.0,19.433000564575195,0.0,0.0,0.0,66.7128,C,31806091000000,
Raw,1732152921999,45238000000,,700322.1958972698,-1416188094761999872,0.0,88.75508371131387,1097.1937208137908,0.0,0,15,0.0,16431,351339924161624,396,21.049999237060547,611.0340983575387,0.14999,16,0.0,0.0,1575420030,,,,0,4.018608574018224,1,6.0,21.049999237060547,0.0,0.0,0.0,66.7128,C,31806091000000,
Raw,1732152921999,45238000000,,700322.1958972698,-1416188094761999872,0.0,88.75508371131387,1097.1937208137908,0.0,0,12,0.0,17,200138,797,18.097999572753906,-217.16094656024885,0.14999,16,0.0,0.0,1575420030,,,,0,0.0,1,6.0,18.097999572753906,0.0,0.0,0.0,66.7128,C,31806091000000,
Raw,1732152921999,45238000000,,700322.1958972698,-1416188094761999872,0.0,88.75508371131387,1097.1937208137908,0.0,0,13,0.0,16431,351339927504270,797,20.768999099731445,794.3105061377989,0.14999,16,0.0,0.0,1575420030,,,,0,3.592744379991276,1,6.0,20.768999099731445,0.0,0.0,0.0,66.7128,C,31806091000000,
Raw,1732152921999,45238000000,,700322.1958972698,-1416188094761999872,0.0,88.75508371131387,1097.1937208137908,0.0,0,8,0.0,17,513794,797,5.0,974.6364228008412,0.14999,16,0.0,0.0,1605374980,,,,0,0.0,3,6.0,15.0,0.0,0.0,60.358836269408215,66.7128,C,31806091000000,
Fix,FLP,37.4250327000,-122.1585865000,3.482960244273978,0.6078517,4.971,0.0,1732152922243,2.9,179.9,31806091000000,12.856093,0,,,
Status,1732152922000,25,0,1,17,1575420030,0.00,58.0,74.0,0,0,0,0.0
Status,1732152922000,25,1,1,19,1575420030,0.00,203.0,69.0,0,0,0,0.0
Status,1732152922000,25,2,1,22,1575420030,0.00,29.0,63.0,0,0,0,0.0
Status,1732152922000,25,3,1,14,1575420030,0.00,61.0,48.0,0,0,0,0.0
Status,1732152922000,25,4,1,13,1575420030,25.80,226.0,42.0,1,0,0,20.8
Status,1732152922000,25,5,1,30,1575420030,24.50,136.0,29.0,1,0,0,19.5
Status,1732152922000,25,6,1,15,1575420030,26.10,266.0,28.0,1,0,0,21.1
Status,1732152922000,25,7,1,24,1575420030,22.50,313.0,23.0,1,0,0,17.5
Status,1732152922000,25,8,1,6,1575420030,0.00,158.0,18.0,0,0,0,0.0
Status,1732152922000,25,9,1,2,1575420030,18.00,42.0,14.0,1,0,0,13.0
Status,1732152922000,25,10,1,12,1575420030,20.80,272.0,3.0,0,0,0,15.799999
Status,1732152922000,25,11,3,20,1602000000,0.00,98.0,58.0,0,0,0,0.0
Status,1732152922000,25,12,3,11,1602000000,0.00,318.0,33.0,0,0,0,0.0
Status,1732152922000,25,13,3,9,1602000000,0.00,89.0,28.0,0,0,0,0.0
Status,1732152922000,25,14,3,19,1602000000,0.00,28.0,17.0,0,0,0,0.0
Status,1732152922000,25,15,3,8,1602000000,22.10,240.0,16.0,1,0,0,17.1
Status,1732152922000,25,16,6,21,1575420030,0.00,359.0,67.0,0,0,0,0.0
Status,1732152922000,25,17,6,19,1575420030,0.00,236.0,41.0,0,0,0,0.0
Status,1732152922000,25,18,6,13,1575420030,0.00,115.0,33.0,0,0,0,0.0
Status,1732152922000,25,19,6,27,1575420030,0.00,69.0,30.0,0,0,0,0.0
Status,1732152922000,25,20,6,4,1575420030,0.00,306.0,25.0,0,0,0,0.0
Status,1732152922000,25,21,6,15,1575420030,0.00,56.0,23.0,0,0,0,0.0
Status,1732152922000,25,22,6,29,1575420030,0.00,190.0,19.0,0,0,0,0.0
Status,1732152922000,25,23,6,26,1575420030,0.00,165.0,11.0,0,0,0,0.0
Status,1732152922000,25,24,6,6,1575420030,0.00,324.0,8.0,0,0,0,0.0
Fix,GPS,37.4249983333,-122.1585950000,25.400000000000002,0.0,4.7,0.0,1732152923000,2.9,179.9,31807091000000,48.1,0,,,
Raw,1732152922999,46238000000,,700301.4523800996,-1416188094761999872,0.0,88.42100936525293,1101.5313530878784,0.0,0,2,0.0,16431,351340917470231,1797,13.0,758.571626133183,0.14999,16,0.0,0.0,1575420030,,,,0,0.0,1,6.0,13.0,0.0,0.0,0.0,66.7128,C,31807091000000,
Raw,1732152922999,46238000000,,700301.4523800996,-1416188094761999872,0.0,88.42100936525293,1101.5313530878784,0.0,0,30,0.0,16431,351340924188681,797,19.452999114990234,907.7922494113028,0.14999,16,0.0,0.0,1575420030,,,,0,1.9653617360752698,1,6.0,19.452999114990234,0.0,0.0,0.0,66.7128,C,31807091000000,
Raw,1732152922999,46238000000,,700301.4523800996,-1416188094761999872,0.0,88.42100936525293,1101.5313530878784,0.0,0,15,0.0,16431,351340924159584,396,21.052000045776367,612.1589495308282,0.14999,16,0.0,0.0,1575420030,,,,0,4.101331957750997,1,6.0,21.052000045776367,0.0,0.0,0.0,66.7128,C,31807091000000,
Raw,1732152922999,46238000000,,700301.4523800996,-1416188094761999872,0.0,88.42100936525293,1101.5313530878784,0.0,0,12,0.0,17,200862,797,15.82800006866455,-216.12970909562353,0.14999,16,0.0,0.0,1575420030,,,,0,0.0,1,6.0,15.82800006866455,0.0,0.0,0.0,66.7128,C,31807091000000,
Raw,1732152922999,46238000000,,700301.4523800996,-1416188094761999872,0.0,88.42100936525293,1101.5313530878784,0.0,0,13,0.0,16431,351340927501620,797,20.768999099731445,795.281858703929,0.14999,16,0.0,0.0,1575420030,,,,0,3.592744379991276,1,6.0,20.768999099731445,0.0,0.0,0.0,66.7128,C,31807091000000,
Raw,1732152922999,46238000000,,700301.4523800996,-1416188094761999872,0.0,88.42100936525293,1101.5313530878784,0.0,0,8,0.0,17,510542,797,5.0,976.4923631994691,0.14999,16,0.0,0.0,1605374980,,,,0,0.0,3,6.0,16.0,0.0,0.0,56.82440974018013,66.7128,C,31807091000000,
Raw,1732152922999,46238000000,,700301.4523800996,-1416188094761999872,0.0,88.42100936525293,1101.5313530878784,0.0,0,24,0.0,16431,351340922993273,487,17.465999603271484,-270.5105861057125,0.14999,16,0.0,0.0,1575420030,,,,0,0.0,1,6.0,17.465999603271484,0.0,0.0,0.0,66.7128,C,31807091000000,
Fix,FLP,37.4250159000,-122.1585903000,3.733382611864868,0.08326857,4.928,,1732152923243,2.9,,31807091000000,13.203282,0,,,
Fix,FLP,37.4250086000,-122.1585920000,3.662091644644004,0.06375724,4.833,,1732152923565,2.9,,31807413000000,12.092178,0,,,
Fix,NLP,37.4256982000,-122.1580776000,5.400000095367432,,21.323,,1732152923565,,,31807413000000,18.441032,0,,,
Status,1732152923000,25,0,1,17,1575420030,0.00,58.0,74.0,0,0,0,0.0
Status,1732152923000,25,1,1,19,1575420030,0.00,203.0,69.0,0,0,0,0.0
Status,1732152923000,25,2,1,22,1575420030,0.00,29.0,63.0,0,0,0,0.0
Status,1732152923000,25,3,1,14,1575420030,0.00,61.0,48.0,0,0,0,0.0
Status,1732152923000,25,4,1,13,1575420030,25.80,226.0,42.0,1,0,0,20.8
Status,1732152923000,25,5,1,30,1575420030,24.50,136.0,29.0,1,0,0,19.5
Status,1732152923000,25,6,1,15,1575420030,30.00,266.0,28.0,1,0,0,25.0
Status,1732152923000,25,7,1,24,1575420030,25.70,313.0,23.0,1,0,0,20.7
Status,1732152923000,25,8,1,6,1575420030,0.00,158.0,18.0,0,0,0,0.0
Status,1732152923000,25,9,1,2,1575420030,18.00,42.0,14.0,1,0,0,13.0
Status,1732152923000,25,10,1,12,1575420030,20.80,272.0,3.0,0,0,0,15.799999
Status,1732152923000,25,11,3,20,1602000000,0.00,98.0,58.0,0,0,0,0.0
Status,1732152923000,25,12,3,11,1602000000,0.00,318.0,33.0,0,0,0,0.0
Status,1732152923000,25,13,3,9,1602000000,0.00,89.0,28.0,0,0,0,0.0
Status,1732152923000,25,14,3,19,1602000000,0.00,28.0,17.0,0,0,0,0.0
Status,1732152923000,25,15,3,8,1602000000,18.30,240.0,16.0,1,0,0,13.299999
Status,1732152923000,25,16,6,21,1575420030,0.00,359.0,67.0,0,0,0,0.0
Status,1732152923000,25,17,6,19,1575420030,0.00,236.0,41.0,0,0,0,0.0
Status,1732152923000,25,18,6,13,1575420030,0.00,115.0,33.0,0,0,0,0.0
Status,1732152923000,25,19,6,27,1575420030,0.00,69.0,30.0,0,0,0,0.0
Status,1732152923000,25,20,6,4,1575420030,0.00,306.0,25.0,0,0,0,0.0
Status,1732152923000,25,21,6,15,1575420030,0.00,56.0,23.0,0,0,0,0.0
Status,1732152923000,25,22,6,29,1575420030,0.00,190.0,19.0,0,0,0,0.0
Status,1732152923000,25,23,6,26,1575420030,0.00,165.0,11.0,0,0,0,0.0
Status,1732152923000,25,24,6,6,1575420030,0.00,324.0,8.0,0,0,0,0.0
Fix,GPS,37.4249983333,-122.1585983333,25.400000000000002,0.0,4.5,0.0,1732152924000,2.7,179.9,31808091000000,47.7,0,,,
Raw,1732152923999,47238000000,,700245.5803941538,-1416188094761999872,0.0,85.42774546975551,1104.177954072014,0.0,0,2,0.0,16431,351341917467700,797,13.0,759.398911150644,0.14999,16,0.0,0.0,1575420030,,,,0,0.0,1,6.0,13.0,0.0,0.0,0.0,66.7128,C,31808091000000,
Raw,1732152923999,47238000000,,700245.5803941538,-1416188094761999872,0.0,85.42774546975551,1104.177954072014,0.0,0,30,0.0,16431,351341924185651,487,19.472000122070312,908.3709354436212,0.14999,16,0.0,0.0,1575420030,,,,0,1.9653617360752698,1,6.0,19.472000122070312,0.0,0.0,0.0,66.7128,C,31808091000000,
Raw,1732152923999,47238000000,,700245.5803941538,-1416188094761999872,0.0,85.42774546975551,1104.177954072014,0.0,0,15,0.0,16431,351341924157534,316,24.993000030517578,612.7819568922115,0.14999,16,0.0,0.0,1575420030,,,,0,10.018403951272294,1,6.0,24.993000030517578,0.0,0.0,0.0,66.7128,C,31808091000000,
Raw,1732152923999,47238000000,,700245.5803941538,-1416188094761999872,0.0,85.42774546975551,1104.177954072014,0.0,0,12,0.0,17,201581,797,15.82800006866455,-214.89944377595228,0.14999,16,0.0,0.0,1575420030,,,,0,0.0,1,6.0,15.82800006866455,0.0,0.0,0.0,66.7128,C,31808091000000,
Raw,1732152923999,47238000000,,700245.5803941538,-1416188094761999872,0.0,85.42774546975551,1104.177954072014,0.0,0,13,0.0,16431,351341927498966,797,20.768999099731445,796.0781559577775,0.14999,16,0.0,0.0,1575420030,,,,0,3.592744379991276,1,6.0,20.768999099731445,0.0,0.0,0.0,66.7128,C,31808091000000,
Raw,1732152923999,47238000000,,700245.5803941538,-1416188094761999872,0.0,85.42774546975551,1104.177954072014,0.0,0,8,0.0,17,507286,797,5.0,977.2604894605499,0.14999,16,0.0,0.0,1605374980,,,,0,0.0,3,6.0,17.0,0.0,0.0,53.914909765900546,66.7128,C,31808091000000,
Raw,1732152923999,47238000000,,700245.5803941538,-1416188094761999872,0.0,85.42774546975551,1104.177954072014,0.0,0,24,0.0,16431,351341922994160,396,20.719999313354492,-270.846108787585,0.14999,16,0.0,0.0,1575420030,,,,0,3.5050073750290016,1,6.0,20.719999313354492,0.0,0.0,0.0,66.7128,C,31808091000000,
Fix,FLP,37.4250039000,-122.1585944000,5.400000095367432,0.12848817,4.785,180.0,1732152924243,2.7,179.9,31808091000000,11.862092,0,,,
Status,1732152924000,25,0,1,17,1575420030,0.00,58.0,74.0,0,0,0,0.0
Status,1732152924000,25,1,1,19,1575420030,0.00,203.0,69.0,0,0,0,0.0
Status,1732152924000,25,2,1,22,1575420030,0.00,29.0,63.0,0,0,0,0.0
Status,1732152924000,25,3,1,14,1575420030,0.00,61.0,48.0,0,0,0,0.0
Status,1732152924000,25,4,1,13,1575420030,23.90,226.0,42.0,1,0,0,18.9
Status,1732152924000,25,5,1,30,1575420030,24.40,136.0,29.0,1,0,0,19.4
Status,1732152924000,25,6,1,15,1575420030,29.90,266.0,28.0,1,0,0,24.9
Status,1732152924000,25,7,1,24,1575420030,26.10,313.0,23.0,1,0,0,21.1
Status,1732152924000,25,8,1,6,1575420030,30.80,158.0,18.0,1,0,0,25.8
Status,1732152924000,25,9,1,2,1575420030,21.50,42.0,14.0,1,0,0,16.5
Status,1732152924000,25,10,1,12,1575420030,24.00,272.0,3.0,0,0,0,19.0
Status,1732152924000,25,11,3,20,1602000000,0.00,98.0,58.0,0,0,0,0.0
Status,1732152924000,25,12,3,11,1602000000,0.00,318.0,33.0,0,0,0,0.0
Status,1732152924000,25,13,3,9,1602000000,0.00,89.0,28.0,0,0,0,0.0
Status,1732152924000,25,14,3,19,1602000000,0.00,28.0,17.0,0,0,0,0.0
Status,1732152924000,25,15,3,8,1602000000,18.30,240.0,16.0,1,0,0,13.299999
Status,1732152924000,25,16,6,21,1575420030,0.00,359.0,67.0,0,0,0,0.0
Status,1732152924000,25,17,6,19,1575420030,0.00,236.0,41.0,0,0,0,0.0
Status,1732152924000,25,18,6,13,1575420030,0.00,115.0,33.0,0,0,0,0.0
Status,1732152924000,25,19,6,27,1575420030,0.00,69.0,30.0,0,0,0,0.0
Status,1732152924000,25,20,6,4,1575420030,0.00,306.0,25.0,0,0,0,0.0
Status,1732152924000,25,21,6,15,1575420030,0.00,56.0,23.0,0,0,0,0.0
Status,1732152924000,25,22,6,29,1575420030,0.00,190.0,19.0,0,0,0,0.0
Status,1732152924000,25,23,6,26,1575420030,0.00,165.0,11.0,0,0,0,0.0
Status,1732152924000,25,24,6,6,1575420030,0.00,324.0,8.0,0,0,0,0.0
Fix,GPS,37.4250066667,-122.1585883333,25.400000000000002,0.0,4.5,0.0,1732152925000,3.0,179.9,31809091000000,48.6,0,,,
Raw,1732152924999,48238000000,,700212.223984634,-1416188094761999872,0.0,87.85825737877857,1107.0945207045745,0.0,0,2,0.0,16431,351342917465166,797,16.46299934387207,760.4140275448443,0.14999,16,0.0,0.0,1575420030,,,,0,0.0,1,6.0,16.46299934387207,0.0,0.0,0.0,66.7128,C,31809091000000,
Raw,1732152924999,48238000000,,700212.223984634,-1416188094761999872,0.0,87.85825737877857,1107.0945207045745,0.0,0,30,0.0,16431,351342924182613,797,19.402999877929688,909.4064006241217,0.14999,16,0.0,0.0,1575420030,,,,0,0.0,1,6.0,19.402999877929688,0.0,0.0,0.0,66.7128,C,31809091000000,
Raw,1732152924999,48238000000,,700212.223984634,-1416188094761999872,0.0,87.85825737877857,1107.0945207045745,0.0,0,15,0.0,16431,351342924155498,487,24.910999298095703,613.7394648503107,0.14999,16,0.0,0.0,1575420030,,,,0,7.691496512940766,1,6.0,24.910999298095703,0.0,0.0,0.0,66.7128,C,31809091000000,
Raw,1732152924999,48238000000,,700212.223984634,-1416188094761999872,0.0,87.85825737877857,1107.0945207045745,0.0,0,12,0.0,17,202301,797,18.993000030517578,-214.4032678908237,0.14999,16,0.0,0.0,1575420030,,,,0,0.4759788568790446,1,6.0,18.993000030517578,0.0,0.0,0.0,66.7128,C,31809091000000,
Raw,1732152924999,48238000000,,700212.223984634,-1416188094761999872,0.0,87.85825737877857,1107.0945207045745,0.0,0,13,0.0,16431,351342927496298,487,18.867000579833984,797.4380867170925,0.14999,16,0.0,0.0,1575420030,,,,0,0.22235822169726482,1,6.0,18.867000579833984,0.0,0.0,0.0,66.7128,C,31809091000000,
Raw,1732152924999,48238000000,,700212.223984634,-1416188094761999872,0.0,87.85825737877857,1107.0945207045745,0.0,0,8,0.0,17,504025,797,5.0,978.451158111689,0.14999,16,0.0,0.0,1605374980,,,,0,0.0,3,6.0,15.0,0.0,0.0,50.95916145312876,66.7128,C,31809091000000,
Raw,1732152924999,48238000000,,700212.223984634,-1416188094761999872,0.0,87.85825737877857,1107.0945207045745,0.0,0,6,0.0,16431,351342920878813,487,25.79800033569336,-320.8999418286569,0.14999,16,0.0,0.0,1575420030,,,,0,11.149555044294475,1,6.0,25.79800033569336,0.0,0.0,0.0,66.7128,C,31809091000000,
Raw,1732152924999,48238000000,,700212.223984634,-1416188094761999872,0.0,87.85825737877857,1107.0945207045745,0.0,0,24,0.0,16431,351342922994992,797,21.097000122070312,-270.4830362648997,0.14999,16,0.0,0.0,1575420030,,,,0,4.101331957750997,1,6.0,21.097000122070312,0.0,0.0,0.0,66.7128,C,31809091000000,
Fix,FLP,37.4250049000,-122.1585918000,5.400000095367432,0.0683655,4.7,,1732152925243,3.0,,31809091000000,11.819332,0,,,
Status,1732152925000,25,0,1,17,1575420030,0.00,58.0,74.0,0,0,0,0.0
Status,1732152925000,25,1,1,19,1575420030,0.00,203.0,69.0,0,0,0,0.0
Status,1732152925000,25,2,1,22,1575420030,0.00,29.0,63.0,0,0,0,0.0
Status,1732152925000,25,3,1,14,1575420030,0.00,61.0,48.0,0,0,0,0.0
Status,1732152925000,25,4,1,13,1575420030,0.00,226.0,42.0,0,0,0,0.0
Status,1732152925000,25,5,1,30,1575420030,24.30,136.0,29.0,1,0,0,19.3
Status,1732152925000,25,6,1,15,1575420030,29.80,266.0,28.0,1,0,0,24.8
Status,1732152925000,25,7,1,24,1575420030,0.00,313.0,23.0,0,0,0,0.0
Status,1732152925000,25,8,1,6,1575420030,0.00,158.0,18.0,0,0,0,0.0
Status,1732152925000,25,9,1,2,1575420030,21.50,42.0,14.0,1,0,0,16.5
Status,1732152925000,25,10,1,12,1575420030,23.20,272.0,3.0,0,0,0,18.2
Status,1732152925000,25,11,3,20,1602000000,0.00,98.0,58.0,0,0,0,0.0
Status,1732152925000,25,12,3,11,1602000000,0.00,318.0,33.0,0,0,0,0.0
Status,1732152925000,25,13,3,9,1602000000,0.00,89.0,28.0,0,0,0,0.0
Status,1732152925000,25,14,3,19,1602000000,0.00,28.0,17.0,0,0,0,0.0
Status,1732152925000,25,15,3,8,1602000000,23.60,240.0,16.0,1,0,0,18.6
Status,1732152925000,25,16,6,21,1575420030,0.00,359.0,67.0,0,0,0,0.0
Status,1732152925000,25,17,6,19,1575420030,0.00,236.0,41.0,0,0,0,0.0
Status,1732152925000,25,18,6,13,1575420030,0.00,115.0,34.0,0,0,0,0.0
Status,1732152925000,25,19,6,27,1575420030,0.00,69.0,30.0,0,0,0,0.0
Status,1732152925000,25,20,6,4,1575420030,0.00,306.0,25.0,0,0,0,0.0
Status,1732152925000,25,21,6,15,1575420030,0.00,56.0,23.0,0,0,0,0.0
Status,1732152925000,25,22,6,29,1575420030,0.00,190.0,19.0,0,0,0,0.0
Status,1732152925000,25,23,6,26,1575420030,0.00,165.0,11.0,0,0,0,0.0
Status,1732152925000,25,24,6,6,1575420030,0.00,324.0,8.0,0,0,0,0.0
Fix,GPS,37.4250066667,-122.1585783333,25.400000000000002,0.0,4.6,0.0,1732152926000,3.3,179.9,31810091000000,48.7,0,,,
Raw,1732152925999,49238000000,,700200.9140770312,-1416188094761999872,0.0,88.13274943892927,1108.5258904245031,0.0,0,2,0.0,16431,351343917462629,797,16.46299934387207,760.8708996098587,0.14999,16,0.0,0.0,1575420030,,,,0,0.0,1,6.0,16.46299934387207,0.0,0.0,0.0,66.7128,C,31810091000000,
Raw,1732152925999,49238000000,,700200.9140770312,-1416188094761999872,0.0,88.13274943892927,1108.5258904245031,0.0,0,30,0.0,16431,351343924179578,797,19.336999893188477,910.0521726094482,0.14999,16,0.0,0.0,1575420030,,,,0,0.0,1,6.0,19.336999893188477,0.0,0.0,0.0,66.7128,C,31810091000000,
Raw,1732152925999,49238000000,,700200.9140770312,-1416188094761999872,0.0,88.13274943892927,1108.5258904245031,0.0,0,15,0.0,16431,351343924153452,396,24.840999603271484,614.0027911533921,0.14999,16,0.0,0.0,1575420030,,,,0,7.906637905002864,1,6.0,24.840999603271484,0.0,0.0,0.0,66.7128,C,31810091000000,
Raw,1732152925999,49238000000,,700200.9140770312,-1416188094761999872,0.0,88.13274943892927,1108.5258904245031,0.0,0,12,0.0,17,203015,487,18.24799919128418,-214.00623426588845,0.14999,16,0.0,0.0,1575420030,,,,0,0.0,1,6.0,18.24799919128418,0.0,0.0,0.0,66.7128,C,31810091000000,
Raw,1732152925999,49238000000,,700200.9140770312,-1416188094761999872,0.0,88.13274943892927,1108.5258904245031,0.0,0,8,0.0,17,500738,487,5.0,978.9082588888493,0.14999,16,0.0,0.0,1605374980,,,,0,1.9019608002851363,3,6.0,18.0,0.0,0.0,50.95916145312876,66.7128,C,31810091000000,
Fix,FLP,37.4250056000,-122.1585858000,5.400000095367432,0.032625545,4.642,,1732152926243,3.3,,31810091000000,13.1178465,0,,,
Status,1732152926000,25,0,1,17,1575420030,0.00,58.0,74.0,0,0,0,0.0
Status,1732152926000,25,1,1,19,1575420030,0.00,203.0,69.0,0,0,0,0.0
Status,1732152926000,25,2,1,22,1575420030,0.00,29.0,63.0,0,0,0,0.0
Status,1732152926000,25,3,1,14,1575420030,0.00,61.0,48.0,0,0,0,0.0
Status,1732152926000,25,4,1,13,1575420030,0.00,226.0,42.0,0,0,0,0.0
Status,1732152926000,25,5,1,30,1575420030,18.50,136.0,29.0,1,0,0,13.5
Status,1732152926000,25,6,1,15,1575420030,29.80,266.0,28.0,1,0,0,24.8
Status,1732152926000,25,7,1,24,1575420030,0.00,313.0,23.0,0,0,0,0.0
Status,1732152926000,25,8,1,6,1575420030,0.00,158.0,18.0,0,0,0,0.0
Status,1732152926000,25,9,1,2,1575420030,19.60,42.0,14.0,1,0,0,14.6
Status,1732152926000,25,10,1,12,1575420030,25.80,272.0,3.0,0,0,0,20.8
Status,1732152926000,25,11,3,20,1602000000,0.00,98.0,58.0,0,0,0,0.0
Status,1732152926000,25,12,3,11,1602000000,0.00,318.0,33.0,0,0,0,0.0
Status,1732152926000,25,13,3,9,1602000000,0.00,89.0,28.0,0,0,0,0.0
Status,1732152926000,25,14,3,19,1602000000,0.00,28.0,17.0,0,0,0,0.0
Status,1732152926000,25,15,3,8,1602000000,23.60,240.0,16.0,1,0,0,18.6
Status,1732152926000,25,16,6,21,1575420030,0.00,359.0,67.0,0,0,0,0.0
Status,1732152926000,25,17,6,19,1575420030,0.00,236.0,41.0,0,0,0,0.0
Status,1732152926000,25,18,6,13,1575420030,0.00,115.0,34.0,0,0,0,0.0
Status,1732152926000,25,19,6,27,1575420030,0.00,69.0,30.0,0,0,0,0.0
Status,1732152926000,25,20,6,4,1575420030,24.80,306.0,25.0,1,0,0,19.8
Status,1732152926000,25,21,6,15,1575420030,0.00,56.0,23.0,0,0,0,0.0
Status,1732152926000,25,22,6,29,1575420030,0.00,190.0,19.0,0,0,0,0.0
Status,1732152926000,25,23,6,26,1575420030,0.00,165.0,11.0,0,0,0,0.0
Status,1732152926000,25,24,6,6,1575420030,0.00,324.0,8.0,0,0,0,0.0
Fix,GPS,37.4250100000,-122.1585916667,25.3,0.0,4.6,0.0,1732152927000,3.3,179.9,31811091000000,48.4,0,,,
Raw,1732152926999,50238000000,,700189.9168857677,-1416188094761999872,0.0,86.48088543630347,1110.429994658791,0.0,0,2,0.0,16431,351344917460060,797,14.600000381469727,761.3234510421656,0.14999,16,0.0,0.0,1575420030,,,,0,0.0,1,6.0,14.600000381469727,0.0,0.0,0.0,66.7128,C,31811091000000,
Raw,1732152926999,50238000000,,700189.9168857677,-1416188094761999872,0.0,86.48088543630347,1110.429994658791,0.0,0,30,0.0,16431,351344924176553,797,13.5,910.4689975196892,0.14999,16,0.0,0.0,1575420030,,,,0,0.0,1,6.0,13.5,0.0,0.0,0.0,66.7128,C,31811091000000,
Raw,1732152926999,50238000000,,700189.9168857677,-1416188094761999872,0.0,86.48088543630347,1110.429994658791,0.0,0,15,0.0,16431,351344924151407,396,24.785999298095703,614.4181293943143,0.14999,16,0.0,0.0,1575420030,,,,0,8.270770431647097,1,6.0,24.785999298095703,0.0,0.0,0.0,66.7128,C,31811091000000,
Raw,1732152926999,50238000000,,700189.9168857677,-1416188094761999872,0.0,86.48088543630347,1110.429994658791,0.0,0,12,0.0,17,203727,487,20.816999435424805,-213.60929355778563,0.14999,16,0.0,0.0,1575420030,,,,0,3.67960400020692,1,6.0,20.816999435424805,0.0,0.0,0.0,66.7128,C,31811091000000,
Raw,1732152926999,50238000000,,700189.9168857677,-1416188094761999872,0.0,86.48088543630347,1110.429994658791,0.0,0,4,0.0,16431,351344912292601,396,19.799999237060547,154.4973237328965,0.14999,16,0.0,0.0,1575420030,,,,0,3.935089760935498,6,6.0,19.799999237060547,0.0,0.0,-4.282454858179223,66.7128,C,31811091000000,
Raw,1732152926999,50238000000,,700189.9168857677,-1416188094761999872,0.0,86.48088543630347,1110.429994658791,0.0,0,8,0.0,17,497473,487,5.0,979.1638450604792,0.14999,16,0.0,0.0,1605374980,,,,0,1.9019608002851363,3,6.0,20.0,0.0,0.0,50.95916145312876,66.7128,C,31811091000000,
Fix,FLP,37.4250079000,-122.1585885000,5.400000095367432,0.022095192,4.614,,1732152927244,3.3,,31811091000000,12.979843,0,,,
Status,1732152927000,26,0,1,17,1575420030,0.00,58.0,74.0,0,0,0,0.0
Status,1732152927000,26,1,1,19,1575420030,0.00,203.0,69.0,0,0,0,0.0
Status,1732152927000,26,2,1,22,1575420030,0.00,29.0,63.0,0,0,0,0.0
Status,1732152927000,26,3,1,14,1575420030,0.00,61.0,48.0,0,0,0,0.0
Status,1732152927000,26,4,2,138,1575420030,0.00,156.0,43.0,0,0,0,0.0
Status,1732152927000,26,5,1,13,1575420030,21.80,226.0,42.0,1,0,0,16.8
Status,1732152927000,26,6,1,30,1575420030,18.50,136.0,29.0,1,0,0,13.5
Status,1732152927000,26,7,1,15,1575420030,34.10,266.0,28.0,1,0,0,29.099998
Status,1732152927000,26,8,1,24,1575420030,0.00,313.0,23.0,0,0,0,0.0
Status,1732152927000,26,9,1,6,1575420030,0.00,158.0,18.0,0,0,0,0.0
Status,1732152927000,26,10,1,2,1575420030,19.60,42.0,14.0,1,0,0,14.6
Status,1732152927000,26,11,1,12,1575420030,26.00,272.0,3.0,0,0,0,21.0
Status,1732152927000,26,12,3,20,1602000000,0.00,98.0,58.0,0,0,0,0.0
Status,1732152927000,26,13,3,11,1602000000,0.00,318.0,33.0,0,0,0,0.0
Status,1732152927000,26,14,3,9,1602000000,0.00,89.0,28.0,0,0,0,0.0
Status,1732152927000,26,15,3,19,1602000000,0.00,28.0,17.0,0,0,0,0.0
