# 
# Header Description:
# 
# Version: v3.1.0.3 Platform: 13 Manufacturer: samsung Model: SM-S135DL GNSS Hardware Model Name: MediaTek,MT6631,MTK_MNLD_default,MNL_VER_default
# 
# Raw,utcTimeMillis,TimeNanos,LeapSecond,TimeUncertaintyNanos,FullBiasNanos,BiasNanos,BiasUncertaintyNanos,DriftNanosPerSecond,DriftUncertaintyNanosPerSecond,HardwareClockDiscontinuityCount,Svid,TimeOffsetNanos,State,ReceivedSvTimeNanos,ReceivedSvTimeUncertaintyNanos,Cn0DbHz,PseudorangeRateMetersPerSecond,PseudorangeRateUncertaintyMetersPerSecond,AccumulatedDeltaRangeState,AccumulatedDeltaRangeMeters,AccumulatedDeltaRangeUncertaintyMeters,CarrierFrequencyHz,CarrierCycles,CarrierPhase,CarrierPhaseUncertainty,MultipathIndicator,SnrInDb,ConstellationType,AgcDb,BasebandCn0DbHz,FullInterSignalBiasNanos,FullInterSignalBiasUncertaintyNanos,SatelliteInterSignalBiasNanos,SatelliteInterSignalBiasUncertaintyNanos,CodeType,ChipsetElapsedRealtimeNanos,IsFullTracking
# 
# UncalAccel,utcTimeMillis,elapsedRealtimeNanos,UncalAccelXMps2,UncalAccelYMps2,UncalAccelZMps2,BiasXMps2,BiasYMps2,BiasZMps2
# 
# Accel,utcTimeMillis,elapsedRealtimeNanos,AccelXMps2,AccelYMps2,AccelZMps2
# 
# UncalGyro,utcTimeMillis,elapsedRealtimeNanos,UncalGyroXRadPerSec,UncalGyroYRadPerSec,UncalGyroZRadPerSec,DriftXRadPerSec,DriftYRadPerSec,DriftZRadPerSec
# 
# Gyro,utcTimeMillis,elapsedRealtimeNanos,GyroXRadPerSec,GyroYRadPerSec,GyroZRadPerSec
# 
# UncalMag,utcTimeMillis,elapsedRealtimeNanos,UncalMagXMicroT,UncalMagYMicroT,UncalMagZMicroT,BiasXMicroT,BiasYMicroT,BiasZMicroT
# 
# Mag,utcTimeMillis,elapsedRealtimeNanos,MagXMicroT,MagYMicroT,MagZMicroT
# 
# Pressure,utcTimeMillis,elapsedRealtimeNanos,PressureHpa
# 
# OrientationDeg,utcTimeMillis,elapsedRealtimeNanos,yawDeg,rollDeg,pitchDeg
# 
# Fix,Provider,LatitudeDegrees,LongitudeDegrees,AltitudeMeters,SpeedMps,AccuracyMeters,BearingDegrees,UnixTimeMillis,SpeedAccuracyMps,BearingAccuracyDegrees,elapsedRealtimeNanos,VerticalAccuracyMeters,MockLocation,NumberOfUsedSignals,VerticalSpeedAccuracyMps,SolutionType
# 
# Nav,Svid,Type,Status,MessageId,Sub-messageId,Data(Bytes)
# 
# Status,UnixTimeMillis,SignalCount,SignalIndex,ConstellationType,Svid,CarrierFrequencyHz,Cn0DbHz,AzimuthDegrees,ElevationDegrees,UsedInFix,HasAlmanacData,HasEphemerisData,BasebandCn0DbHz
# 
# Agc,utcTimeMillis,TimeNanos,LeapSecond,TimeUncertaintyNanos,FullBiasNanos,BiasNanos,BiasUncertaintyNanos,DriftNanosPerSecond,DriftUncertaintyNanosPerSecond,HardwareClockDiscontinuityCount,AgcDb,CarrierFrequencyHz,ConstellationType
# 
Fix,FLP,37.4252993000,-122.1585320000,2.775315004979778,0.4003179,5.171,0.0000000041138057,1732153074244,1.8,179.9,31958091000000,10.751217,0,,,
Status,,26,0,1,17,1575420030,0.00,55.0,72.0,0,0,0,0.0
Status,,26,1,1,19,1575420030,0.00,204.0,71.0,0,0,0,0.0
Status,,26,2,1,22,1575420030,0.00,31.0,62.0,0,0,0,0.0
Status,,26,3,1,14,1575420030,0.00,62.0,47.0,0,0,0,0.0
Status,,26,4,2,133,1575420030,0.00,191.0,45.0,0,0,0,0.0
Status,,26,5,1,13,1575420030,30.70,225.0,41.0,1,0,0,25.7
Status,,26,6,1,30,1575420030,28.50,136.0,28.0,1,0,0,23.5
Status,,26,7,1,15,1575420030,23.40,265.0,28.0,1,0,0,18.4
Status,,26,8,1,24,1575420030,19.10,313.0,24.0,1,0,0,14.1
Status,,26,9,1,6,1575420030,31.70,158.0,20.0,1,0,0,26.7
Status,,26,10,1,2,1575420030,0.00,41.0,13.0,0,0,0,0.0
Status,,26,11,1,12,1575420030,23.10,273.0,4.0,0,0,0,18.1
Status,,26,12,3,20,1602000000,0.00,95.0,58.0,0,0,0,0.0
Status,,26,13,3,11,1602000000,0.00,319.0,34.0,0,0,0,0.0
Status,,26,14,3,9,1602000000,0.00,91.0,28.0,0,0,0,0.0
Status,,26,15,3,19,1602000000,0.00,28.0,16.0,0,0,0,0.0
Status,,26,16,3,8,1602000000,0.00,239.0,15.0,0,0,0,0.0
Status,,26,17,6,21,1575420030,0.00,1.0,67.0,0,0,0,0.0
Status,,26,18,6,19,1575420030,0.00,235.0,40.0,0,0,0,0.0
Status,,26,19,6,13,1575420030,0.00,114.0,34.0,0,0,0,0.0
Status,,26,20,6,27,1575420030,0.00,70.0,29.0,0,0,0,0.0
Status,,26,21,6,4,1575420030,0.00,305.0,26.0,0,0,0,0.0
Status,,26,22,6,15,1575420030,0.00,55.0,23.0,0,0,0,0.0
Status,,26,23,6,29,1575420030,0.00,190.0,18.0,0,0,0,0.0
Status,,26,24,6,26,1575420030,0.00,165.0,12.0,0,0,0,0.0
Status,,26,25,6,6,1575420030,0.00,323.0,9.0,0,0,0,0.0
Fix,GPS,37.4253466667,-122.1584783333,24.599999999999998,0.0,5.1,0.0,1732153075000,1.8,158.6,31959091000000,82.4,0,,,
Raw,1732153075000,19388000000,,705456.6333519971,-1416188273612000000,0.0,132.57983047077403,1095.2174993691972,0.0,0,6,0.0,16431,351492921042254,316,26.716999053955078,-323.0504554566265,0.14999,16,0.0,0.0,1575420030,,,,0,12.380541495181845,1,6.0,26.716999053955078,0.0,0.0,0.0,66.7128,C,31959091000000,
Raw,1732153075000,19388000000,,705456.6333519971,-1416188273612000000,0.0,132.57983047077403,1095.2174993691972,0.0,0,13,0.0,16431,351492927097737,487,25.7189998626709,805.7232948304149,0.14999,16,0.0,0.0,1575420030,,,,0,11.020599913279625,1,6.0,25.7189998626709,0.0,0.0,0.0,66.7128,C,31959091000000,
Raw,1732153075000,19388000000,,705456.6333519971,-1416188273612000000,0.0,132.57983047077403,1095.2174993691972,0.0,0,24,0.0,16431,351492923131664,797,14.100000381469727,-266.6772557257648,0.14999,16,0.0,0.0,1575420030,,,,0,0.0,1,6.0,14.100000381469727,0.0,0.0,0.0,66.7128,C,31959091000000,
Raw,1732153075000,19388000000,,705456.6333519971,-1416188273612000000,0.0,132.57983047077403,1095.2174993691972,0.0,0,30,0.0,16431,351492923728750,487,23.54400062561035,912.8700613862821,0.14999,16,0.0,0.0,1575420030,,,,0,7.912038738155618,1,6.0,23.54400062561035,0.0,0.0,0.0,66.7128,C,31959091000000,
Raw,1732153075000,19388000000,,705456.6333519971,-1416188273612000000,0.0,132.57983047077403,1095.2174993691972,0.0,0,15,0.0,16431,351492923848046,797,18.434999465942383,624.572638342284,0.14999,16,0.0,0.0,1575420030,,,,0,0.0,1,6.0,18.434999465942383,0.0,0.0,0.0,66.7128,C,31959091000000,
Raw,1732153075000,19388000000,,705456.6333519971,-1416188273612000000,0.0,132.57983047077403,1095.2174993691972,0.0,0,12,0.0,17,312728,487,18.054000854492188,-218.44584697738372,0.14999,16,0.0,0.0,1575420030,,,,0,0.0,1,6.0,18.054000854492188,0.0,0.0,0.0,66.7128,C,31959091000000,
Fix,FLP,37.4253242000,-122.1585083000,2.5249027696406916,0.486112,5.157,0.0000000026057139,1732153075243,1.8,158.6,31959091000000,10.422964,0,,,
Fix,FLP,37.4253350000,-122.1584964000,2.5249027696406916,0.41658103,5.133,0.0000000014266696,1732153075856,1.8,158.6,31959704000000,10.702874,0,,,
Fix,NLP,37.4256436000,-122.1580961000,-0.4000000059604645,,98.4,,1732153075856,,,31959704000000,53.20236,0,,,
Status,1732153075000,26,0,1,17,1575420030,0.00,55.0,72.0,0,0,0,0.0
Status,1732153075000,26,1,1,19,1575420030,0.00,204.0,71.0,0,0,0,0.0
Status,1732153075000,26,2,1,22,1575420030,0.00,31.0,62.0,0,0,0,0.0
Status,1732153075000,26,3,1,14,1575420030,0.00,62.0,47.0,0,0,0,0.0
Status,1732153075000,26,4,2,133,1575420030,0.00,191.0,45.0,0,0,0,0.0
Status,1732153075000,26,5,1,13,1575420030,30.70,225.0,41.0,1,0,0,25.7
Status,1732153075000,26,6,1,30,1575420030,28.20,136.0,28.0,1,0,0,23.2
Status,1732153075000,26,7,1,15,1575420030,23.40,265.0,28.0,1,0,0,18.4
Status,1732153075000,26,8,1,24,1575420030,19.10,313.0,24.0,1,0,0,14.1
Status,1732153075000,26,9,1,6,1575420030,30.80,158.0,20.0,1,0,0,25.8
Status,1732153075000,26,10,1,2,1575420030,0.00,41.0,13.0,0,0,0,0.0
Status,1732153075000,26,11,1,12,1575420030,22.20,273.0,4.0,0,0,0,17.2
Status,1732153075000,26,12,3,20,1602000000,0.00,95.0,58.0,0,0,0,0.0
Status,1732153075000,26,13,3,11,1602000000,0.00,319.0,34.0,0,0,0,0.0
Status,1732153075000,26,14,3,9,1602000000,0.00,91.0,28.0,0,0,0,0.0
Status,1732153075000,26,15,3,19,1602000000,0.00,28.0,16.0,0,0,0,0.0
Status,1732153075000,26,16,3,8,1602000000,28.80,239.0,15.0,1,0,0,23.8
Status,1732153075000,26,17,6,21,1575420030,0.00,1.0,67.0,0,0,0,0.0
Status,1732153075000,26,18,6,19,1575420030,0.00,235.0,40.0,0,0,0,0.0
Status,1732153075000,26,19,6,13,1575420030,0.00,114.0,34.0,0,0,0,0.0
Status,1732153075000,26,20,6,27,1575420030,0.00,70.0,29.0,0,0,0,0.0
Status,1732153075000,26,21,6,4,1575420030,0.00,305.0,26.0,0,0,0,0.0
Status,1732153075000,26,22,6,15,1575420030,0.00,55.0,23.0,0,0,0,0.0
Status,1732153075000,26,23,6,29,1575420030,0.00,190.0,18.0,0,0,0,0.0
Status,1732153075000,26,24,6,26,1575420030,0.00,165.0,12.0,0,0,0,0.0
Status,1732153075000,26,25,6,6,1575420030,0.00,323.0,9.0,0,0,0,0.0
Fix,GPS,37.4253700000,-122.1584500000,24.599999999999998,0.0,5.0,0.0,1732153076000,1.7,137.5,31960091000000,77.4,0,,,
Fix,FLP,37.4253489000,-122.1584799000,2.4414336729351227,0.41005918,5.114,0.0000000018703188,1732153076243,1.7,137.5,31960091000000,12.005305,0,,,
Raw,1732153076000,20388000000,,705382.3111020358,-1416188273612000000,0.0,128.51215131090868,1094.8266931234548,0.0,0,6,0.0,16431,351493921043335,316,25.76799964904785,-323.3692531086632,0.14999,16,0.0,0.0,1575420030,,,,0,11.09389899500773,1,6.0,25.76799964904785,0.0,0.0,0.0,66.7128,C,31960091000000,
Raw,1732153076000,20388000000,,705382.3111020358,-1416188273612000000,0.0,128.51215131090868,1094.8266931234548,0.0,0,13,0.0,16431,351493927095050,797,25.7189998626709,805.0827261877041,0.14999,16,0.0,0.0,1575420030,,,,0,11.020599913279625,1,6.0,25.7189998626709,0.0,0.0,0.0,66.7128,C,31960091000000,
Raw,1732153076000,20388000000,,705382.3111020358,-1416188273612000000,0.0,128.51215131090868,1094.8266931234548,0.0,0,24,0.0,16431,351493923132555,797,14.100000381469727,-267.15679949788995,0.14999,16,0.0,0.0,1575420030,,,,0,0.0,1,6.0,14.100000381469727,0.0,0.0,0.0,66.7128,C,31960091000000,
Raw,1732153076000,20388000000,,705382.3111020358,-1416188273612000000,0.0,128.51215131090868,1094.8266931234548,0.0,0,30,0.0,16431,351493923725693,396,23.179000854492188,913.2589183299644,0.14999,16,0.0,0.0,1575420030,,,,0,7.3689938172833225,1,6.0,23.179000854492188,0.0,0.0,0.0,66.7128,C,31960091000000,
Raw,1732153076000,20388000000,,705382.3111020358,-1416188273612000000,0.0,128.51215131090868,1094.8266931234548,0.0,0,15,0.0,16431,351493923845961,1797,18.38800048828125,625.243869539694,0.14999,16,0.0,0.0,1575420030,,,,0,0.0,1,6.0,18.38800048828125,0.0,0.0,0.0,66.7128,C,31960091000000,
Raw,1732153076000,20388000000,,705382.3111020358,-1416188273612000000,0.0,128.51215131090868,1094.8266931234548,0.0,0,8,0.0,17,12673,396,5.0,979.929782927654,0.14999,16,0.0,0.0,1605374980,,,,0,9.496264571601909,3,6.0,23.0,0.0,0.0,46.1288673439916,66.7128,C,31960091000000,
Raw,1732153076000,20388000000,,705382.3111020358,-1416188273612000000,0.0,128.51215131090868,1094.8266931234548,0.0,0,12,0.0,17,313438,487,17.17099952697754,-218.176481080195,0.14999,16,0.0,0.0,1575420030,,,,0,0.0,1,6.0,17.17099952697754,0.0,0.0,0.0,66.7128,C,31960091000000,
Status,1732153076000,26,0,1,17,1575420030,0.00,55.0,72.0,0,0,0,0.0
Status,1732153076000,26,1,1,19,1575420030,0.00,204.0,71.0,0,0,0,0.0
Status,1732153076000,26,2,1,22,1575420030,0.00,31.0,62.0,0,0,0,0.0
Status,1732153076000,26,3,1,14,1575420030,0.00,62.0,47.0,0,0,0,0.0
Status,1732153076000,26,4,2,135,1575420030,0.00,197.0,45.0,0,0,0,0.0
Status,1732153076000,26,5,1,13,1575420030,24.30,225.0,41.0,1,0,0,19.3
Status,1732153076000,26,6,1,30,1575420030,22.50,136.0,28.0,1,0,0,17.5
Status,1732153076000,26,7,1,15,1575420030,23.30,265.0,28.0,1,0,0,18.3
Status,1732153076000,26,8,1,24,1575420030,19.10,313.0,24.0,1,0,0,14.1
Status,1732153076000,26,9,1,6,1575420030,31.30,158.0,20.0,1,0,0,26.3
Status,1732153076000,26,10,1,2,1575420030,0.00,41.0,13.0,0,0,0,0.0
Status,1732153076000,26,11,1,12,1575420030,22.20,273.0,4.0,0,0,0,17.2
Status,1732153076000,26,12,3,20,1602000000,0.00,95.0,58.0,0,0,0,0.0
Status,1732153076000,26,13,3,11,1602000000,0.00,319.0,34.0,0,0,0,0.0
Status,1732153076000,26,14,3,9,1602000000,0.00,91.0,28.0,0,0,0,0.0
Status,1732153076000,26,15,3,19,1602000000,0.00,28.0,16.0,0,0,0,0.0
Status,1732153076000,26,16,3,8,1602000000,25.10,239.0,15.0,1,0,0,20.1
Status,1732153076000,26,17,6,21,1575420030,0.00,1.0,67.0,0,0,0,0.0
Status,1732153076000,26,18,6,19,1575420030,0.00,235.0,40.0,0,0,0,0.0
Status,1732153076000,26,19,6,13,1575420030,0.00,114.0,34.0,0,0,0,0.0
Status,1732153076000,26,20,6,27,1575420030,0.00,70.0,29.0,0,0,0,0.0
Status,1732153076000,26,21,6,4,1575420030,0.00,305.0,26.0,0,0,0,0.0
Status,1732153076000,26,22,6,15,1575420030,0.00,55.0,23.0,0,0,0,0.0
Status,1732153076000,26,23,6,29,1575420030,0.00,190.0,18.0,0,0,0,0.0
Status,1732153076000,26,24,6,26,1575420030,0.00,165.0,12.0,0,0,0,0.0
Status,1732153076000,26,25,6,6,1575420030,0.00,323.0,9.0,0,0,0,0.0
Fix,GPS,37.4253950000,-122.1584266667,24.599999999999998,0.0,5.0,0.0,1732153077000,1.7,111.8,31961091000000,78.3,0,,,
Raw,1732153077000,21388000000,,705333.1625173839,-1416188273612000000,0.0,128.8903349990108,1094.417223624847,0.0,0,6,0.0,16431,351494921044417,316,26.336999893188477,-323.9948156829381,0.14999,16,0.0,0.0,1575420030,,,,0,11.86182681329385,1,6.0,26.336999893188477,0.0,0.0,0.0,66.7128,C,31961091000000,
Raw,1732153077000,21388000000,,705333.1625173839,-1416188273612000000,0.0,128.8903349990108,1094.417223624847,0.0,0,13,0.0,16431,351494927092358,487,19.264999389648438,805.0689744965058,0.14999,16,0.0,0.0,1575420030,,,,0,0.946994248497016,1,6.0,19.264999389648438,0.0,0.0,0.0,66.7128,C,31961091000000,
Raw,1732153077000,21388000000,,705333.1625173839,-1416188273612000000,0.0,128.8903349990108,1094.417223624847,0.0,0,24,0.0,16431,351494923133447,797,14.100000381469727,-267.40711744443234,0.14999,16,0.0,0.0,1575420030,,,,0,0.0,1,6.0,14.100000381469727,0.0,0.0,0.0,66.7128,C,31961091000000,
Raw,1732153077000,21388000000,,705333.1625173839,-1416188273612000000,0.0,128.8903349990108,1094.417223624847,0.0,0,30,0.0,16431,351494923722645,797,17.506000518798828,913.3833339685763,0.14999,16,0.0,0.0,1575420030,,,,0,0.0,1,6.0,17.506000518798828,0.0,0.0,0.0,66.7128,C,31961091000000,
Raw,1732153077000,21388000000,,705333.1625173839,-1416188273612000000,0.0,128.8903349990108,1094.417223624847,0.0,0,15,0.0,16431,351494923843876,797,18.343000411987305,625.1138788911368,0.14999,16,0.0,0.0,1575420030,,,,0,0.0,1,6.0,18.343000411987305,0.0,0.0,0.0,66.7128,C,31961091000000,
Raw,1732153077000,21388000000,,705333.1625173839,-1416188273612000000,0.0,128.8903349990108,1094.417223624847,0.0,0,8,0.0,17,9451,487,5.0,979.9714535949514,0.14999,16,0.0,0.0,1605374980,,,,0,4.447354227439393,3,6.0,20.0,0.0,0.0,46.03600693018875,66.7128,C,31961091000000,
Raw,1732153077000,21388000000,,705333.1625173839,-1416188273612000000,0.0,128.8903349990108,1094.417223624847,0.0,0,12,0.0,17,314136,797,17.17099952697754,-219.05700744263333,0.14999,16,0.0,0.0,1575420030,,,,0,0.0,1,6.0,17.17099952697754,0.0,0.0,0.0,66.7128,C,31961091000000,
Fix,FLP,37.4253718000,-122.1584576000,2.4414336729351227,0.44722623,5.085,0.0000000008814462,1732153077243,1.7,111.8,31961091000000,11.858894,0,,,
Status,1732153077000,26,0,1,17,1575420030,0.00,55.0,72.0,0,0,0,0.0
Status,1732153077000,26,1,1,19,1575420030,0.00,204.0,71.0,0,0,0,0.0
Status,1732153077000,26,2,1,22,1575420030,0.00,31.0,62.0,0,0,0,0.0
Status,1732153077000,26,3,1,14,1575420030,0.00,62.0,47.0,0,0,0,0.0
Status,1732153077000,26,4,2,135,1575420030,0.00,197.0,45.0,0,0,0,0.0
Status,1732153077000,26,5,1,13,1575420030,24.30,225.0,41.0,1,0,0,19.3
Status,1732153077000,26,6,1,30,1575420030,22.60,136.0,28.0,1,0,0,17.6
Status,1732153077000,26,7,1,15,1575420030,20.90,265.0,28.0,1,0,0,15.9
Status,1732153077000,26,8,1,24,1575420030,22.70,313.0,24.0,1,0,0,17.7
Status,1732153077000,26,9,1,6,1575420030,28.20,158.0,20.0,1,0,0,23.2
Status,1732153077000,26,10,1,2,1575420030,0.00,41.0,13.0,0,0,0,0.0
Status,1732153077000,26,11,1,12,1575420030,22.10,273.0,4.0,0,0,0,17.1
Status,1732153077000,26,12,3,20,1602000000,0.00,95.0,58.0,0,0,0,0.0
Status,1732153077000,26,13,3,11,1602000000,0.00,319.0,34.0,0,0,0,0.0
Status,1732153077000,26,14,3,9,1602000000,0.00,91.0,28.0,0,0,0,0.0
Status,1732153077000,26,15,3,19,1602000000,0.00,28.0,16.0,0,0,0,0.0
Status,1732153077000,26,16,3,8,1602000000,25.50,239.0,15.0,1,0,0,20.5
Status,1732153077000,26,17,6,21,1575420030,0.00,1.0,67.0,0,0,0,0.0
Status,1732153077000,26,18,6,19,1575420030,0.00,235.0,40.0,0,0,0,0.0
Status,1732153077000,26,19,6,13,1575420030,0.00,114.0,34.0,0,0,0,0.0
Status,1732153077000,26,20,6,27,1575420030,0.00,70.0,29.0,0,0,0,0.0
Status,1732153077000,26,21,6,4,1575420030,0.00,305.0,26.0,0,0,0,0.0
Status,1732153077000,26,22,6,15,1575420030,0.00,55.0,23.0,0,0,0,0.0
Status,1732153077000,26,23,6,29,1575420030,0.00,190.0,18.0,0,0,0,0.0
Status,1732153077000,26,24,6,26,1575420030,0.00,165.0,12.0,0,0,0,0.0
Status,1732153077000,26,25,6,6,1575420030,0.00,323.0,9.0,0,0,0,0.0
Fix,GPS,37.4254100000,-122.1584050000,24.599999999999998,0.0,5.0,0.0,1732153078000,1.7,103.2,31962091000000,79.1,0,,,
Raw,1732153078000,22388000000,,705270.1501750255,-1416188273612000000,0.0,129.37447526901886,1088.1913892811042,0.0,0,6,0.0,16431,351495921045502,396,23.214000701904297,-325.70467123315075,0.14999,16,0.0,0.0,1575420030,,,,0,7.424851820966724,1,6.0,23.214000701904297,0.0,0.0,0.0,66.7128,C,31962091000000,
Raw,1732153078000,22388000000,,705270.1501750255,-1416188273612000000,0.0,129.37447526901886,1088.1913892811042,0.0,0,13,0.0,16431,351495927089674,487,19.264999389648438,803.1940986519132,0.14999,16,0.0,0.0,1575420030,,,,0,0.946994248497016,1,6.0,19.264999389648438,0.0,0.0,0.0,66.7128,C,31962091000000,
Raw,1732153078000,22388000000,,705270.1501750255,-1416188273612000000,0.0,129.37447526901886,1088.1913892811042,0.0,0,24,0.0,16431,351495923134332,797,17.672000885009766,-269.26536117602143,0.14999,16,0.0,0.0,1575420030,,,,0,0.0,1,6.0,17.672000885009766,0.0,0.0,0.0,66.7128,C,31962091000000,
Raw,1732153078000,22388000000,,705270.1501750255,-1416188273612000000,0.0,129.37447526901886,1088.1913892811042,0.0,0,30,0.0,16431,351495923719601,487,17.611000061035156,911.4463896799265,0.14999,16,0.0,0.0,1575420030,,,,0,1.5149016796863206,1,6.0,17.611000061035156,0.0,0.0,0.0,66.7128,C,31962091000000,
Raw,1732153078000,22388000000,,705270.1501750255,-1416188273612000000,0.0,129.37447526901886,1088.1913892811042,0.0,0,15,0.0,16431,351495923841794,487,15.89799976348877,622.6709095331219,0.14999,16,0.0,0.0,1575420030,,,,0,0.0,1,6.0,15.89799976348877,0.0,0.0,0.0,66.7128,C,31962091000000,
Raw,1732153078000,22388000000,,705270.1501750255,-1416188273612000000,0.0,129.37447526901886,1088.1913892811042,0.0,0,8,0.0,17,6195,487,5.0,978.6321565243487,0.14999,16,0.0,0.0,1605374980,,,,0,4.940302929010755,3,6.0,20.0,0.0,0.0,45.23817401934052,66.7128,C,31962091000000,
Raw,1732153078000,22388000000,,705270.1501750255,-1416188273612000000,0.0,129.37447526901886,1088.1913892811042,0.0,0,12,0.0,17,314854,487,17.128000259399414,-220.41442944747286,0.14999,16,0.0,0.0,1575420030,,,,0,0.0,1,6.0,17.128000259399414,0.0,0.0,0.0,66.7128,C,31962091000000,
Fix,FLP,37.4253919000,-122.1584345000,2.5249027696406916,0.43856058,5.057,0.00000000048334253,1732153078243,1.7,103.2,31962091000000,11.446649,0,,,
Status,1732153078000,26,0,1,17,1575420030,0.00,55.0,72.0,0,0,0,0.0
Status,1732153078000,26,1,1,19,1575420030,0.00,204.0,71.0,0,0,0,0.0
Status,1732153078000,26,2,1,22,1575420030,0.00,31.0,62.0,0,0,0,0.0
Status,1732153078000,26,3,1,14,1575420030,0.00,62.0,47.0,0,0,0,0.0
Status,1732153078000,26,4,2,135,1575420030,0.00,197.0,45.0,0,0,0,0.0
Status,1732153078000,26,5,1,13,1575420030,26.60,225.0,41.0,1,0,0,21.6
Status,1732153078000,26,6,1,30,1575420030,25.30,136.0,28.0,1,0,0,20.3
Status,1732153078000,26,7,1,15,1575420030,23.90,265.0,28.0,1,0,0,18.9
Status,1732153078000,26,8,1,24,1575420030,22.70,313.0,24.0,1,0,0,17.7
Status,1732153078000,26,9,1,6,1575420030,30.70,158.0,20.0,1,0,0,25.7
Status,1732153078000,26,10,1,2,1575420030,0.00,41.0,13.0,0,0,0,0.0
Status,1732153078000,26,11,1,12,1575420030,18.70,273.0,4.0,0,0,0,13.700001
Status,1732153078000,26,12,3,20,1602000000,0.00,95.0,58.0,0,0,0,0.0
Status,1732153078000,26,13,3,11,1602000000,0.00,319.0,34.0,0,0,0,0.0
Status,1732153078000,26,14,3,9,1602000000,0.00,91.0,28.0,0,0,0,0.0
Status,1732153078000,26,15,3,19,1602000000,0.00,28.0,16.0,0,0,0,0.0
Status,1732153078000,26,16,3,8,1602000000,0.00,239.0,15.0,0,0,0,0.0
Status,1732153078000,26,17,6,21,1575420030,0.00,1.0,67.0,0,0,0,0.0
Status,1732153078000,26,18,6,19,1575420030,0.00,235.0,40.0,0,0,0,0.0
Status,1732153078000,26,19,6,13,1575420030,0.00,114.0,34.0,0,0,0,0.0
Status,1732153078000,26,20,6,27,1575420030,0.00,70.0,29.0,0,0,0,0.0
Status,1732153078000,26,21,6,4,1575420030,0.00,305.0,26.0,0,0,0,0.0
Status,1732153078000,26,22,6,15,1575420030,0.00,55.0,23.0,0,0,0,0.0
Status,1732153078000,26,23,6,29,1575420030,0.00,190.0,18.0,0,0,0,0.0
Status,1732153078000,26,24,6,26,1575420030,0.00,165.0,12.0,0,0,0,0.0
Status,1732153078000,26,25,6,6,1575420030,0.00,323.0,9.0,0,0,0,0.0
Fix,GPS,37.4254316667,-122.1583833333,24.599999999999998,0.0,4.9,0.0,1732153079000,1.7,93.0,31963091000000,80.1,0,,,
Raw,1732153079000,23388000000,,705201.5089385604,-1416188273612000000,0.0,129.45075840922854,1083.6139936867078,0.0,0,6,0.0,16431,351496921046594,316,25.743999481201172,-326.13013740880683,0.14999,16,0.0,0.0,1575420030,,,,0,11.05732677407957,1,6.0,25.743999481201172,0.0,0.0,0.0,66.7128,C,31963091000000,
Raw,1732153079000,23388000000,,705201.5089385604,-1416188273612000000,0.0,129.45075840922854,1083.6139936867078,0.0,0,13,0.0,16431,351496927087003,487,21.625,802.0510357794692,0.14999,16,0.0,0.0,1575420030,,,,0,4.926077088800725,1,6.0,21.625,0.0,0.0,0.0,66.7128,C,31963091000000,
Raw,1732153079000,23388000000,,705201.5089385604,-1416188273612000000,0.0,129.45075840922854,1083.6139936867078,0.0,0,24,0.0,16431,351496923135232,487,17.672000885009766,-270.47499895889524,0.14999,16,0.0,0.0,1575420030,,,,0,0.0,1,6.0,17.672000885009766,0.0,0.0,0.0,66.7128,C,31963091000000,
Raw,1732153079000,23388000000,,705201.5089385604,-1416188273612000000,0.0,129.45075840922854,1083.6139936867078,0.0,0,30,0.0,16431,351496923716566,487,20.323999404907227,910.5132259319216,0.14999,16,0.0,0.0,1575420030,,,,0,2.743187700299365,1,6.0,20.323999404907227,0.0,0.0,0.0,66.7128,C,31963091000000,
Raw,1732153079000,23388000000,,705201.5089385604,-1416188273612000000,0.0,129.45075840922854,1083.6139936867078,0.0,0,15,0.0,16431,351496923839723,797,18.88800048828125,621.2976916667708,0.14999,16,0.0,0.0,1575420030,,,,0,0.21253810800221906,1,6.0,18.88800048828125,0.0,0.0,0.0,66.7128,C,31963091000000,
Raw,1732153079000,23388000000,,705201.5089385604,-1416188273612000000,0.0,129.45075840922854,1083.6139936867078,0.0,0,12,0.0,17,315574,487,13.699999809265137,-221.80920401894562,0.14999,16,0.0,0.0,1575420030,,,,0,0.0,1,6.0,13.699999809265137,0.0,0.0,0.0,66.7128,C,31963091000000,
Fix,FLP,37.4254131000,-122.1584117000,2.5249027696406916,0.44253936,5.028,0.00000000031892058,1732153079243,1.7,93.0,31963091000000,10.858081,0,,,
Status,1732153079000,26,0,1,17,1575420030,0.00,55.0,72.0,0,0,0,0.0
Status,1732153079000,26,1,1,19,1575420030,0.00,204.0,71.0,0,0,0,0.0
Status,1732153079000,26,2,1,22,1575420030,0.00,31.0,62.0,0,0,0,0.0
Status,1732153079000,26,3,1,14,1575420030,0.00,62.0,47.0,0,0,0,0.0
Status,1732153079000,26,4,2,135,1575420030,0.00,197.0,45.0,0,0,0,0.0
Status,1732153079000,26,5,1,13,1575420030,26.60,225.0,41.0,1,0,0,21.6
Status,1732153079000,26,6,1,30,1575420030,25.30,136.0,28.0,1,0,0,20.3
Status,1732153079000,26,7,1,15,1575420030,24.30,265.0,28.0,1,0,0,19.3
Status,1732153079000,26,8,1,24,1575420030,26.10,313.0,24.0,1,0,0,21.1
Status,1732153079000,26,9,1,6,1575420030,30.50,158.0,20.0,1,0,0,25.5
Status,1732153079000,26,10,1,2,1575420030,0.00,41.0,13.0,0,0,0,0.0
Status,1732153079000,26,11,1,12,1575420030,27.80,273.0,4.0,0,0,0,22.8
Status,1732153079000,26,12,3,20,1602000000,0.00,95.0,58.0,0,0,0,0.0
Status,1732153079000,26,13,3,11,1602000000,0.00,319.0,34.0,0,0,0,0.0
Status,1732153079000,26,14,3,9,1602000000,0.00,91.0,28.0,0,0,0,0.0
Status,1732153079000,26,15,3,19,1602000000,0.00,28.0,16.0,0,0,0,0.0
Status,1732153079000,26,16,3,8,1602000000,0.00,239.0,15.0,0,0,0,0.0
Status,1732153079000,26,17,6,21,1575420030,0.00,1.0,67.0,0,0,0,0.0
Status,1732153079000,26,18,6,19,1575420030,0.00,235.0,40.0,0,0,0,0.0
Status,1732153079000,26,19,6,13,1575420030,0.00,114.0,34.0,0,0,0,0.0
Status,1732153079000,26,20,6,27,1575420030,0.00,70.0,29.0,0,0,0,0.0
Status,1732153079000,26,21,6,4,1575420030,0.00,305.0,26.0,0,0,0,0.0
Status,1732153079000,26,22,6,15,1575420030,0.00,55.0,23.0,0,0,0,0.0
Status,1732153079000,26,23,6,29,1575420030,0.00,190.0,18.0,0,0,0,0.0
Status,1732153079000,26,24,6,26,1575420030,0.00,165.0,12.0,0,0,0,0.0
Status,1732153079000,26,25,6,6,1575420030,0.00,323.0,9.0,0,0,0,0.0
Fix,GPS,37.4254533333,-122.1583633333,24.599999999999998,0.0,4.9,0.0,1732153080000,1.6,80.2,31964091000000,81.4,0,,,
Raw,1732153080000,24388000000,,705141.780117764,-1416188273612000000,0.0,130.44959037870981,1080.3324955524631,0.0,0,6,0.0,16431,351497921047684,487,25.54199981689453,-326.56638193702383,0.14999,16,0.0,0.0,1575420030,,,,0,10.79691657422935,1,6.0,25.54199981689453,0.0,0.0,0.0,66.7128,C,31964091000000,
Raw,1732153080000,24388000000,,705141.780117764,-1416188273612000000,0.0,130.44959037870981,1080.3324955524631,0.0,0,13,0.0,16431,351497927084327,487,21.586999893188477,802.0402574269084,0.14999,16,0.0,0.0,1575420030,,,,0,3.6487873295303443,1,6.0,21.586999893188477,0.0,0.0,0.0,66.7128,C,31964091000000,
Raw,1732153080000,24388000000,,705141.780117764,-1416188273612000000,0.0,130.44959037870981,1080.3324955524631,0.0,0,24,0.0,16431,351497923136123,487,21.097000122070312,-271.7229649351427,0.14999,16,0.0,0.0,1575420030,,,,0,4.068477159172898,1,6.0,21.097000122070312,0.0,0.0,0.0,66.7128,C,31964091000000,
Raw,1732153080000,24388000000,,705141.780117764,-1416188273612000000,0.0,130.44959037870981,1080.3324955524631,0.0,0,30,0.0,16431,351497923713528,487,20.308000564575195,910.2341037673286,0.14999,16,0.0,0.0,1575420030,,,,0,2.252328878748846,1,6.0,20.308000564575195,0.0,0.0,0.0,66.7128,C,31964091000000,
Raw,1732153080000,24388000000,,705141.780117764,-1416188273612000000,0.0,130.44959037870981,1080.3324955524631,0.0,0,15,0.0,16431,351497923837663,487,19.264999389648438,620.395655057627,0.14999,16,0.0,0.0,1575420030,,,,0,0.946994248497016,1,6.0,19.264999389648438,0.0,0.0,0.0,66.7128,C,31964091000000,
Raw,1732153080000,24388000000,,705141.780117764,-1416188273612000000,0.0,130.44959037870981,1080.3324955524631,0.0,0,12,0.0,17,316374,396,22.79400062561035,-221.93747570610293,0.14999,16,0.0,0.0,1575420030,,,,0,6.78971989857699,1,6.0,22.79400062561035,0.0,0.0,0.0,66.7128,C,31964091000000,
Fix,FLP,37.4254345000,-122.1583900000,2.5249027696406916,0.42676097,5.0,0.00000000018808528,1732153080243,1.6,80.2,31964091000000,11.953659,0,,,
Fix,FLP,37.4254429000,-122.1583797000,2.765719510468945,0.33834186,4.971,0.0000000001083933,1732153080736,1.6,80.2,31964584000000,12.281082,0,,,
Fix,NLP,37.4257095000,-122.1580870000,5.400000095367432,,68.4,,1732153080736,,,31964584000000,24.490227,0,,,
Status,1732153080000,26,0,1,17,1575420030,0.00,55.0,72.0,0,0,0,0.0
Status,1732153080000,26,1,1,19,1575420030,0.00,204.0,71.0,0,0,0,0.0
Status,1732153080000,26,2,1,22,1575420030,0.00,31.0,62.0,0,0,0,0.0
Status,1732153080000,26,3,1,14,1575420030,0.00,62.0,47.0,0,0,0,0.0
Status,1732153080000,26,4,2,135,1575420030,0.00,197.0,45.0,0,0,0,0.0
Status,1732153080000,26,5,1,13,1575420030,26.50,225.0,41.0,1,0,0,21.5
Status,1732153080000,26,6,1,30,1575420030,25.30,136.0,28.0,1,0,0,20.3
Status,1732153080000,26,7,1,15,1575420030,23.30,265.0,28.0,1,0,0,18.3
Status,1732153080000,26,8,1,24,1575420030,26.10,313.0,24.0,1,0,0,21.1
Status,1732153080000,26,9,1,6,1575420030,25.80,158.0,20.0,1,0,0,20.8
Status,1732153080000,26,10,1,2,1575420030,30.50,41.0,13.0,1,0,0,25.5
Status,1732153080000,26,11,1,12,1575420030,28.30,273.0,4.0,0,0,0,23.3
Status,1732153080000,26,12,3,20,1602000000,0.00,95.0,58.0,0,0,0,0.0
Status,1732153080000,26,13,3,11,1602000000,0.00,319.0,34.0,0,0,0,0.0
Status,1732153080000,26,14,3,9,1602000000,0.00,91.0,28.0,0,0,0,0.0
Status,1732153080000,26,15,3,19,1602000000,0.00,28.0,16.0,0,0,0,0.0
Status,1732153080000,26,16,3,8,1602000000,0.00,239.0,15.0,0,0,0,0.0
Status,1732153080000,26,17,6,21,1575420030,0.00,1.0,67.0,0,0,0,0.0
Status,1732153080000,26,18,6,19,1575420030,0.00,235.0,40.0,0,0,0,0.0
Status,1732153080000,26,19,6,13,1575420030,0.00,114.0,34.0,0,0,0,0.0
Status,1732153080000,26,20,6,27,1575420030,0.00,70.0,29.0,0,0,0,0.0
Status,1732153080000,26,21,6,4,1575420030,0.00,305.0,26.0,0,0,0,0.0
Status,1732153080000,26,22,6,15,1575420030,0.00,55.0,23.0,0,0,0,0.0
Status,1732153080000,26,23,6,29,1575420030,0.00,190.0,18.0,0,0,0,0.0
Status,1732153080000,26,24,6,26,1575420030,0.00,165.0,12.0,0,0,0,0.0
Status,1732153080000,26,25,6,6,1575420030,0.00,323.0,9.0,0,0,0,0.0
Fix,GPS,37.4253883333,-122.1584300000,24.599999999999998,0.0,4.7,0.0,1732153081000,1.6,126.3,31965091000000,81.4,0,,,
Fix,FLP,37.4254221000,-122.1583980000,2.5249027696406916,0.038842242,4.914,,1732153081243,1.6,,31965091000000,11.86963,0,,,
Raw,1732153081000,25388000000,,705058.7539296936,-1416188273612000000,0.0,116.22920421988364,1081.8196036155218,0.0,0,6,0.0,16431,351498921048771,487,20.770999908447266,-326.26384473066076,0.14999,16,0.0,0.0,1575420030,,,,0,3.562359853877492,1,6.0,20.770999908447266,0.0,0.0,0.0,66.7128,C,31965091000000,
Raw,1732153081000,25388000000,,705058.7539296936,-1416188273612000000,0.0,116.22920421988364,1081.8196036155218,0.0,0,13,0.0,16431,351498927081649,487,21.549999237060547,803.1322160415208,0.14999,16,0.0,0.0,1575420030,,,,0,3.6487873295303443,1,6.0,21.549999237060547,0.0,0.0,0.0,66.7128,C,31965091000000,
Raw,1732153081000,25388000000,,705058.7539296936,-1416188273612000000,0.0,116.22920421988364,1081.8196036155218,0.0,0,24,0.0,16431,351498923137027,797,21.097000122070312,-270.85047587870883,0.14999,16,0.0,0.0,1575420030,,,,0,4.068477159172898,1,6.0,21.097000122070312,0.0,0.0,0.0,66.7128,C,31965091000000,
Raw,1732153081000,25388000000,,705058.7539296936,-1416188273612000000,0.0,116.22920421988364,1081.8196036155218,0.0,0,30,0.0,16431,351498923710485,487,20.31599998474121,910.9748367553894,0.14999,16,0.0,0.0,1575420030,,,,0,3.0249169258714654,1,6.0,20.31599998474121,0.0,0.0,0.0,66.7128,C,31965091000000,
Raw,1732153081000,25388000000,,705058.7539296936,-1416188273612000000,0.0,116.22920421988364,1081.8196036155218,0.0,0,15,0.0,16431,351498923835583,487,18.347999572753906,620.719377301782,0.14999,16,0.0,0.0,1575420030,,,,0,0.0,1,6.0,18.347999572753906,0.0,0.0,0.0,66.7128,C,31965091000000,
Raw,1732153081000,25388000000,,705058.7539296936,-1416188273612000000,0.0,116.22920421988364,1081.8196036155218,0.0,0,2,0.0,16431,351498917069500,487,25.516000747680664,765.4360429619549,0.14999,16,0.0,0.0,1575420030,,,,0,10.759069500675253,1,6.0,25.516000747680664,0.0,0.0,0.0,66.7128,C,31965091000000,
Raw,1732153081000,25388000000,,705058.7539296936,-1416188273612000000,0.0,116.22920421988364,1081.8196036155218,0.0,0,12,0.0,17,317066,396,23.281999588012695,-221.207753362684,0.14999,16,0.0,0.0,1575420030,,,,0,7.535501592965945,1,6.0,23.281999588012695,0.0,0.0,0.0,66.7128,C,31965091000000,
Status,1732153081000,26,0,1,17,1575420030,0.00,55.0,72.0,0,0,0,0.0
Status,1732153081000,26,1,1,19,1575420030,0.00,204.0,71.0,0,0,0,0.0
Status,1732153081000,26,2,1,22,1575420030,0.00,31.0,62.0,0,0,0,0.0
Status,1732153081000,26,3,1,14,1575420030,0.00,62.0,47.0,0,0,0,0.0
Status,1732153081000,26,4,2,135,1575420030,0.00,197.0,45.0,0,0,0,0.0
Status,1732153081000,26,5,1,13,1575420030,26.50,225.0,41.0,1,0,0,21.5
Status,1732153081000,26,6,1,30,1575420030,25.40,136.0,28.0,1,0,0,20.4
Status,1732153081000,26,7,1,15,1575420030,26.10,265.0,28.0,1,0,0,21.1
Status,1732153081000,26,8,1,24,1575420030,26.10,313.0,24.0,1,0,0,21.1
Status,1732153081000,26,9,1,6,1575420030,23.30,158.0,20.0,1,0,0,18.3
Status,1732153081000,26,10,1,2,1575420030,0.00,41.0,13.0,0,0,0,0.0
Status,1732153081000,26,11,1,12,1575420030,25.70,273.0,4.0,0,0,0,20.7
Status,1732153081000,26,12,3,20,1602000000,0.00,95.0,58.0,0,0,0,0.0
Status,1732153081000,26,13,3,11,1602000000,0.00,319.0,34.0,0,0,0,0.0
Status,1732153081000,26,14,3,9,1602000000,0.00,91.0,28.0,0,0,0,0.0
Status,1732153081000,26,15,3,19,1602000000,0.00,28.0,16.0,0,0,0,0.0
Status,1732153081000,26,16,3,8,1602000000,0.00,239.0,15.0,0,0,0,0.0
Status,1732153081000,26,17,6,21,1575420030,0.00,1.0,67.0,0,0,0,0.0
Status,1732153081000,26,18,6,19,1575420030,0.00,235.0,40.0,0,0,0,0.0
Status,1732153081000,26,19,6,13,1575420030,0.00,114.0,34.0,0,0,0,0.0
Status,1732153081000,26,20,6,27,1575420030,0.00,70.0,29.0,0,0,0,0.0
Status,1732153081000,26,21,6,4,1575420030,0.00,305.0,26.0,0,0,0,0.0
Status,1732153081000,26,22,6,15,1575420030,0.00,55.0,23.0,0,0,0,0.0
Status,1732153081000,26,23,6,29,1575420030,0.00,190.0,18.0,0,0,0,0.0
Status,1732153081000,26,24,6,26,1575420030,0.00,165.0,12.0,0,0,0,0.0
Status,1732153081000,26,25,6,6,1575420030,0.00,323.0,9.0,0,0,0,0.0
Fix,GPS,37.4254033333,-122.1584150000,24.599999999999998,0.0,4.7,0.0,1732153082000,1.6,112.6,31966091000000,82.8,0,,,
Raw,1732153082000,26388000000,,704999.7547803554,-1416188273612000000,0.0,117.24520148646963,1077.8914373012062,0.0,0,6,0.0,16431,351499921049865,487,18.347999572753906,-327.14307025744523,0.14999,16,0.0,0.0,1575420030,,,,0,0.0,1,6.0,18.347999572753906,0.0,0.0,0.0,66.7128,C,31966091000000,
Raw,1732153082000,26388000000,,704999.7547803554,-1416188273612000000,0.0,117.24520148646963,1077.8914373012062,0.0,0,13,0.0,16431,351499927078984,487,21.534000396728516,801.1931346657254,0.14999,16,0.0,0.0,1575420030,,,,0,4.310889812689965,1,6.0,21.534000396728516,0.0,0.0,0.0,66.7128,C,31966091000000,
Raw,1732153082000,26388000000,,704999.7547803554,-1416188273612000000,0.0,117.24520148646963,1077.8914373012062,0.0,0,24,0.0,16431,351499923137931,797,21.097000122070312,-271.729422654996,0.14999,16,0.0,0.0,1575420030,,,,0,4.068477159172898,1,6.0,21.097000122070312,0.0,0.0,0.0,66.7128,C,31966091000000,
Raw,1732153082000,26388000000,,704999.7547803554,-1416188273612000000,0.0,117.24520148646963,1077.8914373012062,0.0,0,30,0.0,16431,351499923707445,487,20.37700080871582,909.7881958885399,0.14999,16,0.0,0.0,1575420030,,,,0,4.776316660949726,1,6.0,20.37700080871582,0.0,0.0,0.0,66.7128,C,31966091000000,
Raw,1732153082000,26388000000,,704999.7547803554,-1416188273612000000,0.0,117.24520148646963,1077.8914373012062,0.0,0,15,0.0,16431,351499923833497,487,21.097000122070312,620.2668723278914,0.14999,16,0.0,0.0,1575420030,,,,0,4.068477159172898,1,6.0,21.097000122070312,0.0,0.0,0.0,66.7128,C,31966091000000,
Raw,1732153082000,26388000000,,704999.7547803554,-1416188273612000000,0.0,117.24520148646963,1077.8914373012062,0.0,0,12,0.0,17,317803,487,20.673999786376953,-222.26338149581986,0.14999,16,0.0,0.0,1575420030,,,,0,3.3868813677273897,1,6.0,20.673999786376953,0.0,0.0,0.0,66.7128,C,31966091000000,
Fix,FLP,37.4254135000,-122.1584052000,2.6424573366474,0.05060915,4.871,,1732153082243,1.6,,31966091000000,13.532801,0,,,
Status,1732153082000,26,0,1,17,1575420030,0.00,55.0,72.0,0,0,0,0.0
Status,1732153082000,26,1,1,19,1575420030,0.00,204.0,71.0,0,0,0,0.0
Status,1732153082000,26,2,1,22,1575420030,0.00,31.0,62.0,0,0,0,0.0
Status,1732153082000,26,3,1,14,1575420030,0.00,62.0,47.0,0,0,0,0.0
Status,1732153082000,26,4,2,135,1575420030,0.00,197.0,45.0,0,0,0,0.0
Status,1732153082000,26,5,1,13,1575420030,26.50,225.0,41.0,1,0,0,21.5
Status,1732153082000,26,6,1,30,1575420030,25.40,136.0,28.0,1,0,0,20.4
Status,1732153082000,26,7,1,15,1575420030,26.10,265.0,28.0,1,0,0,21.1
Status,1732153082000,26,8,1,24,1575420030,18.70,313.0,24.0,1,0,0,13.700001
Status,1732153082000,26,9,1,6,1575420030,23.30,158.0,20.0,1,0,0,18.3
Status,1732153082000,26,10,1,2,1575420030,0.00,41.0,13.0,0,0,0,0.0
Status,1732153082000,26,11,1,12,1575420030,25.60,273.0,4.0,0,0,0,20.6
Status,1732153082000,26,12,3,20,1602000000,0.00,95.0,58.0,0,0,0,0.0
Status,1732153082000,26,13,3,11,1602000000,0.00,319.0,34.0,0,0,0,0.0
Status,1732153082000,26,14,3,9,1602000000,0.00,91.0,28.0,0,0,0,0.0
Status,1732153082000,26,15,3,19,1602000000,0.00,28.0,16.0,0,0,0,0.0
Status,1732153082000,26,16,3,8,1602000000,0.00,239.0,15.0,0,0,0,0.0
Status,1732153082000,26,17,6,21,1575420030,0.00,1.0,67.0,0,0,0,0.0
Status,1732153082000,26,18,6,19,1575420030,0.00,235.0,40.0,0,0,0,0.0
Status,1732153082000,26,19,6,13,1575420030,0.00,114.0,34.0,0,0,0,0.0
Status,1732153082000,26,20,6,27,1575420030,0.00,70.0,29.0,0,0,0,0.0
Status,1732153082000,26,21,6,4,1575420030,0.00,305.0,26.0,0,0,0,0.0
Status,1732153082000,26,22,6,15,1575420030,0.00,55.0,23.0,0,0,0,0.0
Status,1732153082000,26,23,6,29,1575420030,0.00,190.0,18.0,0,0,0,0.0
Status,1732153082000,26,24,6,26,1575420030,0.00,165.0,12.0,0,0,0,0.0
Status,1732153082000,26,25,6,6,1575420030,0.00,323.0,9.0,0,0,0,0.0
Fix,GPS,37.4254183333,-122.1584050000,24.599999999999998,0.0,4.7,0.0,1732153083000,1.5,100.8,31967091000000,84.3,0,,,
Raw,1732153083000,27388000000,,704943.0488841718,-1416188273612000000,0.0,118.3701964810016,1077.4992604241663,0.0,0,6,0.0,16431,351500921050956,797,18.347999572753906,-327.16848301111236,0.14999,16,0.0,0.0,1575420030,,,,0,0.0,1,6.0,18.347999572753906,0.0,0.0,0.0,66.7128,C,31967091000000,
Raw,1732153083000,27388000000,,704943.0488841718,-1416188273612000000,0.0,118.3701964810016,1077.4992604241663,0.0,0,13,0.0,16431,351500927076311,487,21.518999099731445,801.7429235631608,0.14999,16,0.0,0.0,1575420030,,,,0,4.310889812689965,1,6.0,21.518999099731445,0.0,0.0,0.0,66.7128,C,31967091000000,
Raw,1732153083000,27388000000,,704943.0488841718,-1416188273612000000,0.0,118.3701964810016,1077.4992604241663,0.0,0,24,0.0,16431,351500923138834,797,13.699999809265137,-271.2441180392607,0.14999,16,0.0,0.0,1575420030,,,,0,0.0,1,6.0,13.699999809265137,0.0,0.0,0.0,66.7128,C,31967091000000,
Raw,1732153083000,27388000000,,704943.0488841718,-1416188273612000000,0.0,118.3701964810016,1077.4992604241663,0.0,0,30,0.0,16431,351500923704408,487,20.408000946044922,910.9087728875381,0.14999,16,0.0,0.0,1575420030,,,,0,3.903026639853099,1,6.0,20.408000946044922,0.0,0.0,0.0,66.7128,C,31967091000000,
Raw,1732153083000,27388000000,,704943.0488841718,-1416188273612000000,0.0,118.3701964810016,1077.4992604241663,0.0,0,15,0.0,16431,351500923831439,487,21.058000564575195,620.1743271628,0.14999,16,0.0,0.0,1575420030,,,,0,2.743187700299365,1,6.0,21.058000564575195,0.0,0.0,0.0,66.7128,C,31967091000000,
Raw,1732153083000,27388000000,,704943.0488841718,-1416188273612000000,0.0,118.3701964810016,1077.4992604241663,0.0,0,12,0.0,17,318542,487,20.572999954223633,-221.9858389173781,0.14999,16,0.0,0.0,1575420030,,,,0,3.207784514668861,1,6.0,20.572999954223633,0.0,0.0,0.0,66.7128,C,31967091000000,
Fix,FLP,37.4254157000,-122.1584051000,3.1291331294605236,0.008206847,4.828,,1732153083243,1.5,,31967091000000,16.845116,0,,,
Status,1732153083000,26,0,1,17,1575420030,0.00,55.0,72.0,0,0,0,0.0
Status,1732153083000,26,1,1,19,1575420030,0.00,204.0,71.0,0,0,0,0.0
Status,1732153083000,26,2,1,22,1575420030,0.00,31.0,62.0,0,0,0,0.0
Status,1732153083000,26,3,1,14,1575420030,0.00,62.0,47.0,0,0,0,0.0
Status,1732153083000,26,4,2,135,1575420030,0.00,197.0,45.0,0,0,0,0.0
Status,1732153083000,26,5,1,13,1575420030,26.50,225.0,41.0,1,0,0,21.5
Status,1732153083000,26,6,1,30,1575420030,25.40,136.0,28.0,1,0,0,20.4
Status,1732153083000,26,7,1,15,1575420030,26.00,265.0,28.0,1,0,0,21.0
Status,1732153083000,26,8,1,24,1575420030,23.30,313.0,24.0,1,0,0,18.3
Status,1732153083000,26,9,1,6,1575420030,23.30,158.0,20.0,1,0,0,18.3
Status,1732153083000,26,10,1,2,1575420030,0.00,41.0,13.0,0,0,0,0.0
Status,1732153083000,26,11,1,12,1575420030,0.00,273.0,4.0,0,0,0,0.0
Status,1732153083000,26,12,3,20,1602000000,0.00,95.0,58.0,0,0,0,0.0
Status,1732153083000,26,13,3,11,1602000000,0.00,319.0,34.0,0,0,0,0.0
Status,1732153083000,26,14,3,9,1602000000,0.00,91.0,28.0,0,0,0,0.0
Status,1732153083000,26,15,3,19,1602000000,0.00,28.0,16.0,0,0,0,0.0
Status,1732153083000,26,16,3,8,1602000000,0.00,239.0,15.0,0,0,0,0.0
Status,1732153083000,26,17,6,21,1575420030,0.00,1.0,67.0,0,0,0,0.0
Status,1732153083000,26,18,6,19,1575420030,0.00,235.0,40.0,0,0,0,0.0
Status,1732153083000,26,19,6,13,1575420030,0.00,114.0,34.0,0,0,0,0.0
Status,1732153083000,26,20,6,27,1575420030,0.00,70.0,29.0,0,0,0,0.0
Status,1732153083000,26,21,6,4,1575420030,0.00,305.0,26.0,0,0,0,0.0
Status,1732153083000,26,22,6,15,1575420030,0.00,55.0,23.0,0,0,0,0.0
Status,1732153083000,26,23,6,29,1575420030,0.00,190.0,18.0,0,0,0,0.0
Status,1732153083000,26,24,6,26,1575420030,0.00,165.0,12.0,0,0,0,0.0
Status,1732153083000,26,25,6,6,1575420030,0.00,323.0,9.0,0,0,0,0.0
Fix,GPS,37.4254183333,-122.1584000000,24.7,0.0,4.7,0.0,1732153084000,1.5,103.3,31968091000000,85.9,0,,,
Raw,1732153084000,28388000000,,704888.9489574818,-1416188273612000000,0.0,119.59338613658416,1081.8053386055817,0.0,0,6,0.0,16431,351501921052046,797,18.347999572753906,-325.78276783080065,0.14999,16,0.0,0.0,1575420030,,,,0,0.0,1,6.0,18.347999572753906,0.0,0.0,0.0,66.7128,C,31968091000000,
Raw,1732153084000,28388000000,,704888.9489574818,-1416188273612000000,0.0,119.59338613658416,1081.8053386055817,0.0,0,13,0.0,16431,351501927073635,797,21.503999710083008,802.6350180712357,0.14999,16,0.0,0.0,1575420030,,,,0,4.310889812689965,1,6.0,21.503999710083008,0.0,0.0,0.0,66.7128,C,31968091000000,
Raw,1732153084000,28388000000,,704888.9489574818,-1416188273612000000,0.0,119.59338613658416,1081.8053386055817,0.0,0,24,0.0,16431,351501923139656,797,18.347999572753906,-269.7459734917195,0.14999,16,0.0,0.0,1575420030,,,,0,0.0,1,6.0,18.347999572753906,0.0,0.0,0.0,66.7128,C,31968091000000,
Raw,1732153084000,28388000000,,704888.9489574818,-1416188273612000000,0.0,119.59338613658416,1081.8053386055817,0.0,0,30,0.0,16431,351501923701370,487,20.433000564575195,912.1240321387734,0.14999,16,0.0,0.0,1575420030,,,,0,3.734363289115844,1,6.0,20.433000564575195,0.0,0.0,0.0,66.7128,C,31968091000000,
Raw,1732153084000,28388000000,,704888.9489574818,-1416188273612000000,0.0,119.59338613658416,1081.8053386055817,0.0,0,15,0.0,16431,351501923829367,487,21.020999908447266,621.97273245431,0.14999,16,0.0,0.0,1575420030,,,,0,2.743187700299365,1,6.0,21.020999908447266,0.0,0.0,0.0,66.7128,C,31968091000000,
Fix,FLP,37.4254169000,-122.1584028000,3.546507436399472,0.005806749,4.785,,1732153084243,1.5,,31968091000000,14.871816,0,,,
Status,1732153084000,26,0,1,17,1575420030,0.00,55.0,72.0,0,0,0,0.0
Status,1732153084000,26,1,1,19,1575420030,0.00,204.0,71.0,0,0,0,0.0
Status,1732153084000,26,2,1,22,1575420030,0.00,31.0,62.0,0,0,0,0.0
Status,1732153084000,26,3,1,14,1575420030,0.00,62.0,47.0,0,0,0,0.0
Status,1732153084000,26,4,2,135,1575420030,0.00,197.0,45.0,0,0,0,0.0
Status,1732153084000,26,5,1,13,1575420030,19.40,225.0,41.0,1,0,0,14.4
Status,1732153084000,26,6,1,30,1575420030,25.40,136.0,28.0,1,0,0,20.4
Status,1732153084000,26,7,1,15,1575420030,26.00,265.0,28.0,1,0,0,21.0
Status,1732153084000,26,8,1,24,1575420030,23.40,313.0,24.0,1,0,0,18.4
Status,1732153084000,26,9,1,6,1575420030,23.40,158.0,20.0,1,0,0,18.4
Status,1732153084000,26,10,1,2,1575420030,0.00,41.0,13.0,0,0,0,0.0
Status,1732153084000,26,11,1,12,1575420030,0.00,273.0,4.0,0,0,0,0.0
Status,1732153084000,26,12,3,20,1602000000,0.00,95.0,58.0,0,0,0,0.0
Status,1732153084000,26,13,3,11,1602000000,0.00,319.0,34.0,0,0,0,0.0
Status,1732153084000,26,14,3,9,1602000000,0.00,91.0,28.0,0,0,0,0.0
Status,1732153084000,26,15,3,19,1602000000,0.00,28.0,16.0,0,0,0,0.0
Status,1732153084000,26,16,3,8,1602000000,0.00,239.0,15.0,0,0,0,0.0
Status,1732153084000,26,17,6,21,1575420030,0.00,1.0,67.0,0,0,0,0.0
Status,1732153084000,26,18,6,19,1575420030,0.00,235.0,40.0,0,0,0,0.0
Status,1732153084000,26,19,6,13,1575420030,0.00,114.0,34.0,0,0,0,0.0
Status,1732153084000,26,20,6,27,1575420030,0.00,70.0,29.0,0,0,0,0.0
Status,1732153084000,26,21,6,4,1575420030,0.00,305.0,26.0,0,0,0,0.0
Status,1732153084000,26,22,6,15,1575420030,0.00,55.0,23.0,0,0,0,0.0
Status,1732153084000,26,23,6,29,1575420030,0.00,190.0,18.0,0,0,0,0.0
Status,1732153084000,26,24,6,26,1575420030,0.00,165.0,12.0,0,0,0,0.0
Status,1732153084000,26,25,6,6,1575420030,0.00,323.0,9.0,0,0,0,0.0
Fix,GPS,37.4254183333,-122.1584000000,24.7,0.0,4.7,0.0,1732153084998,1.5,112.8,31969091000000,87.5,0,,,
Fix,FLP,37.4254176000,-122.1584016000,3.3799647298276643,0.008382703,4.757,,1732153085243,1.5,,31969091000000,13.533745,0,,,
Raw,1732153085000,29388000000,,704820.9852730852,-1416188273612000000,0.0,120.78289414543859,1083.3431668341857,0.0,0,6,0.0,16431,351502921053108,487,18.444000244140625,-325.54123052492207,0.14999,16,0.0,0.0,1575420030,,,,0,2.6472100426639895,1,6.0,18.444000244140625,0.0,0.0,0.0,66.7128,C,31969091000000,
Raw,1732153085000,29388000000,,704820.9852730852,-1416188273612000000,0.0,120.78289414543859,1083.3431668341857,0.0,0,13,0.0,16431,351502927070946,487,14.399999618530273,802.5860509005497,0.14999,16,0.0,0.0,1575420030,,,,0,0.0,1,6.0,14.399999618530273,0.0,0.0,0.0,66.7128,C,31969091000000,
Raw,1732153085000,29388000000,,704820.9852730852,-1416188273612000000,0.0,120.78289414543859,1083.3431668341857,0.0,0,24,0.0,16431,351502923140560,487,18.39299964904785,-269.41398164947896,0.14999,16,0.0,0.0,1575420030,,,,0,0.946994248497016,1,6.0,18.39299964904785,0.0,0.0,0.0,66.7128,C,31969091000000,
Raw,1732153085000,29388000000,,704820.9852730852,-1416188273612000000,0.0,120.78289414543859,1083.3431668341857,0.0,0,30,0.0,16431,351502923698326,487,20.371000289916992,912.4192289153751,0.14999,16,0.0,0.0,1575420030,,,,0,0.82881705628661,1,6.0,20.371000289916992,0.0,0.0,0.0,66.7128,C,31969091000000,
Raw,1732153085000,29388000000,,704820.9852730852,-1416188273612000000,0.0,120.78289414543859,1083.3431668341857,0.0,0,15,0.0,16431,351502923827294,487,20.982999801635742,621.3658926217679,0.14999,16,0.0,0.0,1575420030,,,,0,2.6472100426639895,1,6.0,20.982999801635742,0.0,0.0,0.0,66.7128,C,31969091000000,
Fix,FLP,37.4254179000,-122.1584009000,5.400000095367432,0.0072656493,4.7,,1732153085901,1.5,,31969749000000,16.473703,0,,,
Fix,NLP,37.4257197000,-122.1580899000,5.400000095367432,,17.043,,1732153085901,,,31969749000000,7.6661434,0,,,
Status,1732153084998,26,0,1,17,1575420030,0.00,55.0,72.0,0,0,0,0.0
Status,1732153084998,26,1,1,19,1575420030,0.00,204.0,71.0,0,0,0,0.0
Status,1732153084998,26,2,1,22,1575420030,0.00,31.0,62.0,0,0,0,0.0
Status,1732153084998,26,3,1,14,1575420030,0.00,62.0,47.0,0,0,0,0.0
Status,1732153084998,26,4,2,135,1575420030,0.00,197.0,45.0,0,0,0,0.0
Status,1732153084998,26,5,1,13,1575420030,25.50,225.0,41.0,1,0,0,20.5
Status,1732153084998,26,6,1,30,1575420030,25.40,136.0,28.0,1,0,0,20.4
Status,1732153084998,26,7,1,15,1575420030,29.80,265.0,28.0,1,0,0,24.8
Status,1732153084998,26,8,1,24,1575420030,23.40,313.0,24.0,1,0,0,18.4
Status,1732153084998,26,9,1,6,1575420030,26.40,158.0,20.0,1,0,0,21.4
Status,1732153084998,26,10,1,2,1575420030,0.00,41.0,13.0,0,0,0,0.0
Status,1732153084998,26,11,1,12,1575420030,24.60,273.0,4.0,0,0,0,19.6
Status,1732153084998,26,12,3,20,1602000000,0.00,95.0,58.0,0,0,0,0.0
Status,1732153084998,26,13,3,11,1602000000,0.00,319.0,34.0,0,0,0,0.0
Status,1732153084998,26,14,3,9,1602000000,0.00,91.0,28.0,0,0,0,0.0
Status,1732153084998,26,15,3,19,1602000000,0.00,28.0,16.0,0,0,0,0.0
Status,1732153084998,26,16,3,8,1602000000,0.00,239.0,15.0,0,0,0,0.0
Status,1732153084998,26,17,6,21,1575420030,0.00,1.0,67.0,0,0,0,0.0
Status,1732153084998,26,18,6,19,1575420030,0.00,235.0,40.0,0,0,0,0.0
Status,1732153084998,26,19,6,13,1575420030,0.00,114.0,34.0,0,0,0,0.0
Status,1732153084998,26,20,6,27,1575420030,0.00,70.0,29.0,0,0,0,0.0
Status,1732153084998,26,21,6,4,1575420030,0.00,305.0,26.0,0,0,0,0.0
Status,1732153084998,26,22,6,15,1575420030,0.00,55.0,23.0,0,0,0,0.0
Status,1732153084998,26,23,6,29,1575420030,0.00,190.0,18.0,0,0,0,0.0
Status,1732153084998,26,24,6,26,1575420030,0.00,165.0,12.0,0,0,0,0.0
Status,1732153084998,26,25,6,6,1575420030,0.00,323.0,9.0,0,0,0,0.0
Fix,GPS,37.4254200000,-122.1583966667,24.7,0.0,4.6,0.0,1732153085998,2.4,141.5,31970091000000,86.1,0,,,
Raw,1732153086000,30388000000,,704752.5003947897,-1416188273612000000,0.0,119.17963758161196,1086.5168170156398,0.0,0,6,0.0,16431,351503921054211,487,21.367000579833984,-324.64973997625805,0.14999,16,0.0,0.0,1575420030,,,,0,4.546720307281125,1,6.0,21.367000579833984,0.0,0.0,0.0,66.7128,C,31970091000000,
Raw,1732153086000,30388000000,,704752.5003947897,-1416188273612000000,0.0,119.17963758161196,1086.5168170156398,0.0,0,13,0.0,16431,351503927068266,487,20.474000930786133,803.9268407923859,0.14999,16,0.0,0.0,1575420030,,,,0,3.0249169258714654,1,6.0,20.474000930786133,0.0,0.0,0.0,66.7128,C,31970091000000,
Raw,1732153086000,30388000000,,704752.5003947897,-1416188273612000000,0.0,119.17963758161196,1086.5168170156398,0.0,0,24,0.0,16431,351503923141458,487,18.43600082397461,-268.7316468905948,0.14999,16,0.0,0.0,1575420030,,,,0,0.946994248497016,1,6.0,18.43600082397461,0.0,0.0,0.0,66.7128,C,31970091000000,
Raw,1732153086000,30388000000,,704752.5003947897,-1416188273612000000,0.0,119.17963758161196,1086.5168170156398,0.0,0,30,0.0,16431,351503923695282,487,20.365999221801758,913.7064057949043,0.14999,16,0.0,0.0,1575420030,,,,0,2.6472100426639895,1,6.0,20.365999221801758,0.0,0.0,0.0,66.7128,C,31970091000000,
Raw,1732153086000,30388000000,,704752.5003947897,-1416188273612000000,0.0,119.17963758161196,1086.5168170156398,0.0,0,15,0.0,16431,351503923825210,396,24.832000732421875,623.0590696005609,0.14999,16,0.0,0.0,1575420030,,,,0,9.797437074992578,1,6.0,24.832000732421875,0.0,0.0,0.0,66.7128,C,31970091000000,
Raw,1732153086000,30388000000,,704752.5003947897,-1416188273612000000,0.0,119.17963758161196,1086.5168170156398,0.0,0,12,0.0,17,320733,487,19.618000030517578,-219.9403677684605,0.14999,16,0.0,0.0,1575420030,,,,0,1.5149016796863206,1,6.0,19.618000030517578,0.0,0.0,0.0,66.7128,C,31970091000000,
Fix,FLP,37.4254187000,-122.1583995000,5.400000095367432,0.012994675,4.685,,1732153086243,2.4,,31970091000000,13.325348,0,,,
Status,1732153085998,25,0,1,17,1575420030,0.00,55.0,72.0,0,0,0,0.0
Status,1732153085998,25,1,1,19,1575420030,0.00,204.0,71.0,0,0,0,0.0
Status,1732153085998,25,2,1,22,1575420030,0.00,31.0,62.0,0,0,0,0.0
Status,1732153085998,25,3,1,14,1575420030,0.00,62.0,47.0,0,0,0,0.0
Status,1732153085998,25,4,1,13,1575420030,25.60,225.0,41.0,1,0,0,20.6
Status,1732153085998,25,5,1,30,1575420030,25.30,136.0,28.0,1,0,0,20.3
Status,1732153085998,25,6,1,15,1575420030,30.70,265.0,28.0,1,0,0,25.7
Status,1732153085998,25,7,1,24,1575420030,23.50,313.0,24.0,1,0,0,18.5
Status,1732153085998,25,8,1,6,1575420030,26.40,158.0,20.0,1,0,0,21.4
Status,1732153085998,25,9,1,2,1575420030,0.00,41.0,13.0,0,0,0,0.0
Status,1732153085998,25,10,1,12,1575420030,24.60,273.0,4.0,0,0,0,19.6
Status,1732153085998,25,11,3,20,1602000000,0.00,95.0,58.0,0,0,0,0.0
Status,1732153085998,25,12,3,11,1602000000,0.00,319.0,34.0,0,0,0,0.0
Status,1732153085998,25,13,3,9,1602000000,0.00,91.0,28.0,0,0,0,0.0
Status,1732153085998,25,14,3,19,1602000000,0.00,28.0,16.0,0,0,0,0.0
Status,1732153085998,25,15,3,8,1602000000,0.00,239.0,15.0,0,0,0,0.0
Status,1732153085998,25,16,6,21,1575420030,0.00,1.0,67.0,0,0,0,0.0
Status,1732153085998,25,17,6,19,1575420030,0.00,235.0,40.0,0,0,0,0.0
Status,1732153085998,25,18,6,13,1575420030,0.00,114.0,34.0,0,0,0,0.0
Status,1732153085998,25,19,6,27,1575420030,0.00,70.0,29.0,0,0,0,0.0
Status,1732153085998,25,20,6,4,1575420030,0.00,305.0,26.0,0,0,0,0.0
Status,1732153085998,25,21,6,15,1575420030,0.00,55.0,23.0,0,0,0,0.0
Status,1732153085998,25,22,6,29,1575420030,0.00,190.0,18.0,0,0,0,0.0
Status,1732153085998,25,23,6,26,1575420030,0.00,165.0,12.0,0,0,0,0.0
Status,1732153085998,25,24,6,6,1575420030,0.00,323.0,9.0,0,0,0,0.0
Fix,GPS,37.4254216667,-122.1583933333,24.599999999999998,0.0,4.6,0.0,1732153086998,2.9,179.9,31971091000000,86.0,0,,,
Raw,1732153087000,31388000000,,704691.2079922971,-1416188273612000000,0.0,119.17517129600502,1088.7707478533766,0.0,0,6,0.0,16431,351504921055286,487,21.424999237060547,-324.03244700006866,0.14999,16,0.0,0.0,1575420030,,,,0,6.3599415819022225,1,6.0,21.424999237060547,0.0,0.0,0.0,66.7128,C,31971091000000,
Raw,1732153087000,31388000000,,704691.2079922971,-1416188273612000000,0.0,119.17517129600502,1088.7707478533766,0.0,0,13,0.0,16431,351504927065578,797,20.582000732421875,804.3696824157047,0.14999,16,0.0,0.0,1575420030,,,,0,6.546742106985089,1,6.0,20.582000732421875,0.0,0.0,0.0,66.7128,C,31971091000000,
Raw,1732153087000,31388000000,,704691.2079922971,-1416188273612000000,0.0,119.17517129600502,1088.7707478533766,0.0,0,24,0.0,16431,351504923142366,797,18.530000686645508,-267.5529504129172,0.14999,16,0.0,0.0,1575420030,,,,0,2.743187700299365,1,6.0,18.530000686645508,0.0,0.0,0.0,66.7128,C,31971091000000,
Raw,1732153087000,31388000000,,704691.2079922971,-1416188273612000000,0.0,119.17517129600502,1088.7707478533766,0.0,0,30,0.0,16431,351504923692235,487,20.344999313354492,913.7556517160875,0.14999,16,0.0,0.0,1575420030,,,,0,2.150738368163347,1,6.0,20.344999313354492,0.0,0.0,0.0,66.7128,C,31971091000000,
Raw,1732153087000,31388000000,,704691.2079922971,-1416188273612000000,0.0,119.17517129600502,1088.7707478533766,0.0,0,15,0.0,16431,351504923823117,396,25.66900062561035,623.8922083784645,0.14999,16,0.0,0.0,1575420030,,,,0,10.94667700208035,1,6.0,25.66900062561035,0.0,0.0,0.0,66.7128,C,31971091000000,
Raw,1732153087000,31388000000,,704691.2079922971,-1416188273612000000,0.0,119.17517129600502,1088.7707478533766,0.0,0,12,0.0,17,321465,487,19.618000030517578,-218.95298704873795,0.14999,16,0.0,0.0,1575420030,,,,0,1.5149016796863206,1,6.0,19.618000030517578,0.0,0.0,0.0,66.7128,C,31971091000000,
Fix,FLP,37.4254202000,-122.1583969000,5.400000095367432,0.027268907,4.671,,1732153087243,2.9,,31971091000000,12.306302,0,,,
Status,1732153086998,26,0,1,17,1575420030,0.00,55.0,72.0,0,0,0,0.0
Status,1732153086998,26,1,1,19,1575420030,0.00,204.0,71.0,0,0,0,0.0
Status,1732153086998,26,2,1,22,1575420030,0.00,31.0,62.0,0,0,0,0.0
Status,1732153086998,26,3,1,14,1575420030,0.00,62.0,47.0,0,0,0,0.0
Status,1732153086998,26,4,2,138,1575420030,0.00,156.0,43.0,0,0,0,0.0
Status,1732153086998,26,5,1,13,1575420030,31.20,225.0,41.0,1,0,0,26.2
Status,1732153086998,26,6,1,30,1575420030,25.30,136.0,28.0,1,0,0,20.3
Status,1732153086998,26,7,1,15,1575420030,34.30,265.0,28.0,1,0,0,29.3
Status,1732153086998,26,8,1,24,1575420030,23.50,313.0,24.0,1,0,0,18.5
Status,1732153086998,26,9,1,6,1575420030,26.50,158.0,20.0,1,0,0,21.5
Status,1732153086998,26,10,1,2,1575420030,0.00,41.0,13.0,0,0,0,0.0
Status,1732153086998,26,11,1,12,1575420030,29.50,273.0,4.0,0,0,0,24.5
Status,1732153086998,26,12,3,20,1602000000,0.00,95.0,58.0,0,0,0,0.0
Status,1732153086998,26,13,3,11,1602000000,0.00,319.0,34.0,0,0,0,0.0
Status,1732153086998,26,14,3,9,1602000000,0.00,91.0,28.0,0,0,0,0.0
Status,1732153086998,26,15,3,19,1602000000,0.00,28.0,16.0,0,0,0,0.0
Status,1732153086998,26,16,3,8,1602000000,0.00,239.0,15.0,0,0,0,0.0
Status,1732153086998,26,17,6,21,1575420030,0.00,1.0,67.0,0,0,0,0.0
Status,1732153086998,26,18,6,19,1575420030,0.00,235.0,40.0,0,0,0,0.0
Status,1732153086998,26,19,6,13,1575420030,0.00,114.0,34.0,0,0,0,0.0
Status,1732153086998,26,20,6,27,1575420030,0.00,70.0,29.0,0,0,0,0.0
Status,1732153086998,26,21,6,4,1575420030,0.00,305.0,26.0,0,0,0,0.0
Status,1732153086998,26,22,6,15,1575420030,0.00,55.0,23.0,0,0,0,0.0
Status,1732153086998,26,23,6,29,1575420030,0.00,190.0,18.0,0,0,0,0.0
Status,1732153086998,26,24,6,26,1575420030,0.00,165.0,12.0,0,0,0,0.0
Status,1732153086998,26,25,6,6,1575420030,0.00,323.0,9.0,0,0,0,0.0
Fix,GPS,37.4254283333,-122.1583933333,24.599999999999998,0.0,4.7,0.0,1732153087998,3.5,179.9,31972091000000,86.3,0,,,
Raw,1732153088000,32388000000,,704639.4534381515,-1416188273612000000,0.0,119.44323750364431,1089.4110875925737,0.0,0,6,0.0,16431,351505921056366,487,21.479999542236328,-323.93469849236163,0.14999,16,0.0,0.0,1575420030,,,,0,6.3599415819022225,1,6.0,21.479999542236328,0.0,0.0,0.0,66.7128,C,31972091000000,
Raw,1732153088000,32388000000,,704639.4534381515,-1416188273612000000,0.0,119.44323750364431,1089.4110875925737,0.0,0,13,0.0,16431,351505927062858,316,26.197999954223633,804.3562094750037,0.14999,16,0.0,0.0,1575420030,,,,0,11.659034186276253,1,6.0,26.197999954223633,0.0,0.0,0.0,66.7128,C,31972091000000,
Raw,1732153088000,32388000000,,704639.4534381515,-1416188273612000000,0.0,119.44323750364431,1089.4110875925737,0.0,0,24,0.0,16431,351505923143288,797,18.506000518798828,-267.88680059180615,0.14999,16,0.0,0.0,1575420030,,,,0,0.0,1,6.0,18.506000518798828,0.0,0.0,0.0,66.7128,C,31972091000000,
Raw,1732153088000,32388000000,,704639.4534381515,-1416188273612000000,0.0,119.44323750364431,1089.4110875925737,0.0,0,30,0.0,16431,351505923689187,797,20.325000762939453,913.8261755918951,0.14999,16,0.0,0.0,1575420030,,,,0,2.150738368163347,1,6.0,20.325000762939453,0.0,0.0,0.0,66.7128,C,31972091000000,
Raw,1732153088000,32388000000,,704639.4534381515,-1416188273612000000,0.0,119.44323750364431,1089.4110875925737,0.0,0,15,0.0,16431,351505923821029,235,29.256999969482422,623.3772632931868,0.14999,16,0.0,0.0,1575420030,,,,0,15.625247306281139,1,6.0,29.256999969482422,0.0,0.0,0.0,66.7128,C,31972091000000,
Raw,1732153088000,32388000000,,704639.4534381515,-1416188273612000000,0.0,119.44323750364431,1089.4110875925737,0.0,0,12,0.0,17,322159,316,24.548999786376953,-219.39034657894396,0.14999,16,0.0,0.0,1575420030,,,,0,9.363052081127853,1,6.0,24.548999786376953,0.0,0.0,0.0,66.7128,C,31972091000000,
Fix,FLP,37.4254244000,-122.1583953000,5.400000095367432,0.088415846,4.671,,1732153088243,3.5,,31972091000000,9.497357,0,,,
Status,1732153087998,26,0,1,17,1575420030,0.00,55.0,72.0,0,0,0,0.0
Status,1732153087998,26,1,1,19,1575420030,0.00,204.0,71.0,0,0,0,0.0
Status,1732153087998,26,2,1,22,1575420030,0.00,31.0,62.0,0,0,0,0.0
Status,1732153087998,26,3,1,14,1575420030,0.00,62.0,47.0,0,0,0,0.0
Status,1732153087998,26,4,2,138,1575420030,0.00,156.0,43.0,0,0,0,0.0
Status,1732153087998,26,5,1,13,1575420030,31.00,225.0,41.0,1,0,0,26.0
Status,1732153087998,26,6,1,30,1575420030,25.30,136.0,28.0,1,0,0,20.3
Status,1732153087998,26,7,1,15,1575420030,30.90,265.0,28.0,1,0,0,25.9
Status,1732153087998,26,8,1,24,1575420030,23.60,313.0,24.0,1,0,0,18.6
Status,1732153087998,26,9,1,6,1575420030,26.50,158.0,20.0,1,0,0,21.5
Status,1732153087998,26,10,1,2,1575420030,0.00,41.0,13.0,0,0,0,0.0
Status,1732153087998,26,11,1,12,1575420030,26.70,273.0,4.0,0,0,0,21.7
Status,1732153087998,26,12,3,20,1602000000,0.00,95.0,58.0,0,0,0,0.0
Status,1732153087998,26,13,3,11,1602000000,0.00,319.0,34.0,0,0,0,0.0
Status,1732153087998,26,14,3,9,1602000000,0.00,91.0,28.0,0,0,0,0.0
Status,1732153087998,26,15,3,19,1602000000,0.00,28.0,16.0,0,0,0,0.0
Status,1732153087998,26,16,3,8,1602000000,0.00,239.0,15.0,0,0,0,0.0
Status,1732153087998,26,17,6,21,1575420030,0.00,1.0,67.0,0,0,0,0.0
Status,1732153087998,26,18,6,19,1575420030,0.00,235.0,40.0,0,0,0,0.0
Status,1732153087998,26,19,6,13,1575420030,0.00,114.0,34.0,0,0,0,0.0
Status,1732153087998,26,20,6,27,1575420030,0.00,70.0,29.0,0,0,0,0.0
Status,1732153087998,26,21,6,4,1575420030,0.00,305.0,26.0,0,0,0,0.0
Status,1732153087998,26,22,6,15,1575420030,0.00,55.0,23.0,0,0,0,0.0
Status,1732153087998,26,23,6,29,1575420030,0.00,190.0,18.0,0,0,0,0.0
Status,1732153087998,26,24,6,26,1575420030,0.00,165.0,12.0,0,0,0,0.0
Status,1732153087998,26,25,6,6,1575420030,0.00,323.0,9.0,0,0,0,0.0
Fix,GPS,37.4254366667,-122.1583933333,24.599999999999998,0.0,4.7,0.0,1732153088999,3.6,179.9,31973091000000,86.8,0,,,
Raw,1732153089000,33388000000,,704586.864973768,-1416188273612000000,0.0,119.66524116456816,1089.9283164300891,0.0,0,6,0.0,16431,351506921057447,487,21.531999588012695,-323.83420893809824,0.14999,16,0.0,0.0,1575420030,,,,0,6.3599415819022225,1,6.0,21.531999588012695,0.0,0.0,0.0,66.7128,C,31973091000000,
Raw,1732153089000,33388000000,,704586.864973768,-1416188273612000000,0.0,119.66524116456816,1089.9283164300891,0.0,0,13,0.0,16431,351506927060177,487,25.983999252319336,803.5366830130498,0.14999,16,0.0,0.0,1575420030,,,,0,11.381061995945075,1,6.0,25.983999252319336,0.0,0.0,0.0,66.7128,C,31973091000000,
Raw,1732153089000,33388000000,,704586.864973768,-1416188273612000000,0.0,119.66524116456816,1089.9283164300891,0.0,0,24,0.0,16431,351506923144208,487,18.628000259399414,-267.72108342118315,0.14999,16,0.0,0.0,1575420030,,,,0,3.8191043479809363,1,6.0,18.628000259399414,0.0,0.0,0.0,66.7128,C,31973091000000,
