# 
# Header Description:
# 
# Version: v3.1.0.3 Platform: 13 Manufacturer: samsung Model: SM-S135DL GNSS Hardware Model Name: MediaTek,MT6631,MTK_MNLD_default,MNL_VER_default
# 
# Raw,utcTimeMillis,TimeNanos,LeapSecond,TimeUncertaintyNanos,FullBiasNanos,BiasNanos,BiasUncertaintyNanos,DriftNanosPerSecond,DriftUncertaintyNanosPerSecond,HardwareClockDiscontinuityCount,Svid,TimeOffsetNanos,State,ReceivedSvTimeNanos,ReceivedSvTimeUncertaintyNanos,Cn0DbHz,PseudorangeRateMetersPerSecond,PseudorangeRateUncertaintyMetersPerSecond,AccumulatedDeltaRangeState,AccumulatedDeltaRangeMeters,AccumulatedDeltaRangeUncertaintyMeters,CarrierFrequencyHz,CarrierCycles,CarrierPhase,CarrierPhaseUncertainty,MultipathIndicator,SnrInDb,ConstellationType,AgcDb,BasebandCn0DbHz,FullInterSignalBiasNanos,FullInterSignalBiasUncertaintyNanos,SatelliteInterSignalBiasNanos,SatelliteInterSignalBiasUncertaintyNanos,CodeType,ChipsetElapsedRealtimeNanos,IsFullTracking
# 
# UncalAccel,utcTimeMillis,elapsedRealtimeNanos,UncalAccelXMps2,UncalAccelYMps2,UncalAccelZMps2,BiasXMps2,BiasYMps2,BiasZMps2
# 
# Accel,utcTimeMillis,elapsedRealtimeNanos,AccelXMps2,AccelYMps2,AccelZMps2
# 
# UncalGyro,utcTimeMillis,elapsedRealtimeNanos,UncalGyroXRadPerSec,UncalGyroYRadPerSec,UncalGyroZRadPerSec,DriftXRadPerSec,DriftYRadPerSec,DriftZRadPerSec
# 
# Gyro,utcTimeMillis,elapsedRealtimeNanos,GyroXRadPerSec,GyroYRadPerSec,GyroZRadPerSec
# 
# UncalMag,utcTimeMillis,elapsedRealtimeNanos,UncalMagXMicroT,UncalMagYMicroT,UncalMagZMicroT,BiasXMicroT,BiasYMicroT,BiasZMicroT
# 
# Mag,utcTimeMillis,elapsedRealtimeNanos,MagXMicroT,MagYMicroT,MagZMicroT
# 
# Pressure,utcTimeMillis,elapsedRealtimeNanos,PressureHpa
# 
# OrientationDeg,utcTimeMillis,elapsedRealtimeNanos,yawDeg,rollDeg,pitchDeg
# 
# Fix,Provider,LatitudeDegrees,LongitudeDegrees,AltitudeMeters,SpeedMps,AccuracyMeters,BearingDegrees,UnixTimeMillis,SpeedAccuracyMps,BearingAccuracyDegrees,elapsedRealtimeNanos,VerticalAccuracyMeters,MockLocation,NumberOfUsedSignals,VerticalSpeedAccuracyMps,SolutionType
# 
# Nav,Svid,Type,Status,MessageId,Sub-messageId,Data(Bytes)
# 
# Status,UnixTimeMillis,SignalCount,SignalIndex,ConstellationType,Svid,CarrierFrequencyHz,Cn0DbHz,AzimuthDegrees,ElevationDegrees,UsedInFix,HasAlmanacData,HasEphemerisData,BasebandCn0DbHz
# 
# Agc,utcTimeMillis,TimeNanos,LeapSecond,TimeUncertaintyNanos,FullBiasNanos,BiasNanos,BiasUncertaintyNanos,DriftNanosPerSecond,DriftUncertaintyNanosPerSecond,HardwareClockDiscontinuityCount,AgcDb,CarrierFrequencyHz,ConstellationType
# 
Fix,FLP,37.4251573000,-122.1584868000,2.9239769678769014,0.25209066,5.328,0.0000000038280645,1732152976244,1.6,179.9,31860092000000,12.444673,0,,,
Status,,26,0,1,17,1575420030,0.00,57.0,73.0,0,0,0,0.0
Status,,26,1,1,19,1575420030,0.00,203.0,70.0,0,0,0,0.0
Status,,26,2,1,22,1575420030,0.00,30.0,63.0,0,0,0,0.0
Status,,26,3,1,14,1575420030,0.00,61.0,47.0,0,0,0,0.0
Status,,26,4,2,135,1575420030,0.00,197.0,45.0,0,0,0,0.0
Status,,26,5,1,13,1575420030,27.40,226.0,41.0,1,0,0,22.4
Status,,26,6,1,30,1575420030,22.90,136.0,29.0,1,0,0,17.9
Status,,26,7,1,15,1575420030,23.30,266.0,28.0,1,0,0,18.3
Status,,26,8,1,24,1575420030,21.20,313.0,24.0,1,0,0,16.2
Status,,26,9,1,6,1575420030,28.40,158.0,19.0,1,0,0,23.4
Status,,26,10,1,2,1575420030,0.00,42.0,13.0,0,0,0,0.0
Status,,26,11,1,12,1575420030,22.30,272.0,4.0,0,0,0,17.3
Status,,26,12,3,20,1602000000,0.00,97.0,58.0,0,0,0,0.0
Status,,26,13,3,11,1602000000,0.00,318.0,34.0,0,0,0,0.0
Status,,26,14,3,9,1602000000,0.00,90.0,28.0,0,0,0,0.0
Status,,26,15,3,8,1602000000,27.30,240.0,16.0,1,0,0,22.3
Status,,26,16,3,19,1602000000,0.00,28.0,16.0,0,0,0,0.0
Status,,26,17,6,21,1575420030,0.00,0.0,67.0,0,0,0,0.0
Status,,26,18,6,19,1575420030,0.00,236.0,41.0,0,0,0,0.0
Status,,26,19,6,13,1575420030,0.00,114.0,34.0,0,0,0,0.0
Status,,26,20,6,27,1575420030,0.00,70.0,30.0,0,0,0,0.0
Status,,26,21,6,4,1575420030,0.00,305.0,25.0,0,0,0,0.0
Status,,26,22,6,15,1575420030,0.00,55.0,23.0,0,0,0,0.0
Status,,26,23,6,29,1575420030,0.00,190.0,19.0,0,0,0,0.0
Status,,26,24,6,26,1575420030,0.00,165.0,12.0,0,0,0,0.0
Status,,26,25,6,6,1575420030,0.00,324.0,8.0,0,0,0,0.0
Fix,GPS,37.4252066667,-122.1584516667,25.2,0.0,5.1,0.0,1732152977000,1.6,179.9,31861092000000,100.0,0,,,
Raw,1732152977000,37020000000,,705004.2891672745,-1416188157980000000,0.0,162.2761125734722,1103.1511092391193,0.0,0,12,0.0,17,239830,487,17.31599998474121,-215.6049148261093,0.14999,16,0.0,0.0,1575420030,,,,0,0.0,1,6.0,17.31599998474121,0.0,0.0,0.0,66.7128,C,31861092000000,
Raw,1732152977000,37020000000,,705004.2891672745,-1416188157980000000,0.0,162.2761125734722,1103.1511092391193,0.0,0,13,0.0,16431,351394927358104,487,22.360000610351562,800.7635801494428,0.14999,16,0.0,0.0,1575420030,,,,0,6.145908079088647,1,6.0,22.360000610351562,0.0,0.0,0.0,66.7128,C,31861092000000,
Raw,1732152977000,37020000000,,705004.2891672745,-1416188157980000000,0.0,162.2761125734722,1103.1511092391193,0.0,0,30,0.0,16431,351394924025018,396,17.945999145507812,911.0566035679201,0.14999,16,0.0,0.0,1575420030,,,,0,0.0,1,6.0,17.945999145507812,0.0,0.0,0.0,66.7128,C,31861092000000,
Raw,1732152977000,37020000000,,705004.2891672745,-1416188157980000000,0.0,162.2761125734722,1103.1511092391193,0.0,0,6,0.0,16431,351394920934907,396,23.430999755859375,-321.3840385255707,0.14999,16,0.0,0.0,1575420030,,,,0,7.745783499894585,1,6.0,23.430999755859375,0.0,0.0,0.0,66.7128,C,31861092000000,
Raw,1732152977000,37020000000,,705004.2891672745,-1416188157980000000,0.0,162.2761125734722,1103.1511092391193,0.0,0,15,0.0,16431,351394924049024,487,18.347999572753906,617.5226201407511,0.14999,16,0.0,0.0,1575420030,,,,0,0.0,1,6.0,18.347999572753906,0.0,0.0,0.0,66.7128,C,31861092000000,
Raw,1732152977000,37020000000,,705004.2891672745,-1416188157980000000,0.0,162.2761125734722,1103.1511092391193,0.0,0,8,0.0,17,334377,396,5.0,979.6467506491169,0.14999,16,0.0,0.0,1605374980,,,,0,7.498774732165998,3,6.0,23.0,0.0,0.0,91.36925328144221,66.7128,C,31861092000000,
Raw,1732152977000,37020000000,,705004.2891672745,-1416188157980000000,0.0,162.2761125734722,1103.1511092391193,0.0,0,24,0.0,16431,351394923042139,797,16.1560001373291,-268.40402213947806,0.14999,16,0.0,0.0,1575420030,,,,0,0.0,1,6.0,16.1560001373291,0.0,0.0,0.0,66.7128,C,31861092000000,
Fix,FLP,37.4251825000,-122.1584712000,2.994792604760511,0.35220104,5.3,0.0000000030101788,1732152977244,1.6,179.9,31861092000000,10.605831,0,,,
Status,1732152977000,26,0,1,17,1575420030,0.00,57.0,73.0,0,0,0,0.0
Status,1732152977000,26,1,1,19,1575420030,0.00,203.0,70.0,0,0,0,0.0
Status,1732152977000,26,2,1,22,1575420030,0.00,30.0,63.0,0,0,0,0.0
Status,1732152977000,26,3,1,14,1575420030,0.00,61.0,47.0,0,0,0,0.0
Status,1732152977000,26,4,2,138,1575420030,0.00,156.0,43.0,0,0,0,0.0
Status,1732152977000,26,5,1,13,1575420030,27.40,226.0,41.0,1,0,0,22.4
Status,1732152977000,26,6,1,30,1575420030,29.70,136.0,29.0,1,0,0,24.7
Status,1732152977000,26,7,1,15,1575420030,23.30,266.0,28.0,1,0,0,18.3
Status,1732152977000,26,8,1,24,1575420030,21.00,313.0,24.0,1,0,0,16.0
Status,1732152977000,26,9,1,6,1575420030,32.10,158.0,19.0,1,0,0,27.099998
Status,1732152977000,26,10,1,2,1575420030,0.00,42.0,13.0,0,0,0,0.0
Status,1732152977000,26,11,1,12,1575420030,22.40,272.0,4.0,0,0,0,17.4
Status,1732152977000,26,12,3,20,1602000000,0.00,97.0,58.0,0,0,0,0.0
Status,1732152977000,26,13,3,11,1602000000,0.00,318.0,34.0,0,0,0,0.0
Status,1732152977000,26,14,3,9,1602000000,0.00,90.0,28.0,0,0,0,0.0
Status,1732152977000,26,15,3,8,1602000000,38.20,240.0,16.0,1,0,0,33.2
Status,1732152977000,26,16,3,19,1602000000,0.00,28.0,16.0,0,0,0,0.0
Status,1732152977000,26,17,6,21,1575420030,0.00,0.0,67.0,0,0,0,0.0
Status,1732152977000,26,18,6,19,1575420030,0.00,236.0,41.0,0,0,0,0.0
Status,1732152977000,26,19,6,13,1575420030,0.00,114.0,34.0,0,0,0,0.0
Status,1732152977000,26,20,6,27,1575420030,0.00,70.0,30.0,0,0,0,0.0
Status,1732152977000,26,21,6,4,1575420030,0.00,305.0,25.0,0,0,0,0.0
Status,1732152977000,26,22,6,15,1575420030,0.00,55.0,23.0,0,0,0,0.0
Status,1732152977000,26,23,6,29,1575420030,0.00,190.0,19.0,0,0,0,0.0
Status,1732152977000,26,24,6,26,1575420030,0.00,165.0,12.0,0,0,0,0.0
Status,1732152977000,26,25,6,6,1575420030,0.00,324.0,8.0,0,0,0,0.0
Fix,GPS,37.4252366667,-122.1584300000,25.2,0.0,5.0,0.0,1732152978000,1.4,174.8,31862092000000,100.0,0,,,
Raw,1732152978000,38020000000,,704884.5709287323,-1416188157980000000,0.0,160.109124239719,1103.6042644760428,0.0,0,12,0.0,17,240547,797,17.417999267578125,-215.1243489688275,0.14999,16,0.0,0.0,1575420030,,,,0,1.1952217976605324,1,6.0,17.417999267578125,0.0,0.0,0.0,66.7128,C,31862092000000,
Raw,1732152978000,38020000000,,704884.5709287323,-1416188157980000000,0.0,160.109124239719,1103.6042644760428,0.0,0,13,0.0,16431,351395927355433,797,22.360000610351562,800.732731761079,0.14999,16,0.0,0.0,1575420030,,,,0,6.145908079088647,1,6.0,22.360000610351562,0.0,0.0,0.0,66.7128,C,31862092000000,
Raw,1732152978000,38020000000,,704884.5709287323,-1416188157980000000,0.0,160.109124239719,1103.6042644760428,0.0,0,30,0.0,16431,351395924021980,396,24.746000289916992,911.0727710967614,0.14999,16,0.0,0.0,1575420030,,,,0,9.67857030420079,1,6.0,24.746000289916992,0.0,0.0,0.0,66.7128,C,31862092000000,
Raw,1732152978000,38020000000,,704884.5709287323,-1416188157980000000,0.0,160.109124239719,1103.6042644760428,0.0,0,6,0.0,16431,351395920935981,235,27.072999954223633,-321.87412835817565,0.14999,16,0.0,0.0,1575420030,,,,0,12.869254126345867,1,6.0,27.072999954223633,0.0,0.0,0.0,66.7128,C,31862092000000,
Raw,1732152978000,38020000000,,704884.5709287323,-1416188157980000000,0.0,160.109124239719,1103.6042644760428,0.0,0,15,0.0,16431,351395924046964,487,18.339000701904297,617.3229883262944,0.14999,16,0.0,0.0,1575420030,,,,0,0.0,1,6.0,18.339000701904297,0.0,0.0,0.0,66.7128,C,31862092000000,
Raw,1732152978000,38020000000,,704884.5709287323,-1416188157980000000,0.0,160.109124239719,1103.6042644760428,0.0,0,8,0.0,17,331130,58,5.0,979.7196971126574,0.14999,16,0.0,0.0,1605374980,,,,0,20.482225451638072,3,6.0,33.0,0.0,0.0,93.01675863580519,66.7128,C,31862092000000,
Raw,1732152978000,38020000000,,704884.5709287323,-1416188157980000000,0.0,160.109124239719,1103.6042644760428,0.0,0,24,0.0,16431,351395923043012,797,16.038000106811523,-268.042343369279,0.14999,16,0.0,0.0,1575420030,,,,0,0.0,1,6.0,16.038000106811523,0.0,0.0,0.0,66.7128,C,31862092000000,
Fix,FLP,37.4252106000,-122.1584526000,2.7208864238252395,0.3843737,5.242,0.000000003134144,1732152978244,1.4,174.8,31862092000000,11.6158,0,,,
Fix,FLP,37.4252215000,-122.1584441000,2.7208864238252395,0.30666536,5.185,0.0000000023115763,1732152978662,1.4,174.8,31862509000000,11.581944,0,,,
Fix,NLP,37.4256844000,-122.1581254000,-0.4000000059604645,,77.6,,1732152978661,,,31862509000000,29.18487,0,,,
Status,1732152978000,26,0,1,17,1575420030,0.00,57.0,73.0,0,0,0,0.0
Status,1732152978000,26,1,1,19,1575420030,0.00,203.0,70.0,0,0,0,0.0
Status,1732152978000,26,2,1,22,1575420030,0.00,30.0,63.0,0,0,0,0.0
Status,1732152978000,26,3,1,14,1575420030,0.00,61.0,47.0,0,0,0,0.0
Status,1732152978000,26,4,2,138,1575420030,0.00,156.0,43.0,0,0,0,0.0
Status,1732152978000,26,5,1,13,1575420030,27.40,226.0,41.0,1,0,0,22.4
Status,1732152978000,26,6,1,30,1575420030,29.80,136.0,29.0,1,0,0,24.8
Status,1732152978000,26,7,1,15,1575420030,23.40,266.0,28.0,1,0,0,18.4
Status,1732152978000,26,8,1,24,1575420030,21.10,313.0,24.0,1,0,0,16.1
Status,1732152978000,26,9,1,6,1575420030,29.30,158.0,19.0,1,0,0,24.3
Status,1732152978000,26,10,1,2,1575420030,0.00,42.0,13.0,0,0,0,0.0
Status,1732152978000,26,11,1,12,1575420030,22.50,272.0,4.0,0,0,0,17.5
Status,1732152978000,26,12,3,20,1602000000,0.00,97.0,58.0,0,0,0,0.0
Status,1732152978000,26,13,3,11,1602000000,0.00,318.0,34.0,0,0,0,0.0
Status,1732152978000,26,14,3,9,1602000000,0.00,90.0,28.0,0,0,0,0.0
Status,1732152978000,26,15,3,8,1602000000,34.20,240.0,16.0,1,0,0,29.2
Status,1732152978000,26,16,3,19,1602000000,0.00,28.0,16.0,0,0,0,0.0
Status,1732152978000,26,17,6,21,1575420030,0.00,0.0,67.0,0,0,0,0.0
Status,1732152978000,26,18,6,19,1575420030,0.00,236.0,41.0,0,0,0,0.0
Status,1732152978000,26,19,6,13,1575420030,0.00,114.0,34.0,0,0,0,0.0
Status,1732152978000,26,20,6,27,1575420030,0.00,70.0,30.0,0,0,0,0.0
Status,1732152978000,26,21,6,4,1575420030,0.00,305.0,25.0,0,0,0,0.0
Status,1732152978000,26,22,6,15,1575420030,0.00,55.0,23.0,0,0,0,0.0
Status,1732152978000,26,23,6,29,1575420030,0.00,190.0,19.0,0,0,0,0.0
Status,1732152978000,26,24,6,26,1575420030,0.00,165.0,12.0,0,0,0,0.0
Status,1732152978000,26,25,6,6,1575420030,0.00,324.0,8.0,0,0,0,0.0
Fix,GPS,37.4252666667,-122.1584083333,25.2,0.0,4.9,0.0,1732152979000,1.4,128.4,31863092000000,100.0,0,,,
Raw,1732152979000,39020000000,,704797.8442639807,-1416188157980000000,0.0,160.77681485126578,1103.3143234326462,0.0,0,12,0.0,17,241265,797,17.514999389648438,-215.0926643289719,0.14999,16,0.0,0.0,1575420030,,,,0,1.1952217976605324,1,6.0,17.514999389648438,0.0,0.0,0.0,66.7128,C,31863092000000,
Raw,1732152979000,39020000000,,704797.8442639807,-1416188157980000000,0.0,160.77681485126578,1103.3143234326462,0.0,0,13,0.0,16431,351396927352762,797,22.360000610351562,800.7282717531227,0.14999,16,0.0,0.0,1575420030,,,,0,6.145908079088647,1,6.0,22.360000610351562,0.0,0.0,0.0,66.7128,C,31863092000000,
Raw,1732152979000,39020000000,,704797.8442639807,-1416188157980000000,0.0,160.77681485126578,1103.3143234326462,0.0,0,30,0.0,16431,351396924018951,316,24.791000366210938,910.9248474995469,0.14999,16,0.0,0.0,1575420030,,,,0,10.927302672156205,1,6.0,24.791000366210938,0.0,0.0,0.0,66.7128,C,31863092000000,
Raw,1732152979000,39020000000,,704797.8442639807,-1416188157980000000,0.0,160.77681485126578,1103.3143234326462,0.0,0,6,0.0,16431,351396920937057,396,24.283000946044922,-322.486543200663,0.14999,16,0.0,0.0,1575420030,,,,0,9.00316104409806,1,6.0,24.283000946044922,0.0,0.0,0.0,66.7128,C,31863092000000,
Raw,1732152979000,39020000000,,704797.8442639807,-1416188157980000000,0.0,160.77681485126578,1103.3143234326462,0.0,0,15,0.0,16431,351396924044949,487,18.405000686645508,617.2948345260708,0.14999,16,0.0,0.0,1575420030,,,,0,1.6436253382061734,1,6.0,18.405000686645508,0.0,0.0,0.0,66.7128,C,31863092000000,
Raw,1732152979000,39020000000,,704797.8442639807,-1416188157980000000,0.0,160.77681485126578,1103.3143234326462,0.0,0,8,0.0,17,327867,235,5.0,980.076587685529,0.14999,16,0.0,0.0,1605374980,,,,0,16.119345352999666,3,6.0,29.0,0.0,0.0,92.1363633235969,66.7128,C,31863092000000,
Raw,1732152979000,39020000000,,704797.8442639807,-1416188157980000000,0.0,160.77681485126578,1103.3143234326462,0.0,0,24,0.0,16431,351396923043878,797,16.121000289916992,-268.6862105595409,0.14999,16,0.0,0.0,1575420030,,,,0,0.0,1,6.0,16.121000289916992,0.0,0.0,0.0,66.7128,C,31863092000000,
Fix,FLP,37.4252400000,-122.1584308000,2.804357294575995,0.3091112,5.114,0.0000000019799336,1732152979244,1.4,128.4,31863092000000,11.796784,0,,,
Status,1732152979000,26,0,1,17,1575420030,0.00,57.0,73.0,0,0,0,0.0
Status,1732152979000,26,1,1,19,1575420030,0.00,203.0,70.0,0,0,0,0.0
Status,1732152979000,26,2,1,22,1575420030,0.00,30.0,63.0,0,0,0,0.0
Status,1732152979000,26,3,1,14,1575420030,0.00,61.0,47.0,0,0,0,0.0
Status,1732152979000,26,4,2,138,1575420030,0.00,156.0,43.0,0,0,0,0.0
Status,1732152979000,26,5,1,13,1575420030,21.90,226.0,41.0,1,0,0,16.9
Status,1732152979000,26,6,1,30,1575420030,29.80,136.0,29.0,1,0,0,24.8
Status,1732152979000,26,7,1,15,1575420030,23.50,266.0,28.0,1,0,0,18.5
Status,1732152979000,26,8,1,24,1575420030,21.20,313.0,24.0,1,0,0,16.2
Status,1732152979000,26,9,1,6,1575420030,31.40,158.0,19.0,1,0,0,26.4
Status,1732152979000,26,10,1,2,1575420030,0.00,42.0,13.0,0,0,0,0.0
Status,1732152979000,26,11,1,12,1575420030,19.60,272.0,4.0,0,0,0,14.6
Status,1732152979000,26,12,3,20,1602000000,0.00,97.0,58.0,0,0,0,0.0
Status,1732152979000,26,13,3,11,1602000000,0.00,318.0,34.0,0,0,0,0.0
Status,1732152979000,26,14,3,9,1602000000,0.00,90.0,28.0,0,0,0,0.0
Status,1732152979000,26,15,3,8,1602000000,35.90,240.0,16.0,1,0,0,30.900002
Status,1732152979000,26,16,3,19,1602000000,0.00,28.0,16.0,0,0,0,0.0
Status,1732152979000,26,17,6,21,1575420030,0.00,0.0,67.0,0,0,0,0.0
Status,1732152979000,26,18,6,19,1575420030,0.00,236.0,41.0,0,0,0,0.0
Status,1732152979000,26,19,6,13,1575420030,0.00,114.0,34.0,0,0,0,0.0
Status,1732152979000,26,20,6,27,1575420030,0.00,70.0,30.0,0,0,0,0.0
Status,1732152979000,26,21,6,4,1575420030,0.00,305.0,25.0,0,0,0,0.0
Status,1732152979000,26,22,6,15,1575420030,0.00,55.0,23.0,0,0,0,0.0
Status,1732152979000,26,23,6,29,1575420030,0.00,190.0,19.0,0,0,0,0.0
Status,1732152979000,26,24,6,26,1575420030,0.00,165.0,12.0,0,0,0,0.0
Status,1732152979000,26,25,6,6,1575420030,0.00,324.0,8.0,0,0,0,0.0
Fix,GPS,37.4252950000,-122.1583850000,25.2,0.0,4.8,0.0,1732152980000,1.4,103.4,31864092000000,100.0,0,,,
Raw,1732152980000,40020000000,,704699.3386171176,-1416188157980000000,0.0,162.18389840881838,1102.8663048659564,0.0,0,12,0.0,17,241999,487,14.600000381469727,-217.1747911682796,0.14999,16,0.0,0.0,1575420030,,,,0,0.0,1,6.0,14.600000381469727,0.0,0.0,0.0,66.7128,C,31864092000000,
Raw,1732152980000,40020000000,,704699.3386171176,-1416188157980000000,0.0,162.18389840881838,1102.8663048659564,0.0,0,13,0.0,16431,351397927350093,797,16.94300079345703,800.3950719920607,0.14999,16,0.0,0.0,1575420030,,,,0,0.0,1,6.0,16.94300079345703,0.0,0.0,0.0,66.7128,C,31864092000000,
Raw,1732152980000,40020000000,,704699.3386171176,-1416188157980000000,0.0,162.18389840881838,1102.8663048659564,0.0,0,30,0.0,16431,351397924015911,316,24.801000595092773,910.4044203211565,0.14999,16,0.0,0.0,1575420030,,,,0,10.018403951272294,1,6.0,24.801000595092773,0.0,0.0,0.0,66.7128,C,31864092000000,
Raw,1732152980000,40020000000,,704699.3386171176,-1416188157980000000,0.0,162.18389840881838,1102.8663048659564,0.0,0,6,0.0,16431,351397920938131,316,26.415000915527344,-321.9365684695626,0.14999,16,0.0,0.0,1575420030,,,,0,11.98571662914263,1,6.0,26.415000915527344,0.0,0.0,0.0,66.7128,C,31864092000000,
Raw,1732152980000,40020000000,,704699.3386171176,-1416188157980000000,0.0,162.18389840881838,1102.8663048659564,0.0,0,15,0.0,16431,351397924042894,487,18.492000579833984,617.9676453096318,0.14999,16,0.0,0.0,1575420030,,,,0,2.5751481790332758,1,6.0,18.492000579833984,0.0,0.0,0.0,66.7128,C,31864092000000,
Raw,1732152980000,40020000000,,704699.3386171176,-1416188157980000000,0.0,162.18389840881838,1102.8663048659564,0.0,0,8,0.0,17,324595,74,5.0,979.8639487443087,0.14999,16,0.0,0.0,1605374980,,,,0,17.982307312685972,3,6.0,31.0,0.0,0.0,91.48712044191845,66.7128,C,31864092000000,
Raw,1732152980000,40020000000,,704699.3386171176,-1416188157980000000,0.0,162.18389840881838,1102.8663048659564,0.0,0,24,0.0,16431,351397923044786,797,16.18000030517578,-268.8971317691367,0.14999,16,0.0,0.0,1575420030,,,,0,0.0,1,6.0,16.18000030517578,0.0,0.0,0.0,66.7128,C,31864092000000,
Fix,FLP,37.4252663000,-122.1584114000,2.8878289895544103,0.33753958,5.042,0.000000000744148,1732152980244,1.4,103.4,31864092000000,11.912527,0,,,
Status,1732152980000,26,0,1,17,1575420030,0.00,57.0,73.0,0,0,0,0.0
Status,1732152980000,26,1,1,19,1575420030,0.00,203.0,70.0,0,0,0,0.0
Status,1732152980000,26,2,1,22,1575420030,0.00,30.0,63.0,0,0,0,0.0
Status,1732152980000,26,3,1,14,1575420030,0.00,61.0,47.0,0,0,0,0.0
Status,1732152980000,26,4,2,138,1575420030,0.00,156.0,43.0,0,0,0,0.0
Status,1732152980000,26,5,1,13,1575420030,23.30,226.0,41.0,1,0,0,18.3
Status,1732152980000,26,6,1,30,1575420030,29.70,136.0,29.0,1,0,0,24.7
Status,1732152980000,26,7,1,15,1575420030,26.30,266.0,28.0,1,0,0,21.3
Status,1732152980000,26,8,1,24,1575420030,21.20,313.0,24.0,1,0,0,16.2
Status,1732152980000,26,9,1,6,1575420030,31.90,158.0,19.0,1,0,0,26.9
Status,1732152980000,26,10,1,2,1575420030,23.30,42.0,13.0,1,0,0,18.3
Status,1732152980000,26,11,1,12,1575420030,19.60,272.0,4.0,0,0,0,14.6
Status,1732152980000,26,12,3,20,1602000000,0.00,97.0,58.0,0,0,0,0.0
Status,1732152980000,26,13,3,11,1602000000,0.00,318.0,34.0,0,0,0,0.0
Status,1732152980000,26,14,3,9,1602000000,0.00,90.0,28.0,0,0,0,0.0
Status,1732152980000,26,15,3,8,1602000000,36.10,240.0,16.0,1,0,0,31.099998
Status,1732152980000,26,16,3,19,1602000000,0.00,28.0,16.0,0,0,0,0.0
Status,1732152980000,26,17,6,21,1575420030,0.00,0.0,67.0,0,0,0,0.0
Status,1732152980000,26,18,6,19,1575420030,0.00,236.0,41.0,0,0,0,0.0
Status,1732152980000,26,19,6,13,1575420030,0.00,114.0,34.0,0,0,0,0.0
Status,1732152980000,26,20,6,27,1575420030,0.00,70.0,30.0,0,0,0,0.0
Status,1732152980000,26,21,6,4,1575420030,0.00,305.0,25.0,0,0,0,0.0
Status,1732152980000,26,22,6,15,1575420030,0.00,55.0,23.0,0,0,0,0.0
Status,1732152980000,26,23,6,29,1575420030,0.00,190.0,19.0,0,0,0,0.0
Status,1732152980000,26,24,6,26,1575420030,0.00,165.0,12.0,0,0,0,0.0
Status,1732152980000,26,25,6,6,1575420030,0.00,324.0,8.0,0,0,0,0.0
Fix,GPS,37.4253133333,-122.1583750000,25.2,0.0,4.8,0.0,1732152981000,1.4,110.2,31865092000000,100.0,0,,,
Raw,1732152981000,41020000000,,704620.2213832878,-1416188157980000000,0.0,161.0737910329762,1104.1799566150971,0.0,0,12,0.0,17,242723,797,14.600000381469727,-216.534733568147,0.14999,16,0.0,0.0,1575420030,,,,0,0.0,1,6.0,14.600000381469727,0.0,0.0,0.0,66.7128,C,31865092000000,
Raw,1732152981000,41020000000,,704620.2213832878,-1416188157980000000,0.0,161.0737910329762,1104.1799566150971,0.0,0,13,0.0,16431,351398927347417,487,18.31999969482422,800.2517942364675,0.14999,16,0.0,0.0,1575420030,,,,0,0.0,1,6.0,18.31999969482422,0.0,0.0,0.0,66.7128,C,31865092000000,
Raw,1732152981000,41020000000,,704620.2213832878,-1416188157980000000,0.0,161.0737910329762,1104.1799566150971,0.0,0,30,0.0,16431,351398924012866,396,24.722000122070312,912.2712124013284,0.14999,16,0.0,0.0,1575420030,,,,0,7.470890632333893,1,6.0,24.722000122070312,0.0,0.0,0.0,66.7128,C,31865092000000,
Raw,1732152981000,41020000000,,704620.2213832878,-1416188157980000000,0.0,161.0737910329762,1104.1799566150971,0.0,0,6,0.0,16431,351398920939207,396,26.902999877929688,-321.6138683105642,0.14999,16,0.0,0.0,1575420030,,,,0,12.625850748824067,1,6.0,26.902999877929688,0.0,0.0,0.0,66.7128,C,31865092000000,
Raw,1732152981000,41020000000,,704620.2213832878,-1416188157980000000,0.0,161.0737910329762,1104.1799566150971,0.0,0,15,0.0,16431,351398924040798,487,21.326000213623047,618.1341058149142,0.14999,16,0.0,0.0,1575420030,,,,0,4.5035283254993566,1,6.0,21.326000213623047,0.0,0.0,0.0,66.7128,C,31865092000000,
Raw,1732152981000,41020000000,,704620.2213832878,-1416188157980000000,0.0,161.0737910329762,1104.1799566150971,0.0,0,8,0.0,17,321332,74,5.0,979.7390279254956,0.14999,16,0.0,0.0,1605374980,,,,0,18.25249673784035,3,6.0,31.0,0.0,0.0,90.2414218976019,66.7128,C,31865092000000,
Raw,1732152981000,41020000000,,704620.2213832878,-1416188157980000000,0.0,161.0737910329762,1104.1799566150971,0.0,0,2,0.0,16431,351398917323000,797,18.31999969482422,764.2346747771666,0.14999,16,0.0,0.0,1575420030,,,,0,0.0,1,6.0,18.31999969482422,0.0,0.0,0.0,66.7128,C,31865092000000,
Raw,1732152981000,41020000000,,704620.2213832878,-1416188157980000000,0.0,161.0737910329762,1104.1799566150971,0.0,0,24,0.0,16431,351398923045689,797,16.236000061035156,-272.2987705456561,0.14999,16,0.0,0.0,1575420030,,,,0,0.0,1,6.0,16.236000061035156,0.0,0.0,0.0,66.7128,C,31865092000000,
Fix,FLP,37.4252900000,-122.1583953000,2.9535061875688347,0.33208856,4.971,0.00000000042960388,1732152981244,1.4,110.2,31865092000000,11.592998,0,,,
Status,1732152981000,26,0,1,17,1575420030,0.00,57.0,73.0,0,0,0,0.0
Status,1732152981000,26,1,1,19,1575420030,0.00,203.0,70.0,0,0,0,0.0
Status,1732152981000,26,2,1,22,1575420030,0.00,30.0,63.0,0,0,0,0.0
Status,1732152981000,26,3,1,14,1575420030,0.00,61.0,47.0,0,0,0,0.0
Status,1732152981000,26,4,2,138,1575420030,0.00,156.0,43.0,0,0,0,0.0
Status,1732152981000,26,5,1,13,1575420030,23.40,226.0,41.0,1,0,0,18.4
Status,1732152981000,26,6,1,30,1575420030,29.60,136.0,29.0,1,0,0,24.6
Status,1732152981000,26,7,1,15,1575420030,25.00,266.0,28.0,1,0,0,20.0
Status,1732152981000,26,8,1,24,1575420030,21.30,313.0,24.0,1,0,0,16.3
Status,1732152981000,26,9,1,6,1575420030,31.20,158.0,19.0,1,0,0,26.2
Status,1732152981000,26,10,1,2,1575420030,18.40,42.0,13.0,1,0,0,13.4
Status,1732152981000,26,11,1,12,1575420030,22.50,272.0,4.0,0,0,0,17.5
Status,1732152981000,26,12,3,20,1602000000,0.00,97.0,58.0,0,0,0,0.0
Status,1732152981000,26,13,3,11,1602000000,0.00,318.0,34.0,0,0,0,0.0
Status,1732152981000,26,14,3,9,1602000000,0.00,90.0,28.0,0,0,0,0.0
Status,1732152981000,26,15,3,8,1602000000,31.60,240.0,16.0,1,0,0,26.6
Status,1732152981000,26,16,3,19,1602000000,0.00,28.0,16.0,0,0,0,0.0
Status,1732152981000,26,17,6,21,1575420030,0.00,0.0,67.0,0,0,0,0.0
Status,1732152981000,26,18,6,19,1575420030,0.00,236.0,41.0,0,0,0,0.0
Status,1732152981000,26,19,6,13,1575420030,0.00,114.0,34.0,0,0,0,0.0
Status,1732152981000,26,20,6,27,1575420030,0.00,70.0,30.0,0,0,0,0.0
Status,1732152981000,26,21,6,4,1575420030,0.00,305.0,25.0,0,0,0,0.0
Status,1732152981000,26,22,6,15,1575420030,0.00,55.0,23.0,0,0,0,0.0
Status,1732152981000,26,23,6,29,1575420030,0.00,190.0,19.0,0,0,0,0.0
Status,1732152981000,26,24,6,26,1575420030,0.00,165.0,12.0,0,0,0,0.0
Status,1732152981000,26,25,6,6,1575420030,0.00,324.0,9.0,0,0,0,0.0
Fix,GPS,37.4253250000,-122.1583650000,25.2,0.0,4.7,0.0,1732152982000,2.4,179.9,31866092000000,100.0,0,,,
Raw,1732152982000,42020000000,,704572.4800221625,-1416188157980000000,0.0,163.4029780636857,1106.2556039815147,0.0,0,12,0.0,17,243423,797,17.465999603271484,-210.63497929357075,0.14999,16,0.0,0.0,1575420030,,,,0,0.0,1,6.0,17.465999603271484,0.0,0.0,0.0,66.7128,C,31866092000000,
Raw,1732152982000,42020000000,,704572.4800221625,-1416188157980000000,0.0,163.4029780636857,1106.2556039815147,0.0,0,13,0.0,16431,351399927344749,487,18.398000717163086,801.0912049005594,0.14999,16,0.0,0.0,1575420030,,,,0,2.0700122747488092,1,6.0,18.398000717163086,0.0,0.0,0.0,66.7128,C,31866092000000,
Raw,1732152982000,42020000000,,704572.4800221625,-1416188157980000000,0.0,163.4029780636857,1106.2556039815147,0.0,0,30,0.0,16431,351399924009826,487,24.64299964904785,912.0426369935725,0.14999,16,0.0,0.0,1575420030,,,,0,7.358450361340873,1,6.0,24.64299964904785,0.0,0.0,0.0,66.7128,C,31866092000000,
Raw,1732152982000,42020000000,,704572.4800221625,-1416188157980000000,0.0,163.4029780636857,1106.2556039815147,0.0,0,6,0.0,16431,351399920940274,316,26.207000732421875,-321.4947953898166,0.14999,16,0.0,0.0,1575420030,,,,0,11.715842038463862,1,6.0,26.207000732421875,0.0,0.0,0.0,66.7128,C,31866092000000,
Raw,1732152982000,42020000000,,704572.4800221625,-1416188157980000000,0.0,163.4029780636857,1106.2556039815147,0.0,0,15,0.0,16431,351399924038757,487,19.996000289916992,618.338615763073,0.14999,16,0.0,0.0,1575420030,,,,0,2.2756050596402195,1,6.0,19.996000289916992,0.0,0.0,0.0,66.7128,C,31866092000000,
Raw,1732152982000,42020000000,,704572.4800221625,-1416188157980000000,0.0,163.4029780636857,1106.2556039815147,0.0,0,8,0.0,17,318060,235,5.0,979.6294258640261,0.14999,16,0.0,0.0,1605374980,,,,0,13.056122083905253,3,6.0,27.0,0.0,0.0,89.2407756650612,66.7128,C,31866092000000,
Raw,1732152982000,42020000000,,704572.4800221625,-1416188157980000000,0.0,163.4029780636857,1106.2556039815147,0.0,0,2,0.0,16431,351399917320395,1797,13.399999618530273,764.3524933206766,0.14999,16,0.0,0.0,1575420030,,,,0,0.0,1,6.0,13.399999618530273,0.0,0.0,0.0,66.7128,C,31866092000000,
Raw,1732152982000,42020000000,,704572.4800221625,-1416188157980000000,0.0,163.4029780636857,1106.2556039815147,0.0,0,24,0.0,16431,351399923046586,797,16.288999557495117,-266.52728795823714,0.14999,16,0.0,0.0,1575420030,,,,0,0.0,1,6.0,16.288999557495117,0.0,0.0,0.0,66.7128,C,31866092000000,
Fix,FLP,37.4253084000,-122.1583818000,2.9535061875688347,0.41352135,4.9,0.0000000008626173,1732152982244,2.4,179.9,31866092000000,11.3634815,0,,,
Status,1732152982000,26,0,1,17,1575420030,0.00,57.0,73.0,0,0,0,0.0
Status,1732152982000,26,1,1,19,1575420030,0.00,203.0,70.0,0,0,0,0.0
Status,1732152982000,26,2,1,22,1575420030,0.00,30.0,63.0,0,0,0,0.0
Status,1732152982000,26,3,1,14,1575420030,0.00,61.0,47.0,0,0,0,0.0
Status,1732152982000,26,4,2,138,1575420030,0.00,156.0,43.0,0,0,0,0.0
Status,1732152982000,26,5,1,13,1575420030,27.40,226.0,41.0,1,0,0,22.4
Status,1732152982000,26,6,1,30,1575420030,34.80,136.0,29.0,1,0,0,29.8
Status,1732152982000,26,7,1,15,1575420030,29.70,266.0,28.0,1,0,0,24.7
Status,1732152982000,26,8,1,24,1575420030,21.20,313.0,24.0,1,0,0,16.2
Status,1732152982000,26,9,1,6,1575420030,37.60,158.0,19.0,1,0,0,32.6
Status,1732152982000,26,10,1,2,1575420030,18.40,42.0,13.0,1,0,0,13.4
Status,1732152982000,26,11,1,12,1575420030,22.50,272.0,4.0,0,0,0,17.5
Status,1732152982000,26,12,3,20,1602000000,0.00,97.0,58.0,0,0,0,0.0
Status,1732152982000,26,13,3,11,1602000000,0.00,318.0,34.0,0,0,0,0.0
Status,1732152982000,26,14,3,9,1602000000,23.80,90.0,28.0,1,0,0,18.8
Status,1732152982000,26,15,3,8,1602000000,32.00,240.0,16.0,1,0,0,27.0
Status,1732152982000,26,16,3,19,1602000000,0.00,28.0,16.0,0,0,0,0.0
Status,1732152982000,26,17,6,21,1575420030,0.00,0.0,67.0,0,0,0,0.0
Status,1732152982000,26,18,6,19,1575420030,0.00,236.0,41.0,0,0,0,0.0
Status,1732152982000,26,19,6,13,1575420030,0.00,114.0,34.0,0,0,0,0.0
Status,1732152982000,26,20,6,27,1575420030,0.00,70.0,30.0,0,0,0,0.0
Status,1732152982000,26,21,6,4,1575420030,0.00,305.0,25.0,0,0,0,0.0
Status,1732152982000,26,22,6,15,1575420030,0.00,55.0,23.0,0,0,0,0.0
Status,1732152982000,26,23,6,29,1575420030,0.00,190.0,19.0,0,0,0,0.0
Status,1732152982000,26,24,6,26,1575420030,0.00,165.0,12.0,0,0,0,0.0
Status,1732152982000,26,25,6,6,1575420030,0.00,324.0,9.0,0,0,0,0.0
Fix,GPS,37.4253266667,-122.1583533333,25.2,0.0,4.7,0.0,1732152983000,2.4,118.2,31867092000000,100.0,0,,,
Raw,1732152983000,43020000000,,704512.386365637,-1416188157980000000,0.0,162.6859547190959,1106.4773835484482,0.0,0,12,0.0,17,244133,487,17.465999603271484,-216.95611140317658,0.14999,16,0.0,0.0,1575420030,,,,0,0.0,1,6.0,17.465999603271484,0.0,0.0,0.0,66.7128,C,31867092000000,
Raw,1732152983000,43020000000,,704512.386365637,-1416188157980000000,0.0,162.6859547190959,1106.4773835484482,0.0,0,13,0.0,16431,351400927342106,487,22.434999465942383,801.7966294923003,0.14999,16,0.0,0.0,1575420030,,,,0,6.275068669285258,1,6.0,22.434999465942383,0.0,0.0,0.0,66.7128,C,31867092000000,
Raw,1732152983000,43020000000,,704512.386365637,-1416188157980000000,0.0,162.6859547190959,1106.4773835484482,0.0,0,30,0.0,16431,351400924006798,74,29.847999572753906,911.8079290748768,0.14999,16,0.0,0.0,1575420030,,,,0,16.35600500109343,1,6.0,29.847999572753906,0.0,0.0,0.0,66.7128,C,31867092000000,
Raw,1732152983000,43020000000,,704512.386365637,-1416188157980000000,0.0,162.6859547190959,1106.4773835484482,0.0,0,6,0.0,16431,351400920941343,58,32.638999938964844,-321.2213876104176,0.14999,16,0.0,0.0,1575420030,,,,0,19.671215149465972,1,6.0,32.638999938964844,0.0,0.0,0.0,66.7128,C,31867092000000,
Raw,1732152983000,43020000000,,704512.386365637,-1416188157980000000,0.0,162.6859547190959,1106.4773835484482,0.0,0,15,0.0,16431,351400924036633,316,24.660999298095703,618.4786878879478,0.14999,16,0.0,0.0,1575420030,,,,0,9.547624764326347,1,6.0,24.660999298095703,0.0,0.0,0.0,66.7128,C,31867092000000,
Raw,1732152983000,43020000000,,704512.386365637,-1416188157980000000,0.0,162.6859547190959,1106.4773835484482,0.0,0,9,0.0,17,406793,487,5.0,747.573353532287,0.14999,16,0.0,0.0,1600875010,,,,0,2.253545645527899,3,6.0,18.0,0.0,0.0,87.8683414987477,66.7128,C,31867092000000,
Raw,1732152983000,43020000000,,704512.386365637,-1416188157980000000,0.0,162.6859547190959,1106.4773835484482,0.0,0,8,0.0,17,314793,235,5.0,979.67483503758,0.14999,16,0.0,0.0,1605374980,,,,0,13.572732625851257,3,6.0,27.0,0.0,0.0,87.8683414987477,66.7128,C,31867092000000,
Raw,1732152983000,43020000000,,704512.386365637,-1416188157980000000,0.0,162.6859547190959,1106.4773835484482,0.0,0,2,0.0,16431,351400917317851,797,13.399999618530273,762.8858011209098,0.14999,16,0.0,0.0,1575420030,,,,0,0.0,1,6.0,13.399999618530273,0.0,0.0,0.0,66.7128,C,31867092000000,
Raw,1732152983000,43020000000,,704512.386365637,-1416188157980000000,0.0,162.6859547190959,1106.4773835484482,0.0,0,24,0.0,16431,351400923047458,797,16.208999633789062,-264.56284028719074,0.14999,16,0.0,0.0,1575420030,,,,0,0.0,1,6.0,16.208999633789062,0.0,0.0,0.0,66.7128,C,31867092000000,
Fix,FLP,37.4253191000,-122.1583690000,2.8878289895544103,0.40315408,4.842,0.000000000953454,1732152983244,2.4,118.2,31867092000000,10.085925,0,,,
Fix,FLP,37.4253233000,-122.1583628000,3.036978706792118,0.34107962,4.766,0.00000000029205124,1732152983842,2.4,118.2,31867690000000,10.904102,0,,,
Fix,NLP,37.4256911000,-122.1580871000,5.400000095367432,,56.1,,1732152983843,,,31867690000000,33.711113,0,,,
Status,1732152983000,26,0,1,17,1575420030,0.00,57.0,73.0,0,0,0,0.0
Status,1732152983000,26,1,1,19,1575420030,0.00,203.0,70.0,0,0,0,0.0
Status,1732152983000,26,2,1,22,1575420030,0.00,30.0,63.0,0,0,0,0.0
Status,1732152983000,26,3,1,14,1575420030,0.00,61.0,47.0,0,0,0,0.0
Status,1732152983000,26,4,2,138,1575420030,0.00,156.0,43.0,0,0,0,0.0
Status,1732152983000,26,5,1,13,1575420030,27.30,226.0,41.0,1,0,0,22.3
Status,1732152983000,26,6,1,30,1575420030,30.70,136.0,29.0,1,0,0,25.7
Status,1732152983000,26,7,1,15,1575420030,30.10,266.0,28.0,1,0,0,25.1
Status,1732152983000,26,8,1,24,1575420030,21.10,313.0,24.0,1,0,0,16.1
Status,1732152983000,26,9,1,6,1575420030,33.80,158.0,19.0,1,0,0,28.8
Status,1732152983000,26,10,1,2,1575420030,0.00,42.0,13.0,0,0,0,0.0
Status,1732152983000,26,11,1,12,1575420030,22.40,272.0,4.0,0,0,0,17.4
Status,1732152983000,26,12,3,20,1602000000,0.00,97.0,58.0,0,0,0,0.0
Status,1732152983000,26,13,3,11,1602000000,0.00,318.0,34.0,0,0,0,0.0
Status,1732152983000,26,14,3,9,1602000000,28.60,90.0,28.0,1,0,0,23.6
Status,1732152983000,26,15,3,8,1602000000,29.50,240.0,16.0,1,0,0,24.5
Status,1732152983000,26,16,3,19,1602000000,0.00,28.0,16.0,0,0,0,0.0
Status,1732152983000,26,17,6,21,1575420030,0.00,0.0,67.0,0,0,0,0.0
Status,1732152983000,26,18,6,19,1575420030,0.00,236.0,41.0,0,0,0,0.0
Status,1732152983000,26,19,6,13,1575420030,0.00,114.0,34.0,0,0,0,0.0
Status,1732152983000,26,20,6,27,1575420030,0.00,70.0,30.0,0,0,0,0.0
Status,1732152983000,26,21,6,4,1575420030,0.00,305.0,25.0,0,0,0,0.0
Status,1732152983000,26,22,6,15,1575420030,0.00,55.0,23.0,0,0,0,0.0
Status,1732152983000,26,23,6,29,1575420030,0.00,190.0,19.0,0,0,0,0.0
Status,1732152983000,26,24,6,26,1575420030,0.00,165.0,12.0,0,0,0,0.0
Status,1732152983000,26,25,6,6,1575420030,0.00,324.0,9.0,0,0,0,0.0
Fix,GPS,37.4253483333,-122.1583250000,25.2,0.0,4.5,0.0,1732152984000,2.7,179.9,31868092000000,100.0,0,,,
Raw,1732152984000,44020000000,,704470.8472119068,-1416188157980000000,0.0,163.19355889411588,1105.488117780556,0.0,0,12,0.0,17,244848,487,17.447999954223633,-216.4535707150272,0.14999,16,0.0,0.0,1575420030,,,,0,0.0,1,6.0,17.447999954223633,0.0,0.0,0.0,66.7128,C,31868092000000,
Raw,1732152984000,44020000000,,704470.8472119068,-1416188157980000000,0.0,163.19355889411588,1105.488117780556,0.0,0,13,0.0,16431,351401927339422,487,22.339000701904297,800.5840648292052,0.14999,16,0.0,0.0,1575420030,,,,0,3.1449189352620266,1,6.0,22.339000701904297,0.0,0.0,0.0,66.7128,C,31868092000000,
Raw,1732152984000,44020000000,,704470.8472119068,-1416188157980000000,0.0,163.19355889411588,1105.488117780556,0.0,0,30,0.0,16431,351401924003758,316,25.749000549316406,911.6704121628936,0.14999,16,0.0,0.0,1575420030,,,,0,11.076100994375066,1,6.0,25.749000549316406,0.0,0.0,0.0,66.7128,C,31868092000000,
Raw,1732152984000,44020000000,,704470.8472119068,-1416188157980000000,0.0,163.19355889411588,1105.488117780556,0.0,0,6,0.0,16431,351401920942411,235,28.819000244140625,-321.0013605512445,0.14999,16,0.0,0.0,1575420030,,,,0,15.08209488810512,1,6.0,28.819000244140625,0.0,0.0,0.0,66.7128,C,31868092000000,
Raw,1732152984000,44020000000,,704470.8472119068,-1416188157980000000,0.0,163.19355889411588,1105.488117780556,0.0,0,15,0.0,16431,351401924034562,487,25.101999282836914,618.9163726270672,0.14999,16,0.0,0.0,1575420030,,,,0,10.183461452803375,1,6.0,25.101999282836914,0.0,0.0,0.0,66.7128,C,31868092000000,
Raw,1732152984000,44020000000,,704470.8472119068,-1416188157980000000,0.0,163.19355889411588,1105.488117780556,0.0,0,9,0.0,17,404394,316,5.0,747.864359396263,0.14999,16,0.0,0.0,1600875010,,,,0,9.321091180014019,3,6.0,24.0,0.0,0.0,79.51025927242475,66.7128,C,31868092000000,
Raw,1732152984000,44020000000,,704470.8472119068,-1416188157980000000,0.0,163.19355889411588,1105.488117780556,0.0,0,8,0.0,17,311525,396,5.0,980.2048822782808,0.14999,16,0.0,0.0,1605374980,,,,0,10.419150591075027,3,6.0,23.0,0.0,0.0,79.51025927242475,66.7128,C,31868092000000,
Raw,1732152984000,44020000000,,704470.8472119068,-1416188157980000000,0.0,163.19355889411588,1105.488117780556,0.0,0,24,0.0,16431,351401923048338,797,16.132999420166016,-263.27385152942935,0.14999,16,0.0,0.0,1575420030,,,,0,0.0,1,6.0,16.132999420166016,0.0,0.0,0.0,66.7128,C,31868092000000,
Fix,FLP,37.4253336000,-122.1583494000,3.036978706792118,0.41775844,4.728,0.0000000014267714,1732152984244,2.7,179.9,31868092000000,11.047892,0,,,
Status,1732152984000,26,0,1,17,1575420030,0.00,57.0,73.0,0,0,0,0.0
Status,1732152984000,26,1,1,19,1575420030,0.00,203.0,70.0,0,0,0,0.0
Status,1732152984000,26,2,1,22,1575420030,0.00,30.0,63.0,0,0,0,0.0
Status,1732152984000,26,3,1,14,1575420030,19.70,61.0,47.0,1,0,0,14.700001
Status,1732152984000,26,4,2,138,1575420030,0.00,156.0,43.0,0,0,0,0.0
Status,1732152984000,26,5,1,13,1575420030,27.20,226.0,41.0,1,0,0,22.2
Status,1732152984000,26,6,1,30,1575420030,31.30,136.0,29.0,1,0,0,26.3
Status,1732152984000,26,7,1,15,1575420030,30.10,266.0,28.0,1,0,0,25.1
Status,1732152984000,26,8,1,24,1575420030,21.10,313.0,24.0,1,0,0,16.1
Status,1732152984000,26,9,1,6,1575420030,31.40,158.0,19.0,1,0,0,26.4
Status,1732152984000,26,10,1,2,1575420030,0.00,42.0,13.0,0,0,0,0.0
Status,1732152984000,26,11,1,12,1575420030,26.60,272.0,4.0,0,0,0,21.6
Status,1732152984000,26,12,3,20,1602000000,0.00,97.0,58.0,0,0,0,0.0
Status,1732152984000,26,13,3,11,1602000000,0.00,318.0,34.0,0,0,0,0.0
Status,1732152984000,26,14,3,9,1602000000,24.10,90.0,28.0,1,0,0,19.1
Status,1732152984000,26,15,3,8,1602000000,28.50,240.0,16.0,1,0,0,23.5
Status,1732152984000,26,16,3,19,1602000000,0.00,28.0,16.0,0,0,0,0.0
Status,1732152984000,26,17,6,21,1575420030,0.00,0.0,67.0,0,0,0,0.0
Status,1732152984000,26,18,6,19,1575420030,0.00,236.0,41.0,0,0,0,0.0
Status,1732152984000,26,19,6,13,1575420030,0.00,114.0,34.0,0,0,0,0.0
Status,1732152984000,26,20,6,27,1575420030,0.00,70.0,30.0,0,0,0,0.0
Status,1732152984000,26,21,6,4,1575420030,0.00,305.0,25.0,0,0,0,0.0
Status,1732152984000,26,22,6,15,1575420030,0.00,55.0,23.0,0,0,0,0.0
Status,1732152984000,26,23,6,29,1575420030,0.00,190.0,19.0,0,0,0,0.0
Status,1732152984000,26,24,6,26,1575420030,0.00,165.0,12.0,0,0,0,0.0
Status,1732152984000,26,25,6,6,1575420030,0.00,324.0,9.0,0,0,0,0.0
Fix,GPS,37.4253300000,-122.1583316667,25.2,0.0,4.5,0.0,1732152985000,2.8,167.5,31869092000000,86.8,0,,,
Raw,1732152985000,45020000000,,704446.5595762252,-1416188157980000000,0.0,149.43162231971257,1105.3956207219323,0.0,0,12,0.0,17,245596,396,21.6299991607666,-215.63999093034826,0.14999,16,0.0,0.0,1575420030,,,,0,4.962801272317523,1,6.0,21.6299991607666,0.0,0.0,0.0,66.7128,C,31869092000000,
Raw,1732152985000,45020000000,,704446.5595762252,-1416188157980000000,0.0,149.43162231971257,1105.3956207219323,0.0,0,13,0.0,16431,351402927336748,487,22.246999740600586,800.976359695687,0.14999,16,0.0,0.0,1575420030,,,,0,3.1449189352620266,1,6.0,22.246999740600586,0.0,0.0,0.0,66.7128,C,31869092000000,
Raw,1732152985000,45020000000,,704446.5595762252,-1416188157980000000,0.0,149.43162231971257,1105.3956207219323,0.0,0,30,0.0,16431,351402924000712,487,26.322999954223633,912.2136039652273,0.14999,16,0.0,0.0,1575420030,,,,0,11.851827432620965,1,6.0,26.322999954223633,0.0,0.0,0.0,66.7128,C,31869092000000,
Raw,1732152985000,45020000000,,704446.5595762252,-1416188157980000000,0.0,149.43162231971257,1105.3956207219323,0.0,0,6,0.0,16431,351402920943480,316,26.368999481201172,-321.46668804800925,0.14999,16,0.0,0.0,1575420030,,,,0,11.9190300087663,1,6.0,26.368999481201172,0.0,0.0,0.0,66.7128,C,31869092000000,
Raw,1732152985000,45020000000,,704446.5595762252,-1416188157980000000,0.0,149.43162231971257,1105.3956207219323,0.0,0,15,0.0,16431,351402924032496,797,25.101999282836914,619.9217792122795,0.14999,16,0.0,0.0,1575420030,,,,0,10.183461452803375,1,6.0,25.101999282836914,0.0,0.0,0.0,66.7128,C,31869092000000,
Raw,1732152985000,45020000000,,704446.5595762252,-1416188157980000000,0.0,149.43162231971257,1105.3956207219323,0.0,0,9,0.0,17,401827,487,5.0,747.7340125434436,0.14999,16,0.0,0.0,1600875010,,,,0,2.809632445183877,3,6.0,20.0,0.0,0.0,80.1481497906095,66.7128,C,31869092000000,
Raw,1732152985000,45020000000,,704446.5595762252,-1416188157980000000,0.0,149.43162231971257,1105.3956207219323,0.0,0,8,0.0,17,308249,396,5.0,980.1403246580475,0.14999,16,0.0,0.0,1605374980,,,,0,9.15094275913663,3,6.0,23.0,0.0,0.0,80.1481497906095,66.7128,C,31869092000000,
Raw,1732152985000,45020000000,,704446.5595762252,-1416188157980000000,0.0,149.43162231971257,1105.3956207219323,0.0,0,14,0.0,16431,351402928877596,797,14.699999809265137,631.5020040369183,0.14999,16,0.0,0.0,1575420030,,,,0,0.0,1,6.0,14.699999809265137,0.0,0.0,0.0,66.7128,C,31869092000000,
Raw,1732152985000,45020000000,,704446.5595762252,-1416188157980000000,0.0,149.43162231971257,1105.3956207219323,0.0,0,24,0.0,16431,351402923049218,797,16.12299919128418,-267.4409391714336,0.14999,16,0.0,0.0,1575420030,,,,0,0.0,1,6.0,16.12299919128418,0.0,0.0,0.0,66.7128,C,31869092000000,
Fix,FLP,37.4253334000,-122.1583420000,3.2905184514788828,0.27719608,4.671,0.0000000018237555,1732152985244,2.8,167.5,31869092000000,12.338636,0,,,
Status,1732152985000,26,0,1,17,1575420030,0.00,57.0,73.0,0,0,0,0.0
Status,1732152985000,26,1,1,19,1575420030,0.00,203.0,70.0,0,0,0,0.0
Status,1732152985000,26,2,1,22,1575420030,0.00,30.0,63.0,0,0,0,0.0
Status,1732152985000,26,3,1,14,1575420030,19.70,61.0,47.0,1,0,0,14.700001
Status,1732152985000,26,4,2,138,1575420030,0.00,156.0,43.0,0,0,0,0.0
Status,1732152985000,26,5,1,13,1575420030,27.20,226.0,41.0,1,0,0,22.2
Status,1732152985000,26,6,1,30,1575420030,25.50,136.0,29.0,1,0,0,20.5
Status,1732152985000,26,7,1,15,1575420030,22.50,266.0,28.0,1,0,0,17.5
Status,1732152985000,26,8,1,24,1575420030,21.10,313.0,24.0,1,0,0,16.1
Status,1732152985000,26,9,1,6,1575420030,34.60,158.0,19.0,1,0,0,29.599998
Status,1732152985000,26,10,1,2,1575420030,18.10,42.0,13.0,1,0,0,13.1
Status,1732152985000,26,11,1,12,1575420030,26.70,272.0,4.0,0,0,0,21.7
Status,1732152985000,26,12,3,20,1602000000,0.00,97.0,58.0,0,0,0,0.0
Status,1732152985000,26,13,3,11,1602000000,0.00,318.0,34.0,0,0,0,0.0
Status,1732152985000,26,14,3,9,1602000000,20.90,90.0,28.0,1,0,0,15.9
Status,1732152985000,26,15,3,8,1602000000,27.80,240.0,16.0,1,0,0,22.8
Status,1732152985000,26,16,3,19,1602000000,0.00,28.0,16.0,0,0,0,0.0
Status,1732152985000,26,17,6,21,1575420030,0.00,0.0,67.0,0,0,0,0.0
Status,1732152985000,26,18,6,19,1575420030,0.00,236.0,41.0,0,0,0,0.0
Status,1732152985000,26,19,6,13,1575420030,0.00,114.0,34.0,0,0,0,0.0
Status,1732152985000,26,20,6,27,1575420030,0.00,70.0,30.0,0,0,0,0.0
Status,1732152985000,26,21,6,4,1575420030,0.00,305.0,25.0,0,0,0,0.0
Status,1732152985000,26,22,6,15,1575420030,0.00,55.0,23.0,0,0,0,0.0
Status,1732152985000,26,23,6,29,1575420030,0.00,190.0,19.0,0,0,0,0.0
Status,1732152985000,26,24,6,26,1575420030,0.00,165.0,12.0,0,0,0,0.0
Status,1732152985000,26,25,6,6,1575420030,0.00,324.0,9.0,0,0,0,0.0
Fix,GPS,37.4253166667,-122.1583383333,25.2,0.0,4.4,0.0,1732152986000,2.8,179.9,31870092000000,87.7,0,,,
Raw,1732152986000,46020000000,,704382.7654430186,-1416188157980000000,0.0,150.9394708793203,1104.3215025789139,0.0,0,12,0.0,17,246295,396,21.679000854492188,-214.69553778720422,0.14999,16,0.0,0.0,1575420030,,,,0,6.527766917269094,1,6.0,21.679000854492188,0.0,0.0,0.0,66.7128,C,31870092000000,
Raw,1732152986000,46020000000,,704382.7654430186,-1416188157980000000,0.0,150.9394708793203,1104.3215025789139,0.0,0,13,0.0,16431,351403927334077,487,22.15999984741211,800.5048996879825,0.14999,16,0.0,0.0,1575420030,,,,0,3.1449189352620266,1,6.0,22.15999984741211,0.0,0.0,0.0,66.7128,C,31870092000000,
Raw,1732152986000,46020000000,,704382.7654430186,-1416188157980000000,0.0,150.9394708793203,1104.3215025789139,0.0,0,30,0.0,16431,351403923997672,797,20.51799964904785,912.5215303478707,0.14999,16,0.0,0.0,1575420030,,,,0,3.1449189352620266,1,6.0,20.51799964904785,0.0,0.0,0.0,66.7128,C,31870092000000,
Raw,1732152986000,46020000000,,704382.7654430186,-1416188157980000000,0.0,150.9394708793203,1104.3215025789139,0.0,0,6,0.0,16431,351403920944554,235,29.55500030517578,-321.87268814727315,0.14999,16,0.0,0.0,1575420030,,,,0,16.007703327479362,1,6.0,29.55500030517578,0.0,0.0,0.0,66.7128,C,31870092000000,
Raw,1732152986000,46020000000,,704382.7654430186,-1416188157980000000,0.0,150.9394708793203,1104.3215025789139,0.0,0,15,0.0,16431,351403924030423,797,17.465999603271484,617.1143900375091,0.14999,16,0.0,0.0,1575420030,,,,0,0.0,1,6.0,17.465999603271484,0.0,0.0,0.0,66.7128,C,31870092000000,
Raw,1732152986000,46020000000,,704382.7654430186,-1416188157980000000,0.0,150.9394708793203,1104.3215025789139,0.0,0,9,0.0,17,399364,797,5.0,747.6027055770116,0.14999,16,0.0,0.0,1600875010,,,,0,0.0,3,6.0,17.0,0.0,0.0,79.16734735134403,66.7128,C,31870092000000,
Raw,1732152986000,46020000000,,704382.7654430186,-1416188157980000000,0.0,150.9394708793203,1104.3215025789139,0.0,0,8,0.0,17,304982,396,5.0,979.0588021529809,0.14999,16,0.0,0.0,1605374980,,,,0,8.273640021477226,3,6.0,23.0,0.0,0.0,79.16734735134403,66.7128,C,31870092000000,
Raw,1732152986000,46020000000,,704382.7654430186,-1416188157980000000,0.0,150.9394708793203,1104.3215025789139,0.0,0,2,0.0,16431,351403917310401,1797,13.100000381469727,763.7964789954688,0.14999,16,0.0,0.0,1575420030,,,,0,0.0,1,6.0,13.100000381469727,0.0,0.0,0.0,66.7128,C,31870092000000,
Raw,1732152986000,46020000000,,704382.7654430186,-1416188157980000000,0.0,150.9394708793203,1104.3215025789139,0.0,0,14,0.0,16431,351403928875491,797,14.699999809265137,630.8137226007591,0.14999,16,0.0,0.0,1575420030,,,,0,0.0,1,6.0,14.699999809265137,0.0,0.0,0.0,66.7128,C,31870092000000,
Raw,1732152986000,46020000000,,704382.7654430186,-1416188157980000000,0.0,150.9394708793203,1104.3215025789139,0.0,0,24,0.0,16431,351403923050116,1797,16.113000869750977,-270.0977566192657,0.14999,16,0.0,0.0,1575420030,,,,0,0.0,1,6.0,16.113000869750977,0.0,0.0,0.0,66.7128,C,31870092000000,
Fix,FLP,37.4253256000,-122.1583404000,3.3190284692268937,0.051058613,4.614,,1732152986244,2.8,,31870092000000,11.221994,0,,,
Status,1732152986000,26,0,1,17,1575420030,0.00,57.0,73.0,0,0,0,0.0
Status,1732152986000,26,1,1,19,1575420030,0.00,203.0,70.0,0,0,0,0.0
Status,1732152986000,26,2,1,22,1575420030,0.00,30.0,63.0,0,0,0,0.0
Status,1732152986000,26,3,1,14,1575420030,19.70,61.0,47.0,1,0,0,14.700001
Status,1732152986000,26,4,1,13,1575420030,27.10,226.0,41.0,1,0,0,22.1
Status,1732152986000,26,5,1,30,1575420030,25.50,136.0,29.0,1,0,0,20.5
Status,1732152986000,26,6,1,15,1575420030,22.50,266.0,28.0,1,0,0,17.5
Status,1732152986000,26,7,1,24,1575420030,21.10,313.0,24.0,1,0,0,16.1
Status,1732152986000,26,8,2,131,1575420030,0.00,3.0,23.0,0,0,0,0.0
Status,1732152986000,26,9,1,6,1575420030,35.50,158.0,19.0,1,0,0,30.5
Status,1732152986000,26,10,1,2,1575420030,18.10,42.0,13.0,1,0,0,13.1
Status,1732152986000,26,11,1,12,1575420030,26.70,272.0,4.0,0,0,0,21.7
Status,1732152986000,26,12,3,20,1602000000,0.00,97.0,58.0,0,0,0,0.0
Status,1732152986000,26,13,3,11,1602000000,0.00,318.0,34.0,0,0,0,0.0
Status,1732152986000,26,14,3,9,1602000000,25.30,90.0,28.0,1,0,0,20.3
Status,1732152986000,26,15,3,8,1602000000,26.30,240.0,16.0,1,0,0,21.3
Status,1732152986000,26,16,3,19,1602000000,0.00,28.0,16.0,0,0,0,0.0
Status,1732152986000,26,17,6,21,1575420030,0.00,0.0,67.0,0,0,0,0.0
Status,1732152986000,26,18,6,19,1575420030,0.00,236.0,41.0,0,0,0,0.0
Status,1732152986000,26,19,6,13,1575420030,0.00,114.0,34.0,0,0,0,0.0
Status,1732152986000,26,20,6,27,1575420030,0.00,70.0,30.0,0,0,0,0.0
Status,1732152986000,26,21,6,4,1575420030,0.00,305.0,25.0,0,0,0,0.0
Status,1732152986000,26,22,6,15,1575420030,0.00,55.0,23.0,0,0,0,0.0
Status,1732152986000,26,23,6,29,1575420030,0.00,190.0,19.0,0,0,0,0.0
Status,1732152986000,26,24,6,26,1575420030,0.00,165.0,12.0,0,0,0,0.0
Status,1732152986000,26,25,6,6,1575420030,0.00,324.0,9.0,0,0,0,0.0
Fix,GPS,37.4253050000,-122.1583450000,25.2,0.0,4.3,0.0,1732152987000,2.4,179.9,31871092000000,83.4,0,,,
Raw,1732152987000,47020000000,,704275.1389029273,-1416188157980000000,0.0,146.64695050385777,1103.4244579028957,0.0,0,12,0.0,17,247020,487,21.69700050354004,-214.20600545559378,0.14999,16,0.0,0.0,1575420030,,,,0,5.609157281417906,1,6.0,21.69700050354004,0.0,0.0,0.0,66.7128,C,31871092000000,
Raw,1732152987000,47020000000,,704275.1389029273,-1416188157980000000,0.0,146.64695050385777,1103.4244579028957,0.0,0,13,0.0,16431,351404927331417,487,22.066999435424805,800.2125833331858,0.14999,16,0.0,0.0,1575420030,,,,0,2.7692543491808337,1,6.0,22.066999435424805,0.0,0.0,0.0,66.7128,C,31871092000000,
Raw,1732152987000,47020000000,,704275.1389029273,-1416188157980000000,0.0,146.64695050385777,1103.4244579028957,0.0,0,30,0.0,16431,351404923994635,1797,20.51799964904785,907.952066363067,0.14999,16,0.0,0.0,1575420030,,,,0,3.1449189352620266,1,6.0,20.51799964904785,0.0,0.0,0.0,66.7128,C,31871092000000,
Raw,1732152987000,47020000000,,704275.1389029273,-1416188157980000000,0.0,146.64695050385777,1103.4244579028957,0.0,0,6,0.0,16431,351404920945628,74,30.48900032043457,-321.45047406075173,0.14999,16,0.0,0.0,1575420030,,,,0,17.14268243186261,1,6.0,30.48900032043457,0.0,0.0,0.0,66.7128,C,31871092000000,
Raw,1732152987000,47020000000,,704275.1389029273,-1416188157980000000,0.0,146.64695050385777,1103.4244579028957,0.0,0,15,0.0,16431,351404924028362,487,17.465999603271484,616.8778702405812,0.14999,16,0.0,0.0,1575420030,,,,0,0.0,1,6.0,17.465999603271484,0.0,0.0,0.0,66.7128,C,31871092000000,
Raw,1732152987000,47020000000,,704275.1389029273,-1416188157980000000,0.0,146.64695050385777,1103.4244579028957,0.0,0,9,0.0,17,396898,396,5.0,748.0849569286565,0.14999,16,0.0,0.0,1600875010,,,,0,4.625780725607928,3,6.0,22.0,0.0,0.0,74.33952565337157,66.7128,C,31871092000000,
Raw,1732152987000,47020000000,,704275.1389029273,-1416188157980000000,0.0,146.64695050385777,1103.4244579028957,0.0,0,8,0.0,17,301713,487,5.0,981.1825472558817,0.14999,16,0.0,0.0,1605374980,,,,0,6.197985200418026,3,6.0,20.0,0.0,0.0,74.33952565337157,66.7128,C,31871092000000,
Raw,1732152987000,47020000000,,704275.1389029273,-1416188157980000000,0.0,146.64695050385777,1103.4244579028957,0.0,0,2,0.0,16431,351404917307853,797,13.100000381469727,763.8543661820671,0.14999,16,0.0,0.0,1575420030,,,,0,0.0,1,6.0,13.100000381469727,0.0,0.0,0.0,66.7128,C,31871092000000,
Raw,1732152987000,47020000000,,704275.1389029273,-1416188157980000000,0.0,146.64695050385777,1103.4244579028957,0.0,0,14,0.0,16431,351404928873424,797,14.699999809265137,631.5150123934573,0.14999,16,0.0,0.0,1575420030,,,,0,0.0,1,6.0,14.699999809265137,0.0,0.0,0.0,66.7128,C,31871092000000,
Raw,1732152987000,47020000000,,704275.1389029273,-1416188157980000000,0.0,146.64695050385777,1103.4244579028957,0.0,0,24,0.0,16431,351404923051017,1797,16.104000091552734,-270.05914967539474,0.14999,16,0.0,0.0,1575420030,,,,0,0.0,1,6.0,16.104000091552734,0.0,0.0,0.0,66.7128,C,31871092000000,
Fix,FLP,37.4253149000,-122.1583424000,3.3093554382689123,0.14136614,4.542,180.0,1732152987244,2.4,179.9,31871092000000,12.064332,0,,,
Status,1732152987000,26,0,1,17,1575420030,0.00,57.0,73.0,0,0,0,0.0
Status,1732152987000,26,1,1,19,1575420030,0.00,203.0,70.0,0,0,0,0.0
Status,1732152987000,26,2,1,22,1575420030,0.00,30.0,63.0,0,0,0,0.0
Status,1732152987000,26,3,1,14,1575420030,22.60,61.0,47.0,1,0,0,17.6
Status,1732152987000,26,4,1,13,1575420030,27.10,226.0,41.0,1,0,0,22.1
Status,1732152987000,26,5,1,30,1575420030,27.40,136.0,29.0,1,0,0,22.4
Status,1732152987000,26,6,1,15,1575420030,24.20,266.0,28.0,1,0,0,19.2
Status,1732152987000,26,7,1,24,1575420030,17.10,313.0,24.0,1,0,0,12.1
Status,1732152987000,26,8,2,131,1575420030,0.00,3.0,23.0,0,0,0,0.0
Status,1732152987000,26,9,1,6,1575420030,33.40,158.0,19.0,1,0,0,28.400002
Status,1732152987000,26,10,1,2,1575420030,0.00,42.0,13.0,0,0,0,0.0
Status,1732152987000,26,11,1,12,1575420030,26.70,272.0,4.0,0,0,0,21.7
Status,1732152987000,26,12,3,20,1602000000,0.00,97.0,58.0,0,0,0,0.0
Status,1732152987000,26,13,3,11,1602000000,0.00,318.0,34.0,0,0,0,0.0
Status,1732152987000,26,14,3,9,1602000000,29.00,90.0,28.0,1,0,0,24.0
Status,1732152987000,26,15,3,8,1602000000,26.30,240.0,16.0,1,0,0,21.3
Status,1732152987000,26,16,3,19,1602000000,0.00,28.0,16.0,0,0,0,0.0
Status,1732152987000,26,17,6,21,1575420030,0.00,0.0,67.0,0,0,0,0.0
Status,1732152987000,26,18,6,19,1575420030,0.00,236.0,41.0,0,0,0,0.0
Status,1732152987000,26,19,6,13,1575420030,0.00,114.0,34.0,0,0,0,0.0
Status,1732152987000,26,20,6,27,1575420030,0.00,70.0,30.0,0,0,0,0.0
Status,1732152987000,26,21,6,4,1575420030,0.00,305.0,25.0,0,0,0,0.0
Status,1732152987000,26,22,6,15,1575420030,0.00,55.0,23.0,0,0,0,0.0
Status,1732152987000,26,23,6,29,1575420030,0.00,190.0,19.0,0,0,0,0.0
Status,1732152987000,26,24,6,26,1575420030,0.00,165.0,12.0,0,0,0,0.0
Status,1732152987000,26,25,6,6,1575420030,0.00,324.0,9.0,0,0,0,0.0
Fix,GPS,37.4252916667,-122.1583450000,25.2,0.0,4.2,0.0,1732152988000,2.6,179.9,31872092000000,84.0,0,,,
Raw,1732152988000,48020000000,,704253.7178336888,-1416188157980000000,0.0,147.0263048423184,1103.370512983553,0.0,0,12,0.0,17,247745,487,21.687000274658203,-216.06452793768014,0.14999,16,0.0,0.0,1575420030,,,,0,4.7361999956595975,1,6.0,21.687000274658203,0.0,0.0,0.0,66.7128,C,31872092000000,
Raw,1732152988000,48020000000,,704253.7178336888,-1416188157980000000,0.0,147.0263048423184,1103.370512983553,0.0,0,13,0.0,16431,351405927328741,487,22.145000457763672,800.744439281964,0.14999,16,0.0,0.0,1575420030,,,,0,8.064567521923541,1,6.0,22.145000457763672,0.0,0.0,0.0,66.7128,C,31872092000000,
Raw,1732152988000,48020000000,,704253.7178336888,-1416188157980000000,0.0,147.0263048423184,1103.370512983553,0.0,0,30,0.0,16431,351405923991600,396,22.434999465942383,912.4412502046589,0.14999,16,0.0,0.0,1575420030,,,,0,6.275068669285258,1,6.0,22.434999465942383,0.0,0.0,0.0,66.7128,C,31872092000000,
Raw,1732152988000,48020000000,,704253.7178336888,-1416188157980000000,0.0,147.0263048423184,1103.370512983553,0.0,0,6,0.0,16431,351405920946697,235,28.39699935913086,-321.74311562446195,0.14999,16,0.0,0.0,1575420030,,,,0,14.554789352193623,1,6.0,28.39699935913086,0.0,0.0,0.0,66.7128,C,31872092000000,
Raw,1732152988000,48020000000,,704253.7178336888,-1416188157980000000,0.0,147.0263048423184,1103.370512983553,0.0,0,15,0.0,16431,351405924026265,487,19.24799919128418,618.6977857787966,0.14999,16,0.0,0.0,1575420030,,,,0,0.9620295467606645,1,6.0,19.24799919128418,0.0,0.0,0.0,66.7128,C,31872092000000,
Raw,1732152988000,48020000000,,704253.7178336888,-1416188157980000000,0.0,147.0263048423184,1103.370512983553,0.0,0,9,0.0,17,394365,316,5.0,748.2372949551716,0.14999,16,0.0,0.0,1600875010,,,,0,9.860760973725888,3,6.0,25.0,0.0,0.0,69.61026644690085,66.7128,C,31872092000000,
Raw,1732152988000,48020000000,,704253.7178336888,-1416188157980000000,0.0,147.0263048423184,1103.370512983553,0.0,0,8,0.0,17,298444,487,5.0,980.3346358003034,0.14999,16,0.0,0.0,1605374980,,,,0,5.1815931570383675,3,6.0,20.0,0.0,0.0,69.61026644690085,66.7128,C,31872092000000,
Raw,1732152988000,48020000000,,704253.7178336888,-1416188157980000000,0.0,147.0263048423184,1103.370512983553,0.0,0,14,0.0,16431,351405928871342,797,17.632999420166016,631.5967327475715,0.14999,16,0.0,0.0,1575420030,,,,0,0.0,1,6.0,17.632999420166016,0.0,0.0,0.0,66.7128,C,31872092000000,
Raw,1732152988000,48020000000,,704253.7178336888,-1416188157980000000,0.0,147.0263048423184,1103.370512983553,0.0,0,24,0.0,16431,351405923051923,797,12.100000381469727,-272.9983413769544,0.14999,16,0.0,0.0,1575420030,,,,0,0.0,1,6.0,12.100000381469727,0.0,0.0,0.0,66.7128,C,31872092000000,
Fix,FLP,37.4253021000,-122.1583436000,3.225882919045629,0.2939376,4.471,180.0,1732152988244,2.6,179.9,31872092000000,12.138552,0,,,
Fix,FLP,37.4252972000,-122.1583441000,3.225882919045629,0.29503885,4.4,180.0,1732152988704,2.6,179.9,31872552000000,12.440729,0,,,
Fix,NLP,37.4257033000,-122.1580971000,5.400000095367432,,20.559,,1732152988704,,,31872552000000,20.85408,0,,,
Status,1732152988000,26,0,1,17,1575420030,0.00,57.0,73.0,0,0,0,0.0
Status,1732152988000,26,1,1,19,1575420030,0.00,203.0,70.0,0,0,0,0.0
Status,1732152988000,26,2,1,22,1575420030,0.00,30.0,63.0,0,0,0,0.0
Status,1732152988000,26,3,1,14,1575420030,22.60,61.0,47.0,1,0,0,17.6
Status,1732152988000,26,4,1,13,1575420030,27.10,226.0,41.0,1,0,0,22.1
Status,1732152988000,26,5,1,30,1575420030,33.10,136.0,29.0,1,0,0,28.099998
Status,1732152988000,26,6,1,15,1575420030,24.30,266.0,28.0,1,0,0,19.3
Status,1732152988000,26,7,1,24,1575420030,17.10,313.0,24.0,1,0,0,12.1
Status,1732152988000,26,8,2,131,1575420030,0.00,3.0,23.0,0,0,0,0.0
Status,1732152988000,26,9,1,6,1575420030,33.90,158.0,19.0,1,0,0,28.900002
Status,1732152988000,26,10,1,2,1575420030,0.00,42.0,13.0,0,0,0,0.0
Status,1732152988000,26,11,1,12,1575420030,25.30,272.0,4.0,0,0,0,20.3
Status,1732152988000,26,12,3,20,1602000000,0.00,97.0,58.0,0,0,0,0.0
Status,1732152988000,26,13,3,11,1602000000,0.00,318.0,34.0,0,0,0,0.0
Status,1732152988000,26,14,3,9,1602000000,29.00,90.0,28.0,1,0,0,24.0
Status,1732152988000,26,15,3,8,1602000000,30.70,240.0,16.0,1,0,0,25.7
Status,1732152988000,26,16,3,19,1602000000,0.00,28.0,16.0,0,0,0,0.0
Status,1732152988000,26,17,6,21,1575420030,0.00,0.0,67.0,0,0,0,0.0
Status,1732152988000,26,18,6,19,1575420030,0.00,236.0,41.0,0,0,0,0.0
Status,1732152988000,26,19,6,13,1575420030,0.00,114.0,34.0,0,0,0,0.0
Status,1732152988000,26,20,6,27,1575420030,0.00,70.0,30.0,0,0,0,0.0
Status,1732152988000,26,21,6,4,1575420030,0.00,305.0,25.0,0,0,0,0.0
Status,1732152988000,26,22,6,15,1575420030,0.00,55.0,23.0,0,0,0,0.0
Status,1732152988000,26,23,6,29,1575420030,0.00,190.0,19.0,0,0,0,0.0
Status,1732152988000,26,24,6,26,1575420030,0.00,165.0,12.0,0,0,0,0.0
Status,1732152988000,26,25,6,6,1575420030,0.00,324.0,9.0,0,0,0,0.0
Fix,GPS,37.4252750000,-122.1583466667,25.2,0.0,4.2,0.0,1732152989000,2.8,139.8,31873092000000,82.6,0,,,
Raw,1732152989000,49020000000,,704186.4838207504,-1416188157980000000,0.0,145.02355111918845,1101.855941719381,0.0,0,12,0.0,17,248467,487,20.31800079345703,-217.3472448092531,0.14999,16,0.0,0.0,1575420030,,,,0,2.7692543491808337,1,6.0,20.31800079345703,0.0,0.0,0.0,66.7128,C,31873092000000,
Raw,1732152989000,49020000000,,704186.4838207504,-1416188157980000000,0.0,145.02355111918845,1101.855941719381,0.0,0,13,0.0,16431,351406927326057,396,22.14699935913086,799.3474347065131,0.14999,16,0.0,0.0,1575420030,,,,0,5.88167813342218,1,6.0,22.14699935913086,0.0,0.0,0.0,66.7128,C,31873092000000,
Raw,1732152989000,49020000000,,704186.4838207504,-1416188157980000000,0.0,145.02355111918845,1101.855941719381,0.0,0,30,0.0,16431,351406923988561,235,28.121999740600586,911.0960003048666,0.14999,16,0.0,0.0,1575420030,,,,0,14.201758308417642,1,6.0,28.121999740600586,0.0,0.0,0.0,66.7128,C,31873092000000,
Raw,1732152989000,49020000000,,704186.4838207504,-1416188157980000000,0.0,145.02355111918845,1101.855941719381,0.0,0,6,0.0,16431,351406920947767,316,28.886999130249023,-322.5192963840914,0.14999,16,0.0,0.0,1575420030,,,,0,15.174621884380908,1,6.0,28.886999130249023,0.0,0.0,0.0,66.7128,C,31873092000000,
Raw,1732152989000,49020000000,,704186.4838207504,-1416188157980000000,0.0,145.02355111918845,1101.855941719381,0.0,0,15,0.0,16431,351406924024243,487,19.31399917602539,616.6716877894388,0.14999,16,0.0,0.0,1575420030,,,,0,3.236350196751694,1,6.0,19.31399917602539,0.0,0.0,0.0,66.7128,C,31873092000000,
