# 
# Header Description:
# 
# Version: v3.1.0.3 Platform: 13 Manufacturer: samsung Model: SM-S135DL GNSS Hardware Model Name: MediaTek,MT6631,MTK_MNLD_default,MNL_VER_default
# 
# Raw,utcTimeMillis,TimeNanos,LeapSecond,TimeUncertaintyNanos,FullBiasNanos,BiasNanos,BiasUncertaintyNanos,DriftNanosPerSecond,DriftUncertaintyNanosPerSecond,HardwareClockDiscontinuityCount,Svid,TimeOffsetNanos,State,ReceivedSvTimeNanos,ReceivedSvTimeUncertaintyNanos,Cn0DbHz,PseudorangeRateMetersPerSecond,PseudorangeRateUncertaintyMetersPerSecond,AccumulatedDeltaRangeState,AccumulatedDeltaRangeMeters,AccumulatedDeltaRangeUncertaintyMeters,CarrierFrequencyHz,CarrierCycles,CarrierPhase,CarrierPhaseUncertainty,MultipathIndicator,SnrInDb,ConstellationType,AgcDb,BasebandCn0DbHz,FullInterSignalBiasNanos,FullInterSignalBiasUncertaintyNanos,SatelliteInterSignalBiasNanos,SatelliteInterSignalBiasUncertaintyNanos,CodeType,ChipsetElapsedRealtimeNanos,IsFullTracking
# 
# UncalAccel,utcTimeMillis,elapsedRealtimeNanos,UncalAccelXMps2,UncalAccelYMps2,UncalAccelZMps2,BiasXMps2,BiasYMps2,BiasZMps2
# 
# Accel,utcTimeMillis,elapsedRealtimeNanos,AccelXMps2,AccelYMps2,AccelZMps2
# 
# UncalGyro,utcTimeMillis,elapsedRealtimeNanos,UncalGyroXRadPerSec,UncalGyroYRadPerSec,UncalGyroZRadPerSec,DriftXRadPerSec,DriftYRadPerSec,DriftZRadPerSec
# 
# Gyro,utcTimeMillis,elapsedRealtimeNanos,GyroXRadPerSec,GyroYRadPerSec,GyroZRadPerSec
# 
# UncalMag,utcTimeMillis,elapsedRealtimeNanos,UncalMagXMicroT,UncalMagYMicroT,UncalMagZMicroT,BiasXMicroT,BiasYMicroT,BiasZMicroT
# 
# Mag,utcTimeMillis,elapsedRealtimeNanos,MagXMicroT,MagYMicroT,MagZMicroT
# 
# Pressure,utcTimeMillis,elapsedRealtimeNanos,PressureHpa
# 
# OrientationDeg,utcTimeMillis,elapsedRealtimeNanos,yawDeg,rollDeg,pitchDeg
# 
# Fix,Provider,LatitudeDegrees,LongitudeDegrees,AltitudeMeters,SpeedMps,AccuracyMeters,BearingDegrees,UnixTimeMillis,SpeedAccuracyMps,BearingAccuracyDegrees,elapsedRealtimeNanos,VerticalAccuracyMeters,MockLocation,NumberOfUsedSignals,VerticalSpeedAccuracyMps,SolutionType
# 
# Nav,Svid,Type,Status,MessageId,Sub-messageId,Data(Bytes)
# 
# Status,UnixTimeMillis,SignalCount,SignalIndex,ConstellationType,Svid,CarrierFrequencyHz,Cn0DbHz,AzimuthDegrees,ElevationDegrees,UsedInFix,HasAlmanacData,HasEphemerisData,BasebandCn0DbHz
# 
# Agc,utcTimeMillis,TimeNanos,LeapSecond,TimeUncertaintyNanos,FullBiasNanos,BiasNanos,BiasUncertaintyNanos,DriftNanosPerSecond,DriftUncertaintyNanosPerSecond,HardwareClockDiscontinuityCount,AgcDb,CarrierFrequencyHz,ConstellationType
# 
Fix,FLP,37.4253578000,-122.1584737000,5.400000095367432,0.011021214,7.879,,1732152035244,2.2,,30919091000000,18.228607,0,,,
Status,,26,0,1,17,1575420030,0.00,79.0,78.0,0,0,0,0.0
Status,,26,1,1,22,1575420030,0.00,16.0,66.0,0,0,0,0.0
Status,,26,2,1,19,1575420030,0.00,200.0,62.0,0,0,0,0.0
Status,,26,3,1,14,1575420030,0.00,54.0,52.0,0,0,0,0.0
Status,,26,4,1,13,1575420030,25.20,233.0,47.0,1,0,0,20.2
Status,,26,5,1,30,1575420030,24.40,132.0,36.0,1,0,0,19.4
Status,,26,6,1,15,1575420030,22.60,274.0,30.0,1,0,0,17.6
Status,,26,7,1,2,1575420030,19.70,47.0,17.0,1,0,0,14.700001
Status,,26,8,1,24,1575420030,0.00,313.0,17.0,0,0,0,0.0
Status,,26,9,1,6,1575420030,19.80,161.0,13.0,1,0,0,14.799999
Status,,26,10,1,21,1575420030,0.00,33.0,4.0,0,0,0,0.0
Status,,26,11,1,7,1575420030,0.00,132.0,3.0,0,0,0,0.0
Status,,26,12,3,20,1602000000,0.00,112.0,54.0,0,0,0,0.0
Status,,26,13,3,9,1602000000,0.00,82.0,33.0,0,0,0,0.0
Status,,26,14,3,11,1602000000,20.40,311.0,29.0,0,0,0,15.4
Status,,26,15,3,8,1602000000,0.00,246.0,22.0,0,0,0,0.0
Status,,26,16,3,19,1602000000,0.00,32.0,22.0,0,0,0,0.0
Status,,26,17,6,21,1575420030,0.00,345.0,68.0,0,0,0,0.0
Status,,26,18,6,19,1575420030,0.00,242.0,45.0,0,0,0,0.0
Status,,26,19,6,27,1575420030,0.00,65.0,33.0,0,0,0,0.0
Status,,26,20,6,13,1575420030,0.00,119.0,29.0,0,0,0,0.0
Status,,26,21,6,15,1575420030,0.00,61.0,24.0,0,0,0,0.0
Status,,26,22,6,29,1575420030,0.00,191.0,24.0,0,0,0,0.0
Status,,26,23,6,4,1575420030,0.00,310.0,23.0,0,0,0,0.0
Status,,26,24,6,26,1575420030,0.00,167.0,7.0,0,0,0,0.0
Status,,26,25,6,6,1575420030,0.00,327.0,5.0,0,0,0,0.0
Fix,GPS,37.4253600000,-122.1584583333,23.7,0.0,5.7,0.0,1732152036000,2.1,179.9,30920091000000,100.0,0,,,
Fix,FLP,37.4253589000,-122.1584668000,5.400000095367432,0.014009183,7.516,,1732152036243,2.1,,30920091000000,15.801475,0,,,
Raw,1732152035999,18931000000,,705962.2956725616,-1416187235068999936,0.0,272.1740960940807,1128.9450851700228,0.0,0,15,0.0,16431,350453924821557,1797,17.597000122070312,523.4203547716463,0.14999,16,0.0,0.0,1575420030,,,,0,0.0,1,6.0,17.597000122070312,0.0,0.0,0.0,66.7128,C,30920091000000,
Raw,1732152035999,18931000000,,705962.2956725616,-1416187235068999936,0.0,272.1740960940807,1128.9450851700228,0.0,0,13,0.0,16431,350453928726016,487,20.155000686645508,719.5261148131982,0.14999,16,0.0,0.0,1575420030,,,,0,4.630331886119738,1,6.0,20.155000686645508,0.0,0.0,0.0,66.7128,C,30920091000000,
Raw,1732152035999,18931000000,,705962.2956725616,-1416187235068999936,0.0,272.1740960940807,1128.9450851700228,0.0,0,6,0.0,16431,350453918901071,797,14.800000190734863,-319.45541029342263,0.14999,16,0.0,0.0,1575420030,,,,0,0.0,1,6.0,14.800000190734863,0.0,0.0,0.0,66.7128,C,30920091000000,
Raw,1732152035999,18931000000,,705962.2956725616,-1416187235068999936,0.0,272.1740960940807,1128.9450851700228,0.0,0,30,0.0,16431,350453925783863,797,19.4060001373291,858.3690429118727,0.14999,16,0.0,0.0,1575420030,,,,0,4.780092313970736,1,6.0,19.4060001373291,0.0,0.0,0.0,66.7128,C,30920091000000,
Raw,1732152035999,18931000000,,705962.2956725616,-1416187235068999936,0.0,272.1740960940807,1128.9450851700228,0.0,0,2,0.0,16431,350453918593551,1797,14.699999809265137,687.1881302504423,0.14999,16,0.0,0.0,1575420030,,,,0,0.0,1,6.0,14.699999809265137,0.0,0.0,0.0,66.7128,C,30920091000000,
Raw,1732152035999,18931000000,,705962.2956725616,-1416187235068999936,0.0,272.1740960940807,1128.9450851700228,0.0,0,11,0.0,17,264825,487,20.0,-130.62538658156186,0.14999,16,0.0,0.0,1602000000,,,,0,0.0,3,6.0,20.0,0.0,0.0,90.49071518407123,66.7128,C,30920091000000,
Status,1732152036000,26,0,1,17,1575420030,0.00,79.0,78.0,0,0,0,0.0
Status,1732152036000,26,1,1,22,1575420030,0.00,16.0,66.0,0,0,0,0.0
Status,1732152036000,26,2,1,19,1575420030,0.00,200.0,62.0,0,0,0,0.0
Status,1732152036000,26,3,1,14,1575420030,0.00,54.0,52.0,0,0,0,0.0
Status,1732152036000,26,4,1,13,1575420030,25.20,233.0,47.0,1,0,0,20.2
Status,1732152036000,26,5,1,30,1575420030,24.50,132.0,36.0,1,0,0,19.5
Status,1732152036000,26,6,1,15,1575420030,19.40,274.0,30.0,1,0,0,14.4
Status,1732152036000,26,7,1,2,1575420030,17.20,47.0,17.0,1,0,0,12.200001
Status,1732152036000,26,8,1,24,1575420030,0.00,313.0,17.0,0,0,0,0.0
Status,1732152036000,26,9,1,6,1575420030,21.80,161.0,13.0,1,0,0,16.8
Status,1732152036000,26,10,1,21,1575420030,0.00,33.0,4.0,0,0,0,0.0
Status,1732152036000,26,11,1,7,1575420030,0.00,132.0,3.0,0,0,0,0.0
Status,1732152036000,26,12,3,20,1602000000,0.00,112.0,54.0,0,0,0,0.0
Status,1732152036000,26,13,3,9,1602000000,0.00,82.0,33.0,0,0,0,0.0
Status,1732152036000,26,14,3,11,1602000000,24.40,311.0,29.0,0,0,0,19.4
Status,1732152036000,26,15,3,8,1602000000,0.00,246.0,22.0,0,0,0,0.0
Status,1732152036000,26,16,3,19,1602000000,0.00,32.0,22.0,0,0,0,0.0
Status,1732152036000,26,17,6,21,1575420030,0.00,345.0,68.0,0,0,0,0.0
Status,1732152036000,26,18,6,19,1575420030,0.00,242.0,45.0,0,0,0,0.0
Status,1732152036000,26,19,6,27,1575420030,0.00,65.0,33.0,0,0,0,0.0
Status,1732152036000,26,20,6,13,1575420030,0.00,119.0,29.0,0,0,0,0.0
Status,1732152036000,26,21,6,15,1575420030,0.00,61.0,24.0,0,0,0,0.0
Status,1732152036000,26,22,6,29,1575420030,0.00,191.0,24.0,0,0,0,0.0
Status,1732152036000,26,23,6,4,1575420030,0.00,310.0,23.0,0,0,0,0.0
Status,1732152036000,26,24,6,26,1575420030,0.00,167.0,7.0,0,0,0,0.0
Status,1732152036000,26,25,6,6,1575420030,0.00,327.0,5.0,0,0,0,0.0
Fix,GPS,37.4253616667,-122.1584350000,23.7,0.0,5.6,0.0,1732152037000,2.0,179.9,30921091000000,100.0,0,,,
Fix,FLP,37.4253603000,-122.1584526000,5.400000095367432,0.017838014,7.779,,1732152037243,2.0,,30921091000000,17.658964,0,,,
Raw,1732152036999,19931000000,,705958.386718321,-1416187235068999936,0.0,274.22573719413907,1129.116749951002,0.0,0,15,0.0,16431,350454924819764,797,14.399999618530273,523.5698579550119,0.14999,16,0.0,0.0,1575420030,,,,0,0.0,1,6.0,14.399999618530273,0.0,0.0,0.0,66.7128,C,30921091000000,
Raw,1732152036999,19931000000,,705958.386718321,-1416187235068999936,0.0,274.22573719413907,1129.116749951002,0.0,0,13,0.0,16431,350454928723617,487,20.2189998626709,718.9875688524857,0.14999,16,0.0,0.0,1575420030,,,,0,4.630331886119738,1,6.0,20.2189998626709,0.0,0.0,0.0,66.7128,C,30921091000000,
Raw,1732152036999,19931000000,,705958.386718321,-1416187235068999936,0.0,274.22573719413907,1129.116749951002,0.0,0,6,0.0,16431,350454918902156,797,16.82200050354004,-319.5373164812018,0.14999,16,0.0,0.0,1575420030,,,,0,0.0,1,6.0,16.82200050354004,0.0,0.0,0.0,66.7128,C,30921091000000,
Raw,1732152036999,19931000000,,705958.386718321,-1416187235068999936,0.0,274.22573719413907,1129.116749951002,0.0,0,30,0.0,16431,350454925781000,797,19.511999130249023,858.2625602219182,0.14999,16,0.0,0.0,1575420030,,,,0,4.780092313970736,1,6.0,19.511999130249023,0.0,0.0,0.0,66.7128,C,30921091000000,
Raw,1732152036999,19931000000,,705958.386718321,-1416187235068999936,0.0,274.22573719413907,1129.116749951002,0.0,0,2,0.0,16431,350454918591294,1797,12.199999809265137,687.3851603935911,0.14999,16,0.0,0.0,1575420030,,,,0,0.0,1,6.0,12.199999809265137,0.0,0.0,0.0,66.7128,C,30921091000000,
Raw,1732152036999,19931000000,,705958.386718321,-1416187235068999936,0.0,274.22573719413907,1129.116749951002,0.0,0,11,0.0,17,265302,487,20.0,-129.58686198907282,0.14999,16,0.0,0.0,1602000000,,,,0,3.329078970998501,3,6.0,20.0,0.0,0.0,90.49071518407123,66.7128,C,30921091000000,
Fix,NLP,37.4257181000,-122.1580946000,5.400000095367432,,116.1,,1732152037330,,,30921178000000,26.6256,0,,,
Status,1732152037000,26,0,1,17,1575420030,0.00,79.0,78.0,0,0,0,0.0
Status,1732152037000,26,1,1,22,1575420030,0.00,16.0,66.0,0,0,0,0.0
Status,1732152037000,26,2,1,19,1575420030,0.00,200.0,62.0,0,0,0,0.0
Status,1732152037000,26,3,1,14,1575420030,0.00,54.0,52.0,0,0,0,0.0
Status,1732152037000,26,4,1,13,1575420030,25.30,233.0,47.0,1,0,0,20.3
Status,1732152037000,26,5,1,30,1575420030,18.70,132.0,36.0,1,0,0,13.700001
Status,1732152037000,26,6,1,15,1575420030,19.40,274.0,30.0,1,0,0,14.4
Status,1732152037000,26,7,1,2,1575420030,17.20,47.0,17.0,1,0,0,12.200001
Status,1732152037000,26,8,1,24,1575420030,0.00,313.0,17.0,0,0,0,0.0
Status,1732152037000,26,9,1,6,1575420030,21.80,161.0,13.0,1,0,0,16.8
Status,1732152037000,26,10,1,21,1575420030,0.00,33.0,4.0,0,0,0,0.0
Status,1732152037000,26,11,1,7,1575420030,0.00,132.0,3.0,0,0,0,0.0
Status,1732152037000,26,12,3,20,1602000000,0.00,112.0,54.0,0,0,0,0.0
Status,1732152037000,26,13,3,9,1602000000,0.00,82.0,33.0,0,0,0,0.0
Status,1732152037000,26,14,3,11,1602000000,20.80,311.0,29.0,0,0,0,15.799999
Status,1732152037000,26,15,3,8,1602000000,0.00,246.0,22.0,0,0,0,0.0
Status,1732152037000,26,16,3,19,1602000000,0.00,32.0,22.0,0,0,0,0.0
Status,1732152037000,26,17,6,21,1575420030,0.00,345.0,68.0,0,0,0,0.0
Status,1732152037000,26,18,6,19,1575420030,0.00,242.0,45.0,0,0,0,0.0
Status,1732152037000,26,19,6,27,1575420030,0.00,65.0,33.0,0,0,0,0.0
Status,1732152037000,26,20,6,13,1575420030,0.00,119.0,29.0,0,0,0,0.0
Status,1732152037000,26,21,6,15,1575420030,0.00,61.0,24.0,0,0,0,0.0
Status,1732152037000,26,22,6,29,1575420030,0.00,191.0,24.0,0,0,0,0.0
Status,1732152037000,26,23,6,4,1575420030,0.00,310.0,23.0,0,0,0,0.0
Status,1732152037000,26,24,6,26,1575420030,0.00,167.0,7.0,0,0,0,0.0
Status,1732152037000,26,25,6,6,1575420030,0.00,327.0,5.0,0,0,0,0.0
Fix,GPS,37.4253650000,-122.1584150000,23.7,0.0,5.6,0.0,1732152038000,1.9,163.9,30922091000000,100.0,0,,,
Raw,1732152037999,20931000000,,705954.7904804196,-1416187235068999936,0.0,277.9728108492966,1127.4887649237048,0.0,0,15,0.0,16431,350455924818019,797,14.399999618530273,522.828242257043,0.14999,16,0.0,0.0,1575420030,,,,0,0.0,1,6.0,14.399999618530273,0.0,0.0,0.0,66.7128,C,30922091000000,
Raw,1732152037999,20931000000,,705954.7904804196,-1416187235068999936,0.0,277.9728108492966,1127.4887649237048,0.0,0,13,0.0,16431,350455928721218,487,20.280000686645508,718.9744675791143,0.14999,16,0.0,0.0,1575420030,,,,0,4.630331886119738,1,6.0,20.280000686645508,0.0,0.0,0.0,66.7128,C,30922091000000,
Raw,1732152037999,20931000000,,705954.7904804196,-1416187235068999936,0.0,277.9728108492966,1127.4887649237048,0.0,0,6,0.0,16431,350455918903223,797,16.82200050354004,-320.14954549002425,0.14999,16,0.0,0.0,1575420030,,,,0,0.0,1,6.0,16.82200050354004,0.0,0.0,0.0,66.7128,C,30922091000000,
Raw,1732152037999,20931000000,,705954.7904804196,-1416187235068999936,0.0,277.9728108492966,1127.4887649237048,0.0,0,30,0.0,16431,350455925778134,797,13.699999809265137,858.0298964735358,0.14999,16,0.0,0.0,1575420030,,,,0,0.0,1,6.0,13.699999809265137,0.0,0.0,0.0,66.7128,C,30922091000000,
Raw,1732152037999,20931000000,,705954.7904804196,-1416187235068999936,0.0,277.9728108492966,1127.4887649237048,0.0,0,2,0.0,16431,350455918589002,1797,12.199999809265137,686.963643183313,0.14999,16,0.0,0.0,1575420030,,,,0,0.0,1,6.0,12.199999809265137,0.0,0.0,0.0,66.7128,C,30922091000000,
Raw,1732152037999,20931000000,,705954.7904804196,-1416187235068999936,0.0,277.9728108492966,1127.4887649237048,0.0,0,11,0.0,17,265760,797,16.0,-133.82845209254788,0.14999,16,0.0,0.0,1602000000,,,,0,0.0,3,6.0,16.0,0.0,0.0,90.49071518407123,66.7128,C,30922091000000,
Fix,FLP,37.4253625000,-122.1584344000,5.400000095367432,0.023480862,5.666,,1732152038243,1.9,,30922091000000,18.06157,0,,,
Status,1732152038000,26,0,1,17,1575420030,0.00,79.0,78.0,0,0,0,0.0
Status,1732152038000,26,1,1,22,1575420030,0.00,16.0,66.0,0,0,0,0.0
Status,1732152038000,26,2,1,19,1575420030,0.00,200.0,62.0,0,0,0,0.0
Status,1732152038000,26,3,1,14,1575420030,0.00,54.0,52.0,0,0,0,0.0
Status,1732152038000,26,4,1,13,1575420030,25.30,233.0,47.0,1,0,0,20.3
Status,1732152038000,26,5,1,30,1575420030,29.40,132.0,36.0,1,0,0,24.4
Status,1732152038000,26,6,1,15,1575420030,19.40,274.0,30.0,1,0,0,14.4
Status,1732152038000,26,7,1,2,1575420030,17.20,47.0,17.0,1,0,0,12.200001
Status,1732152038000,26,8,1,24,1575420030,0.00,313.0,17.0,0,0,0,0.0
Status,1732152038000,26,9,1,6,1575420030,21.80,161.0,13.0,1,0,0,16.8
Status,1732152038000,26,10,1,21,1575420030,0.00,33.0,4.0,0,0,0,0.0
Status,1732152038000,26,11,1,7,1575420030,0.00,132.0,3.0,0,0,0,0.0
Status,1732152038000,26,12,3,20,1602000000,0.00,112.0,54.0,0,0,0,0.0
Status,1732152038000,26,13,3,9,1602000000,0.00,82.0,33.0,0,0,0,0.0
Status,1732152038000,26,14,3,11,1602000000,20.80,311.0,29.0,0,0,0,15.799999
Status,1732152038000,26,15,3,8,1602000000,29.90,246.0,22.0,1,0,0,24.9
Status,1732152038000,26,16,3,19,1602000000,0.00,32.0,22.0,0,0,0,0.0
Status,1732152038000,26,17,6,21,1575420030,0.00,345.0,68.0,0,0,0,0.0
Status,1732152038000,26,18,6,19,1575420030,0.00,242.0,45.0,0,0,0,0.0
Status,1732152038000,26,19,6,27,1575420030,0.00,65.0,33.0,0,0,0,0.0
Status,1732152038000,26,20,6,13,1575420030,0.00,119.0,29.0,0,0,0,0.0
Status,1732152038000,26,21,6,15,1575420030,0.00,61.0,24.0,0,0,0,0.0
Status,1732152038000,26,22,6,29,1575420030,0.00,191.0,24.0,0,0,0,0.0
Status,1732152038000,26,23,6,4,1575420030,0.00,310.0,23.0,0,0,0,0.0
Status,1732152038000,26,24,6,26,1575420030,0.00,167.0,7.0,0,0,0,0.0
Status,1732152038000,26,25,6,6,1575420030,0.00,327.0,5.0,0,0,0,0.0
Fix,GPS,37.4253683333,-122.1584250000,23.7,0.0,5.6,0.0,1732152039000,1.8,152.0,30923091000000,100.0,0,,,
Raw,1732152038999,21931000000,,705951.0900037385,-1416187235068999936,0.0,338.2635183688816,1126.8957733810519,0.0,0,15,0.0,16431,350456924816275,797,14.399999618530273,522.6846857509526,0.14999,16,0.0,0.0,1575420030,,,,0,0.0,1,6.0,14.399999618530273,0.0,0.0,0.0,66.7128,C,30923091000000,
Raw,1732152038999,21931000000,,705951.0900037385,-1416187235068999936,0.0,338.2635183688816,1126.8957733810519,0.0,0,13,0.0,16431,350456928718853,487,20.31800079345703,718.3122493144492,0.14999,16,0.0,0.0,1575420030,,,,0,4.004050632751697,1,6.0,20.31800079345703,0.0,0.0,0.0,66.7128,C,30923091000000,
Raw,1732152038999,21931000000,,705951.0900037385,-1416187235068999936,0.0,338.2635183688816,1126.8957733810519,0.0,0,6,0.0,16431,350456918904292,797,16.82200050354004,-320.6471151276391,0.14999,16,0.0,0.0,1575420030,,,,0,0.0,1,6.0,16.82200050354004,0.0,0.0,0.0,66.7128,C,30923091000000,
Raw,1732152038999,21931000000,,705951.0900037385,-1416187235068999936,0.0,338.2635183688816,1126.8957733810519,0.0,0,30,0.0,16431,350456925775176,487,24.361000061035156,858.2600514674428,0.14999,16,0.0,0.0,1575420030,,,,0,9.127521259202979,1,6.0,24.361000061035156,0.0,0.0,0.0,66.7128,C,30923091000000,
Raw,1732152038999,21931000000,,705951.0900037385,-1416187235068999936,0.0,338.2635183688816,1126.8957733810519,0.0,0,2,0.0,16431,350456918586710,797,12.199999809265137,687.1855750375507,0.14999,16,0.0,0.0,1575420030,,,,0,0.0,1,6.0,12.199999809265137,0.0,0.0,0.0,66.7128,C,30923091000000,
Raw,1732152038999,21931000000,,705951.0900037385,-1416187235068999936,0.0,338.2635183688816,1126.8957733810519,0.0,0,8,0.0,17,308280,316,5.0,930.2250656850649,0.14999,16,0.0,0.0,1605374980,,,,0,10.930899739442214,3,6.0,24.0,0.0,0.0,90.03276656060441,66.7128,C,30923091000000,
Raw,1732152038999,21931000000,,705951.0900037385,-1416187235068999936,0.0,338.2635183688816,1126.8957733810519,0.0,0,11,0.0,17,266202,487,24.899999618530273,-131.7704546323099,0.14999,16,0.0,0.0,1602000000,,,,0,0.0,3,6.0,24.899999618530273,0.0,0.0,90.03276656060441,66.7128,C,30923091000000,
Fix,FLP,37.4253652000,-122.1584304000,5.400000095367432,0.030404221,5.657,,1732152039243,1.8,,30923091000000,19.882214,0,,,
Status,1732152039000,26,0,1,17,1575420030,0.00,79.0,78.0,0,0,0,0.0
Status,1732152039000,26,1,1,22,1575420030,0.00,16.0,66.0,0,0,0,0.0
Status,1732152039000,26,2,1,19,1575420030,0.00,200.0,62.0,0,0,0,0.0
Status,1732152039000,26,3,1,14,1575420030,0.00,54.0,52.0,0,0,0,0.0
Status,1732152039000,26,4,1,13,1575420030,25.40,233.0,47.0,1,0,0,20.4
Status,1732152039000,26,5,1,30,1575420030,24.10,132.0,36.0,1,0,0,19.1
Status,1732152039000,26,6,1,15,1575420030,22.00,274.0,30.0,1,0,0,17.0
Status,1732152039000,26,7,1,2,1575420030,17.30,47.0,17.0,1,0,0,12.299999
Status,1732152039000,26,8,1,24,1575420030,0.00,313.0,17.0,0,0,0,0.0
Status,1732152039000,26,9,1,6,1575420030,22.00,161.0,13.0,1,0,0,17.0
Status,1732152039000,26,10,1,21,1575420030,0.00,33.0,4.0,0,0,0,0.0
Status,1732152039000,26,11,1,7,1575420030,0.00,132.0,3.0,0,0,0,0.0
Status,1732152039000,26,12,3,20,1602000000,0.00,112.0,54.0,0,0,0,0.0
Status,1732152039000,26,13,3,9,1602000000,0.00,82.0,33.0,0,0,0,0.0
Status,1732152039000,26,14,3,11,1602000000,20.90,311.0,29.0,0,0,0,15.9
Status,1732152039000,26,15,3,8,1602000000,24.20,246.0,22.0,1,0,0,19.2
Status,1732152039000,26,16,3,19,1602000000,0.00,32.0,22.0,0,0,0,0.0
Status,1732152039000,26,17,6,21,1575420030,0.00,345.0,68.0,0,0,0,0.0
Status,1732152039000,26,18,6,19,1575420030,0.00,242.0,45.0,0,0,0,0.0
Status,1732152039000,26,19,6,27,1575420030,0.00,65.0,33.0,0,0,0,0.0
Status,1732152039000,26,20,6,13,1575420030,0.00,119.0,29.0,0,0,0,0.0
Status,1732152039000,26,21,6,15,1575420030,0.00,61.0,24.0,0,0,0,0.0
Status,1732152039000,26,22,6,29,1575420030,0.00,191.0,24.0,0,0,0,0.0
Status,1732152039000,26,23,6,4,1575420030,0.00,310.0,23.0,0,0,0,0.0
Status,1732152039000,26,24,6,26,1575420030,0.00,167.0,7.0,0,0,0,0.0
Status,1732152039000,26,25,6,6,1575420030,0.00,327.0,5.0,0,0,0,0.0
Fix,GPS,37.4253600000,-122.1584183333,23.7,0.0,5.6,0.0,1732152040000,1.8,172.6,30924091000000,100.0,0,,,
Raw,1732152039999,22931000000,,705926.5938904975,-1416187235068999936,0.0,283.72093314988797,1127.2555889347707,0.0,0,15,0.0,16431,350457924814508,797,16.99799919128418,523.1085258820412,0.14999,16,0.0,0.0,1575420030,,,,0,0.0,1,6.0,16.99799919128418,0.0,0.0,0.0,66.7128,C,30924091000000,
Raw,1732152039999,22931000000,,705926.5938904975,-1416187235068999936,0.0,283.72093314988797,1127.2555889347707,0.0,0,13,0.0,16431,350457928716457,797,20.354000091552734,718.6136715188233,0.14999,16,0.0,0.0,1575420030,,,,0,4.004050632751697,1,6.0,20.354000091552734,0.0,0.0,0.0,66.7128,C,30924091000000,
Raw,1732152039999,22931000000,,705926.5938904975,-1416187235068999936,0.0,283.72093314988797,1127.2555889347707,0.0,0,6,0.0,16431,350457918905374,797,16.99799919128418,-320.6844212358562,0.14999,16,0.0,0.0,1575420030,,,,0,0.0,1,6.0,16.99799919128418,0.0,0.0,0.0,66.7128,C,30924091000000,
Raw,1732152039999,22931000000,,705926.5938904975,-1416187235068999936,0.0,283.72093314988797,1127.2555889347707,0.0,0,30,0.0,16431,350457925772349,487,19.05299949645996,858.7776911408606,0.14999,16,0.0,0.0,1575420030,,,,0,0.5630250076728718,1,6.0,19.05299949645996,0.0,0.0,0.0,66.7128,C,30924091000000,
Raw,1732152039999,22931000000,,705926.5938904975,-1416187235068999936,0.0,283.72093314988797,1127.2555889347707,0.0,0,2,0.0,16431,350457918584385,1797,12.3100004196167,687.5359179541944,0.14999,16,0.0,0.0,1575420030,,,,0,0.0,1,6.0,12.3100004196167,0.0,0.0,0.0,66.7128,C,30924091000000,
Raw,1732152039999,22931000000,,705926.5938904975,-1416187235068999936,0.0,283.72093314988797,1127.2555889347707,0.0,0,8,0.0,17,305181,797,5.0,928.9567090502553,0.14999,16,0.0,0.0,1605374980,,,,0,2.9268996913834924,3,6.0,17.0,0.0,0.0,89.7790390216253,66.7128,C,30924091000000,
Raw,1732152039999,22931000000,,705926.5938904975,-1416187235068999936,0.0,283.72093314988797,1127.2555889347707,0.0,0,11,0.0,17,266641,797,19.200000762939453,-132.9639972153104,0.14999,16,0.0,0.0,1602000000,,,,0,0.38015741887547794,3,6.0,19.200000762939453,0.0,0.0,89.7790390216253,66.7128,C,30924091000000,
Fix,FLP,37.4253630000,-122.1584251000,5.400000095367432,0.020842556,5.628,,1732152040243,1.8,,30924091000000,20.30808,0,,,
Status,1732152040000,26,0,1,17,1575420030,0.00,79.0,78.0,0,0,0,0.0
Status,1732152040000,26,1,1,22,1575420030,0.00,16.0,66.0,0,0,0,0.0
Status,1732152040000,26,2,1,19,1575420030,0.00,200.0,62.0,0,0,0,0.0
Status,1732152040000,26,3,1,14,1575420030,0.00,54.0,52.0,0,0,0,0.0
Status,1732152040000,26,4,1,13,1575420030,25.40,233.0,47.0,1,0,0,20.4
Status,1732152040000,26,5,1,30,1575420030,24.10,132.0,36.0,1,0,0,19.1
Status,1732152040000,26,6,1,15,1575420030,22.00,274.0,30.0,1,0,0,17.0
Status,1732152040000,26,7,1,2,1575420030,17.40,47.0,17.0,1,0,0,12.4
Status,1732152040000,26,8,1,24,1575420030,0.00,313.0,17.0,0,0,0,0.0
Status,1732152040000,26,9,1,6,1575420030,22.00,161.0,13.0,1,0,0,17.0
Status,1732152040000,26,10,1,21,1575420030,0.00,33.0,4.0,0,0,0,0.0
Status,1732152040000,26,11,1,7,1575420030,0.00,132.0,3.0,0,0,0,0.0
Status,1732152040000,26,12,3,20,1602000000,0.00,112.0,54.0,0,0,0,0.0
Status,1732152040000,26,13,3,9,1602000000,0.00,82.0,33.0,0,0,0,0.0
Status,1732152040000,26,14,3,11,1602000000,20.90,311.0,29.0,0,0,0,15.9
Status,1732152040000,26,15,3,8,1602000000,0.00,246.0,22.0,0,0,0,0.0
Status,1732152040000,26,16,3,19,1602000000,0.00,32.0,22.0,0,0,0,0.0
Status,1732152040000,26,17,6,21,1575420030,0.00,345.0,68.0,0,0,0,0.0
Status,1732152040000,26,18,6,19,1575420030,0.00,242.0,45.0,0,0,0,0.0
Status,1732152040000,26,19,6,27,1575420030,0.00,65.0,33.0,0,0,0,0.0
Status,1732152040000,26,20,6,13,1575420030,0.00,119.0,29.0,0,0,0,0.0
Status,1732152040000,26,21,6,15,1575420030,0.00,61.0,24.0,0,0,0,0.0
Status,1732152040000,26,22,6,29,1575420030,0.00,191.0,24.0,0,0,0,0.0
Status,1732152040000,26,23,6,4,1575420030,0.00,310.0,23.0,0,0,0,0.0
Status,1732152040000,26,24,6,26,1575420030,0.00,167.0,7.0,0,0,0,0.0
Status,1732152040000,26,25,6,6,1575420030,0.00,327.0,5.0,0,0,0,0.0
Fix,GPS,37.4253516667,-122.1584133333,23.7,0.0,5.5,0.0,1732152041000,1.7,179.9,30925091000000,100.0,0,,,
Raw,1732152040999,23931000000,,705904.4431498006,-1416187235068999936,0.0,286.4553433470892,1129.1449474557276,0.0,0,15,0.0,16431,350458924812762,1797,16.99799919128418,524.2113093076308,0.14999,16,0.0,0.0,1575420030,,,,0,0.0,1,6.0,16.99799919128418,0.0,0.0,0.0,66.7128,C,30925091000000,
Raw,1732152040999,23931000000,,705904.4431498006,-1416187235068999936,0.0,286.4553433470892,1129.1449474557276,0.0,0,13,0.0,16431,350458928714059,797,20.38800048828125,719.2866681360491,0.14999,16,0.0,0.0,1575420030,,,,0,4.004050632751697,1,6.0,20.38800048828125,0.0,0.0,0.0,66.7128,C,30925091000000,
Raw,1732152040999,23931000000,,705904.4431498006,-1416187235068999936,0.0,286.4553433470892,1129.1449474557276,0.0,0,6,0.0,16431,350458918906443,797,16.99799919128418,-320.1060604124512,0.14999,16,0.0,0.0,1575420030,,,,0,0.0,1,6.0,16.99799919128418,0.0,0.0,0.0,66.7128,C,30925091000000,
Raw,1732152040999,23931000000,,705904.4431498006,-1416187235068999936,0.0,286.4553433470892,1129.1449474557276,0.0,0,30,0.0,16431,350458925769483,797,19.05299949645996,859.4342414787479,0.14999,16,0.0,0.0,1575420030,,,,0,0.5630250076728718,1,6.0,19.05299949645996,0.0,0.0,0.0,66.7128,C,30925091000000,
Raw,1732152040999,23931000000,,705904.4431498006,-1416187235068999936,0.0,286.4553433470892,1129.1449474557276,0.0,0,2,0.0,16431,350458918582090,1797,12.413999557495117,688.574728140662,0.14999,16,0.0,0.0,1575420030,,,,0,0.0,1,6.0,12.413999557495117,0.0,0.0,0.0,66.7128,C,30925091000000,
Raw,1732152040999,23931000000,,705904.4431498006,-1416187235068999936,0.0,286.4553433470892,1129.1449474557276,0.0,0,11,0.0,17,267079,797,17.0,-130.23544300684478,0.14999,16,0.0,0.0,1602000000,,,,0,0.0,3,6.0,17.0,0.0,0.0,89.7790390216253,66.7128,C,30925091000000,
Fix,FLP,37.4253578000,-122.1584198000,5.400000095367432,0.0029006724,5.6,,1732152041243,1.7,,30925091000000,12.036587,0,,,
Fix,FLP,37.4253550000,-122.1584169000,5.400000095367432,0.0059520835,5.571,,1732152042214,1.7,,30926062000000,12.996139,0,,,
Fix,NLP,37.4257218000,-122.1580600000,-0.4000000059604645,,23.906,,1732152042214,,,30926062000000,29.941774,0,,,
Status,1732152041000,26,0,1,17,1575420030,0.00,79.0,78.0,0,0,0,0.0
Status,1732152041000,26,1,1,22,1575420030,0.00,16.0,66.0,0,0,0,0.0
Status,1732152041000,26,2,1,19,1575420030,0.00,200.0,62.0,0,0,0,0.0
Status,1732152041000,26,3,1,14,1575420030,0.00,54.0,52.0,0,0,0,0.0
Status,1732152041000,26,4,1,13,1575420030,25.40,233.0,47.0,1,0,0,20.4
Status,1732152041000,26,5,1,30,1575420030,26.40,132.0,36.0,1,0,0,21.4
Status,1732152041000,26,6,1,15,1575420030,0.00,274.0,30.0,0,0,0,0.0
Status,1732152041000,26,7,1,2,1575420030,0.00,47.0,17.0,0,0,0,0.0
Status,1732152041000,26,8,1,24,1575420030,0.00,313.0,17.0,0,0,0,0.0
Status,1732152041000,26,9,1,6,1575420030,17.60,161.0,13.0,1,0,0,12.6
Status,1732152041000,26,10,1,21,1575420030,0.00,33.0,4.0,0,0,0,0.0
Status,1732152041000,26,11,1,7,1575420030,0.00,132.0,3.0,0,0,0,0.0
Status,1732152041000,26,12,3,20,1602000000,0.00,112.0,54.0,0,0,0,0.0
Status,1732152041000,26,13,3,9,1602000000,0.00,82.0,33.0,0,0,0,0.0
Status,1732152041000,26,14,3,11,1602000000,0.00,311.0,29.0,0,0,0,0.0
Status,1732152041000,26,15,3,8,1602000000,24.90,246.0,22.0,1,0,0,19.9
Status,1732152041000,26,16,3,19,1602000000,0.00,32.0,22.0,0,0,0,0.0
Status,1732152041000,26,17,6,21,1575420030,0.00,345.0,68.0,0,0,0,0.0
Status,1732152041000,26,18,6,19,1575420030,0.00,242.0,45.0,0,0,0,0.0
Status,1732152041000,26,19,6,27,1575420030,0.00,65.0,33.0,0,0,0,0.0
Status,1732152041000,26,20,6,13,1575420030,0.00,119.0,29.0,0,0,0,0.0
Status,1732152041000,26,21,6,15,1575420030,0.00,61.0,24.0,0,0,0,0.0
Status,1732152041000,26,22,6,29,1575420030,0.00,191.0,24.0,0,0,0,0.0
Status,1732152041000,26,23,6,4,1575420030,0.00,310.0,23.0,0,0,0,0.0
Status,1732152041000,26,24,6,26,1575420030,0.00,167.0,7.0,0,0,0,0.0
Status,1732152041000,26,25,6,6,1575420030,0.00,327.0,5.0,0,0,0,0.0
Fix,GPS,37.4253483333,-122.1584183333,23.7,0.0,5.6,0.0,1732152042000,1.8,179.9,30926091000000,100.0,0,,,
Raw,1732152041999,24931000000,,705900.6905537297,-1416187235068999936,0.0,270.5114926468616,1130.0524572479974,0.0,0,13,0.0,16431,350459928711692,487,20.395000457763672,719.8831942001924,0.14999,16,0.0,0.0,1575420030,,,,0,3.1518097643724006,1,6.0,20.395000457763672,0.0,0.0,0.0,66.7128,C,30926091000000,
Raw,1732152041999,24931000000,,705900.6905537297,-1416187235068999936,0.0,270.5114926468616,1130.0524572479974,0.0,0,6,0.0,16431,350459918907512,1797,12.600000381469727,-320.35981628179314,0.14999,16,0.0,0.0,1575420030,,,,0,0.0,1,6.0,12.600000381469727,0.0,0.0,0.0,66.7128,C,30926091000000,
Raw,1732152041999,24931000000,,705900.6905537297,-1416187235068999936,0.0,270.5114926468616,1130.0524572479974,0.0,0,30,0.0,16431,350459925766648,487,21.40399932861328,859.9899770534585,0.14999,16,0.0,0.0,1575420030,,,,0,4.554472105776955,1,6.0,21.40399932861328,0.0,0.0,0.0,66.7128,C,30926091000000,
Raw,1732152041999,24931000000,,705900.6905537297,-1416187235068999936,0.0,270.5114926468616,1130.0524572479974,0.0,0,8,0.0,17,298972,487,5.0,929.8952564867826,0.14999,16,0.0,0.0,1605374980,,,,0,4.058368797426544,3,6.0,20.0,0.0,0.0,89.7790390216253,66.7128,C,30926091000000,
Status,1732152042000,27,0,1,17,1575420030,0.00,79.0,78.0,0,0,0,0.0
Status,1732152042000,27,1,1,22,1575420030,0.00,16.0,66.0,0,0,0,0.0
Status,1732152042000,27,2,1,19,1575420030,0.00,200.0,62.0,0,0,0,0.0
Status,1732152042000,27,3,1,14,1575420030,0.00,54.0,52.0,0,0,0,0.0
Status,1732152042000,27,4,1,13,1575420030,25.40,233.0,47.0,1,0,0,20.4
Status,1732152042000,27,5,2,133,1575420030,0.00,191.0,45.0,0,0,0,0.0
Status,1732152042000,27,6,1,30,1575420030,26.40,132.0,36.0,1,0,0,21.4
Status,1732152042000,27,7,1,15,1575420030,0.00,274.0,30.0,0,0,0,0.0
Status,1732152042000,27,8,1,2,1575420030,23.70,47.0,17.0,1,0,0,18.7
Status,1732152042000,27,9,1,24,1575420030,0.00,313.0,17.0,0,0,0,0.0
Status,1732152042000,27,10,1,6,1575420030,26.20,161.0,13.0,1,0,0,21.2
Status,1732152042000,27,11,1,21,1575420030,0.00,33.0,4.0,0,0,0,0.0
Status,1732152042000,27,12,1,7,1575420030,34.80,132.0,3.0,0,0,0,29.8
Status,1732152042000,27,13,3,20,1602000000,0.00,112.0,54.0,0,0,0,0.0
Status,1732152042000,27,14,3,9,1602000000,0.00,82.0,33.0,0,0,0,0.0
Status,1732152042000,27,15,3,11,1602000000,0.00,311.0,29.0,0,0,0,0.0
Status,1732152042000,27,16,3,8,1602000000,27.40,246.0,22.0,1,0,0,22.4
Status,1732152042000,27,17,3,19,1602000000,0.00,32.0,22.0,0,0,0,0.0
Status,1732152042000,27,18,6,21,1575420030,0.00,345.0,68.0,0,0,0,0.0
Status,1732152042000,27,19,6,19,1575420030,0.00,242.0,45.0,0,0,0,0.0
Status,1732152042000,27,20,6,27,1575420030,0.00,65.0,33.0,0,0,0,0.0
Status,1732152042000,27,21,6,13,1575420030,0.00,119.0,29.0,0,0,0,0.0
Status,1732152042000,27,22,6,15,1575420030,0.00,61.0,24.0,0,0,0,0.0
Status,1732152042000,27,23,6,29,1575420030,0.00,191.0,24.0,0,0,0,0.0
Status,1732152042000,27,24,6,4,1575420030,0.00,310.0,23.0,0,0,0,0.0
Status,1732152042000,27,25,6,26,1575420030,0.00,167.0,7.0,0,0,0,0.0
Status,1732152042000,27,26,6,6,1575420030,0.00,327.0,5.0,0,0,0,0.0
Fix,GPS,37.4253333333,-122.1584316667,23.7,0.0,5.6,0.0,1732152043000,1.7,179.9,30927091000000,100.0,0,,,
Fix,FLP,37.4253449000,-122.1584230000,5.400000095367432,0.03447228,5.571,,1732152043244,1.7,,30927091000000,14.092536,0,,,
Raw,1732152042999,25931000000,,705875.7774853696,-1416187235068999936,0.0,228.66964945227832,1131.5311949663385,0.0,0,13,0.0,16431,350460928709289,396,20.400999069213867,720.4490577096368,0.14999,16,0.0,0.0,1575420030,,,,0,3.1518097643724006,1,6.0,20.400999069213867,0.0,0.0,0.0,66.7128,C,30927091000000,
Raw,1732152042999,25931000000,,705875.7774853696,-1416187235068999936,0.0,228.66964945227832,1131.5311949663385,0.0,0,6,0.0,16431,350460918908548,487,21.231000900268555,-319.8147196843949,0.14999,16,0.0,0.0,1575420030,,,,0,4.322834654780653,1,6.0,21.231000900268555,0.0,0.0,0.0,66.7128,C,30927091000000,
Raw,1732152042999,25931000000,,705875.7774853696,-1416187235068999936,0.0,228.66964945227832,1131.5311949663385,0.0,0,7,0.0,16431,350460916721973,74,29.756999969482422,979.7415623450717,0.14999,16,0.0,0.0,1575420030,,,,0,16.245857289129496,1,6.0,29.756999969482422,0.0,0.0,0.0,66.7128,C,30927091000000,
Raw,1732152042999,25931000000,,705875.7774853696,-1416187235068999936,0.0,228.66964945227832,1131.5311949663385,0.0,0,30,0.0,16431,350460925763778,797,21.40399932861328,860.4169298984333,0.14999,16,0.0,0.0,1575420030,,,,0,4.554472105776955,1,6.0,21.40399932861328,0.0,0.0,0.0,66.7128,C,30927091000000,
Raw,1732152042999,25931000000,,705875.7774853696,-1416187235068999936,0.0,228.66964945227832,1131.5311949663385,0.0,0,2,0.0,16431,350460918577466,487,18.73900032043457,690.6110934400024,0.14999,16,0.0,0.0,1575420030,,,,0,0.0,1,6.0,18.73900032043457,0.0,0.0,0.0,66.7128,C,30927091000000,
Raw,1732152042999,25931000000,,705875.7774853696,-1416187235068999936,0.0,228.66964945227832,1131.5311949663385,0.0,0,8,0.0,17,295872,396,5.0,931.6747854648519,0.14999,16,0.0,0.0,1605374980,,,,0,7.766053963325629,3,6.0,21.0,0.0,0.0,89.7790390216253,66.7128,C,30927091000000,
Status,1732152043000,27,0,1,17,1575420030,0.00,79.0,78.0,0,0,0,0.0
Status,1732152043000,27,1,1,22,1575420030,0.00,16.0,66.0,0,0,0,0.0
Status,1732152043000,27,2,1,19,1575420030,0.00,200.0,62.0,0,0,0,0.0
Status,1732152043000,27,3,1,14,1575420030,0.00,54.0,52.0,0,0,0,0.0
Status,1732152043000,27,4,1,13,1575420030,30.90,233.0,47.0,1,0,0,25.9
Status,1732152043000,27,5,2,133,1575420030,0.00,191.0,45.0,0,0,0,0.0
Status,1732152043000,27,6,1,30,1575420030,26.40,132.0,35.0,1,0,0,21.4
Status,1732152043000,27,7,1,15,1575420030,0.00,274.0,30.0,0,0,0,0.0
Status,1732152043000,27,8,1,2,1575420030,0.00,47.0,17.0,0,0,0,0.0
Status,1732152043000,27,9,1,24,1575420030,0.00,313.0,17.0,0,0,0,0.0
Status,1732152043000,27,10,1,6,1575420030,28.40,161.0,13.0,1,0,0,23.4
Status,1732152043000,27,11,1,21,1575420030,0.00,33.0,4.0,0,0,0,0.0
Status,1732152043000,27,12,1,7,1575420030,34.80,132.0,3.0,0,0,0,29.8
Status,1732152043000,27,13,3,20,1602000000,0.00,112.0,54.0,0,0,0,0.0
Status,1732152043000,27,14,3,9,1602000000,0.00,82.0,33.0,0,0,0,0.0
Status,1732152043000,27,15,3,11,1602000000,0.00,311.0,29.0,0,0,0,0.0
Status,1732152043000,27,16,3,8,1602000000,28.20,246.0,22.0,1,0,0,23.2
Status,1732152043000,27,17,3,19,1602000000,0.00,32.0,22.0,0,0,0,0.0
Status,1732152043000,27,18,6,21,1575420030,0.00,345.0,68.0,0,0,0,0.0
Status,1732152043000,27,19,6,19,1575420030,0.00,242.0,45.0,0,0,0,0.0
Status,1732152043000,27,20,6,27,1575420030,0.00,65.0,33.0,0,0,0,0.0
Status,1732152043000,27,21,6,13,1575420030,0.00,119.0,29.0,0,0,0,0.0
Status,1732152043000,27,22,6,15,1575420030,0.00,61.0,24.0,0,0,0,0.0
Status,1732152043000,27,23,6,29,1575420030,0.00,191.0,24.0,0,0,0,0.0
Status,1732152043000,27,24,6,4,1575420030,0.00,310.0,23.0,0,0,0,0.0
Status,1732152043000,27,25,6,26,1575420030,0.00,167.0,7.0,0,0,0,0.0
Status,1732152043000,27,26,6,6,1575420030,0.00,327.0,5.0,0,0,0,0.0
Fix,GPS,37.4253300000,-122.1584350000,23.7,0.0,5.5,0.0,1732152044000,1.7,179.9,30928091000000,91.0,0,,,
Raw,1732152043999,26931000000,,705831.0590488571,-1416187235068999936,0.0,218.7031140337025,1134.0981996514333,0.0,0,13,0.0,16431,350461928706855,316,25.87700080871582,721.2510228902631,0.14999,16,0.0,0.0,1575420030,,,,0,11.235077221115084,1,6.0,25.87700080871582,0.0,0.0,0.0,66.7128,C,30928091000000,
Raw,1732152043999,26931000000,,705831.0590488571,-1416187235068999936,0.0,218.7031140337025,1134.0981996514333,0.0,0,6,0.0,16431,350461918909632,396,23.41200065612793,-319.09893486583917,0.14999,16,0.0,0.0,1575420030,,,,0,7.7132520400014615,1,6.0,23.41200065612793,0.0,0.0,0.0,66.7128,C,30928091000000,
Raw,1732152043999,26931000000,,705831.0590488571,-1416187235068999936,0.0,218.7031140337025,1134.0981996514333,0.0,0,7,0.0,16431,350461916718707,74,29.84600067138672,979.8951538690637,0.14999,16,0.0,0.0,1575420030,,,,0,16.344449603508895,1,6.0,29.84600067138672,0.0,0.0,0.0,66.7128,C,30928091000000,
Raw,1732152043999,26931000000,,705831.0590488571,-1416187235068999936,0.0,218.7031140337025,1134.0981996514333,0.0,0,30,0.0,16431,350461925760906,797,21.40399932861328,861.2721364240368,0.14999,16,0.0,0.0,1575420030,,,,0,4.554472105776955,1,6.0,21.40399932861328,0.0,0.0,0.0,66.7128,C,30928091000000,
Raw,1732152043999,26931000000,,705831.0590488571,-1416187235068999936,0.0,218.7031140337025,1134.0981996514333,0.0,0,8,0.0,17,292751,396,5.0,931.5173122866839,0.14999,16,0.0,0.0,1605374980,,,,0,8.75980964710778,3,6.0,23.0,0.0,0.0,89.7790390216253,66.7128,C,30928091000000,
Fix,FLP,37.4253380000,-122.1584282000,5.400000095367432,0.051520333,5.557,,1732152044243,1.7,,30928091000000,15.272704,0,,,
Status,1732152044000,27,0,1,17,1575420030,0.00,79.0,78.0,0,0,0,0.0
Status,1732152044000,27,1,1,22,1575420030,0.00,16.0,66.0,0,0,0,0.0
Status,1732152044000,27,2,1,19,1575420030,0.00,200.0,62.0,0,0,0,0.0
Status,1732152044000,27,3,1,14,1575420030,0.00,54.0,52.0,0,0,0,0.0
Status,1732152044000,27,4,1,13,1575420030,30.90,233.0,47.0,1,0,0,25.9
Status,1732152044000,27,5,2,133,1575420030,0.00,191.0,45.0,0,0,0,0.0
Status,1732152044000,27,6,1,30,1575420030,23.00,132.0,35.0,1,0,0,18.0
Status,1732152044000,27,7,1,15,1575420030,22.00,274.0,30.0,1,0,0,17.0
Status,1732152044000,27,8,1,2,1575420030,0.00,47.0,17.0,0,0,0,0.0
Status,1732152044000,27,9,1,24,1575420030,0.00,313.0,17.0,0,0,0,0.0
Status,1732152044000,27,10,1,6,1575420030,28.20,161.0,13.0,1,0,0,23.2
Status,1732152044000,27,11,1,21,1575420030,0.00,33.0,4.0,0,0,0,0.0
Status,1732152044000,27,12,1,7,1575420030,35.80,132.0,3.0,0,0,0,30.8
Status,1732152044000,27,13,3,20,1602000000,0.00,112.0,54.0,0,0,0,0.0
Status,1732152044000,27,14,3,9,1602000000,0.00,82.0,33.0,0,0,0,0.0
Status,1732152044000,27,15,3,11,1602000000,0.00,311.0,29.0,0,0,0,0.0
Status,1732152044000,27,16,3,8,1602000000,23.70,246.0,22.0,1,0,0,18.7
Status,1732152044000,27,17,3,19,1602000000,0.00,32.0,22.0,0,0,0,0.0
Status,1732152044000,27,18,6,21,1575420030,0.00,345.0,68.0,0,0,0,0.0
Status,1732152044000,27,19,6,19,1575420030,0.00,242.0,45.0,0,0,0,0.0
Status,1732152044000,27,20,6,27,1575420030,0.00,65.0,33.0,0,0,0,0.0
Status,1732152044000,27,21,6,13,1575420030,0.00,119.0,29.0,0,0,0,0.0
Status,1732152044000,27,22,6,15,1575420030,0.00,61.0,24.0,0,0,0,0.0
Status,1732152044000,27,23,6,29,1575420030,0.00,191.0,24.0,0,0,0,0.0
Status,1732152044000,27,24,6,4,1575420030,0.00,310.0,23.0,0,0,0,0.0
Status,1732152044000,27,25,6,26,1575420030,0.00,167.0,7.0,0,0,0,0.0
Status,1732152044000,27,26,6,6,1575420030,0.00,327.0,5.0,0,0,0,0.0
Fix,GPS,37.4253250000,-122.1584300000,23.7,0.0,5.5,0.0,1732152045000,1.7,179.9,30929091000000,91.0,0,,,
Raw,1732152044999,27931000000,,705797.9632362867,-1416187235068999936,0.0,222.34004475947637,1134.990097598553,0.0,0,15,0.0,16431,350462924805748,797,16.99799919128418,525.5131205882662,0.14999,16,0.0,0.0,1575420030,,,,0,0.0,1,6.0,16.99799919128418,0.0,0.0,0.0,66.7128,C,30929091000000,
Raw,1732152044999,27931000000,,705797.9632362867,-1416187235068999936,0.0,222.34004475947637,1134.990097598553,0.0,0,13,0.0,16431,350462928704459,316,25.85099983215332,721.6078235267601,0.14999,16,0.0,0.0,1575420030,,,,0,10.536892222909957,1,6.0,25.85099983215332,0.0,0.0,0.0,66.7128,C,30929091000000,
Raw,1732152044999,27931000000,,705797.9632362867,-1416187235068999936,0.0,222.34004475947637,1134.990097598553,0.0,0,6,0.0,16431,350462918910691,396,23.249000549316406,-318.8064791357938,0.14999,16,0.0,0.0,1575420030,,,,0,7.444317565456533,1,6.0,23.249000549316406,0.0,0.0,0.0,66.7128,C,30929091000000,
Raw,1732152044999,27931000000,,705797.9632362867,-1416187235068999936,0.0,222.34004475947637,1134.990097598553,0.0,0,7,0.0,16431,350462916715437,74,30.783000946044922,980.7395820421065,0.14999,16,0.0,0.0,1575420030,,,,0,17.48220264142073,1,6.0,30.783000946044922,0.0,0.0,0.0,66.7128,C,30929091000000,
Raw,1732152044999,27931000000,,705797.9632362867,-1416187235068999936,0.0,222.34004475947637,1134.990097598553,0.0,0,30,0.0,16431,350462925758049,487,17.969999313354492,861.4115116726686,0.14999,16,0.0,0.0,1575420030,,,,0,0.0,1,6.0,17.969999313354492,0.0,0.0,0.0,66.7128,C,30929091000000,
Raw,1732152044999,27931000000,,705797.9632362867,-1416187235068999936,0.0,222.34004475947637,1134.990097598553,0.0,0,8,0.0,17,289635,487,5.0,934.0821099447662,0.14999,16,0.0,0.0,1605374980,,,,0,2.1734169440706137,3,6.0,18.0,0.0,0.0,89.7790390216253,66.7128,C,30929091000000,
Fix,FLP,37.4253319000,-122.1584290000,5.400000095367432,0.06521962,5.542,,1732152045243,1.7,,30929091000000,15.267146,0,,,
Status,1732152045000,27,0,1,17,1575420030,0.00,79.0,78.0,0,0,0,0.0
Status,1732152045000,27,1,1,22,1575420030,0.00,16.0,66.0,0,0,0,0.0
Status,1732152045000,27,2,1,19,1575420030,0.00,200.0,62.0,0,0,0,0.0
Status,1732152045000,27,3,1,14,1575420030,0.00,54.0,52.0,0,0,0,0.0
Status,1732152045000,27,4,1,13,1575420030,32.20,233.0,47.0,1,0,0,27.2
Status,1732152045000,27,5,2,133,1575420030,0.00,191.0,45.0,0,0,0,0.0
Status,1732152045000,27,6,1,30,1575420030,23.00,132.0,35.0,1,0,0,18.0
Status,1732152045000,27,7,1,15,1575420030,22.00,274.0,30.0,1,0,0,17.0
Status,1732152045000,27,8,1,2,1575420030,21.90,47.0,17.0,1,0,0,16.9
Status,1732152045000,27,9,1,24,1575420030,0.00,313.0,17.0,0,0,0,0.0
Status,1732152045000,27,10,1,6,1575420030,28.10,161.0,13.0,1,0,0,23.1
Status,1732152045000,27,11,1,21,1575420030,0.00,33.0,4.0,0,0,0,0.0
Status,1732152045000,27,12,1,7,1575420030,36.70,132.0,3.0,0,0,0,31.7
Status,1732152045000,27,13,3,20,1602000000,0.00,112.0,54.0,0,0,0,0.0
Status,1732152045000,27,14,3,9,1602000000,0.00,82.0,33.0,0,0,0,0.0
Status,1732152045000,27,15,3,11,1602000000,0.00,311.0,29.0,0,0,0,0.0
Status,1732152045000,27,16,3,8,1602000000,22.50,246.0,22.0,1,0,0,17.5
Status,1732152045000,27,17,3,19,1602000000,0.00,32.0,22.0,0,0,0,0.0
Status,1732152045000,27,18,6,21,1575420030,0.00,345.0,68.0,0,0,0,0.0
Status,1732152045000,27,19,6,19,1575420030,0.00,242.0,45.0,0,0,0,0.0
Status,1732152045000,27,20,6,27,1575420030,0.00,65.0,33.0,0,0,0,0.0
Status,1732152045000,27,21,6,13,1575420030,0.00,119.0,29.0,0,0,0,0.0
Status,1732152045000,27,22,6,15,1575420030,0.00,61.0,24.0,0,0,0,0.0
Status,1732152045000,27,23,6,29,1575420030,0.00,191.0,24.0,0,0,0,0.0
Status,1732152045000,27,24,6,4,1575420030,0.00,310.0,23.0,0,0,0,0.0
Status,1732152045000,27,25,6,26,1575420030,0.00,167.0,7.0,0,0,0,0.0
Status,1732152045000,27,26,6,6,1575420030,0.00,327.0,5.0,0,0,0,0.0
Fix,GPS,37.4253133333,-122.1584266667,23.7,0.0,5.5,0.0,1732152046000,1.7,179.9,30930091000000,87.8,0,,,
Fix,FLP,37.4253230000,-122.1584280000,5.400000095367432,0.085066475,5.528,,1732152046244,1.7,,30930091000000,13.9583845,0,,,
Raw,1732152045999,28931000000,,705755.6944110983,-1416187235068999936,0.0,191.3562126803982,1138.6317095631753,0.0,0,15,0.0,16431,350463924803995,487,16.99799919128418,526.372322537664,0.14999,16,0.0,0.0,1575420030,,,,0,0.0,1,6.0,16.99799919128418,0.0,0.0,0.0,66.7128,C,30930091000000,
Raw,1732152045999,28931000000,,705755.6944110983,-1416187235068999936,0.0,191.3562126803982,1138.6317095631753,0.0,0,13,0.0,16431,350463928702041,235,27.233999252319336,723.1694302708448,0.14999,16,0.0,0.0,1575420030,,,,0,13.045227649093604,1,6.0,27.233999252319336,0.0,0.0,0.0,66.7128,C,30930091000000,
Raw,1732152045999,28931000000,,705755.6944110983,-1416187235068999936,0.0,191.3562126803982,1138.6317095631753,0.0,0,6,0.0,16431,350463918911744,396,23.148000717163086,-317.8749414323563,0.14999,16,0.0,0.0,1575420030,,,,0,7.334368127232178,1,6.0,23.148000717163086,0.0,0.0,0.0,66.7128,C,30930091000000,
Raw,1732152045999,28931000000,,705755.6944110983,-1416187235068999936,0.0,191.3562126803982,1138.6317095631753,0.0,0,7,0.0,16431,350463916712167,74,31.708999633789062,981.5777847873769,0.14999,16,0.0,0.0,1575420030,,,,0,18.579467518395305,1,6.0,31.708999633789062,0.0,0.0,0.0,66.7128,C,30930091000000,
Raw,1732152045999,28931000000,,705755.6944110983,-1416187235068999936,0.0,191.3562126803982,1138.6317095631753,0.0,0,30,0.0,16431,350463925755199,487,18.0049991607666,862.3589846128663,0.14999,16,0.0,0.0,1575420030,,,,0,0.0,1,6.0,18.0049991607666,0.0,0.0,0.0,66.7128,C,30930091000000,
Raw,1732152045999,28931000000,,705755.6944110983,-1416187235068999936,0.0,191.3562126803982,1138.6317095631753,0.0,0,8,0.0,17,286523,487,5.0,932.7124489087148,0.14999,16,0.0,0.0,1605374980,,,,0,0.0,3,6.0,20.0,0.0,0.0,87.16712722366913,66.7128,C,30930091000000,
Raw,1732152045999,28931000000,,705755.6944110983,-1416187235068999936,0.0,191.3562126803982,1138.6317095631753,0.0,0,2,0.0,16431,350463918570531,797,16.91200065612793,692.2906116444295,0.14999,16,0.0,0.0,1575420030,,,,0,0.0,1,6.0,16.91200065612793,0.0,0.0,0.0,66.7128,C,30930091000000,
Status,1732152046000,27,0,1,17,1575420030,0.00,79.0,78.0,0,0,0,0.0
Status,1732152046000,27,1,1,22,1575420030,0.00,16.0,66.0,0,0,0,0.0
Status,1732152046000,27,2,1,19,1575420030,0.00,200.0,62.0,0,0,0,0.0
Status,1732152046000,27,3,1,14,1575420030,0.00,54.0,52.0,0,0,0,0.0
Status,1732152046000,27,4,1,13,1575420030,32.60,233.0,47.0,1,0,0,27.599998
Status,1732152046000,27,5,2,133,1575420030,0.00,191.0,45.0,0,0,0,0.0
Status,1732152046000,27,6,1,30,1575420030,28.30,132.0,35.0,1,0,0,23.3
Status,1732152046000,27,7,1,15,1575420030,25.30,274.0,30.0,1,0,0,20.3
Status,1732152046000,27,8,1,2,1575420030,19.10,47.0,17.0,1,0,0,14.1
Status,1732152046000,27,9,1,24,1575420030,0.00,313.0,17.0,0,0,0,0.0
Status,1732152046000,27,10,1,6,1575420030,27.40,161.0,13.0,1,0,0,22.4
Status,1732152046000,27,11,1,21,1575420030,0.00,33.0,4.0,0,0,0,0.0
Status,1732152046000,27,12,1,7,1575420030,35.40,132.0,3.0,0,0,0,30.400002
Status,1732152046000,27,13,3,20,1602000000,0.00,112.0,54.0,0,0,0,0.0
Status,1732152046000,27,14,3,9,1602000000,0.00,82.0,33.0,0,0,0,0.0
Status,1732152046000,27,15,3,11,1602000000,0.00,311.0,29.0,0,0,0,0.0
Status,1732152046000,27,16,3,8,1602000000,24.20,246.0,22.0,1,0,0,19.2
Status,1732152046000,27,17,3,19,1602000000,0.00,32.0,22.0,0,0,0,0.0
Status,1732152046000,27,18,6,21,1575420030,0.00,345.0,68.0,0,0,0,0.0
Status,1732152046000,27,19,6,19,1575420030,0.00,242.0,45.0,0,0,0,0.0
Status,1732152046000,27,20,6,27,1575420030,0.00,65.0,33.0,0,0,0,0.0
Status,1732152046000,27,21,6,13,1575420030,0.00,119.0,29.0,0,0,0,0.0
Status,1732152046000,27,22,6,15,1575420030,0.00,61.0,24.0,0,0,0,0.0
Status,1732152046000,27,23,6,29,1575420030,0.00,191.0,24.0,0,0,0,0.0
Status,1732152046000,27,24,6,4,1575420030,0.00,310.0,23.0,0,0,0,0.0
Status,1732152046000,27,25,6,26,1575420030,0.00,167.0,7.0,0,0,0,0.0
Status,1732152046000,27,26,6,6,1575420030,0.00,327.0,5.0,0,0,0,0.0
Fix,GPS,37.4252333333,-122.1584633333,23.7,0.0,5.3,0.0,1732152047000,1.6,179.9,30931091000000,85.5,0,,,
Fix,FLP,37.4252797000,-122.1584444000,5.400000095367432,0.1975444,5.5,180.0,1732152047243,1.6,179.9,30931091000000,14.172603,0,,,
Raw,1732152046999,29931000000,,705713.1649889605,-1416187235068999936,0.0,157.5652246639055,1138.8249594112215,0.0,0,15,0.0,16431,350464924802265,487,20.336000442504883,525.8791664495891,0.14999,16,0.0,0.0,1575420030,,,,0,2.786034050126206,1,6.0,20.336000442504883,0.0,0.0,0.0,66.7128,C,30931091000000,
Raw,1732152046999,29931000000,,705713.1649889605,-1416187235068999936,0.0,157.5652246639055,1138.8249594112215,0.0,0,13,0.0,16431,350464928699628,235,27.58799934387207,722.6047282218058,0.14999,16,0.0,0.0,1575420030,,,,0,13.519374645445621,1,6.0,27.58799934387207,0.0,0.0,0.0,66.7128,C,30931091000000,
Raw,1732152046999,29931000000,,705713.1649889605,-1416187235068999936,0.0,157.5652246639055,1138.8249594112215,0.0,0,6,0.0,16431,350464918912811,396,22.440000534057617,-318.1690696653852,0.14999,16,0.0,0.0,1575420030,,,,0,6.213956807072233,1,6.0,22.440000534057617,0.0,0.0,0.0,66.7128,C,30931091000000,
Raw,1732152046999,29931000000,,705713.1649889605,-1416187235068999936,0.0,157.5652246639055,1138.8249594112215,0.0,0,7,0.0,16431,350464916708893,74,30.430999755859375,980.7344716163233,0.14999,16,0.0,0.0,1575420030,,,,0,17.059276606524136,1,6.0,30.430999755859375,0.0,0.0,0.0,66.7128,C,30931091000000,
Raw,1732152046999,29931000000,,705713.1649889605,-1416187235068999936,0.0,157.5652246639055,1138.8249594112215,0.0,0,30,0.0,16431,350464925752335,396,23.315000534057617,861.9316601005617,0.14999,16,0.0,0.0,1575420030,,,,0,7.5528925996844976,1,6.0,23.315000534057617,0.0,0.0,0.0,66.7128,C,30931091000000,
Raw,1732152046999,29931000000,,705713.1649889605,-1416187235068999936,0.0,157.5652246639055,1138.8249594112215,0.0,0,8,0.0,17,283414,487,5.0,932.8523237525536,0.14999,16,0.0,0.0,1605374980,,,,0,2.9708471848244584,3,6.0,20.0,0.0,0.0,85.33092370110415,66.7128,C,30931091000000,
Raw,1732152046999,29931000000,,705713.1649889605,-1416187235068999936,0.0,157.5652246639055,1138.8249594112215,0.0,0,2,0.0,16431,350464918568190,797,14.100000381469727,692.0577620623823,0.14999,16,0.0,0.0,1575420030,,,,0,0.0,1,6.0,14.100000381469727,0.0,0.0,0.0,66.7128,C,30931091000000,
Fix,NLP,37.4256080000,-122.1581268000,-0.4000000059604645,,116.1,,1732152047360,,,30931208000000,100.0,0,,,
Status,1732152047000,27,0,1,17,1575420030,0.00,79.0,78.0,0,0,0,0.0
Status,1732152047000,27,1,1,22,1575420030,0.00,16.0,66.0,0,0,0,0.0
Status,1732152047000,27,2,1,19,1575420030,0.00,200.0,62.0,0,0,0,0.0
Status,1732152047000,27,3,1,14,1575420030,0.00,54.0,52.0,0,0,0,0.0
Status,1732152047000,27,4,1,13,1575420030,29.50,233.0,47.0,1,0,0,24.5
Status,1732152047000,27,5,2,133,1575420030,0.00,191.0,45.0,0,0,0,0.0
Status,1732152047000,27,6,1,30,1575420030,28.30,132.0,35.0,1,0,0,23.3
Status,1732152047000,27,7,1,15,1575420030,25.30,274.0,30.0,1,0,0,20.3
Status,1732152047000,27,8,1,2,1575420030,19.10,47.0,17.0,1,0,0,14.1
Status,1732152047000,27,9,1,24,1575420030,0.00,313.0,17.0,0,0,0,0.0
Status,1732152047000,27,10,1,6,1575420030,27.40,161.0,13.0,1,0,0,22.4
Status,1732152047000,27,11,1,21,1575420030,0.00,33.0,4.0,0,0,0,0.0
Status,1732152047000,27,12,1,7,1575420030,32.80,132.0,3.0,0,0,0,27.8
Status,1732152047000,27,13,3,20,1602000000,0.00,112.0,54.0,0,0,0,0.0
Status,1732152047000,27,14,3,9,1602000000,0.00,82.0,33.0,0,0,0,0.0
Status,1732152047000,27,15,3,11,1602000000,0.00,311.0,29.0,0,0,0,0.0
Status,1732152047000,27,16,3,8,1602000000,25.70,246.0,22.0,1,0,0,20.7
Status,1732152047000,27,17,3,19,1602000000,0.00,32.0,22.0,0,0,0,0.0
Status,1732152047000,27,18,6,21,1575420030,0.00,345.0,68.0,0,0,0,0.0
Status,1732152047000,27,19,6,19,1575420030,0.00,242.0,45.0,0,0,0,0.0
Status,1732152047000,27,20,6,27,1575420030,0.00,65.0,33.0,0,0,0,0.0
Status,1732152047000,27,21,6,13,1575420030,0.00,119.0,29.0,0,0,0,0.0
Status,1732152047000,27,22,6,15,1575420030,0.00,61.0,24.0,0,0,0,0.0
Status,1732152047000,27,23,6,29,1575420030,0.00,191.0,24.0,0,0,0,0.0
Status,1732152047000,27,24,6,4,1575420030,0.00,310.0,23.0,0,0,0,0.0
Status,1732152047000,27,25,6,26,1575420030,0.00,167.0,7.0,0,0,0,0.0
Status,1732152047000,27,26,6,6,1575420030,0.00,327.0,5.0,0,0,0,0.0
Fix,GPS,37.4251800000,-122.1584833333,23.7,0.0,5.1,0.0,1732152048000,1.6,131.0,30932091000000,86.2,0,,,
Raw,1732152047999,30931000000,,705671.9906709595,-1416187235068999936,0.0,157.36805914971882,1138.096105323027,0.0,0,15,0.0,16431,350465924800532,487,20.34000015258789,525.991224149489,0.14999,16,0.0,0.0,1575420030,,,,0,2.9708471848244584,1,6.0,20.34000015258789,0.0,0.0,0.0,66.7128,C,30932091000000,
Raw,1732152047999,30931000000,,705671.9906709595,-1416187235068999936,0.0,157.36805914971882,1138.096105323027,0.0,0,13,0.0,16431,350465928697215,316,24.50200080871582,722.1927349868507,0.14999,16,0.0,0.0,1575420030,,,,0,9.305699602279361,1,6.0,24.50200080871582,0.0,0.0,0.0,66.7128,C,30932091000000,
Raw,1732152047999,30931000000,,705671.9906709595,-1416187235068999936,0.0,157.36805914971882,1138.096105323027,0.0,0,6,0.0,16431,350465918913870,487,22.416000366210938,-318.08604847561696,0.14999,16,0.0,0.0,1575420030,,,,0,5.492449498166641,1,6.0,22.416000366210938,0.0,0.0,0.0,66.7128,C,30932091000000,
Raw,1732152047999,30931000000,,705671.9906709595,-1416187235068999936,0.0,157.36805914971882,1138.096105323027,0.0,0,7,0.0,16431,350465916705616,235,27.836999893188477,980.7296399410374,0.14999,16,0.0,0.0,1575420030,,,,0,13.83913675312823,1,6.0,27.836999893188477,0.0,0.0,0.0,66.7128,C,30932091000000,
Raw,1732152047999,30931000000,,705671.9906709595,-1416187235068999936,0.0,157.36805914971882,1138.096105323027,0.0,0,30,0.0,16431,350465925749502,396,23.341999053955078,861.7324464118509,0.14999,16,0.0,0.0,1575420030,,,,0,8.375840406283636,1,6.0,23.341999053955078,0.0,0.0,0.0,66.7128,C,30932091000000,
Raw,1732152047999,30931000000,,705671.9906709595,-1416187235068999936,0.0,157.36805914971882,1138.096105323027,0.0,0,8,0.0,17,280298,487,5.0,933.1573311532321,0.14999,16,0.0,0.0,1605374980,,,,0,5.354575339208632,3,6.0,20.0,0.0,0.0,84.37121849690874,66.7128,C,30932091000000,
Raw,1732152047999,30931000000,,705671.9906709595,-1416187235068999936,0.0,157.36805914971882,1138.096105323027,0.0,0,2,0.0,16431,350465918565879,797,14.100000381469727,692.0401543226385,0.14999,16,0.0,0.0,1575420030,,,,0,0.0,1,6.0,14.100000381469727,0.0,0.0,0.0,66.7128,C,30932091000000,
Fix,FLP,37.4252264000,-122.1584646000,5.400000095367432,0.3109874,5.4,180.0,1732152048244,1.6,131.0,30932091000000,10.527355,0,,,
Status,1732152048000,27,0,1,17,1575420030,0.00,79.0,78.0,0,0,0,0.0
Status,1732152048000,27,1,1,22,1575420030,0.00,16.0,66.0,0,0,0,0.0
Status,1732152048000,27,2,1,19,1575420030,0.00,200.0,62.0,0,0,0,0.0
Status,1732152048000,27,3,1,14,1575420030,0.00,54.0,52.0,0,0,0,0.0
Status,1732152048000,27,4,1,13,1575420030,27.80,233.0,47.0,1,0,0,22.8
Status,1732152048000,27,5,2,133,1575420030,0.00,191.0,45.0,0,0,0,0.0
Status,1732152048000,27,6,1,30,1575420030,28.20,132.0,35.0,1,0,0,23.2
Status,1732152048000,27,7,1,15,1575420030,25.30,274.0,30.0,1,0,0,20.3
Status,1732152048000,27,8,1,2,1575420030,19.10,47.0,17.0,1,0,0,14.1
Status,1732152048000,27,9,1,24,1575420030,0.00,313.0,17.0,0,0,0,0.0
Status,1732152048000,27,10,1,6,1575420030,23.30,161.0,13.0,1,0,0,18.3
Status,1732152048000,27,11,1,21,1575420030,0.00,33.0,4.0,0,0,0,0.0
Status,1732152048000,27,12,1,7,1575420030,29.20,132.0,3.0,0,0,0,24.2
Status,1732152048000,27,13,3,20,1602000000,0.00,112.0,54.0,0,0,0,0.0
Status,1732152048000,27,14,3,9,1602000000,0.00,82.0,33.0,0,0,0,0.0
Status,1732152048000,27,15,3,11,1602000000,0.00,311.0,29.0,0,0,0,0.0
Status,1732152048000,27,16,3,8,1602000000,23.60,246.0,22.0,1,0,0,18.6
Status,1732152048000,27,17,3,19,1602000000,0.00,32.0,22.0,0,0,0,0.0
Status,1732152048000,27,18,6,21,1575420030,0.00,345.0,68.0,0,0,0,0.0
Status,1732152048000,27,19,6,19,1575420030,0.00,242.0,45.0,0,0,0,0.0
Status,1732152048000,27,20,6,27,1575420030,0.00,65.0,33.0,0,0,0,0.0
Status,1732152048000,27,21,6,13,1575420030,0.00,119.0,29.0,0,0,0,0.0
Status,1732152048000,27,22,6,15,1575420030,0.00,61.0,24.0,0,0,0,0.0
Status,1732152048000,27,23,6,29,1575420030,0.00,191.0,24.0,0,0,0,0.0
Status,1732152048000,27,24,6,4,1575420030,0.00,310.0,23.0,0,0,0,0.0
Status,1732152048000,27,25,6,26,1575420030,0.00,167.0,7.0,0,0,0,0.0
Status,1732152048000,27,26,6,6,1575420030,0.00,327.0,5.0,0,0,0,0.0
Fix,GPS,37.4251350000,-122.1585016667,23.8,0.0,5.0,0.0,1732152049000,1.5,107.8,30933091000000,87.2,0,,,
Raw,1732152048999,31931000000,,705636.2888888953,-1416187235068999936,0.0,157.9323380714434,1133.0623478054238,0.0,0,15,0.0,16431,350466924798778,1797,20.3439998626709,524.7892055468736,0.14999,16,0.0,0.0,1575420030,,,,0,2.9708471848244584,1,6.0,20.3439998626709,0.0,0.0,0.0,66.7128,C,30933091000000,
Raw,1732152048999,31931000000,,705636.2888888953,-1416187235068999936,0.0,157.9323380714434,1133.0623478054238,0.0,0,13,0.0,16431,350466928694810,396,22.83799934387207,720.7065302522756,0.14999,16,0.0,0.0,1575420030,,,,0,6.821609386946651,1,6.0,22.83799934387207,0.0,0.0,0.0,66.7128,C,30933091000000,
Raw,1732152048999,31931000000,,705636.2888888953,-1416187235068999936,0.0,157.9323380714434,1133.0623478054238,0.0,0,6,0.0,16431,350466918914935,487,18.263999938964844,-319.8234074082263,0.14999,16,0.0,0.0,1575420030,,,,0,0.0,1,6.0,18.263999938964844,0.0,0.0,0.0,66.7128,C,30933091000000,
Raw,1732152048999,31931000000,,705636.2888888953,-1416187235068999936,0.0,157.9323380714434,1133.0623478054238,0.0,0,7,0.0,16431,350466916702346,396,24.215999603271484,979.2465014619321,0.14999,16,0.0,0.0,1575420030,,,,0,8.8995320643211,1,6.0,24.215999603271484,0.0,0.0,0.0,66.7128,C,30933091000000,
Raw,1732152048999,31931000000,,705636.2888888953,-1416187235068999936,0.0,157.9323380714434,1133.0623478054238,0.0,0,30,0.0,16431,350466925746632,487,23.226999282836914,860.2435470891355,0.14999,16,0.0,0.0,1575420030,,,,0,4.004050632751697,1,6.0,23.226999282836914,0.0,0.0,0.0,66.7128,C,30933091000000,
Raw,1732152048999,31931000000,,705636.2888888953,-1416187235068999936,0.0,157.9323380714434,1133.0623478054238,0.0,0,8,0.0,17,277190,487,5.0,932.0631342001254,0.14999,16,0.0,0.0,1605374980,,,,0,1.866937004289868,3,6.0,18.0,0.0,0.0,85.04394187391304,66.7128,C,30933091000000,
Raw,1732152048999,31931000000,,705636.2888888953,-1416187235068999936,0.0,157.9323380714434,1133.0623478054238,0.0,0,2,0.0,16431,350466918563573,797,14.100000381469727,690.3674655053943,0.14999,16,0.0,0.0,1575420030,,,,0,0.0,1,6.0,14.100000381469727,0.0,0.0,0.0,66.7128,C,30933091000000,
Fix,FLP,37.4251813000,-122.1584819000,5.400000095367432,0.4029123,5.314,180.0,1732152049243,1.5,107.8,30933091000000,11.812946,0,,,
Status,1732152049000,27,0,1,17,1575420030,0.00,79.0,78.0,0,0,0,0.0
Status,1732152049000,27,1,1,22,1575420030,0.00,16.0,66.0,0,0,0,0.0
Status,1732152049000,27,2,1,19,1575420030,0.00,200.0,62.0,0,0,0,0.0
Status,1732152049000,27,3,1,14,1575420030,0.00,54.0,52.0,0,0,0,0.0
Status,1732152049000,27,4,1,13,1575420030,29.60,233.0,47.0,1,0,0,24.6
Status,1732152049000,27,5,2,133,1575420030,0.00,191.0,45.0,0,0,0,0.0
Status,1732152049000,27,6,1,30,1575420030,28.20,132.0,35.0,1,0,0,23.2
Status,1732152049000,27,7,1,15,1575420030,25.30,274.0,30.0,1,0,0,20.3
Status,1732152049000,27,8,1,2,1575420030,19.20,47.0,17.0,1,0,0,14.200001
Status,1732152049000,27,9,1,24,1575420030,0.00,313.0,17.0,0,0,0,0.0
Status,1732152049000,27,10,1,6,1575420030,23.30,161.0,13.0,1,0,0,18.3
Status,1732152049000,27,11,1,21,1575420030,0.00,33.0,4.0,0,0,0,0.0
Status,1732152049000,27,12,1,7,1575420030,29.00,132.0,3.0,0,0,0,24.0
Status,1732152049000,27,13,3,20,1602000000,0.00,112.0,54.0,0,0,0,0.0
Status,1732152049000,27,14,3,9,1602000000,0.00,82.0,33.0,0,0,0,0.0
Status,1732152049000,27,15,3,11,1602000000,0.00,311.0,29.0,0,0,0,0.0
Status,1732152049000,27,16,3,8,1602000000,21.00,246.0,22.0,1,0,0,16.0
Status,1732152049000,27,17,3,19,1602000000,0.00,32.0,22.0,0,0,0,0.0
Status,1732152049000,27,18,6,21,1575420030,0.00,345.0,68.0,0,0,0,0.0
Status,1732152049000,27,19,6,19,1575420030,0.00,242.0,45.0,0,0,0,0.0
Status,1732152049000,27,20,6,27,1575420030,0.00,65.0,33.0,0,0,0,0.0
Status,1732152049000,27,21,6,13,1575420030,0.00,119.0,29.0,0,0,0,0.0
Status,1732152049000,27,22,6,15,1575420030,0.00,61.0,24.0,0,0,0,0.0
Status,1732152049000,27,23,6,29,1575420030,0.00,191.0,24.0,0,0,0,0.0
Status,1732152049000,27,24,6,4,1575420030,0.00,310.0,23.0,0,0,0,0.0
Status,1732152049000,27,25,6,26,1575420030,0.00,167.0,7.0,0,0,0,0.0
Status,1732152049000,27,26,6,6,1575420030,0.00,327.0,5.0,0,0,0,0.0
Fix,GPS,37.4250716667,-122.1585300000,23.8,0.0,4.8,0.0,1732152050000,1.5,90.9,30934091000000,88.3,0,,,
Raw,1732152049999,32931000000,,705600.4828680514,-1416187235068999936,0.0,157.4596243668913,1128.0169370538874,0.0,0,15,0.0,16431,350467924797029,797,20.347999572753906,523.823195698608,0.14999,16,0.0,0.0,1575420030,,,,0,2.9708471848244584,1,6.0,20.347999572753906,0.0,0.0,0.0,66.7128,C,30934091000000,
Raw,1732152049999,32931000000,,705600.4828680514,-1416187235068999936,0.0,157.4596243668913,1128.0169370538874,0.0,0,13,0.0,16431,350467928692405,487,24.586999893188477,719.5735023977329,0.14999,16,0.0,0.0,1575420030,,,,0,9.436974992327128,1,6.0,24.586999893188477,0.0,0.0,0.0,66.7128,C,30934091000000,
Raw,1732152049999,32931000000,,705600.4828680514,-1416187235068999936,0.0,157.4596243668913,1128.0169370538874,0.0,0,6,0.0,16431,350467918916004,797,18.263999938964844,-321.43890591511536,0.14999,16,0.0,0.0,1575420030,,,,0,0.0,1,6.0,18.263999938964844,0.0,0.0,0.0,66.7128,C,30934091000000,
Raw,1732152049999,32931000000,,705600.4828680514,-1416187235068999936,0.0,157.4596243668913,1128.0169370538874,0.0,0,7,0.0,16431,350467916699079,396,24.035999298095703,978.1626266117403,0.14999,16,0.0,0.0,1575420030,,,,0,8.617802838749,1,6.0,24.035999298095703,0.0,0.0,0.0,66.7128,C,30934091000000,
