# 
# Header Description:
# 
# Version: v3.1.0.3 Platform: 13 Manufacturer: samsung Model: SM-S135DL GNSS Hardware Model Name: MediaTek,MT6631,MTK_MNLD_default,MNL_VER_default
# 
# Raw,utcTimeMillis,TimeNanos,LeapSecond,TimeUncertaintyNanos,FullBiasNanos,BiasNanos,BiasUncertaintyNanos,DriftNanosPerSecond,DriftUncertaintyNanosPerSecond,HardwareClockDiscontinuityCount,Svid,TimeOffsetNanos,State,ReceivedSvTimeNanos,ReceivedSvTimeUncertaintyNanos,Cn0DbHz,PseudorangeRateMetersPerSecond,PseudorangeRateUncertaintyMetersPerSecond,AccumulatedDeltaRangeState,AccumulatedDeltaRangeMeters,AccumulatedDeltaRangeUncertaintyMeters,CarrierFrequencyHz,CarrierCycles,CarrierPhase,CarrierPhaseUncertainty,MultipathIndicator,SnrInDb,ConstellationType,AgcDb,BasebandCn0DbHz,FullInterSignalBiasNanos,FullInterSignalBiasUncertaintyNanos,SatelliteInterSignalBiasNanos,SatelliteInterSignalBiasUncertaintyNanos,CodeType,ChipsetElapsedRealtimeNanos,IsFullTracking
# 
# UncalAccel,utcTimeMillis,elapsedRealtimeNanos,UncalAccelXMps2,UncalAccelYMps2,UncalAccelZMps2,BiasXMps2,BiasYMps2,BiasZMps2
# 
# Accel,utcTimeMillis,elapsedRealtimeNanos,AccelXMps2,AccelYMps2,AccelZMps2
# 
# UncalGyro,utcTimeMillis,elapsedRealtimeNanos,UncalGyroXRadPerSec,UncalGyroYRadPerSec,UncalGyroZRadPerSec,DriftXRadPerSec,DriftYRadPerSec,DriftZRadPerSec
# 
# Gyro,utcTimeMillis,elapsedRealtimeNanos,GyroXRadPerSec,GyroYRadPerSec,GyroZRadPerSec
# 
# UncalMag,utcTimeMillis,elapsedRealtimeNanos,UncalMagXMicroT,UncalMagYMicroT,UncalMagZMicroT,BiasXMicroT,BiasYMicroT,BiasZMicroT
# 
# Mag,utcTimeMillis,elapsedRealtimeNanos,MagXMicroT,MagYMicroT,MagZMicroT
# 
# Pressure,utcTimeMillis,elapsedRealtimeNanos,PressureHpa
# 
# OrientationDeg,utcTimeMillis,elapsedRealtimeNanos,yawDeg,rollDeg,pitchDeg
# 
# Fix,Provider,LatitudeDegrees,LongitudeDegrees,AltitudeMeters,SpeedMps,AccuracyMeters,BearingDegrees,UnixTimeMillis,SpeedAccuracyMps,BearingAccuracyDegrees,elapsedRealtimeNanos,VerticalAccuracyMeters,MockLocation,NumberOfUsedSignals,VerticalSpeedAccuracyMps,SolutionType
# 
# Nav,Svid,Type,Status,MessageId,Sub-messageId,Data(Bytes)
# 
# Status,UnixTimeMillis,SignalCount,SignalIndex,ConstellationType,Svid,CarrierFrequencyHz,Cn0DbHz,AzimuthDegrees,ElevationDegrees,UsedInFix,HasAlmanacData,HasEphemerisData,BasebandCn0DbHz
# 
# Agc,utcTimeMillis,TimeNanos,LeapSecond,TimeUncertaintyNanos,FullBiasNanos,BiasNanos,BiasUncertaintyNanos,DriftNanosPerSecond,DriftUncertaintyNanosPerSecond,HardwareClockDiscontinuityCount,AgcDb,CarrierFrequencyHz,ConstellationType
# 
Fix,FLP,37.4255065000,-122.1582950000,2.701056755652414,0.038248725,5.166,,1732153130243,1.6,,32014091000000,11.807681,0,,,
Fix,FLP,37.4255041000,-122.1582957000,2.6175875232580816,0.04202829,5.15,,1732153131123,1.6,,32014971000000,11.736566,0,,,
Fix,NLP,37.4256949000,-122.1581173000,-0.4000000059604645,,72.9,,1732153131124,,,32014971000000,18.153662,0,,,
Status,,26,0,1,17,1575420030,0.00,54.0,72.0,0,0,0,0.0
Status,,26,1,1,19,1575420030,0.00,204.0,71.0,0,0,0,0.0
Status,,26,2,1,22,1575420030,0.00,32.0,62.0,0,0,0,0.0
Status,,26,3,1,14,1575420030,0.00,63.0,46.0,0,0,0,0.0
Status,,26,4,2,135,1575420030,0.00,197.0,45.0,0,0,0,0.0
Status,,26,5,1,13,1575420030,31.90,225.0,40.0,1,0,0,26.9
Status,,26,6,1,30,1575420030,24.40,137.0,28.0,1,0,0,19.4
Status,,26,7,1,15,1575420030,23.70,265.0,27.0,1,0,0,18.7
Status,,26,8,1,24,1575420030,25.00,313.0,25.0,1,0,0,20.0
Status,,26,9,1,6,1575420030,25.30,158.0,20.0,1,0,0,20.3
Status,,26,10,1,2,1575420030,0.00,41.0,13.0,0,0,0,0.0
Status,,26,11,1,12,1575420030,0.00,273.0,4.0,0,0,0,0.0
Status,,26,12,3,20,1602000000,0.00,94.0,59.0,0,0,0,0.0
Status,,26,13,3,11,1602000000,0.00,319.0,35.0,0,0,0,0.0
Status,,26,14,3,9,1602000000,0.00,91.0,27.0,0,0,0,0.0
Status,,26,15,3,8,1602000000,30.60,239.0,15.0,1,0,0,25.6
Status,,26,16,3,19,1602000000,0.00,27.0,15.0,0,0,0,0.0
Status,,26,17,6,21,1575420030,0.00,2.0,67.0,0,0,0,0.0
Status,,26,18,6,19,1575420030,0.00,235.0,40.0,0,0,0,0.0
Status,,26,19,6,13,1575420030,0.00,113.0,34.0,0,0,0,0.0
Status,,26,20,6,27,1575420030,0.00,71.0,29.0,0,0,0,0.0
Status,,26,21,6,4,1575420030,0.00,304.0,26.0,0,0,0,0.0
Status,,26,22,6,15,1575420030,0.00,54.0,23.0,0,0,0,0.0
Status,,26,23,6,29,1575420030,0.00,189.0,18.0,0,0,0,0.0
Status,,26,24,6,26,1575420030,0.00,165.0,13.0,0,0,0,0.0
Status,,26,25,6,6,1575420030,0.00,323.0,9.0,0,0,0,0.0
Fix,GPS,37.4255000000,-122.1582916667,24.7,0.0,5.1,0.0,1732153131000,1.6,179.9,32015091000000,60.9,0,,,
Raw,1732153131000,30764000000,,705029.0979968549,-1416188318236999936,0.0,139.8762651151044,1121.089744763396,0.0,0,13,0.0,16431,351548927946806,797,26.860000610351562,816.326034577984,0.14999,16,0.0,0.0,1575420030,,,,0,12.563919009525609,1,6.0,26.860000610351562,0.0,0.0,0.0,66.7128,C,32015091000000,
Raw,1732153131000,30764000000,,705029.0979968549,-1416188318236999936,0.0,139.8762651151044,1121.089744763396,0.0,0,24,0.0,16431,351548924181047,487,20.038000106811523,-256.3687371280571,0.14999,16,0.0,0.0,1575420030,,,,0,3.236350196751694,1,6.0,20.038000106811523,0.0,0.0,0.0,66.7128,C,32015091000000,
Raw,1732153131000,30764000000,,705029.0979968549,-1416188318236999936,0.0,139.8762651151044,1121.089744763396,0.0,0,15,0.0,16431,351548924730773,1797,18.66200065612793,637.4960688964019,0.14999,16,0.0,0.0,1575420030,,,,0,3.5050073750290016,1,6.0,18.66200065612793,0.0,0.0,0.0,66.7128,C,32015091000000,
Raw,1732153131000,30764000000,,705029.0979968549,-1416188318236999936,0.0,139.8762651151044,1121.089744763396,0.0,0,30,0.0,16431,351548924557588,487,19.368999481201172,923.7700420807663,0.14999,16,0.0,0.0,1575420030,,,,0,1.1952217976605324,1,6.0,19.368999481201172,0.0,0.0,0.0,66.7128,C,32015091000000,
Raw,1732153131000,30764000000,,705029.0979968549,-1416188318236999936,0.0,139.8762651151044,1121.089744763396,0.0,0,8,0.0,17,832359,396,5.0,989.19416616345,0.14999,16,0.0,0.0,1605374980,,,,0,11.771343119559305,3,6.0,23.0,0.0,0.0,38.6411885614332,66.7128,C,32015091000000,
Raw,1732153131000,30764000000,,705029.0979968549,-1416188318236999936,0.0,139.8762651151044,1121.089744763396,0.0,0,6,0.0,16431,351548922102338,487,20.266000747680664,-313.8036510445782,0.14999,16,0.0,0.0,1575420030,,,,0,2.6727434713950062,1,6.0,20.266000747680664,0.0,0.0,0.0,66.7128,C,32015091000000,
Status,1732153131000,26,0,1,17,1575420030,0.00,54.0,72.0,0,0,0,0.0
Status,1732153131000,26,1,1,19,1575420030,0.00,204.0,71.0,0,0,0,0.0
Status,1732153131000,26,2,1,22,1575420030,0.00,32.0,62.0,0,0,0,0.0
Status,1732153131000,26,3,1,14,1575420030,0.00,63.0,46.0,0,0,0,0.0
Status,1732153131000,26,4,2,135,1575420030,0.00,197.0,45.0,0,0,0,0.0
Status,1732153131000,26,5,1,13,1575420030,22.90,225.0,40.0,1,0,0,17.9
Status,1732153131000,26,6,1,30,1575420030,24.40,137.0,28.0,1,0,0,19.4
Status,1732153131000,26,7,1,15,1575420030,18.20,265.0,27.0,1,0,0,13.200001
Status,1732153131000,26,8,1,24,1575420030,25.10,313.0,25.0,1,0,0,20.1
Status,1732153131000,26,9,1,6,1575420030,26.50,158.0,20.0,1,0,0,21.5
Status,1732153131000,26,10,1,2,1575420030,0.00,41.0,13.0,0,0,0,0.0
Status,1732153131000,26,11,1,12,1575420030,23.80,273.0,4.0,0,0,0,18.8
Status,1732153131000,26,12,3,20,1602000000,0.00,94.0,59.0,0,0,0,0.0
Status,1732153131000,26,13,3,11,1602000000,0.00,319.0,35.0,0,0,0,0.0
Status,1732153131000,26,14,3,9,1602000000,0.00,91.0,27.0,0,0,0,0.0
Status,1732153131000,26,15,3,8,1602000000,29.80,239.0,15.0,1,0,0,24.8
Status,1732153131000,26,16,3,19,1602000000,0.00,27.0,15.0,0,0,0,0.0
Status,1732153131000,26,17,6,21,1575420030,0.00,2.0,67.0,0,0,0,0.0
Status,1732153131000,26,18,6,19,1575420030,0.00,235.0,40.0,0,0,0,0.0
Status,1732153131000,26,19,6,13,1575420030,0.00,113.0,34.0,0,0,0,0.0
Status,1732153131000,26,20,6,27,1575420030,0.00,71.0,29.0,0,0,0,0.0
Status,1732153131000,26,21,6,4,1575420030,0.00,304.0,26.0,0,0,0,0.0
Status,1732153131000,26,22,6,15,1575420030,0.00,54.0,23.0,0,0,0,0.0
Status,1732153131000,26,23,6,29,1575420030,0.00,189.0,18.0,0,0,0,0.0
Status,1732153131000,26,24,6,26,1575420030,0.00,165.0,13.0,0,0,0,0.0
Status,1732153131000,26,25,6,6,1575420030,0.00,323.0,9.0,0,0,0,0.0
Fix,GPS,37.4254983333,-122.1582850000,24.7,0.0,5.0,0.0,1732153132000,1.6,179.9,32016091000000,61.3,0,,,
Raw,1732153132000,31764000000,,705016.6935820647,-1416188318236999936,0.0,139.7785412590893,1117.6279504775098,0.0,0,13,0.0,16431,351549927944064,797,17.945999145507812,815.7698344191115,0.14999,16,0.0,0.0,1575420030,,,,0,0.0,1,6.0,17.945999145507812,0.0,0.0,0.0,66.7128,C,32016091000000,
Raw,1732153132000,31764000000,,705016.6935820647,-1416188318236999936,0.0,139.7785412590893,1117.6279504775098,0.0,0,24,0.0,16431,351549924181907,487,20.09000015258789,-257.7328026864147,0.14999,16,0.0,0.0,1575420030,,,,0,4.101331957750997,1,6.0,20.09000015258789,0.0,0.0,0.0,66.7128,C,32016091000000,
Raw,1732153132000,31764000000,,705016.6935820647,-1416188318236999936,0.0,139.7785412590893,1117.6279504775098,0.0,0,15,0.0,16431,351549924728655,487,13.199999809265137,636.5277825857419,0.14999,16,0.0,0.0,1575420030,,,,0,0.0,1,6.0,13.199999809265137,0.0,0.0,0.0,66.7128,C,32016091000000,
Raw,1732153132000,31764000000,,705016.6935820647,-1416188318236999936,0.0,139.7785412590893,1117.6279504775098,0.0,0,30,0.0,16431,351549924554512,487,19.426000595092773,922.9436397732132,0.14999,16,0.0,0.0,1575420030,,,,0,3.1449189352620266,1,6.0,19.426000595092773,0.0,0.0,0.0,66.7128,C,32016091000000,
Raw,1732153132000,31764000000,,705016.6935820647,-1416188318236999936,0.0,139.7785412590893,1117.6279504775098,0.0,0,8,0.0,17,829060,316,5.0,990.4357149729084,0.14999,16,0.0,0.0,1605374980,,,,0,10.837732324482229,3,6.0,24.0,0.0,0.0,39.11545857358503,66.7128,C,32016091000000,
Raw,1732153132000,31764000000,,705016.6935820647,-1416188318236999936,0.0,139.7785412590893,1117.6279504775098,0.0,0,12,0.0,17,353851,487,18.802000045776367,-211.62170959546637,0.14999,16,0.0,0.0,1575420030,,,,0,0.09271567113885837,1,6.0,18.802000045776367,0.0,0.0,0.0,66.7128,C,32016091000000,
Raw,1732153132000,31764000000,,705016.6935820647,-1416188318236999936,0.0,139.7785412590893,1117.6279504775098,0.0,0,6,0.0,16431,351549922103402,487,21.54199981689453,-314.50466208677904,0.14999,16,0.0,0.0,1575420030,,,,0,4.812392498594903,1,6.0,21.54199981689453,0.0,0.0,0.0,66.7128,C,32016091000000,
Fix,FLP,37.4255006000,-122.1582905000,2.8319512750090965,0.03923588,5.114,,1732153132243,1.6,,32016091000000,10.770759,0,,,
Status,1732153132000,26,0,1,17,1575420030,0.00,54.0,72.0,0,0,0,0.0
Status,1732153132000,26,1,1,19,1575420030,0.00,204.0,71.0,0,0,0,0.0
Status,1732153132000,26,2,1,22,1575420030,0.00,32.0,62.0,0,0,0,0.0
Status,1732153132000,26,3,1,14,1575420030,0.00,63.0,46.0,0,0,0,0.0
Status,1732153132000,26,4,2,135,1575420030,0.00,197.0,45.0,0,0,0,0.0
Status,1732153132000,26,5,1,13,1575420030,22.90,225.0,40.0,1,0,0,17.9
Status,1732153132000,26,6,1,30,1575420030,28.60,137.0,28.0,1,0,0,23.6
Status,1732153132000,26,7,1,15,1575420030,25.50,265.0,27.0,1,0,0,20.5
Status,1732153132000,26,8,1,24,1575420030,25.10,313.0,25.0,1,0,0,20.1
Status,1732153132000,26,9,1,6,1575420030,29.00,158.0,20.0,1,0,0,24.0
Status,1732153132000,26,10,1,2,1575420030,0.00,41.0,13.0,0,0,0,0.0
Status,1732153132000,26,11,1,12,1575420030,23.20,273.0,4.0,0,0,0,18.2
Status,1732153132000,26,12,3,20,1602000000,0.00,94.0,59.0,0,0,0,0.0
Status,1732153132000,26,13,3,11,1602000000,0.00,319.0,35.0,0,0,0,0.0
Status,1732153132000,26,14,3,9,1602000000,0.00,91.0,27.0,0,0,0,0.0
Status,1732153132000,26,15,3,8,1602000000,29.00,239.0,15.0,1,0,0,24.0
Status,1732153132000,26,16,3,19,1602000000,0.00,27.0,15.0,0,0,0,0.0
Status,1732153132000,26,17,6,21,1575420030,0.00,2.0,67.0,0,0,0,0.0
Status,1732153132000,26,18,6,19,1575420030,0.00,235.0,40.0,0,0,0,0.0
Status,1732153132000,26,19,6,13,1575420030,0.00,113.0,34.0,0,0,0,0.0
Status,1732153132000,26,20,6,27,1575420030,0.00,71.0,29.0,0,0,0,0.0
Status,1732153132000,26,21,6,4,1575420030,0.00,304.0,26.0,0,0,0,0.0
Status,1732153132000,26,22,6,15,1575420030,0.00,54.0,23.0,0,0,0,0.0
Status,1732153132000,26,23,6,29,1575420030,0.00,189.0,18.0,0,0,0,0.0
Status,1732153132000,26,24,6,26,1575420030,0.00,165.0,13.0,0,0,0,0.0
Status,1732153132000,26,25,6,6,1575420030,0.00,323.0,9.0,0,0,0,0.0
Fix,GPS,37.4254933333,-122.1582816667,24.7,0.0,5.0,0.0,1732153133000,1.6,179.9,32017091000000,61.8,0,,,
Raw,1732153133000,32764000000,,704940.3907952881,-1416188318236999936,0.0,139.33840217320886,1115.5373064557637,0.0,0,13,0.0,16431,351550927941343,797,17.945999145507812,815.5525948649109,0.14999,16,0.0,0.0,1575420030,,,,0,0.0,1,6.0,17.945999145507812,0.0,0.0,0.0,66.7128,C,32017091000000,
Raw,1732153133000,32764000000,,704940.3907952881,-1416188318236999936,0.0,139.33840217320886,1115.5373064557637,0.0,0,24,0.0,16431,351550924182768,797,20.139999389648438,-258.23780567062323,0.14999,16,0.0,0.0,1575420030,,,,0,4.101331957750997,1,6.0,20.139999389648438,0.0,0.0,0.0,66.7128,C,32017091000000,
Raw,1732153133000,32764000000,,704940.3907952881,-1416188318236999936,0.0,139.33840217320886,1115.5373064557637,0.0,0,15,0.0,16431,351550924726541,487,20.51799964904785,636.4298482443701,0.14999,16,0.0,0.0,1575420030,,,,0,3.1449189352620266,1,6.0,20.51799964904785,0.0,0.0,0.0,66.7128,C,32017091000000,
Raw,1732153133000,32764000000,,704940.3907952881,-1416188318236999936,0.0,139.33840217320886,1115.5373064557637,0.0,0,30,0.0,16431,351550924551450,487,23.59600067138672,923.3194883603564,0.14999,16,0.0,0.0,1575420030,,,,0,8.012242727311518,1,6.0,23.59600067138672,0.0,0.0,0.0,66.7128,C,32017091000000,
Raw,1732153133000,32764000000,,704940.3907952881,-1416188318236999936,0.0,139.33840217320886,1115.5373064557637,0.0,0,8,0.0,17,825764,396,5.0,988.1163821646397,0.14999,16,0.0,0.0,1605374980,,,,0,9.860760973725888,3,6.0,21.0,0.0,0.0,39.563771404887675,66.7128,C,32017091000000,
Raw,1732153133000,32764000000,,704940.3907952881,-1416188318236999936,0.0,139.33840217320886,1115.5373064557637,0.0,0,12,0.0,17,354525,487,18.24799919128418,-211.63499670250258,0.14999,16,0.0,0.0,1575420030,,,,0,0.0,1,6.0,18.24799919128418,0.0,0.0,0.0,66.7128,C,32017091000000,
Raw,1732153133000,32764000000,,704940.3907952881,-1416188318236999936,0.0,139.33840217320886,1115.5373064557637,0.0,0,6,0.0,16431,351550922104505,396,24.038000106811523,-315.5463526950517,0.14999,16,0.0,0.0,1575420030,,,,0,8.669047174041006,1,6.0,24.038000106811523,0.0,0.0,0.0,66.7128,C,32017091000000,
Fix,FLP,37.4254969000,-122.1582867000,2.8319512750090965,0.051890023,5.085,,1732153133243,1.6,,32017091000000,9.62958,0,,,
Status,1732153133000,26,0,1,17,1575420030,0.00,54.0,72.0,0,0,0,0.0
Status,1732153133000,26,1,1,19,1575420030,0.00,204.0,71.0,0,0,0,0.0
Status,1732153133000,26,2,1,22,1575420030,0.00,32.0,62.0,0,0,0,0.0
Status,1732153133000,26,3,1,14,1575420030,0.00,63.0,46.0,0,0,0,0.0
Status,1732153133000,26,4,2,135,1575420030,0.00,197.0,45.0,0,0,0,0.0
Status,1732153133000,26,5,1,13,1575420030,21.90,225.0,40.0,1,0,0,16.9
Status,1732153133000,26,6,1,30,1575420030,25.40,137.0,28.0,1,0,0,20.4
Status,1732153133000,26,7,1,15,1575420030,25.50,265.0,27.0,1,0,0,20.5
Status,1732153133000,26,8,1,24,1575420030,25.20,313.0,25.0,1,0,0,20.2
Status,1732153133000,26,9,1,6,1575420030,29.50,158.0,20.0,1,0,0,24.5
Status,1732153133000,26,10,1,2,1575420030,0.00,41.0,13.0,0,0,0,0.0
Status,1732153133000,26,11,1,12,1575420030,0.00,273.0,4.0,0,0,0,0.0
Status,1732153133000,26,12,3,20,1602000000,0.00,94.0,59.0,0,0,0,0.0
Status,1732153133000,26,13,3,11,1602000000,0.00,319.0,35.0,0,0,0,0.0
Status,1732153133000,26,14,3,9,1602000000,0.00,91.0,27.0,0,0,0,0.0
Status,1732153133000,26,15,3,8,1602000000,0.00,239.0,15.0,0,0,0,0.0
Status,1732153133000,26,16,3,19,1602000000,0.00,27.0,15.0,0,0,0,0.0
Status,1732153133000,26,17,6,21,1575420030,0.00,2.0,67.0,0,0,0,0.0
Status,1732153133000,26,18,6,19,1575420030,0.00,235.0,40.0,0,0,0,0.0
Status,1732153133000,26,19,6,13,1575420030,0.00,113.0,34.0,0,0,0,0.0
Status,1732153133000,26,20,6,27,1575420030,0.00,71.0,29.0,0,0,0,0.0
Status,1732153133000,26,21,6,4,1575420030,0.00,304.0,26.0,0,0,0,0.0
Status,1732153133000,26,22,6,15,1575420030,0.00,54.0,23.0,0,0,0,0.0
Status,1732153133000,26,23,6,29,1575420030,0.00,189.0,18.0,0,0,0,0.0
Status,1732153133000,26,24,6,26,1575420030,0.00,165.0,13.0,0,0,0,0.0
Status,1732153133000,26,25,6,6,1575420030,0.00,323.0,9.0,0,0,0,0.0
Fix,GPS,37.4254916667,-122.1582733333,24.7,0.0,4.9,0.0,1732153134000,1.6,179.9,32018091000000,60.3,0,,,
Raw,1732153134000,33764000000,,704889.3659126008,-1416188318236999936,0.0,136.59074581271184,1115.3718067307282,0.0,0,13,0.0,16431,351551927938623,797,16.94300079345703,816.1543242716699,0.14999,16,0.0,0.0,1575420030,,,,0,0.0,1,6.0,16.94300079345703,0.0,0.0,0.0,66.7128,C,32018091000000,
Raw,1732153134000,33764000000,,704889.3659126008,-1416188318236999936,0.0,136.59074581271184,1115.3718067307282,0.0,0,24,0.0,16431,351551924183628,797,20.187000274658203,-258.0110421410996,0.14999,16,0.0,0.0,1575420030,,,,0,4.101331957750997,1,6.0,20.187000274658203,0.0,0.0,0.0,66.7128,C,32018091000000,
Raw,1732153134000,33764000000,,704889.3659126008,-1416188318236999936,0.0,136.59074581271184,1115.3718067307282,0.0,0,15,0.0,16431,351551924724416,797,20.51799964904785,637.091601924873,0.14999,16,0.0,0.0,1575420030,,,,0,3.1449189352620266,1,6.0,20.51799964904785,0.0,0.0,0.0,66.7128,C,32018091000000,
Raw,1732153134000,33764000000,,704889.3659126008,-1416188318236999936,0.0,136.59074581271184,1115.3718067307282,0.0,0,30,0.0,16431,351551924548367,487,20.420000076293945,923.4544965178643,0.14999,16,0.0,0.0,1575420030,,,,0,2.959117419857419,1,6.0,20.420000076293945,0.0,0.0,0.0,66.7128,C,32018091000000,
Raw,1732153134000,33764000000,,704889.3659126008,-1416188318236999936,0.0,136.59074581271184,1115.3718067307282,0.0,0,6,0.0,16431,351551922105590,487,24.514999389648438,-315.43229728325485,0.14999,16,0.0,0.0,1575420030,,,,0,9.36990215217537,1,6.0,24.514999389648438,0.0,0.0,0.0,66.7128,C,32018091000000,
Fix,FLP,37.4254942000,-122.1582807000,2.793259143017994,0.05144966,5.042,,1732153134243,1.6,,32018091000000,11.748342,0,,,
Status,1732153134000,26,0,1,17,1575420030,0.00,54.0,72.0,0,0,0,0.0
Status,1732153134000,26,1,1,19,1575420030,0.00,204.0,71.0,0,0,0,0.0
Status,1732153134000,26,2,1,22,1575420030,0.00,32.0,62.0,0,0,0,0.0
Status,1732153134000,26,3,1,14,1575420030,0.00,63.0,46.0,0,0,0,0.0
Status,1732153134000,26,4,2,135,1575420030,0.00,197.0,45.0,0,0,0,0.0
Status,1732153134000,26,5,1,13,1575420030,21.90,225.0,40.0,1,0,0,16.9
Status,1732153134000,26,6,1,30,1575420030,25.50,137.0,28.0,1,0,0,20.5
Status,1732153134000,26,7,1,15,1575420030,25.50,265.0,27.0,1,0,0,20.5
Status,1732153134000,26,8,1,24,1575420030,21.90,313.0,25.0,1,0,0,16.9
Status,1732153134000,26,9,1,6,1575420030,25.30,158.0,20.0,1,0,0,20.3
Status,1732153134000,26,10,1,2,1575420030,0.00,41.0,13.0,0,0,0,0.0
Status,1732153134000,26,11,1,12,1575420030,0.00,273.0,4.0,0,0,0,0.0
Status,1732153134000,26,12,3,20,1602000000,0.00,94.0,59.0,0,0,0,0.0
Status,1732153134000,26,13,3,11,1602000000,0.00,319.0,35.0,0,0,0,0.0
Status,1732153134000,26,14,3,9,1602000000,0.00,91.0,27.0,0,0,0,0.0
Status,1732153134000,26,15,3,8,1602000000,0.00,239.0,15.0,0,0,0,0.0
Status,1732153134000,26,16,3,19,1602000000,0.00,27.0,15.0,0,0,0,0.0
Status,1732153134000,26,17,6,21,1575420030,0.00,2.0,67.0,0,0,0,0.0
Status,1732153134000,26,18,6,19,1575420030,0.00,235.0,40.0,0,0,0,0.0
Status,1732153134000,26,19,6,13,1575420030,0.00,113.0,34.0,0,0,0,0.0
Status,1732153134000,26,20,6,27,1575420030,0.00,71.0,29.0,0,0,0,0.0
Status,1732153134000,26,21,6,4,1575420030,0.00,304.0,26.0,0,0,0,0.0
Status,1732153134000,26,22,6,15,1575420030,0.00,54.0,23.0,0,0,0,0.0
Status,1732153134000,26,23,6,29,1575420030,0.00,189.0,18.0,0,0,0,0.0
Status,1732153134000,26,24,6,26,1575420030,0.00,165.0,13.0,0,0,0,0.0
Status,1732153134000,26,25,6,6,1575420030,0.00,323.0,9.0,0,0,0,0.0
Fix,GPS,37.4254950000,-122.1582633333,24.7,0.0,4.9,0.0,1732153135000,2.6,179.9,32019091000000,60.0,0,,,
Raw,1732153135000,34764000000,,704826.874764141,-1416188318236999936,0.0,135.40893610241068,1116.9626152058886,0.0,0,13,0.0,16431,351552927935899,797,16.94300079345703,816.8774030615707,0.14999,16,0.0,0.0,1575420030,,,,0,0.0,1,6.0,16.94300079345703,0.0,0.0,0.0,66.7128,C,32019091000000,
Raw,1732153135000,34764000000,,704826.874764141,-1416188318236999936,0.0,135.40893610241068,1116.9626152058886,0.0,0,24,0.0,16431,351552924184522,797,16.85300064086914,-257.3102169325636,0.14999,16,0.0,0.0,1575420030,,,,0,0.0,1,6.0,16.85300064086914,0.0,0.0,0.0,66.7128,C,32019091000000,
Raw,1732153135000,34764000000,,704826.874764141,-1416188318236999936,0.0,135.40893610241068,1116.9626152058886,0.0,0,15,0.0,16431,351552924722290,797,20.51799964904785,637.3539061427977,0.14999,16,0.0,0.0,1575420030,,,,0,3.1449189352620266,1,6.0,20.51799964904785,0.0,0.0,0.0,66.7128,C,32019091000000,
Raw,1732153135000,34764000000,,704826.874764141,-1416188318236999936,0.0,135.40893610241068,1116.9626152058886,0.0,0,30,0.0,16431,351552924545290,396,20.4689998626709,923.9733441101035,0.14999,16,0.0,0.0,1575420030,,,,0,4.659333214024393,1,6.0,20.4689998626709,0.0,0.0,0.0,66.7128,C,32019091000000,
Raw,1732153135000,34764000000,,704826.874764141,-1416188318236999936,0.0,135.40893610241068,1116.9626152058886,0.0,0,6,0.0,16431,351552922106642,487,20.31800079345703,-315.0279232285583,0.14999,16,0.0,0.0,1575420030,,,,0,2.7692543491808337,1,6.0,20.31800079345703,0.0,0.0,0.0,66.7128,C,32019091000000,
Fix,FLP,37.4254944000,-122.1582729000,2.793259143017994,0.03376132,5.014,,1732153135244,2.6,,32019091000000,10.806811,0,,,
Fix,FLP,37.4254946000,-122.1582686000,2.591113045647348,0.019367272,4.94,,1732153136280,2.6,,32020128000000,11.318425,0,,,
Fix,NLP,37.4257054000,-122.1581045000,5.400000095367432,,98.4,,1732153136280,,,32020128000000,25.938673,0,,,
Status,1732153135000,26,0,1,17,1575420030,0.00,54.0,72.0,0,0,0,0.0
Status,1732153135000,26,1,1,19,1575420030,0.00,204.0,71.0,0,0,0,0.0
Status,1732153135000,26,2,1,22,1575420030,0.00,32.0,62.0,0,0,0,0.0
Status,1732153135000,26,3,1,14,1575420030,0.00,63.0,46.0,0,0,0,0.0
Status,1732153135000,26,4,2,135,1575420030,0.00,197.0,45.0,0,0,0,0.0
Status,1732153135000,26,5,1,13,1575420030,22.00,225.0,40.0,1,0,0,17.0
Status,1732153135000,26,6,1,30,1575420030,25.50,137.0,28.0,1,0,0,20.5
Status,1732153135000,26,7,1,15,1575420030,20.90,265.0,27.0,1,0,0,15.9
Status,1732153135000,26,8,1,24,1575420030,21.90,313.0,25.0,1,0,0,16.9
Status,1732153135000,26,9,1,6,1575420030,25.30,158.0,20.0,1,0,0,20.3
Status,1732153135000,26,10,1,2,1575420030,0.00,41.0,13.0,0,0,0,0.0
Status,1732153135000,26,11,1,12,1575420030,0.00,273.0,4.0,0,0,0,0.0
Status,1732153135000,26,12,3,20,1602000000,0.00,94.0,59.0,0,0,0,0.0
Status,1732153135000,26,13,3,11,1602000000,0.00,319.0,35.0,0,0,0,0.0
Status,1732153135000,26,14,3,9,1602000000,0.00,91.0,27.0,0,0,0,0.0
Status,1732153135000,26,15,3,8,1602000000,0.00,239.0,15.0,0,0,0,0.0
Status,1732153135000,26,16,3,19,1602000000,0.00,27.0,15.0,0,0,0,0.0
Status,1732153135000,26,17,6,21,1575420030,0.00,2.0,67.0,0,0,0,0.0
Status,1732153135000,26,18,6,19,1575420030,0.00,235.0,40.0,0,0,0,0.0
Status,1732153135000,26,19,6,13,1575420030,0.00,113.0,34.0,0,0,0,0.0
Status,1732153135000,26,20,6,27,1575420030,0.00,71.0,29.0,0,0,0,0.0
Status,1732153135000,26,21,6,4,1575420030,0.00,304.0,26.0,0,0,0,0.0
Status,1732153135000,26,22,6,15,1575420030,0.00,54.0,23.0,0,0,0,0.0
Status,1732153135000,26,23,6,29,1575420030,0.00,189.0,18.0,0,0,0,0.0
Status,1732153135000,26,24,6,26,1575420030,0.00,165.0,13.0,0,0,0,0.0
Status,1732153135000,26,25,6,6,1575420030,0.00,323.0,9.0,0,0,0,0.0
Fix,GPS,37.4254983333,-122.1582550000,24.7,0.0,4.9,0.0,1732153136000,3.0,179.9,32020091000000,51.5,0,,,
Raw,1732153136000,35764000000,,704759.4322736431,-1416188318236999936,0.0,97.03784218053397,1117.8011521429532,0.0,0,13,0.0,16431,351553927933158,797,16.959999084472656,816.924697729273,0.14999,16,0.0,0.0,1575420030,,,,0,0.0,1,6.0,16.959999084472656,0.0,0.0,0.0,66.7128,C,32020091000000,
Raw,1732153136000,35764000000,,704759.4322736431,-1416188318236999936,0.0,97.03784218053397,1117.8011521429532,0.0,0,24,0.0,16431,351553924185380,797,16.85300064086914,-257.0524191810114,0.14999,16,0.0,0.0,1575420030,,,,0,0.0,1,6.0,16.85300064086914,0.0,0.0,0.0,66.7128,C,32020091000000,
Raw,1732153136000,35764000000,,704759.4322736431,-1416188318236999936,0.0,97.03784218053397,1117.8011521429532,0.0,0,15,0.0,16431,351553924720142,1797,15.937000274658203,637.4740476071181,0.14999,16,0.0,0.0,1575420030,,,,0,0.0,1,6.0,15.937000274658203,0.0,0.0,0.0,66.7128,C,32020091000000,
Raw,1732153136000,35764000000,,704759.4322736431,-1416188318236999936,0.0,97.03784218053397,1117.8011521429532,0.0,0,30,0.0,16431,351553924542211,487,20.5049991607666,924.2376924983415,0.14999,16,0.0,0.0,1575420030,,,,0,4.2644520501092495,1,6.0,20.5049991607666,0.0,0.0,0.0,66.7128,C,32020091000000,
Raw,1732153136000,35764000000,,704759.4322736431,-1416188318236999936,0.0,97.03784218053397,1117.8011521429532,0.0,0,6,0.0,16431,351553922107686,487,20.26099967956543,-314.53969173260174,0.14999,16,0.0,0.0,1575420030,,,,0,0.843042896496641,1,6.0,20.26099967956543,0.0,0.0,0.0,66.7128,C,32020091000000,
Status,1732153136000,26,0,1,17,1575420030,0.00,54.0,72.0,0,0,0,0.0
Status,1732153136000,26,1,1,19,1575420030,0.00,204.0,71.0,0,0,0,0.0
Status,1732153136000,26,2,1,22,1575420030,0.00,32.0,62.0,0,0,0,0.0
Status,1732153136000,26,3,1,14,1575420030,0.00,63.0,46.0,0,0,0,0.0
Status,1732153136000,26,4,2,135,1575420030,0.00,197.0,45.0,0,0,0,0.0
Status,1732153136000,26,5,1,13,1575420030,22.00,225.0,40.0,1,0,0,17.0
Status,1732153136000,26,6,1,30,1575420030,25.60,137.0,28.0,1,0,0,20.6
Status,1732153136000,26,7,1,15,1575420030,20.90,265.0,27.0,1,0,0,15.9
Status,1732153136000,26,8,1,24,1575420030,21.80,313.0,25.0,1,0,0,16.8
Status,1732153136000,26,9,1,6,1575420030,25.20,158.0,20.0,1,0,0,20.2
Status,1732153136000,26,10,1,2,1575420030,0.00,41.0,13.0,0,0,0,0.0
Status,1732153136000,26,11,1,12,1575420030,0.00,273.0,4.0,0,0,0,0.0
Status,1732153136000,26,12,3,20,1602000000,0.00,94.0,59.0,0,0,0,0.0
Status,1732153136000,26,13,3,11,1602000000,0.00,319.0,35.0,0,0,0,0.0
Status,1732153136000,26,14,3,9,1602000000,0.00,91.0,27.0,0,0,0,0.0
Status,1732153136000,26,15,3,8,1602000000,0.00,239.0,15.0,0,0,0,0.0
Status,1732153136000,26,16,3,19,1602000000,0.00,27.0,15.0,0,0,0,0.0
Status,1732153136000,26,17,6,21,1575420030,0.00,2.0,67.0,0,0,0,0.0
Status,1732153136000,26,18,6,19,1575420030,0.00,235.0,40.0,0,0,0,0.0
Status,1732153136000,26,19,6,13,1575420030,0.00,113.0,34.0,0,0,0,0.0
Status,1732153136000,26,20,6,27,1575420030,0.00,71.0,29.0,0,0,0,0.0
Status,1732153136000,26,21,6,4,1575420030,0.00,304.0,26.0,0,0,0,0.0
Status,1732153136000,26,22,6,15,1575420030,0.00,54.0,23.0,0,0,0,0.0
Status,1732153136000,26,23,6,29,1575420030,0.00,189.0,18.0,0,0,0,0.0
Status,1732153136000,26,24,6,26,1575420030,0.00,165.0,13.0,0,0,0,0.0
Status,1732153136000,26,25,6,6,1575420030,0.00,323.0,9.0,0,0,0,0.0
Fix,GPS,37.4255000000,-122.1582500000,24.7,0.0,4.9,0.0,1732153137000,3.1,179.9,32021091000000,51.3,0,,,
Raw,1732153137000,36764000000,,704689.8007687705,-1416188318236999936,0.0,96.51643196595974,1117.5329751900865,0.0,0,13,0.0,16431,351554927930433,487,16.976999282836914,816.6683401886232,0.14999,16,0.0,0.0,1575420030,,,,0,0.0,1,6.0,16.976999282836914,0.0,0.0,0.0,66.7128,C,32021091000000,
Raw,1732153137000,36764000000,,704689.8007687705,-1416188318236999936,0.0,96.51643196595974,1117.5329751900865,0.0,0,24,0.0,16431,351554924186225,797,16.801000595092773,-256.7733899332509,0.14999,16,0.0,0.0,1575420030,,,,0,0.0,1,6.0,16.801000595092773,0.0,0.0,0.0,66.7128,C,32021091000000,
Raw,1732153137000,36764000000,,704689.8007687705,-1416188318236999936,0.0,96.51643196595974,1117.5329751900865,0.0,0,15,0.0,16431,351554924718016,797,15.937000274658203,637.5128868430701,0.14999,16,0.0,0.0,1575420030,,,,0,0.0,1,6.0,15.937000274658203,0.0,0.0,0.0,66.7128,C,32021091000000,
Raw,1732153137000,36764000000,,704689.8007687705,-1416188318236999936,0.0,96.51643196595974,1117.5329751900865,0.0,0,30,0.0,16431,351554924539129,396,20.589000701904297,924.364245224099,0.14999,16,0.0,0.0,1575420030,,,,0,5.88167813342218,1,6.0,20.589000701904297,0.0,0.0,0.0,66.7128,C,32021091000000,
Raw,1732153137000,36764000000,,704689.8007687705,-1416188318236999936,0.0,96.51643196595974,1117.5329751900865,0.0,0,6,0.0,16431,351554922108735,487,20.207000732421875,-314.54010985834765,0.14999,16,0.0,0.0,1575420030,,,,0,0.843042896496641,1,6.0,20.207000732421875,0.0,0.0,0.0,66.7128,C,32021091000000,
Fix,FLP,37.4254974000,-122.1582603000,2.7575433683745083,0.03241755,4.933,,1732153137243,3.1,,32021091000000,14.452141,0,,,
Status,1732153137000,26,0,1,17,1575420030,0.00,54.0,72.0,0,0,0,0.0
Status,1732153137000,26,1,1,19,1575420030,0.00,204.0,71.0,0,0,0,0.0
Status,1732153137000,26,2,1,22,1575420030,0.00,32.0,62.0,0,0,0,0.0
Status,1732153137000,26,3,1,14,1575420030,0.00,63.0,46.0,0,0,0,0.0
Status,1732153137000,26,4,2,135,1575420030,0.00,197.0,45.0,0,0,0,0.0
Status,1732153137000,26,5,1,13,1575420030,22.10,225.0,40.0,1,0,0,17.1
Status,1732153137000,26,6,1,30,1575420030,25.70,137.0,28.0,1,0,0,20.7
Status,1732153137000,26,7,1,15,1575420030,20.90,265.0,27.0,1,0,0,15.9
Status,1732153137000,26,8,1,24,1575420030,21.80,313.0,25.0,1,0,0,16.8
Status,1732153137000,26,9,1,6,1575420030,25.20,158.0,20.0,1,0,0,20.2
Status,1732153137000,26,10,1,2,1575420030,0.00,41.0,13.0,0,0,0,0.0
Status,1732153137000,26,11,1,12,1575420030,0.00,273.0,4.0,0,0,0,0.0
Status,1732153137000,26,12,3,20,1602000000,0.00,94.0,59.0,0,0,0,0.0
Status,1732153137000,26,13,3,11,1602000000,0.00,319.0,35.0,0,0,0,0.0
Status,1732153137000,26,14,3,9,1602000000,0.00,91.0,27.0,0,0,0,0.0
Status,1732153137000,26,15,3,8,1602000000,0.00,239.0,15.0,0,0,0,0.0
Status,1732153137000,26,16,3,19,1602000000,0.00,27.0,15.0,0,0,0,0.0
Status,1732153137000,26,17,6,21,1575420030,0.00,2.0,67.0,0,0,0,0.0
Status,1732153137000,26,18,6,19,1575420030,0.00,235.0,40.0,0,0,0,0.0
Status,1732153137000,26,19,6,13,1575420030,0.00,113.0,34.0,0,0,0,0.0
Status,1732153137000,26,20,6,27,1575420030,0.00,71.0,29.0,0,0,0,0.0
Status,1732153137000,26,21,6,4,1575420030,0.00,304.0,26.0,0,0,0,0.0
Status,1732153137000,26,22,6,15,1575420030,0.00,54.0,23.0,0,0,0,0.0
Status,1732153137000,26,23,6,29,1575420030,0.00,189.0,18.0,0,0,0,0.0
Status,1732153137000,26,24,6,26,1575420030,0.00,165.0,13.0,0,0,0,0.0
Status,1732153137000,26,25,6,6,1575420030,0.00,323.0,9.0,0,0,0,0.0
Fix,GPS,37.4255066667,-122.1582416667,24.7,0.0,4.9,0.0,1732153138000,3.3,179.9,32022091000000,51.3,0,,,
Raw,1732153138000,37764000000,,704624.5994120373,-1416188318236999936,0.0,96.39044072112468,1117.1522630893526,0.0,0,13,0.0,16431,351555927927688,797,17.08099937438965,817.0883242711666,0.14999,16,0.0,0.0,1575420030,,,,0,0.6000651049047407,1,6.0,17.08099937438965,0.0,0.0,0.0,66.7128,C,32022091000000,
Raw,1732153138000,37764000000,,704624.5994120373,-1416188318236999936,0.0,96.39044072112468,1117.1522630893526,0.0,0,24,0.0,16431,351555924187082,797,16.75200080871582,-257.1324205737259,0.14999,16,0.0,0.0,1575420030,,,,0,0.0,1,6.0,16.75200080871582,0.0,0.0,0.0,66.7128,C,32022091000000,
Raw,1732153138000,37764000000,,704624.5994120373,-1416188318236999936,0.0,96.39044072112468,1117.1522630893526,0.0,0,15,0.0,16431,351555924715890,797,15.937000274658203,637.1171540537888,0.14999,16,0.0,0.0,1575420030,,,,0,0.0,1,6.0,15.937000274658203,0.0,0.0,0.0,66.7128,C,32022091000000,
Raw,1732153138000,37764000000,,704624.5994120373,-1416188318236999936,0.0,96.39044072112468,1117.1522630893526,0.0,0,30,0.0,16431,351555924536043,487,20.655000686645508,924.1613148620914,0.14999,16,0.0,0.0,1575420030,,,,0,5.469621916990458,1,6.0,20.655000686645508,0.0,0.0,0.0,66.7128,C,32022091000000,
Raw,1732153138000,37764000000,,704624.5994120373,-1416188318236999936,0.0,96.39044072112468,1117.1522630893526,0.0,0,6,0.0,16431,351555922109793,487,20.165000915527344,-314.6409246215245,0.14999,16,0.0,0.0,1575420030,,,,0,1.1952217976605324,1,6.0,20.165000915527344,0.0,0.0,0.0,66.7128,C,32022091000000,
Fix,FLP,37.4255025000,-122.1582520000,2.538644712137292,0.11625456,4.916,0.0000000049990687,1732153138243,3.3,179.9,32022091000000,13.444064,0,,,
Status,1732153138000,26,0,1,17,1575420030,0.00,54.0,72.0,0,0,0,0.0
Status,1732153138000,26,1,1,19,1575420030,0.00,204.0,71.0,0,0,0,0.0
Status,1732153138000,26,2,1,22,1575420030,0.00,32.0,62.0,0,0,0,0.0
Status,1732153138000,26,3,1,14,1575420030,0.00,63.0,46.0,0,0,0,0.0
Status,1732153138000,26,4,2,138,1575420030,0.00,156.0,43.0,0,0,0,0.0
Status,1732153138000,26,5,1,13,1575420030,22.20,225.0,40.0,1,0,0,17.2
Status,1732153138000,26,6,1,30,1575420030,25.70,137.0,28.0,1,0,0,20.7
Status,1732153138000,26,7,1,15,1575420030,18.60,265.0,27.0,1,0,0,13.6
Status,1732153138000,26,8,1,24,1575420030,21.70,313.0,25.0,1,0,0,16.7
Status,1732153138000,26,9,1,6,1575420030,25.20,158.0,20.0,1,0,0,20.2
Status,1732153138000,26,10,1,2,1575420030,0.00,41.0,13.0,0,0,0,0.0
Status,1732153138000,26,11,1,12,1575420030,0.00,273.0,4.0,0,0,0,0.0
Status,1732153138000,26,12,3,20,1602000000,0.00,94.0,59.0,0,0,0,0.0
Status,1732153138000,26,13,3,11,1602000000,0.00,319.0,35.0,0,0,0,0.0
Status,1732153138000,26,14,3,9,1602000000,0.00,91.0,27.0,0,0,0,0.0
Status,1732153138000,26,15,3,8,1602000000,0.00,239.0,15.0,0,0,0,0.0
Status,1732153138000,26,16,3,19,1602000000,0.00,27.0,15.0,0,0,0,0.0
Status,1732153138000,26,17,6,21,1575420030,0.00,2.0,67.0,0,0,0,0.0
Status,1732153138000,26,18,6,19,1575420030,0.00,235.0,40.0,0,0,0,0.0
Status,1732153138000,26,19,6,13,1575420030,0.00,113.0,34.0,0,0,0,0.0
Status,1732153138000,26,20,6,27,1575420030,0.00,71.0,29.0,0,0,0,0.0
Status,1732153138000,26,21,6,4,1575420030,0.00,304.0,26.0,0,0,0,0.0
Status,1732153138000,26,22,6,15,1575420030,0.00,54.0,23.0,0,0,0,0.0
Status,1732153138000,26,23,6,29,1575420030,0.00,189.0,18.0,0,0,0,0.0
Status,1732153138000,26,24,6,26,1575420030,0.00,165.0,13.0,0,0,0,0.0
Status,1732153138000,26,25,6,6,1575420030,0.00,323.0,9.0,0,0,0,0.0
Fix,GPS,37.4255150000,-122.1582300000,24.7,0.0,4.9,0.0,1732153139000,3.4,179.9,32023091000000,51.5,0,,,
Raw,1732153139000,38764000000,,704560.3362043217,-1416188318236999936,0.0,96.43259685849159,1117.0597621532531,0.0,0,13,0.0,16431,351556927924963,797,17.179000854492188,817.2334603634083,0.14999,16,0.0,0.0,1575420030,,,,0,0.6000651049047407,1,6.0,17.179000854492188,0.0,0.0,0.0,66.7128,C,32023091000000,
Raw,1732153139000,38764000000,,704560.3362043217,-1416188318236999936,0.0,96.43259685849159,1117.0597621532531,0.0,0,24,0.0,16431,351556924187940,797,16.704999923706055,-257.29005397992825,0.14999,16,0.0,0.0,1575420030,,,,0,0.0,1,6.0,16.704999923706055,0.0,0.0,0.0,66.7128,C,32023091000000,
Raw,1732153139000,38764000000,,704560.3362043217,-1416188318236999936,0.0,96.43259685849159,1117.0597621532531,0.0,0,15,0.0,16431,351556924713765,487,13.600000381469727,637.2541134647774,0.14999,16,0.0,0.0,1575420030,,,,0,0.0,1,6.0,13.600000381469727,0.0,0.0,0.0,66.7128,C,32023091000000,
Raw,1732153139000,38764000000,,704560.3362043217,-1416188318236999936,0.0,96.43259685849159,1117.0597621532531,0.0,0,30,0.0,16431,351556924532960,487,20.718000411987305,923.8432605447141,0.14999,16,0.0,0.0,1575420030,,,,0,5.469621916990458,1,6.0,20.718000411987305,0.0,0.0,0.0,66.7128,C,32023091000000,
Raw,1732153139000,38764000000,,704560.3362043217,-1416188318236999936,0.0,96.43259685849159,1117.0597621532531,0.0,0,6,0.0,16431,351556922110842,487,20.20199966430664,-314.7672915136172,0.14999,16,0.0,0.0,1575420030,,,,0,3.765603610061402,1,6.0,20.20199966430664,0.0,0.0,0.0,66.7128,C,32023091000000,
Fix,FLP,37.4255097000,-122.1582421000,2.278982611595673,0.21890469,4.9,0.0000000031330245,1732153139243,3.4,179.9,32023091000000,13.24905,0,,,
Status,1732153139000,26,0,1,17,1575420030,0.00,54.0,72.0,0,0,0,0.0
Status,1732153139000,26,1,1,19,1575420030,0.00,204.0,71.0,0,0,0,0.0
Status,1732153139000,26,2,1,22,1575420030,0.00,32.0,62.0,0,0,0,0.0
Status,1732153139000,26,3,1,14,1575420030,0.00,63.0,46.0,0,0,0,0.0
Status,1732153139000,26,4,2,138,1575420030,0.00,156.0,43.0,0,0,0,0.0
Status,1732153139000,26,5,1,13,1575420030,22.30,225.0,40.0,1,0,0,17.3
Status,1732153139000,26,6,1,30,1575420030,30.50,137.0,28.0,1,0,0,25.5
Status,1732153139000,26,7,1,15,1575420030,30.40,265.0,27.0,1,0,0,25.4
Status,1732153139000,26,8,1,24,1575420030,25.50,313.0,25.0,1,0,0,20.5
Status,1732153139000,26,9,1,6,1575420030,25.30,158.0,20.0,1,0,0,20.3
Status,1732153139000,26,10,1,2,1575420030,21.60,41.0,13.0,1,0,0,16.6
Status,1732153139000,26,11,1,12,1575420030,0.00,273.0,4.0,0,0,0,0.0
Status,1732153139000,26,12,3,20,1602000000,0.00,94.0,59.0,0,0,0,0.0
Status,1732153139000,26,13,3,11,1602000000,0.00,319.0,35.0,0,0,0,0.0
Status,1732153139000,26,14,3,9,1602000000,0.00,91.0,27.0,0,0,0,0.0
Status,1732153139000,26,15,3,8,1602000000,24.10,239.0,15.0,1,0,0,19.1
Status,1732153139000,26,16,3,19,1602000000,0.00,27.0,15.0,0,0,0,0.0
Status,1732153139000,26,17,6,21,1575420030,0.00,2.0,67.0,0,0,0,0.0
Status,1732153139000,26,18,6,19,1575420030,0.00,235.0,40.0,0,0,0,0.0
Status,1732153139000,26,19,6,13,1575420030,0.00,113.0,34.0,0,0,0,0.0
Status,1732153139000,26,20,6,27,1575420030,0.00,71.0,29.0,0,0,0,0.0
Status,1732153139000,26,21,6,4,1575420030,0.00,304.0,26.0,0,0,0,0.0
Status,1732153139000,26,22,6,15,1575420030,0.00,54.0,23.0,0,0,0,0.0
Status,1732153139000,26,23,6,29,1575420030,0.00,189.0,18.0,0,0,0,0.0
Status,1732153139000,26,24,6,26,1575420030,0.00,165.0,13.0,0,0,0,0.0
Status,1732153139000,26,25,6,6,1575420030,0.00,323.0,9.0,0,0,0,0.0
Fix,GPS,37.4255250000,-122.1582200000,24.7,0.0,4.8,0.0,1732153140000,2.9,179.9,32024091000000,50.4,0,,,
Raw,1732153140000,39764000000,,704514.6274994016,-1416188318236999936,0.0,93.54555039633868,1115.2041613941376,0.0,0,13,0.0,16431,351557927922251,487,17.28499984741211,817.0851650988642,0.14999,16,0.0,0.0,1575420030,,,,0,1.0794082200426236,1,6.0,17.28499984741211,0.0,0.0,0.0,66.7128,C,32024091000000,
Raw,1732153140000,39764000000,,704514.6274994016,-1416188318236999936,0.0,93.54555039633868,1115.2041613941376,0.0,0,24,0.0,16431,351557924188816,396,20.4689998626709,-257.52448314812665,0.14999,16,0.0,0.0,1575420030,,,,0,3.052514982527123,1,6.0,20.4689998626709,0.0,0.0,0.0,66.7128,C,32024091000000,
Raw,1732153140000,39764000000,,704514.6274994016,-1416188318236999936,0.0,93.54555039633868,1115.2041613941376,0.0,0,2,0.0,16431,351557917917307,797,16.562000274658203,780.0265873233717,0.14999,16,0.0,0.0,1575420030,,,,0,0.0,1,6.0,16.562000274658203,0.0,0.0,0.0,66.7128,C,32024091000000,
Raw,1732153140000,39764000000,,704514.6274994016,-1416188318236999936,0.0,93.54555039633868,1115.2041613941376,0.0,0,15,0.0,16431,351557924711641,316,25.368000030517578,636.7968697324333,0.14999,16,0.0,0.0,1575420030,,,,0,10.543757376258535,1,6.0,25.368000030517578,0.0,0.0,0.0,66.7128,C,32024091000000,
Raw,1732153140000,39764000000,,704514.6274994016,-1416188318236999936,0.0,93.54555039633868,1115.2041613941376,0.0,0,30,0.0,16431,351557924529860,316,25.54599952697754,923.4020914243788,0.14999,16,0.0,0.0,1575420030,,,,0,10.814006853194147,1,6.0,25.54599952697754,0.0,0.0,0.0,66.7128,C,32024091000000,
Raw,1732153140000,39764000000,,704514.6274994016,-1416188318236999936,0.0,93.54555039633868,1115.2041613941376,0.0,0,8,0.0,17,802704,487,5.0,990.467993783025,0.14999,16,0.0,0.0,1605374980,,,,0,2.8606926880720183,3,6.0,20.0,0.0,0.0,39.38102357413067,66.7128,C,32024091000000,
Raw,1732153140000,39764000000,,704514.6274994016,-1416188318236999936,0.0,93.54555039633868,1115.2041613941376,0.0,0,6,0.0,16431,351557922111900,797,20.312999725341797,-315.62463512636646,0.14999,16,0.0,0.0,1575420030,,,,0,6.275068669285258,1,6.0,20.312999725341797,0.0,0.0,0.0,66.7128,C,32024091000000,
Fix,FLP,37.4255187000,-122.1582322000,2.1919810164020115,0.3091386,4.883,0.000000002232953,1732153140244,2.9,179.9,32024091000000,13.097244,0,,,
Fix,FLP,37.4255229000,-122.1582269000,2.1919810164020115,0.28141978,4.866,0.0000000013847372,1732153141130,2.9,179.9,32024977000000,12.736633,0,,,
Fix,NLP,37.4256978000,-122.1580919000,5.400000095367432,,98.4,,1732153141129,,,32024977000000,36.42973,0,,,
Status,1732153140000,26,0,1,17,1575420030,0.00,54.0,72.0,0,0,0,0.0
Status,1732153140000,26,1,1,19,1575420030,0.00,204.0,71.0,0,0,0,0.0
Status,1732153140000,26,2,1,22,1575420030,0.00,32.0,62.0,0,0,0,0.0
Status,1732153140000,26,3,1,14,1575420030,0.00,63.0,46.0,0,0,0,0.0
Status,1732153140000,26,4,2,138,1575420030,0.00,156.0,43.0,0,0,0,0.0
Status,1732153140000,26,5,1,13,1575420030,22.30,225.0,40.0,1,0,0,17.3
Status,1732153140000,26,6,1,30,1575420030,28.60,137.0,28.0,1,0,0,23.6
Status,1732153140000,26,7,1,15,1575420030,30.50,265.0,27.0,1,0,0,25.5
Status,1732153140000,26,8,1,24,1575420030,25.50,313.0,25.0,1,0,0,20.5
Status,1732153140000,26,9,1,6,1575420030,0.00,158.0,20.0,0,0,0,0.0
Status,1732153140000,26,10,1,2,1575420030,20.80,41.0,13.0,1,0,0,15.799999
Status,1732153140000,26,11,1,12,1575420030,0.00,273.0,4.0,0,0,0,0.0
Status,1732153140000,26,12,3,20,1602000000,0.00,94.0,59.0,0,0,0,0.0
Status,1732153140000,26,13,3,11,1602000000,0.00,319.0,35.0,0,0,0,0.0
Status,1732153140000,26,14,3,9,1602000000,0.00,91.0,27.0,0,0,0,0.0
Status,1732153140000,26,15,3,8,1602000000,23.10,239.0,15.0,1,0,0,18.1
Status,1732153140000,26,16,3,19,1602000000,0.00,27.0,15.0,0,0,0,0.0
Status,1732153140000,26,17,6,21,1575420030,0.00,2.0,67.0,0,0,0,0.0
Status,1732153140000,26,18,6,19,1575420030,0.00,235.0,40.0,0,0,0,0.0
Status,1732153140000,26,19,6,13,1575420030,0.00,113.0,34.0,0,0,0,0.0
Status,1732153140000,26,20,6,27,1575420030,0.00,71.0,29.0,0,0,0,0.0
Status,1732153140000,26,21,6,4,1575420030,0.00,304.0,26.0,0,0,0,0.0
Status,1732153140000,26,22,6,15,1575420030,0.00,54.0,23.0,0,0,0,0.0
Status,1732153140000,26,23,6,29,1575420030,0.00,189.0,18.0,0,0,0,0.0
Status,1732153140000,26,24,6,26,1575420030,0.00,165.0,13.0,0,0,0,0.0
Status,1732153140000,26,25,6,6,1575420030,0.00,323.0,9.0,0,0,0,0.0
Fix,GPS,37.4254783333,-122.1582833333,24.7,0.0,4.7,0.0,1732153141000,3.1,179.9,32025091000000,48.5,0,,,
Raw,1732153141000,40764000000,,704477.6227325905,-1416188318236999936,0.0,88.0438499962145,1111.7393734294021,0.0,0,13,0.0,16431,351558927919528,487,17.343000411987305,815.9099530024024,0.14999,16,0.0,0.0,1575420030,,,,0,0.0,1,6.0,17.343000411987305,0.0,0.0,0.0,66.7128,C,32025091000000,
Raw,1732153141000,40764000000,,704477.6227325905,-1416188318236999936,0.0,88.0438499962145,1111.7393734294021,0.0,0,24,0.0,16431,351558924189694,797,20.5,-258.29025722252493,0.14999,16,0.0,0.0,1575420030,,,,0,4.101331957750997,1,6.0,20.5,0.0,0.0,0.0,66.7128,C,32025091000000,
Raw,1732153141000,40764000000,,704477.6227325905,-1416188318236999936,0.0,88.0438499962145,1111.7393734294021,0.0,0,2,0.0,16431,351558917914777,797,15.82800006866455,779.4968684617392,0.14999,16,0.0,0.0,1575420030,,,,0,0.0,1,6.0,15.82800006866455,0.0,0.0,0.0,66.7128,C,32025091000000,
Raw,1732153141000,40764000000,,704477.6227325905,-1416188318236999936,0.0,88.0438499962145,1111.7393734294021,0.0,0,15,0.0,16431,351558924709514,797,25.4950008392334,635.8961804173596,0.14999,16,0.0,0.0,1575420030,,,,0,10.73764689205378,1,6.0,25.4950008392334,0.0,0.0,0.0,66.7128,C,32025091000000,
Raw,1732153141000,40764000000,,704477.6227325905,-1416188318236999936,0.0,88.0438499962145,1111.7393734294021,0.0,0,30,0.0,16431,351558924526780,487,23.59600067138672,922.3660687428838,0.14999,16,0.0,0.0,1575420030,,,,0,8.012242727311518,1,6.0,23.59600067138672,0.0,0.0,0.0,66.7128,C,32025091000000,
Raw,1732153141000,40764000000,,704477.6227325905,-1416188318236999936,0.0,88.0438499962145,1111.7393734294021,0.0,0,8,0.0,17,799424,487,5.0,988.6316577464736,0.14999,16,0.0,0.0,1605374980,,,,0,1.135060958760743,3,6.0,19.0,0.0,0.0,38.255615474086206,66.7128,C,32025091000000,
Status,1732153141000,26,0,1,17,1575420030,0.00,54.0,72.0,0,0,0,0.0
Status,1732153141000,26,1,1,19,1575420030,0.00,204.0,71.0,0,0,0,0.0
Status,1732153141000,26,2,1,22,1575420030,0.00,32.0,62.0,0,0,0,0.0
Status,1732153141000,26,3,1,14,1575420030,0.00,63.0,46.0,0,0,0,0.0
Status,1732153141000,26,4,2,138,1575420030,0.00,156.0,43.0,0,0,0,0.0
Status,1732153141000,26,5,1,13,1575420030,22.40,225.0,40.0,1,0,0,17.4
Status,1732153141000,26,6,1,30,1575420030,28.30,137.0,28.0,1,0,0,23.3
Status,1732153141000,26,7,1,15,1575420030,30.50,265.0,27.0,1,0,0,25.5
Status,1732153141000,26,8,1,24,1575420030,25.50,313.0,25.0,1,0,0,20.5
Status,1732153141000,26,9,1,6,1575420030,28.40,158.0,20.0,1,0,0,23.4
Status,1732153141000,26,10,1,2,1575420030,20.80,41.0,13.0,1,0,0,15.799999
Status,1732153141000,26,11,1,12,1575420030,0.00,273.0,4.0,0,0,0,0.0
Status,1732153141000,26,12,3,20,1602000000,0.00,94.0,59.0,0,0,0,0.0
Status,1732153141000,26,13,3,11,1602000000,0.00,319.0,35.0,0,0,0,0.0
Status,1732153141000,26,14,3,9,1602000000,0.00,91.0,27.0,0,0,0,0.0
Status,1732153141000,26,15,3,8,1602000000,21.50,239.0,15.0,1,0,0,16.5
Status,1732153141000,26,16,3,19,1602000000,0.00,27.0,15.0,0,0,0,0.0
Status,1732153141000,26,17,6,21,1575420030,0.00,2.0,67.0,0,0,0,0.0
Status,1732153141000,26,18,6,19,1575420030,0.00,235.0,40.0,0,0,0,0.0
Status,1732153141000,26,19,6,13,1575420030,0.00,113.0,34.0,0,0,0,0.0
Status,1732153141000,26,20,6,27,1575420030,0.00,71.0,29.0,0,0,0,0.0
Status,1732153141000,26,21,6,4,1575420030,0.00,304.0,26.0,0,0,0,0.0
Status,1732153141000,26,22,6,15,1575420030,0.00,54.0,23.0,0,0,0,0.0
Status,1732153141000,26,23,6,29,1575420030,0.00,189.0,18.0,0,0,0,0.0
Status,1732153141000,26,24,6,26,1575420030,0.00,165.0,13.0,0,0,0,0.0
Status,1732153141000,26,25,6,6,1575420030,0.00,323.0,9.0,0,0,0,0.0
Fix,GPS,37.4254866667,-122.1582800000,24.7,0.0,4.7,0.0,1732153142000,3.0,179.9,32026091000000,49.2,0,,,
Raw,1732153142000,41764000000,,704464.9056014612,-1416188318236999936,0.0,89.9448652960673,1107.4971375530627,0.0,0,13,0.0,16431,351559927916807,797,17.398000717163086,815.0411806192653,0.14999,16,0.0,0.0,1575420030,,,,0,0.0,1,6.0,17.398000717163086,0.0,0.0,0.0,66.7128,C,32026091000000,
Raw,1732153142000,41764000000,,704464.9056014612,-1416188318236999936,0.0,89.9448652960673,1107.4971375530627,0.0,0,24,0.0,16431,351559924190557,797,20.52899932861328,-259.7162983081074,0.14999,16,0.0,0.0,1575420030,,,,0,4.101331957750997,1,6.0,20.52899932861328,0.0,0.0,0.0,66.7128,C,32026091000000,
Raw,1732153142000,41764000000,,704464.9056014612,-1416188318236999936,0.0,89.9448652960673,1107.4971375530627,0.0,0,2,0.0,16431,351559917912177,797,15.82800006866455,778.0145662341257,0.14999,16,0.0,0.0,1575420030,,,,0,0.0,1,6.0,15.82800006866455,0.0,0.0,0.0,66.7128,C,32026091000000,
Raw,1732153142000,41764000000,,704464.9056014612,-1416188318236999936,0.0,89.9448652960673,1107.4971375530627,0.0,0,15,0.0,16431,351559924707394,797,25.4950008392334,634.8123055671678,0.14999,16,0.0,0.0,1575420030,,,,0,10.73764689205378,1,6.0,25.4950008392334,0.0,0.0,0.0,66.7128,C,32026091000000,
Raw,1732153142000,41764000000,,704464.9056014612,-1416188318236999936,0.0,89.9448652960673,1107.4971375530627,0.0,0,30,0.0,16431,351559924523705,396,23.263999938964844,921.2275587952283,0.14999,16,0.0,0.0,1575420030,,,,0,7.526569602726113,1,6.0,23.263999938964844,0.0,0.0,0.0,66.7128,C,32026091000000,
Raw,1732153142000,41764000000,,704464.9056014612,-1416188318236999936,0.0,89.9448652960673,1107.4971375530627,0.0,0,8,0.0,17,796121,797,5.0,985.8822143525546,0.14999,16,0.0,0.0,1605374980,,,,0,0.0,3,6.0,17.0,0.0,0.0,36.857195538680635,66.7128,C,32026091000000,
Raw,1732153142000,41764000000,,704464.9056014612,-1416188318236999936,0.0,89.9448652960673,1107.4971375530627,0.0,0,6,0.0,16431,351559922113998,487,23.430999755859375,-317.9261850654365,0.14999,16,0.0,0.0,1575420030,,,,0,7.745783499894585,1,6.0,23.430999755859375,0.0,0.0,0.0,66.7128,C,32026091000000,
Fix,FLP,37.4254967000,-122.1582593000,2.8288712482601284,0.20828314,4.814,180.0,1732153142244,3.0,179.9,32026091000000,11.315632,0,,,
Status,1732153142000,26,0,1,17,1575420030,0.00,54.0,72.0,0,0,0,0.0
Status,1732153142000,26,1,1,19,1575420030,0.00,204.0,71.0,0,0,0,0.0
Status,1732153142000,26,2,1,22,1575420030,0.00,32.0,62.0,0,0,0,0.0
Status,1732153142000,26,3,1,14,1575420030,0.00,63.0,46.0,0,0,0,0.0
Status,1732153142000,26,4,2,138,1575420030,0.00,156.0,43.0,0,0,0,0.0
Status,1732153142000,26,5,1,13,1575420030,25.30,225.0,40.0,1,0,0,20.3
Status,1732153142000,26,6,1,30,1575420030,27.70,137.0,28.0,1,0,0,22.7
Status,1732153142000,26,7,1,15,1575420030,21.90,265.0,27.0,1,0,0,16.9
Status,1732153142000,26,8,1,24,1575420030,22.60,313.0,25.0,1,0,0,17.6
Status,1732153142000,26,9,1,6,1575420030,28.10,158.0,20.0,1,0,0,23.1
Status,1732153142000,26,10,1,2,1575420030,20.80,41.0,13.0,1,0,0,15.799999
Status,1732153142000,26,11,1,12,1575420030,0.00,273.0,4.0,0,0,0,0.0
Status,1732153142000,26,12,3,20,1602000000,0.00,94.0,59.0,0,0,0,0.0
Status,1732153142000,26,13,3,11,1602000000,0.00,319.0,35.0,0,0,0,0.0
Status,1732153142000,26,14,3,9,1602000000,0.00,91.0,27.0,0,0,0,0.0
Status,1732153142000,26,15,3,8,1602000000,21.50,239.0,15.0,1,0,0,16.5
Status,1732153142000,26,16,3,19,1602000000,0.00,27.0,15.0,0,0,0,0.0
Status,1732153142000,26,17,6,21,1575420030,0.00,2.0,67.0,0,0,0,0.0
Status,1732153142000,26,18,6,19,1575420030,0.00,235.0,40.0,0,0,0,0.0
Status,1732153142000,26,19,6,13,1575420030,0.00,113.0,34.0,0,0,0,0.0
Status,1732153142000,26,20,6,27,1575420030,0.00,71.0,29.0,0,0,0,0.0
Status,1732153142000,26,21,6,4,1575420030,0.00,304.0,26.0,0,0,0,0.0
Status,1732153142000,26,22,6,15,1575420030,0.00,54.0,23.0,0,0,0,0.0
Status,1732153142000,26,23,6,29,1575420030,0.00,189.0,18.0,0,0,0,0.0
Status,1732153142000,26,24,6,26,1575420030,0.00,165.0,13.0,0,0,0,0.0
Status,1732153142000,26,25,6,6,1575420030,0.00,323.0,9.0,0,0,0,0.0
Fix,GPS,37.4254966667,-122.1582733333,24.7,0.0,4.7,0.0,1732153143000,3.0,179.9,32027091000000,48.2,0,,,
Raw,1732153143000,42764000000,,704421.8549854247,-1416188318236999936,0.0,86.71285234973512,1101.7831616684543,0.0,0,13,0.0,16431,351560927914066,487,20.266000747680664,813.2482574208683,0.14999,16,0.0,0.0,1575420030,,,,0,2.6727434713950062,1,6.0,20.266000747680664,0.0,0.0,0.0,66.7128,C,32027091000000,
Raw,1732153143000,42764000000,,704421.8549854247,-1416188318236999936,0.0,86.71285234973512,1101.7831616684543,0.0,0,24,0.0,16431,351560924191407,797,17.632999420166016,-261.4164905077483,0.14999,16,0.0,0.0,1575420030,,,,0,0.0,1,6.0,17.632999420166016,0.0,0.0,0.0,66.7128,C,32027091000000,
Raw,1732153143000,42764000000,,704421.8549854247,-1416188318236999936,0.0,86.71285234973512,1101.7831616684543,0.0,0,2,0.0,16431,351560917909584,797,15.82800006866455,776.5623690602167,0.14999,16,0.0,0.0,1575420030,,,,0,0.0,1,6.0,15.82800006866455,0.0,0.0,0.0,66.7128,C,32027091000000,
Raw,1732153143000,42764000000,,704421.8549854247,-1416188318236999936,0.0,86.71285234973512,1101.7831616684543,0.0,0,15,0.0,16431,351560924705284,797,16.94300079345703,632.5801645019162,0.14999,16,0.0,0.0,1575420030,,,,0,0.0,1,6.0,16.94300079345703,0.0,0.0,0.0,66.7128,C,32027091000000,
Raw,1732153143000,42764000000,,704421.8549854247,-1416188318236999936,0.0,86.71285234973512,1101.7831616684543,0.0,0,30,0.0,16431,351560924520637,396,22.735000610351562,920.2274949278803,0.14999,16,0.0,0.0,1575420030,,,,0,6.712580051967347,1,6.0,22.735000610351562,0.0,0.0,0.0,66.7128,C,32027091000000,
Raw,1732153143000,42764000000,,704421.8549854247,-1416188318236999936,0.0,86.71285234973512,1101.7831616684543,0.0,0,8,0.0,17,792829,797,5.0,986.4021402714392,0.14999,16,0.0,0.0,1605374980,,,,0,0.0,3,6.0,15.0,0.0,0.0,35.120387174885884,66.7128,C,32027091000000,
Raw,1732153143000,42764000000,,704421.8549854247,-1416188318236999936,0.0,86.71285234973512,1101.7831616684543,0.0,0,6,0.0,16431,351560922115048,396,23.125999450683594,-319.28755603565395,0.14999,16,0.0,0.0,1575420030,,,,0,7.30167963873286,1,6.0,23.125999450683594,0.0,0.0,0.0,66.7128,C,32027091000000,
Fix,FLP,37.4254960000,-122.1582654000,2.5702109335478367,0.14943641,4.785,180.0,1732153143243,3.0,179.9,32027091000000,10.316943,0,,,
Status,1732153143000,26,0,1,17,1575420030,0.00,54.0,72.0,0,0,0,0.0
Status,1732153143000,26,1,1,19,1575420030,0.00,204.0,71.0,0,0,0,0.0
Status,1732153143000,26,2,1,22,1575420030,0.00,32.0,62.0,0,0,0,0.0
Status,1732153143000,26,3,1,14,1575420030,0.00,63.0,46.0,0,0,0,0.0
Status,1732153143000,26,4,2,138,1575420030,0.00,156.0,43.0,0,0,0,0.0
Status,1732153143000,26,5,1,13,1575420030,25.30,225.0,40.0,1,0,0,20.3
Status,1732153143000,26,6,1,30,1575420030,27.10,137.0,28.0,1,0,0,22.1
Status,1732153143000,26,7,1,15,1575420030,23.50,265.0,27.0,1,0,0,18.5
Status,1732153143000,26,8,1,24,1575420030,22.60,313.0,25.0,1,0,0,17.6
Status,1732153143000,26,9,1,6,1575420030,29.80,158.0,20.0,1,0,0,24.8
Status,1732153143000,26,10,1,2,1575420030,32.10,41.0,13.0,1,0,0,27.099998
Status,1732153143000,26,11,1,12,1575420030,0.00,273.0,4.0,0,0,0,0.0
Status,1732153143000,26,12,3,20,1602000000,0.00,94.0,59.0,0,0,0,0.0
Status,1732153143000,26,13,3,11,1602000000,0.00,319.0,35.0,0,0,0,0.0
Status,1732153143000,26,14,3,9,1602000000,0.00,91.0,27.0,0,0,0,0.0
Status,1732153143000,26,15,3,8,1602000000,0.00,239.0,15.0,0,0,0,0.0
Status,1732153143000,26,16,3,19,1602000000,0.00,27.0,15.0,0,0,0,0.0
Status,1732153143000,26,17,6,21,1575420030,0.00,2.0,67.0,0,0,0,0.0
Status,1732153143000,26,18,6,19,1575420030,0.00,235.0,40.0,0,0,0,0.0
Status,1732153143000,26,19,6,13,1575420030,0.00,113.0,34.0,0,0,0,0.0
Status,1732153143000,26,20,6,27,1575420030,0.00,71.0,29.0,0,0,0,0.0
Status,1732153143000,26,21,6,4,1575420030,0.00,304.0,26.0,0,0,0,0.0
Status,1732153143000,26,22,6,15,1575420030,0.00,54.0,23.0,0,0,0,0.0
Status,1732153143000,26,23,6,29,1575420030,0.00,189.0,18.0,0,0,0,0.0
Status,1732153143000,26,24,6,26,1575420030,0.00,165.0,13.0,0,0,0,0.0
Status,1732153143000,26,25,6,6,1575420030,0.00,323.0,9.0,0,0,0,0.0
Fix,GPS,37.4252683333,-122.1585733333,24.7,0.0,4.3,0.0,1732153144000,2.5,94.8,32028091000000,48.1,0,,,
Raw,1732153144000,43764000000,,704219.6838721007,-1416188318236999936,0.0,84.00756208020192,1097.8384775629038,0.0,0,13,0.0,16431,351561927911366,487,20.29800033569336,811.4711300839828,0.14999,16,0.0,0.0,1575420030,,,,0,3.765603610061402,1,6.0,20.29800033569336,0.0,0.0,0.0,66.7128,C,32028091000000,
Raw,1732153144000,43764000000,,704219.6838721007,-1416188318236999936,0.0,84.00756208020192,1097.8384775629038,0.0,0,24,0.0,16431,351561924192282,797,17.632999420166016,-263.1219789668371,0.14999,16,0.0,0.0,1575420030,,,,0,0.0,1,6.0,17.632999420166016,0.0,0.0,0.0,66.7128,C,32028091000000,
Raw,1732153144000,43764000000,,704219.6838721007,-1416188318236999936,0.0,84.00756208020192,1097.8384775629038,0.0,0,2,0.0,16431,351561917906948,235,27.051000595092773,775.6626553718835,0.14999,16,0.0,0.0,1575420030,,,,0,12.839199114911771,1,6.0,27.051000595092773,0.0,0.0,0.0,66.7128,C,32028091000000,
Raw,1732153144000,43764000000,,704219.6838721007,-1416188318236999936,0.0,84.00756208020192,1097.8384775629038,0.0,0,15,0.0,16431,351561924703183,487,18.527000427246094,631.7020075187046,0.14999,16,0.0,0.0,1575420030,,,,0,0.0,1,6.0,18.527000427246094,0.0,0.0,0.0,66.7128,C,32028091000000,
Raw,1732153144000,43764000000,,704219.6838721007,-1416188318236999936,0.0,84.00756208020192,1097.8384775629038,0.0,0,30,0.0,16431,351561924517570,396,22.124000549316406,919.1622963610051,0.14999,16,0.0,0.0,1575420030,,,,0,5.746486460476246,1,6.0,22.124000549316406,0.0,0.0,0.0,66.7128,C,32028091000000,
Raw,1732153144000,43764000000,,704219.6838721007,-1416188318236999936,0.0,84.00756208020192,1097.8384775629038,0.0,0,6,0.0,16431,351561922116135,396,24.829999923706055,-319.7972048614835,0.14999,16,0.0,0.0,1575420030,,,,0,9.807571036301544,1,6.0,24.829999923706055,0.0,0.0,0.0,66.7128,C,32028091000000,
Fix,FLP,37.4253738000,-122.1584023000,2.9123404806544606,2.1725702,4.7,180.0,1732153144243,2.5,94.8,32028091000000,9.66667,0,,,
Status,1732153144000,26,0,1,17,1575420030,0.00,54.0,72.0,0,0,0,0.0
Status,1732153144000,26,1,1,19,1575420030,0.00,204.0,71.0,0,0,0,0.0
Status,1732153144000,26,2,1,22,1575420030,0.00,32.0,62.0,0,0,0,0.0
Status,1732153144000,26,3,1,14,1575420030,0.00,63.0,46.0,0,0,0,0.0
Status,1732153144000,26,4,2,138,1575420030,0.00,156.0,43.0,0,0,0,0.0
Status,1732153144000,26,5,1,13,1575420030,25.20,225.0,40.0,1,0,0,20.2
Status,1732153144000,26,6,1,30,1575420030,27.10,137.0,28.0,1,0,0,22.1
Status,1732153144000,26,7,1,15,1575420030,23.50,265.0,27.0,1,0,0,18.5
Status,1732153144000,26,8,1,24,1575420030,22.60,313.0,25.0,1,0,0,17.6
Status,1732153144000,26,9,1,6,1575420030,0.00,158.0,20.0,0,0,0,0.0
Status,1732153144000,26,10,1,2,1575420030,30.40,41.0,13.0,1,0,0,25.4
Status,1732153144000,26,11,1,12,1575420030,0.00,273.0,4.0,0,0,0,0.0
Status,1732153144000,26,12,3,20,1602000000,0.00,94.0,59.0,0,0,0,0.0
Status,1732153144000,26,13,3,11,1602000000,0.00,319.0,35.0,0,0,0,0.0
Status,1732153144000,26,14,3,9,1602000000,0.00,91.0,27.0,0,0,0,0.0
Status,1732153144000,26,15,3,8,1602000000,0.00,239.0,15.0,0,0,0,0.0
Status,1732153144000,26,16,3,19,1602000000,0.00,27.0,15.0,0,0,0,0.0
Status,1732153144000,26,17,6,21,1575420030,0.00,2.0,67.0,0,0,0,0.0
Status,1732153144000,26,18,6,19,1575420030,0.00,235.0,40.0,0,0,0,0.0
Status,1732153144000,26,19,6,13,1575420030,0.00,113.0,34.0,0,0,0,0.0
Status,1732153144000,26,20,6,27,1575420030,0.00,71.0,29.0,0,0,0,0.0
Status,1732153144000,26,21,6,4,1575420030,0.00,304.0,26.0,0,0,0,0.0
Status,1732153144000,26,22,6,15,1575420030,0.00,54.0,23.0,0,0,0,0.0
Status,1732153144000,26,23,6,29,1575420030,0.00,189.0,18.0,0,0,0,0.0
Status,1732153144000,26,24,6,26,1575420030,0.00,165.0,13.0,0,0,0,0.0
Status,1732153144000,26,25,6,6,1575420030,0.00,323.0,9.0,0,0,0,0.0
Fix,GPS,37.4252766667,-122.1585783333,24.7,0.0,4.3,0.0,1732153145000,2.9,137.0,32029091000000,48.3,0,,,
Raw,1732153145000,44764000000,,704206.1849501231,-1416188318236999936,0.0,84.30310676011526,1091.6103653635455,0.0,0,13,0.0,16431,351562927908669,487,20.22599983215332,809.540132472608,0.14999,16,0.0,0.0,1575420030,,,,0,0.22235822169726482,1,6.0,20.22599983215332,0.0,0.0,0.0,66.7128,C,32029091000000,
Raw,1732153145000,44764000000,,704206.1849501231,-1416188318236999936,0.0,84.30310676011526,1091.6103653635455,0.0,0,24,0.0,16431,351562924193161,797,17.632999420166016,-264.58300323982616,0.14999,16,0.0,0.0,1575420030,,,,0,0.0,1,6.0,17.632999420166016,0.0,0.0,0.0,66.7128,C,32029091000000,
Raw,1732153145000,44764000000,,704206.1849501231,-1416188318236999936,0.0,84.30310676011526,1091.6103653635455,0.0,0,2,0.0,16431,351562917904363,396,25.444000244140625,774.2382403308683,0.14999,16,0.0,0.0,1575420030,,,,0,10.660609671863607,1,6.0,25.444000244140625,0.0,0.0,0.0,66.7128,C,32029091000000,
Raw,1732153145000,44764000000,,704206.1849501231,-1416188318236999936,0.0,84.30310676011526,1091.6103653635455,0.0,0,15,0.0,16431,351562924701078,487,18.527000427246094,630.6581798232862,0.14999,16,0.0,0.0,1575420030,,,,0,0.0,1,6.0,18.527000427246094,0.0,0.0,0.0,66.7128,C,32029091000000,
Raw,1732153145000,44764000000,,704206.1849501231,-1416188318236999936,0.0,84.30310676011526,1091.6103653635455,0.0,0,30,0.0,16431,351562924514507,487,22.124000549316406,917.2420771021912,0.14999,16,0.0,0.0,1575420030,,,,0,5.746486460476246,1,6.0,22.124000549316406,0.0,0.0,0.0,66.7128,C,32029091000000,
Fix,FLP,37.4253147000,-122.1584810000,2.5702109335478367,2.4458258,4.614,180.0,1732153145243,2.9,137.0,32029091000000,8.74013,0,,,
Status,1732153145000,26,0,1,17,1575420030,0.00,54.0,72.0,0,0,0,0.0
Status,1732153145000,26,1,1,19,1575420030,0.00,204.0,71.0,0,0,0,0.0
Status,1732153145000,26,2,1,22,1575420030,0.00,32.0,62.0,0,0,0,0.0
Status,1732153145000,26,3,1,14,1575420030,0.00,63.0,46.0,0,0,0,0.0
Status,1732153145000,26,4,2,138,1575420030,0.00,156.0,43.0,0,0,0,0.0
Status,1732153145000,26,5,1,13,1575420030,25.20,225.0,40.0,1,0,0,20.2
Status,1732153145000,26,6,1,30,1575420030,26.50,137.0,28.0,1,0,0,21.5
Status,1732153145000,26,7,1,15,1575420030,23.60,265.0,27.0,1,0,0,18.6
Status,1732153145000,26,8,1,24,1575420030,22.50,313.0,25.0,1,0,0,17.5
Status,1732153145000,26,9,1,6,1575420030,0.00,158.0,20.0,0,0,0,0.0
Status,1732153145000,26,10,1,2,1575420030,30.40,41.0,13.0,1,0,0,25.4
Status,1732153145000,26,11,1,12,1575420030,0.00,273.0,4.0,0,0,0,0.0
Status,1732153145000,26,12,3,20,1602000000,0.00,94.0,59.0,0,0,0,0.0
Status,1732153145000,26,13,3,11,1602000000,0.00,319.0,35.0,0,0,0,0.0
Status,1732153145000,26,14,3,9,1602000000,0.00,91.0,27.0,0,0,0,0.0
Status,1732153145000,26,15,3,8,1602000000,0.00,239.0,15.0,0,0,0,0.0
Status,1732153145000,26,16,3,19,1602000000,0.00,27.0,15.0,0,0,0,0.0
