# 
# Header Description:
# 
# Version: v3.1.0.3 Platform: 13 Manufacturer: samsung Model: SM-S135DL GNSS Hardware Model Name: MediaTek,MT6631,MTK_MNLD_default,MNL_VER_default
# 
# Raw,utcTimeMillis,TimeNanos,LeapSecond,TimeUncertaintyNanos,FullBiasNanos,BiasNanos,BiasUncertaintyNanos,DriftNanosPerSecond,DriftUncertaintyNanosPerSecond,HardwareClockDiscontinuityCount,Svid,TimeOffsetNanos,State,ReceivedSvTimeNanos,ReceivedSvTimeUncertaintyNanos,Cn0DbHz,PseudorangeRateMetersPerSecond,PseudorangeRateUncertaintyMetersPerSecond,AccumulatedDeltaRangeState,AccumulatedDeltaRangeMeters,AccumulatedDeltaRangeUncertaintyMeters,CarrierFrequencyHz,CarrierCycles,CarrierPhase,CarrierPhaseUncertainty,MultipathIndicator,SnrInDb,ConstellationType,AgcDb,BasebandCn0DbHz,FullInterSignalBiasNanos,FullInterSignalBiasUncertaintyNanos,SatelliteInterSignalBiasNanos,SatelliteInterSignalBiasUncertaintyNanos,CodeType,ChipsetElapsedRealtimeNanos,IsFullTracking
# 
# UncalAccel,utcTimeMillis,elapsedRealtimeNanos,UncalAccelXMps2,UncalAccelYMps2,UncalAccelZMps2,BiasXMps2,BiasYMps2,BiasZMps2
# 
# Accel,utcTimeMillis,elapsedRealtimeNanos,AccelXMps2,AccelYMps2,AccelZMps2
# 
# UncalGyro,utcTimeMillis,elapsedRealtimeNanos,UncalGyroXRadPerSec,UncalGyroYRadPerSec,UncalGyroZRadPerSec,DriftXRadPerSec,DriftYRadPerSec,DriftZRadPerSec
# 
# Gyro,utcTimeMillis,elapsedRealtimeNanos,GyroXRadPerSec,GyroYRadPerSec,GyroZRadPerSec
# 
# UncalMag,utcTimeMillis,elapsedRealtimeNanos,UncalMagXMicroT,UncalMagYMicroT,UncalMagZMicroT,BiasXMicroT,BiasYMicroT,BiasZMicroT
# 
# Mag,utcTimeMillis,elapsedRealtimeNanos,MagXMicroT,MagYMicroT,MagZMicroT
# 
# Pressure,utcTimeMillis,elapsedRealtimeNanos,PressureHpa
# 
# OrientationDeg,utcTimeMillis,elapsedRealtimeNanos,yawDeg,rollDeg,pitchDeg
# 
# Fix,Provider,LatitudeDegrees,LongitudeDegrees,AltitudeMeters,SpeedMps,AccuracyMeters,BearingDegrees,UnixTimeMillis,SpeedAccuracyMps,BearingAccuracyDegrees,elapsedRealtimeNanos,VerticalAccuracyMeters,MockLocation,NumberOfUsedSignals,VerticalSpeedAccuracyMps,SolutionType
# 
# Nav,Svid,Type,Status,MessageId,Sub-messageId,Data(Bytes)
# 
# Status,UnixTimeMillis,SignalCount,SignalIndex,ConstellationType,Svid,CarrierFrequencyHz,Cn0DbHz,AzimuthDegrees,ElevationDegrees,UsedInFix,HasAlmanacData,HasEphemerisData,BasebandCn0DbHz
# 
# Agc,utcTimeMillis,TimeNanos,LeapSecond,TimeUncertaintyNanos,FullBiasNanos,BiasNanos,BiasUncertaintyNanos,DriftNanosPerSecond,DriftUncertaintyNanosPerSecond,HardwareClockDiscontinuityCount,AgcDb,CarrierFrequencyHz,ConstellationType
# 
Fix,FLP,37.4255689000,-122.1582209000,5.400000095367432,0.39756885,5.571,0.00000000801398,1732152273533,2.1,179.9,31157380000000,11.5649805,0,,,
Status,,27,0,1,17,1575420030,0.00,71.0,77.0,0,0,0,0.0
Status,,27,1,1,22,1575420030,0.00,20.0,65.0,0,0,0,0.0
Status,,27,2,1,19,1575420030,0.00,201.0,64.0,0,0,0,0.0
Status,,27,3,1,14,1575420030,0.00,56.0,51.0,0,0,0,0.0
Status,,27,4,1,13,1575420030,0.00,231.0,46.0,0,0,0,0.0
Status,,27,5,2,133,1575420030,0.00,191.0,45.0,0,0,0,0.0
Status,,27,6,1,30,1575420030,26.20,133.0,34.0,1,0,0,21.2
Status,,27,7,1,15,1575420030,0.00,272.0,29.0,0,0,0,0.0
Status,,27,8,1,24,1575420030,0.00,313.0,19.0,0,0,0,0.0
Status,,27,9,1,2,1575420030,19.30,45.0,16.0,1,0,0,14.299999
Status,,27,10,1,6,1575420030,27.30,161.0,14.0,1,0,0,22.3
Status,,27,11,1,21,1575420030,0.00,32.0,3.0,0,0,0,0.0
Status,,27,12,1,7,1575420030,32.80,133.0,2.0,0,0,0,27.8
Status,,27,13,3,20,1602000000,0.00,108.0,55.0,0,0,0,0.0
Status,,27,14,3,9,1602000000,0.00,84.0,31.0,0,0,0,0.0
Status,,27,15,3,11,1602000000,0.00,313.0,30.0,0,0,0,0.0
Status,,27,16,3,19,1602000000,0.00,31.0,21.0,0,0,0,0.0
Status,,27,17,3,8,1602000000,25.00,244.0,20.0,1,0,0,20.0
Status,,27,18,6,21,1575420030,0.00,349.0,68.0,0,0,0,0.0
Status,,27,19,6,19,1575420030,0.00,240.0,44.0,0,0,0,0.0
Status,,27,20,6,27,1575420030,0.00,66.0,32.0,0,0,0,0.0
Status,,27,21,6,13,1575420030,0.00,118.0,30.0,0,0,0,0.0
Status,,27,22,6,4,1575420030,0.00,309.0,24.0,0,0,0,0.0
Status,,27,23,6,15,1575420030,0.00,60.0,24.0,0,0,0,0.0
Status,,27,24,6,29,1575420030,0.00,191.0,23.0,0,0,0,0.0
Status,,27,25,6,26,1575420030,0.00,167.0,8.0,0,0,0,0.0
Status,,27,26,6,6,1575420030,0.00,326.0,6.0,0,0,0,0.0
Fix,GPS,37.4255066667,-122.1582716667,22.8,0.0,5.4,0.0,1732152274000,2.0,179.9,31158093000000,58.9,0,,,
Raw,1732152274001,19218000000,,690629.5008428798,-1416187472783000064,0.0,134.652797766494,1086.1097043707487,0.0,0,7,0.0,16431,350691916973617,396,27.783000946044922,972.4256626275658,0.14999,16,0.0,0.0,1575420030,,,,0,13.758407056140097,1,6.0,27.783000946044922,0.0,0.0,0.0,66.7128,C,31158093000000,
Raw,1732152274001,19218000000,,690629.5008428798,-1416187472783000064,0.0,134.652797766494,1086.1097043707487,0.0,0,6,0.0,16431,350691920164225,396,22.29400062561035,-334.2500000188361,0.14999,16,0.0,0.0,1575420030,,,,0,6.023050448947625,1,6.0,22.29400062561035,0.0,0.0,0.0,66.7128,C,31158093000000,
Raw,1732152274001,19218000000,,690629.5008428798,-1416187472783000064,0.0,134.652797766494,1086.1097043707487,0.0,0,30,0.0,16431,350691926104401,396,21.242000579833984,860.98595258018,0.14999,16,0.0,0.0,1575420030,,,,0,6.091713965715504,1,6.0,21.242000579833984,0.0,0.0,0.0,66.7128,C,31158093000000,
Raw,1732152274001,19218000000,,690629.5008428798,-1416187472783000064,0.0,134.652797766494,1086.1097043707487,0.0,0,2,0.0,16431,350691919047145,797,14.300000190734863,696.0162978740174,0.14999,16,0.0,0.0,1575420030,,,,0,0.0,1,6.0,14.300000190734863,0.0,0.0,0.0,66.7128,C,31158093000000,
Raw,1732152274001,19218000000,,690629.5008428798,-1416187472783000064,0.0,134.652797766494,1086.1097043707487,0.0,0,8,0.0,17,581054,396,5.0,933.4101818324792,0.14999,16,0.0,0.0,1605374980,,,,0,4.189975703652974,3,6.0,21.0,0.0,0.0,85.53016492184825,66.7128,C,31158093000000,
Fix,FLP,37.4255452000,-122.1582407000,5.400000095367432,0.28369516,5.5,0.0,1732152274245,2.0,179.9,31158093000000,11.6453705,0,,,
Status,1732152274000,27,0,1,17,1575420030,0.00,71.0,77.0,0,0,0,0.0
Status,1732152274000,27,1,1,22,1575420030,0.00,20.0,65.0,0,0,0,0.0
Status,1732152274000,27,2,1,19,1575420030,0.00,201.0,64.0,0,0,0,0.0
Status,1732152274000,27,3,1,14,1575420030,0.00,56.0,51.0,0,0,0,0.0
Status,1732152274000,27,4,1,13,1575420030,0.00,231.0,46.0,0,0,0,0.0
Status,1732152274000,27,5,2,133,1575420030,0.00,191.0,45.0,0,0,0,0.0
Status,1732152274000,27,6,1,30,1575420030,26.30,133.0,34.0,1,0,0,21.3
Status,1732152274000,27,7,1,15,1575420030,23.80,272.0,29.0,1,0,0,18.8
Status,1732152274000,27,8,1,24,1575420030,0.00,313.0,19.0,0,0,0,0.0
Status,1732152274000,27,9,1,2,1575420030,23.70,45.0,16.0,1,0,0,18.7
Status,1732152274000,27,10,1,6,1575420030,28.60,161.0,14.0,1,0,0,23.6
Status,1732152274000,27,11,1,21,1575420030,0.00,32.0,3.0,0,0,0,0.0
Status,1732152274000,27,12,1,7,1575420030,26.20,133.0,2.0,0,0,0,21.2
Status,1732152274000,27,13,3,20,1602000000,0.00,108.0,55.0,0,0,0,0.0
Status,1732152274000,27,14,3,9,1602000000,0.00,84.0,31.0,0,0,0,0.0
Status,1732152274000,27,15,3,11,1602000000,0.00,313.0,30.0,0,0,0,0.0
Status,1732152274000,27,16,3,19,1602000000,0.00,31.0,21.0,0,0,0,0.0
Status,1732152274000,27,17,3,8,1602000000,27.10,244.0,20.0,1,0,0,22.1
Status,1732152274000,27,18,6,21,1575420030,0.00,349.0,68.0,0,0,0,0.0
Status,1732152274000,27,19,6,19,1575420030,0.00,240.0,44.0,0,0,0,0.0
Status,1732152274000,27,20,6,27,1575420030,0.00,66.0,32.0,0,0,0,0.0
Status,1732152274000,27,21,6,13,1575420030,0.00,118.0,30.0,0,0,0,0.0
Status,1732152274000,27,22,6,4,1575420030,0.00,309.0,24.0,0,0,0,0.0
Status,1732152274000,27,23,6,15,1575420030,0.00,60.0,24.0,0,0,0,0.0
Status,1732152274000,27,24,6,29,1575420030,0.00,191.0,23.0,0,0,0,0.0
Status,1732152274000,27,25,6,26,1575420030,0.00,167.0,8.0,0,0,0,0.0
Status,1732152274000,27,26,6,6,1575420030,0.00,326.0,6.0,0,0,0,0.0
Fix,GPS,37.4253950000,-122.1583500000,22.8,0.0,5.3,0.0,1732152275000,1.8,156.5,31159093000000,59.0,0,,,
Raw,1732152275001,20218000000,,690607.4543409628,-1416187472783000064,0.0,133.37955008362454,1085.6368721126573,0.0,0,7,0.0,16431,350692916970375,487,21.198999404907227,972.5483128463616,0.14999,16,0.0,0.0,1575420030,,,,0,4.272384040699811,1,6.0,21.198999404907227,0.0,0.0,0.0,66.7128,C,31159093000000,
Raw,1732152275001,20218000000,,690607.4543409628,-1416187472783000064,0.0,133.37955008362454,1085.6368721126573,0.0,0,6,0.0,16431,350692920165328,396,23.555999755859375,-334.7441317336514,0.14999,16,0.0,0.0,1575420030,,,,0,7.9336325947810415,1,6.0,23.555999755859375,0.0,0.0,0.0,66.7128,C,31159093000000,
Raw,1732152275001,20218000000,,690607.4543409628,-1416187472783000064,0.0,133.37955008362454,1085.6368721126573,0.0,0,30,0.0,16431,350692926101530,487,21.29800033569336,860.4364424332417,0.14999,16,0.0,0.0,1575420030,,,,0,6.091713965715504,1,6.0,21.29800033569336,0.0,0.0,0.0,66.7128,C,31159093000000,
Raw,1732152275001,20218000000,,690607.4543409628,-1416187472783000064,0.0,133.37955008362454,1085.6368721126573,0.0,0,2,0.0,16431,350692919044803,797,18.68199920654297,696.4700107667295,0.14999,16,0.0,0.0,1575420030,,,,0,0.0,1,6.0,18.68199920654297,0.0,0.0,0.0,66.7128,C,31159093000000,
Raw,1732152275001,20218000000,,690607.4543409628,-1416187472783000064,0.0,133.37955008362454,1085.6368721126573,0.0,0,8,0.0,17,577927,396,5.0,933.0060584244651,0.14999,16,0.0,0.0,1605374980,,,,0,7.242178967776141,3,6.0,23.0,0.0,0.0,85.53016492184825,66.7128,C,31159093000000,
Raw,1732152275001,20218000000,,690607.4543409628,-1416187472783000064,0.0,133.37955008362454,1085.6368721126573,0.0,0,15,0.0,16431,350692925402390,487,18.82200050354004,535.9606427672759,0.14999,16,0.0,0.0,1575420030,,,,0,0.13923902627411078,1,6.0,18.82200050354004,0.0,0.0,0.0,66.7128,C,31159093000000,
Fix,FLP,37.4254776000,-122.1582890000,5.400000095367432,0.019893607,5.45,,1732152275245,1.8,,31159093000000,12.855119,0,,,
Status,1732152275000,28,0,1,17,1575420030,0.00,71.0,77.0,0,0,0,0.0
Status,1732152275000,28,1,1,22,1575420030,0.00,20.0,65.0,0,0,0,0.0
Status,1732152275000,28,2,1,19,1575420030,0.00,201.0,64.0,0,0,0,0.0
Status,1732152275000,28,3,1,14,1575420030,0.00,56.0,51.0,0,0,0,0.0
Status,1732152275000,28,4,1,13,1575420030,25.20,231.0,46.0,1,0,0,20.2
Status,1732152275000,28,5,2,133,1575420030,0.00,191.0,45.0,0,0,0,0.0
Status,1732152275000,28,6,1,30,1575420030,26.30,133.0,34.0,1,0,0,21.3
Status,1732152275000,28,7,1,15,1575420030,26.50,272.0,29.0,1,0,0,21.5
Status,1732152275000,28,8,1,24,1575420030,0.00,313.0,19.0,0,0,0,0.0
Status,1732152275000,28,9,1,2,1575420030,23.70,45.0,16.0,1,0,0,18.7
Status,1732152275000,28,10,1,6,1575420030,25.80,161.0,14.0,1,0,0,20.8
Status,1732152275000,28,11,1,21,1575420030,0.00,32.0,3.0,0,0,0,0.0
Status,1732152275000,28,12,1,7,1575420030,27.00,133.0,2.0,0,0,0,22.0
Status,1732152275000,28,13,3,20,1602000000,0.00,108.0,55.0,0,0,0,0.0
Status,1732152275000,28,14,3,9,1602000000,0.00,84.0,31.0,0,0,0,0.0
Status,1732152275000,28,15,3,11,1602000000,0.00,313.0,30.0,0,0,0,0.0
Status,1732152275000,28,16,3,19,1602000000,0.00,31.0,21.0,0,0,0,0.0
Status,1732152275000,28,17,3,8,1602000000,28.10,244.0,20.0,1,0,0,23.1
Status,1732152275000,28,18,3,17,1602000000,27.20,0.0,0.0,0,0,0,22.2
Status,1732152275000,28,19,6,21,1575420030,0.00,349.0,68.0,0,0,0,0.0
Status,1732152275000,28,20,6,19,1575420030,0.00,240.0,44.0,0,0,0,0.0
Status,1732152275000,28,21,6,27,1575420030,0.00,66.0,32.0,0,0,0,0.0
Status,1732152275000,28,22,6,13,1575420030,0.00,118.0,30.0,0,0,0,0.0
Status,1732152275000,28,23,6,4,1575420030,0.00,309.0,24.0,0,0,0,0.0
Status,1732152275000,28,24,6,15,1575420030,0.00,60.0,24.0,0,0,0,0.0
Status,1732152275000,28,25,6,29,1575420030,0.00,191.0,23.0,0,0,0,0.0
Status,1732152275000,28,26,6,26,1575420030,0.00,167.0,8.0,0,0,0,0.0
Status,1732152275000,28,27,6,6,1575420030,0.00,326.0,6.0,0,0,0,0.0
Fix,GPS,37.4253166667,-122.1583950000,22.8,0.0,5.1,0.0,1732152276000,1.7,113.7,31160093000000,59.0,0,,,
Raw,1732152276001,21218000000,,690589.1083157269,-1416187472783000064,0.0,132.54072820390758,1084.8568870916417,0.0,0,7,0.0,16431,350693916967132,487,22.042999267578125,971.5402581314253,0.14999,16,0.0,0.0,1575420030,,,,0,5.599264467548864,1,6.0,22.042999267578125,0.0,0.0,0.0,66.7128,C,31160093000000,
Raw,1732152276001,21218000000,,690589.1083157269,-1416187472783000064,0.0,132.54072820390758,1084.8568870916417,0.0,0,6,0.0,16431,350693920166444,487,20.757999420166016,-334.3399435126197,0.14999,16,0.0,0.0,1575420030,,,,0,3.4781966185903412,1,6.0,20.757999420166016,0.0,0.0,0.0,66.7128,C,31160093000000,
Raw,1732152276001,21218000000,,690589.1083157269,-1416187472783000064,0.0,132.54072820390758,1084.8568870916417,0.0,0,30,0.0,16431,350693926098657,487,21.299999237060547,860.480856679139,0.14999,16,0.0,0.0,1575420030,,,,0,4.439425527995129,1,6.0,21.299999237060547,0.0,0.0,0.0,66.7128,C,31160093000000,
Raw,1732152276001,21218000000,,690589.1083157269,-1416187472783000064,0.0,132.54072820390758,1084.8568870916417,0.0,0,2,0.0,16431,350693919042480,797,18.68199920654297,696.3200894576181,0.14999,16,0.0,0.0,1575420030,,,,0,0.0,1,6.0,18.68199920654297,0.0,0.0,0.0,66.7128,C,31160093000000,
Raw,1732152276001,21218000000,,690589.1083157269,-1416187472783000064,0.0,132.54072820390758,1084.8568870916417,0.0,0,8,0.0,17,574824,487,5.0,932.5829689359306,0.14999,16,0.0,0.0,1605374980,,,,0,8.600788358013473,3,6.0,20.0,0.0,0.0,85.06261803175549,66.7128,C,31160093000000,
Raw,1732152276001,21218000000,,690589.1083157269,-1416187472783000064,0.0,132.54072820390758,1084.8568870916417,0.0,0,15,0.0,16431,350693925400643,797,21.518999099731445,536.3847151904457,0.14999,16,0.0,0.0,1575420030,,,,0,4.76416950540884,1,6.0,21.518999099731445,0.0,0.0,0.0,66.7128,C,31160093000000,
Raw,1732152276001,21218000000,,690589.1083157269,-1416187472783000064,0.0,132.54072820390758,1084.8568870916417,0.0,0,13,0.0,16431,350693929149180,487,20.231000900268555,729.5994609080482,0.14999,16,0.0,0.0,1575420030,,,,0,2.604018060882222,1,6.0,20.231000900268555,0.0,0.0,0.0,66.7128,C,31160093000000,
Fix,FLP,37.4253989000,-122.1583392000,5.400000095367432,0.24982871,5.4,180.0,1732152276245,1.7,113.7,31160093000000,12.21461,0,,,
Status,1732152276000,28,0,1,17,1575420030,0.00,71.0,77.0,0,0,0,0.0
Status,1732152276000,28,1,1,22,1575420030,0.00,20.0,65.0,0,0,0,0.0
Status,1732152276000,28,2,1,19,1575420030,0.00,201.0,64.0,0,0,0,0.0
Status,1732152276000,28,3,1,14,1575420030,0.00,56.0,51.0,0,0,0,0.0
Status,1732152276000,28,4,1,13,1575420030,27.00,231.0,46.0,1,0,0,22.0
Status,1732152276000,28,5,2,133,1575420030,0.00,191.0,45.0,0,0,0,0.0
Status,1732152276000,28,6,1,30,1575420030,30.20,133.0,34.0,1,0,0,25.2
Status,1732152276000,28,7,1,15,1575420030,26.50,272.0,29.0,1,0,0,21.5
Status,1732152276000,28,8,1,24,1575420030,0.00,313.0,19.0,0,0,0,0.0
Status,1732152276000,28,9,1,2,1575420030,23.70,45.0,16.0,1,0,0,18.7
Status,1732152276000,28,10,1,6,1575420030,31.80,161.0,14.0,1,0,0,26.8
Status,1732152276000,28,11,1,21,1575420030,0.00,32.0,3.0,0,0,0,0.0
Status,1732152276000,28,12,1,7,1575420030,31.00,133.0,2.0,0,0,0,26.0
Status,1732152276000,28,13,3,20,1602000000,0.00,108.0,55.0,0,0,0,0.0
Status,1732152276000,28,14,3,9,1602000000,0.00,84.0,31.0,0,0,0,0.0
Status,1732152276000,28,15,3,11,1602000000,0.00,313.0,30.0,0,0,0,0.0
Status,1732152276000,28,16,3,19,1602000000,0.00,31.0,21.0,0,0,0,0.0
Status,1732152276000,28,17,3,8,1602000000,25.10,244.0,20.0,1,0,0,20.1
Status,1732152276000,28,18,3,17,1602000000,26.10,0.0,0.0,0,0,0,21.1
Status,1732152276000,28,19,6,21,1575420030,0.00,349.0,68.0,0,0,0,0.0
Status,1732152276000,28,20,6,19,1575420030,0.00,240.0,44.0,0,0,0,0.0
Status,1732152276000,28,21,6,27,1575420030,0.00,66.0,32.0,0,0,0,0.0
Status,1732152276000,28,22,6,13,1575420030,0.00,118.0,30.0,0,0,0,0.0
Status,1732152276000,28,23,6,4,1575420030,0.00,309.0,24.0,0,0,0,0.0
Status,1732152276000,28,24,6,15,1575420030,0.00,60.0,24.0,0,0,0,0.0
Status,1732152276000,28,25,6,29,1575420030,0.00,191.0,23.0,0,0,0,0.0
Status,1732152276000,28,26,6,26,1575420030,0.00,167.0,8.0,0,0,0,0.0
Status,1732152276000,28,27,6,6,1575420030,0.00,326.0,6.0,0,0,0,0.0
Fix,GPS,37.4252566667,-122.1584200000,22.8,0.0,5.0,0.0,1732152277000,1.7,108.4,31161093000000,66.0,0,,,
Raw,1732152277001,22218000000,,690567.8957240479,-1416187472783000064,0.0,117.45883245243802,1080.0928722466815,0.0,0,7,0.0,16431,350694916963896,316,26.0049991607666,970.6783615938874,0.14999,16,0.0,0.0,1575420030,,,,0,11.399956694799226,1,6.0,26.0049991607666,0.0,0.0,0.0,66.7128,C,31161093000000,
Raw,1732152277001,22218000000,,690567.8957240479,-1416187472783000064,0.0,117.45883245243802,1080.0928722466815,0.0,0,6,0.0,16431,350694920167568,396,26.79599952697754,-334.8773744713432,0.14999,16,0.0,0.0,1575420030,,,,0,12.480557025332523,1,6.0,26.79599952697754,0.0,0.0,0.0,66.7128,C,31161093000000,
Raw,1732152277001,22218000000,,690567.8957240479,-1416187472783000064,0.0,117.45883245243802,1080.0928722466815,0.0,0,30,0.0,16431,350694926095805,316,25.243999481201172,860.2996688559178,0.14999,16,0.0,0.0,1575420030,,,,0,10.3769062458516,1,6.0,25.243999481201172,0.0,0.0,0.0,66.7128,C,31161093000000,
Raw,1732152277001,22218000000,,690567.8957240479,-1416187472783000064,0.0,117.45883245243802,1080.0928722466815,0.0,0,2,0.0,16431,350694919040160,797,18.68199920654297,694.7238247350402,0.14999,16,0.0,0.0,1575420030,,,,0,0.0,1,6.0,18.68199920654297,0.0,0.0,0.0,66.7128,C,31161093000000,
Raw,1732152277001,22218000000,,690567.8957240479,-1416187472783000064,0.0,117.45883245243802,1080.0928722466815,0.0,0,8,0.0,17,571744,487,5.0,930.9889063414129,0.14999,16,0.0,0.0,1605374980,,,,0,4.319618254211381,3,6.0,18.0,0.0,0.0,82.08489463056809,66.7128,C,31161093000000,
Raw,1732152277001,22218000000,,690567.8957240479,-1416187472783000064,0.0,117.45883245243802,1080.0928722466815,0.0,0,15,0.0,16431,350694925398856,797,21.518999099731445,535.1644384302597,0.14999,16,0.0,0.0,1575420030,,,,0,4.76416950540884,1,6.0,21.518999099731445,0.0,0.0,0.0,66.7128,C,31161093000000,
Raw,1732152277001,22218000000,,690567.8957240479,-1416187472783000064,0.0,117.45883245243802,1080.0928722466815,0.0,0,13,0.0,16431,350694929146739,396,21.959999084472656,728.694683252348,0.14999,16,0.0,0.0,1575420030,,,,0,5.453279692718875,1,6.0,21.959999084472656,0.0,0.0,0.0,66.7128,C,31161093000000,
Fix,FLP,37.4253272000,-122.1583781000,5.400000095367432,0.4647362,5.328,180.0,1732152277245,1.7,108.4,31161093000000,12.072568,0,,,
Status,1732152277000,28,0,1,17,1575420030,0.00,71.0,77.0,0,0,0,0.0
Status,1732152277000,28,1,1,22,1575420030,0.00,20.0,65.0,0,0,0,0.0
Status,1732152277000,28,2,1,19,1575420030,24.80,201.0,64.0,1,0,0,19.8
Status,1732152277000,28,3,1,14,1575420030,0.00,56.0,51.0,0,0,0,0.0
Status,1732152277000,28,4,1,13,1575420030,28.10,231.0,46.0,1,0,0,23.1
Status,1732152277000,28,5,2,133,1575420030,0.00,191.0,45.0,0,0,0,0.0
Status,1732152277000,28,6,1,30,1575420030,30.30,133.0,34.0,1,0,0,25.3
Status,1732152277000,28,7,1,15,1575420030,21.90,272.0,29.0,1,0,0,16.9
Status,1732152277000,28,8,1,24,1575420030,0.00,313.0,19.0,0,0,0,0.0
Status,1732152277000,28,9,1,2,1575420030,18.60,45.0,16.0,1,0,0,13.6
Status,1732152277000,28,10,1,6,1575420030,31.80,161.0,14.0,1,0,0,26.8
Status,1732152277000,28,11,1,21,1575420030,0.00,32.0,3.0,0,0,0,0.0
Status,1732152277000,28,12,1,7,1575420030,29.20,133.0,2.0,0,0,0,24.2
Status,1732152277000,28,13,3,20,1602000000,0.00,108.0,55.0,0,0,0,0.0
Status,1732152277000,28,14,3,9,1602000000,0.00,84.0,31.0,0,0,0,0.0
Status,1732152277000,28,15,3,11,1602000000,0.00,313.0,30.0,0,0,0,0.0
Status,1732152277000,28,16,3,19,1602000000,0.00,31.0,21.0,0,0,0,0.0
Status,1732152277000,28,17,3,8,1602000000,22.50,244.0,20.0,1,0,0,17.5
Status,1732152277000,28,18,3,17,1602000000,23.90,0.0,0.0,0,0,0,18.9
Status,1732152277000,28,19,6,21,1575420030,0.00,349.0,68.0,0,0,0,0.0
Status,1732152277000,28,20,6,19,1575420030,0.00,240.0,44.0,0,0,0,0.0
Status,1732152277000,28,21,6,27,1575420030,0.00,66.0,32.0,0,0,0,0.0
Status,1732152277000,28,22,6,13,1575420030,0.00,118.0,30.0,0,0,0,0.0
Status,1732152277000,28,23,6,4,1575420030,0.00,309.0,24.0,0,0,0,0.0
Status,1732152277000,28,24,6,15,1575420030,0.00,60.0,24.0,0,0,0,0.0
Status,1732152277000,28,25,6,29,1575420030,0.00,191.0,23.0,0,0,0,0.0
Status,1732152277000,28,26,6,26,1575420030,0.00,167.0,8.0,0,0,0,0.0
Status,1732152277000,28,27,6,6,1575420030,0.00,326.0,6.0,0,0,0,0.0
Fix,GPS,37.4252083333,-122.1584466667,22.8,0.0,5.2,0.0,1732152278000,1.6,105.1,31162093000000,63.5,0,,,
Raw,1732152278001,23218000000,,996633.2275110136,-1416187472783000064,0.0,114.77287700051095,1079.0340597493027,0.0,0,7,0.0,16431,350695916960660,316,24.214000701904297,970.6266998350613,0.14999,16,0.0,0.0,1575420030,,,,0,8.876400520322257,1,6.0,24.214000701904297,0.0,0.0,0.0,66.7128,C,31162093000000,
Raw,1732152278001,23218000000,,996633.2275110136,-1416187472783000064,0.0,114.77287700051095,1079.0340597493027,0.0,0,6,0.0,16431,350695920168686,396,26.79599952697754,-335.70707532644724,0.14999,16,0.0,0.0,1575420030,,,,0,12.480557025332523,1,6.0,26.79599952697754,0.0,0.0,0.0,66.7128,C,31162093000000,
Raw,1732152278001,23218000000,,996633.2275110136,-1416187472783000064,0.0,114.77287700051095,1079.0340597493027,0.0,0,30,0.0,16431,350695926092955,487,25.28700065612793,860.8236268739404,0.14999,16,0.0,0.0,1575420030,,,,0,11.547178687726607,1,6.0,25.28700065612793,0.0,0.0,0.0,66.7128,C,31162093000000,
Raw,1732152278001,23218000000,,996633.2275110136,-1416187472783000064,0.0,114.77287700051095,1079.0340597493027,0.0,0,2,0.0,16431,350695919037853,797,13.600000381469727,694.8261261675358,0.14999,16,0.0,0.0,1575420030,,,,0,0.0,1,6.0,13.600000381469727,0.0,0.0,0.0,66.7128,C,31162093000000,
Raw,1732152278001,23218000000,,996633.2275110136,-1416187472783000064,0.0,114.77287700051095,1079.0340597493027,0.0,0,8,0.0,17,568638,487,5.0,931.3233658767458,0.14999,16,0.0,0.0,1605374980,,,,0,0.0,3,6.0,18.0,0.0,0.0,79.62592515808284,66.7128,C,31162093000000,
Raw,1732152278001,23218000000,,996633.2275110136,-1416187472783000064,0.0,114.77287700051095,1079.0340597493027,0.0,0,15,0.0,16431,350695925397062,797,16.874000549316406,534.4441936037477,0.14999,16,0.0,0.0,1575420030,,,,0,0.0,1,6.0,16.874000549316406,0.0,0.0,0.0,66.7128,C,31162093000000,
Raw,1732152278001,23218000000,,996633.2275110136,-1416187472783000064,0.0,114.77287700051095,1079.0340597493027,0.0,0,13,0.0,16431,350695929144280,487,23.06100082397461,728.382018111251,0.14999,16,0.0,0.0,1575420030,,,,0,7.182889388501362,1,6.0,23.06100082397461,0.0,0.0,0.0,66.7128,C,31162093000000,
Raw,1732152278001,23218000000,,996633.2275110136,-1416187472783000064,0.0,114.77287700051095,1079.0340597493027,0.0,0,19,0.0,16431,350695931878023,487,19.834999084472656,-26.685481979252145,0.14999,16,0.0,0.0,1575420030,,,,0,1.9681813724051969,1,6.0,19.834999084472656,0.0,0.0,0.0,66.7128,C,31162093000000,
Fix,FLP,37.4252689000,-122.1584096000,5.400000095367432,0.6084519,5.285,180.0,1732152278245,1.6,105.1,31162093000000,11.344253,0,,,
Fix,FLP,37.4252432000,-122.1584242000,5.400000095367432,0.6439746,5.2,180.0,1732152278712,1.6,105.1,31162560000000,14.428266,0,,,
Fix,NLP,37.4256973000,-122.1581148000,5.400000095367432,,64.1,,1732152278712,,,31162560000000,13.80238,0,,,
Status,1732152278000,28,0,1,17,1575420030,0.00,71.0,77.0,0,0,0,0.0
Status,1732152278000,28,1,1,22,1575420030,0.00,20.0,65.0,0,0,0,0.0
Status,1732152278000,28,2,1,19,1575420030,0.00,201.0,64.0,0,0,0,0.0
Status,1732152278000,28,3,1,14,1575420030,0.00,56.0,51.0,0,0,0,0.0
Status,1732152278000,28,4,1,13,1575420030,0.00,231.0,46.0,0,0,0,0.0
Status,1732152278000,28,5,2,135,1575420030,0.00,197.0,45.0,0,0,0,0.0
Status,1732152278000,28,6,1,30,1575420030,25.40,133.0,34.0,1,0,0,20.4
Status,1732152278000,28,7,1,15,1575420030,0.00,272.0,29.0,0,0,0,0.0
Status,1732152278000,28,8,1,24,1575420030,0.00,313.0,19.0,0,0,0,0.0
Status,1732152278000,28,9,1,2,1575420030,18.60,45.0,16.0,1,0,0,13.6
Status,1732152278000,28,10,1,6,1575420030,26.70,161.0,14.0,1,0,0,21.7
Status,1732152278000,28,11,1,21,1575420030,0.00,32.0,3.0,0,0,0,0.0
Status,1732152278000,28,12,1,7,1575420030,32.10,133.0,2.0,0,0,0,27.099998
Status,1732152278000,28,13,3,20,1602000000,0.00,108.0,55.0,0,0,0,0.0
Status,1732152278000,28,14,3,9,1602000000,0.00,84.0,31.0,0,0,0,0.0
Status,1732152278000,28,15,3,11,1602000000,0.00,313.0,30.0,0,0,0,0.0
Status,1732152278000,28,16,3,19,1602000000,0.00,31.0,21.0,0,0,0,0.0
Status,1732152278000,28,17,3,8,1602000000,22.50,244.0,20.0,1,0,0,17.5
Status,1732152278000,28,18,3,17,1602000000,25.40,0.0,0.0,0,0,0,20.4
Status,1732152278000,28,19,6,21,1575420030,0.00,349.0,68.0,0,0,0,0.0
Status,1732152278000,28,20,6,19,1575420030,0.00,240.0,44.0,0,0,0,0.0
Status,1732152278000,28,21,6,27,1575420030,0.00,66.0,32.0,0,0,0,0.0
Status,1732152278000,28,22,6,13,1575420030,0.00,118.0,30.0,0,0,0,0.0
Status,1732152278000,28,23,6,4,1575420030,0.00,309.0,24.0,0,0,0,0.0
Status,1732152278000,28,24,6,15,1575420030,0.00,60.0,24.0,0,0,0,0.0
Status,1732152278000,28,25,6,29,1575420030,0.00,191.0,23.0,0,0,0,0.0
Status,1732152278000,28,26,6,26,1575420030,0.00,167.0,8.0,0,0,0,0.0
Status,1732152278000,28,27,6,6,1575420030,0.00,326.0,6.0,0,0,0,0.0
Fix,GPS,37.4251666667,-122.1584666667,22.8,0.0,5.1,0.0,1732152279000,2.6,179.9,31163093000000,64.0,0,,,
Raw,1732152279001,24218000000,,705859.0992806096,-1416187472783000064,0.0,115.61178795145085,1077.5371449044908,0.0,0,7,0.0,16431,350696916957420,235,27.086000442504883,970.4302736513231,0.14999,16,0.0,0.0,1575420030,,,,0,12.86523492788534,1,6.0,27.086000442504883,0.0,0.0,0.0,66.7128,C,31163093000000,
Raw,1732152279001,24218000000,,705859.0992806096,-1416187472783000064,0.0,115.61178795145085,1077.5371449044908,0.0,0,6,0.0,16431,350696920169805,797,21.70199966430664,-335.2505749287625,0.14999,16,0.0,0.0,1575420030,,,,0,5.077208416264762,1,6.0,21.70199966430664,0.0,0.0,0.0,66.7128,C,31163093000000,
Raw,1732152279001,24218000000,,705859.0992806096,-1416187472783000064,0.0,115.61178795145085,1077.5371449044908,0.0,0,30,0.0,16431,350696926090086,487,20.39299964904785,859.750902043639,0.14999,16,0.0,0.0,1575420030,,,,0,2.90529298959974,1,6.0,20.39299964904785,0.0,0.0,0.0,66.7128,C,31163093000000,
Raw,1732152279001,24218000000,,705859.0992806096,-1416187472783000064,0.0,115.61178795145085,1077.5371449044908,0.0,0,2,0.0,16431,350696919035537,797,13.600000381469727,694.4506957061385,0.14999,16,0.0,0.0,1575420030,,,,0,0.0,1,6.0,13.600000381469727,0.0,0.0,0.0,66.7128,C,31163093000000,
Raw,1732152279001,24218000000,,705859.0992806096,-1416187472783000064,0.0,115.61178795145085,1077.5371449044908,0.0,0,8,0.0,17,565532,797,5.0,930.9190601025729,0.14999,16,0.0,0.0,1605374980,,,,0,0.0,3,6.0,17.0,0.0,0.0,79.62592515808284,66.7128,C,31163093000000,
Fix,FLP,37.4252110000,-122.1584407000,5.400000095367432,0.7191632,5.185,180.0,1732152279245,2.6,179.9,31163093000000,14.583604,0,,,
Status,1732152279000,28,0,1,17,1575420030,0.00,71.0,77.0,0,0,0,0.0
Status,1732152279000,28,1,1,22,1575420030,0.00,20.0,65.0,0,0,0,0.0
Status,1732152279000,28,2,1,19,1575420030,0.00,201.0,64.0,0,0,0,0.0
Status,1732152279000,28,3,1,14,1575420030,0.00,56.0,51.0,0,0,0,0.0
Status,1732152279000,28,4,1,13,1575420030,0.00,231.0,46.0,0,0,0,0.0
Status,1732152279000,28,5,2,135,1575420030,0.00,197.0,45.0,0,0,0,0.0
Status,1732152279000,28,6,1,30,1575420030,25.40,133.0,34.0,1,0,0,20.4
Status,1732152279000,28,7,1,15,1575420030,19.80,272.0,29.0,1,0,0,14.799999
Status,1732152279000,28,8,1,24,1575420030,0.00,313.0,19.0,0,0,0,0.0
Status,1732152279000,28,9,1,2,1575420030,18.70,45.0,16.0,1,0,0,13.700001
Status,1732152279000,28,10,1,6,1575420030,26.70,161.0,14.0,1,0,0,21.7
Status,1732152279000,28,11,1,21,1575420030,0.00,32.0,3.0,0,0,0,0.0
Status,1732152279000,28,12,1,7,1575420030,31.10,133.0,2.0,0,0,0,26.1
Status,1732152279000,28,13,3,20,1602000000,0.00,108.0,55.0,0,0,0,0.0
Status,1732152279000,28,14,3,9,1602000000,0.00,84.0,31.0,0,0,0,0.0
Status,1732152279000,28,15,3,11,1602000000,0.00,313.0,30.0,0,0,0,0.0
Status,1732152279000,28,16,3,19,1602000000,0.00,31.0,21.0,0,0,0,0.0
Status,1732152279000,28,17,3,8,1602000000,22.50,244.0,20.0,1,0,0,17.5
Status,1732152279000,28,18,3,17,1602000000,24.40,0.0,0.0,0,0,0,19.4
Status,1732152279000,28,19,6,21,1575420030,0.00,349.0,68.0,0,0,0,0.0
Status,1732152279000,28,20,6,19,1575420030,0.00,240.0,44.0,0,0,0,0.0
Status,1732152279000,28,21,6,27,1575420030,0.00,66.0,32.0,0,0,0,0.0
Status,1732152279000,28,22,6,13,1575420030,0.00,118.0,30.0,0,0,0,0.0
Status,1732152279000,28,23,6,4,1575420030,0.00,309.0,24.0,0,0,0,0.0
Status,1732152279000,28,24,6,15,1575420030,0.00,60.0,24.0,0,0,0,0.0
Status,1732152279000,28,25,6,29,1575420030,0.00,191.0,23.0,0,0,0,0.0
Status,1732152279000,28,26,6,26,1575420030,0.00,167.0,8.0,0,0,0,0.0
Status,1732152279000,28,27,6,6,1575420030,0.00,326.0,6.0,0,0,0,0.0
Fix,GPS,37.4251366667,-122.1584833333,22.8,0.0,5.0,0.0,1732152280000,2.9,179.9,31164093000000,66.0,0,,,
Raw,1732152280001,25218000000,,705815.266873725,-1416187472783000064,0.0,117.27033229579642,1074.7020324764226,0.0,0,7,0.0,16431,350697916954188,316,26.079999923706055,969.8452692744,0.14999,16,0.0,0.0,1575420030,,,,0,11.510606466798444,1,6.0,26.079999923706055,0.0,0.0,0.0,66.7128,C,31164093000000,
Raw,1732152280001,25218000000,,705815.266873725,-1416187472783000064,0.0,117.27033229579642,1074.7020324764226,0.0,0,6,0.0,16431,350697920170925,797,21.70199966430664,-336.3950780121091,0.14999,16,0.0,0.0,1575420030,,,,0,5.077208416264762,1,6.0,21.70199966430664,0.0,0.0,0.0,66.7128,C,31164093000000,
Raw,1732152280001,25218000000,,705815.266873725,-1416187472783000064,0.0,117.27033229579642,1074.7020324764226,0.0,0,30,0.0,16431,350697926087220,797,20.39299964904785,858.908610957742,0.14999,16,0.0,0.0,1575420030,,,,0,2.90529298959974,1,6.0,20.39299964904785,0.0,0.0,0.0,66.7128,C,31164093000000,
Raw,1732152280001,25218000000,,705815.266873725,-1416187472783000064,0.0,117.27033229579642,1074.7020324764226,0.0,0,2,0.0,16431,350697919033231,797,13.654999732971191,693.6922620615014,0.14999,16,0.0,0.0,1575420030,,,,0,0.0,1,6.0,13.654999732971191,0.0,0.0,0.0,66.7128,C,31164093000000,
Raw,1732152280001,25218000000,,705815.266873725,-1416187472783000064,0.0,117.27033229579642,1074.7020324764226,0.0,0,8,0.0,17,562428,797,5.0,930.3916571711754,0.14999,16,0.0,0.0,1605374980,,,,0,0.0,3,6.0,16.0,0.0,0.0,79.62592515808284,66.7128,C,31164093000000,
Raw,1732152280001,25218000000,,705815.266873725,-1416187472783000064,0.0,117.27033229579642,1074.7020324764226,0.0,0,15,0.0,16431,350697925393401,487,14.800000190734863,534.282286023254,0.14999,16,0.0,0.0,1575420030,,,,0,0.0,1,6.0,14.800000190734863,0.0,0.0,0.0,66.7128,C,31164093000000,
Fix,FLP,37.4251728000,-122.1584601000,5.400000095367432,0.80494446,5.128,180.0,1732152280245,2.9,179.9,31164093000000,17.812075,0,,,
Status,1732152280000,28,0,1,17,1575420030,0.00,71.0,77.0,0,0,0,0.0
Status,1732152280000,28,1,1,22,1575420030,0.00,20.0,65.0,0,0,0,0.0
Status,1732152280000,28,2,1,19,1575420030,0.00,201.0,64.0,0,0,0,0.0
Status,1732152280000,28,3,1,14,1575420030,0.00,56.0,51.0,0,0,0,0.0
Status,1732152280000,28,4,1,13,1575420030,0.00,231.0,46.0,0,0,0,0.0
Status,1732152280000,28,5,2,135,1575420030,0.00,197.0,45.0,0,0,0,0.0
Status,1732152280000,28,6,1,30,1575420030,25.40,133.0,34.0,1,0,0,20.4
Status,1732152280000,28,7,1,15,1575420030,28.50,272.0,29.0,1,0,0,23.5
Status,1732152280000,28,8,1,24,1575420030,0.00,313.0,19.0,0,0,0,0.0
Status,1732152280000,28,9,1,2,1575420030,18.70,45.0,16.0,1,0,0,13.700001
Status,1732152280000,28,10,1,6,1575420030,23.20,161.0,14.0,1,0,0,18.2
Status,1732152280000,28,11,1,21,1575420030,0.00,32.0,3.0,0,0,0,0.0
Status,1732152280000,28,12,1,7,1575420030,30.80,133.0,2.0,0,0,0,25.8
Status,1732152280000,28,13,3,20,1602000000,0.00,108.0,55.0,0,0,0,0.0
Status,1732152280000,28,14,3,9,1602000000,0.00,84.0,31.0,0,0,0,0.0
Status,1732152280000,28,15,3,11,1602000000,0.00,313.0,30.0,0,0,0,0.0
Status,1732152280000,28,16,3,19,1602000000,0.00,31.0,21.0,0,0,0,0.0
Status,1732152280000,28,17,3,8,1602000000,17.70,244.0,20.0,1,0,0,12.700001
Status,1732152280000,28,18,3,17,1602000000,23.30,0.0,0.0,0,0,0,18.3
Status,1732152280000,28,19,6,21,1575420030,0.00,349.0,68.0,0,0,0,0.0
Status,1732152280000,28,20,6,19,1575420030,0.00,240.0,44.0,0,0,0,0.0
Status,1732152280000,28,21,6,27,1575420030,0.00,66.0,32.0,0,0,0,0.0
Status,1732152280000,28,22,6,13,1575420030,0.00,118.0,30.0,0,0,0,0.0
Status,1732152280000,28,23,6,4,1575420030,0.00,309.0,24.0,0,0,0,0.0
Status,1732152280000,28,24,6,15,1575420030,0.00,60.0,24.0,0,0,0,0.0
Status,1732152280000,28,25,6,29,1575420030,0.00,191.0,23.0,0,0,0,0.0
Status,1732152280000,28,26,6,26,1575420030,0.00,167.0,8.0,0,0,0,0.0
Status,1732152280000,28,27,6,6,1575420030,0.00,326.0,6.0,0,0,0,0.0
Fix,GPS,37.4251216667,-122.1584950000,22.8,0.0,5.0,0.0,1732152281000,3.1,179.9,31165093000000,75.1,0,,,
Raw,1732152281001,26218000000,,705773.8319587746,-1416187472783000064,0.0,123.51500121530404,1074.5178057869634,0.0,0,7,0.0,16431,350698916950949,316,25.804000854492188,971.3213460742413,0.14999,16,0.0,0.0,1575420030,,,,0,11.136156690458822,1,6.0,25.804000854492188,0.0,0.0,0.0,66.7128,C,31165093000000,
Raw,1732152281001,26218000000,,705773.8319587746,-1416187472783000064,0.0,123.51500121530404,1074.5178057869634,0.0,0,6,0.0,16431,350698920172044,797,18.166000366210938,-336.93984940059386,0.14999,16,0.0,0.0,1575420030,,,,0,0.0,1,6.0,18.166000366210938,0.0,0.0,0.0,66.7128,C,31165093000000,
Raw,1732152281001,26218000000,,705773.8319587746,-1416187472783000064,0.0,123.51500121530404,1074.5178057869634,0.0,0,30,0.0,16431,350698926084354,797,20.39299964904785,859.4702932097274,0.14999,16,0.0,0.0,1575420030,,,,0,2.90529298959974,1,6.0,20.39299964904785,0.0,0.0,0.0,66.7128,C,31165093000000,
Raw,1732152281001,26218000000,,705773.8319587746,-1416187472783000064,0.0,123.51500121530404,1074.5178057869634,0.0,0,2,0.0,16431,350698919030918,797,13.706999778747559,693.4859866935267,0.14999,16,0.0,0.0,1575420030,,,,0,0.0,1,6.0,13.706999778747559,0.0,0.0,0.0,66.7128,C,31165093000000,
Raw,1732152281001,26218000000,,705773.8319587746,-1416187472783000064,0.0,123.51500121530404,1074.5178057869634,0.0,0,8,0.0,17,559316,1797,5.0,930.9239839888619,0.14999,16,0.0,0.0,1605374980,,,,0,0.0,3,6.0,13.0,0.0,0.0,79.62592515808284,66.7128,C,31165093000000,
Raw,1732152281001,26218000000,,705773.8319587746,-1416187472783000064,0.0,123.51500121530404,1074.5178057869634,0.0,0,15,0.0,16431,350698925391789,396,23.48699951171875,534.6103753585328,0.14999,16,0.0,0.0,1575420030,,,,0,7.822273510002198,1,6.0,23.48699951171875,0.0,0.0,0.0,66.7128,C,31165093000000,
Fix,FLP,37.4251443000,-122.1584766000,5.400000095367432,0.85875946,5.085,180.0,1732152281245,3.1,179.9,31165093000000,14.960118,0,,,
Status,1732152281000,28,0,1,17,1575420030,0.00,71.0,77.0,0,0,0,0.0
Status,1732152281000,28,1,1,22,1575420030,0.00,20.0,65.0,0,0,0,0.0
Status,1732152281000,28,2,1,19,1575420030,0.00,201.0,64.0,0,0,0,0.0
Status,1732152281000,28,3,1,14,1575420030,0.00,56.0,51.0,0,0,0,0.0
Status,1732152281000,28,4,1,13,1575420030,0.00,231.0,46.0,0,0,0,0.0
Status,1732152281000,28,5,2,135,1575420030,0.00,197.0,45.0,0,0,0,0.0
Status,1732152281000,28,6,1,30,1575420030,25.30,133.0,34.0,1,0,0,20.3
Status,1732152281000,28,7,1,15,1575420030,28.50,272.0,29.0,1,0,0,23.5
Status,1732152281000,28,8,1,24,1575420030,0.00,313.0,19.0,0,0,0,0.0
Status,1732152281000,28,9,1,2,1575420030,18.80,45.0,16.0,1,0,0,13.799999
Status,1732152281000,28,10,1,6,1575420030,23.10,161.0,14.0,1,0,0,18.1
Status,1732152281000,28,11,1,21,1575420030,0.00,32.0,3.0,0,0,0,0.0
Status,1732152281000,28,12,1,7,1575420030,30.80,133.0,2.0,0,0,0,25.8
Status,1732152281000,28,13,3,20,1602000000,0.00,108.0,55.0,0,0,0,0.0
Status,1732152281000,28,14,3,9,1602000000,0.00,84.0,31.0,0,0,0,0.0
Status,1732152281000,28,15,3,11,1602000000,0.00,313.0,30.0,0,0,0,0.0
Status,1732152281000,28,16,3,19,1602000000,0.00,31.0,21.0,0,0,0,0.0
Status,1732152281000,28,17,3,8,1602000000,17.70,244.0,20.0,1,0,0,12.700001
Status,1732152281000,28,18,3,17,1602000000,25.80,0.0,0.0,0,0,0,20.8
Status,1732152281000,28,19,6,21,1575420030,0.00,349.0,68.0,0,0,0,0.0
Status,1732152281000,28,20,6,19,1575420030,0.00,240.0,44.0,0,0,0,0.0
Status,1732152281000,28,21,6,27,1575420030,0.00,66.0,32.0,0,0,0,0.0
Status,1732152281000,28,22,6,13,1575420030,0.00,118.0,30.0,0,0,0,0.0
Status,1732152281000,28,23,6,4,1575420030,0.00,309.0,24.0,0,0,0,0.0
Status,1732152281000,28,24,6,15,1575420030,0.00,60.0,24.0,0,0,0,0.0
Status,1732152281000,28,25,6,29,1575420030,0.00,191.0,23.0,0,0,0,0.0
Status,1732152281000,28,26,6,26,1575420030,0.00,167.0,8.0,0,0,0,0.0
Status,1732152281000,28,27,6,6,1575420030,0.00,326.0,6.0,0,0,0,0.0
Fix,GPS,37.4251200000,-122.1585066667,22.8,0.0,4.9,0.0,1732152282000,3.0,179.9,31166093000000,76.3,0,,,
Raw,1732152282001,27218000000,,705724.579135343,-1416187472783000064,0.0,125.10560966547455,1075.9334655180269,0.0,0,7,0.0,16431,350699916947712,487,25.804000854492188,971.3945645381891,0.14999,16,0.0,0.0,1575420030,,,,0,11.136156690458822,1,6.0,25.804000854492188,0.0,0.0,0.0,66.7128,C,31166093000000,
Raw,1732152282001,27218000000,,705724.579135343,-1416187472783000064,0.0,125.10560966547455,1075.9334655180269,0.0,0,6,0.0,16431,350699920173153,797,18.141000747680664,-336.77139118341444,0.14999,16,0.0,0.0,1575420030,,,,0,0.0,1,6.0,18.141000747680664,0.0,0.0,0.0,66.7128,C,31166093000000,
Raw,1732152282001,27218000000,,705724.579135343,-1416187472783000064,0.0,125.10560966547455,1075.9334655180269,0.0,0,30,0.0,16431,350699926081461,487,20.288999557495117,860.2310962335912,0.14999,16,0.0,0.0,1575420030,,,,0,0.0,1,6.0,20.288999557495117,0.0,0.0,0.0,66.7128,C,31166093000000,
Raw,1732152282001,27218000000,,705724.579135343,-1416187472783000064,0.0,125.10560966547455,1075.9334655180269,0.0,0,2,0.0,16431,350699919028603,1797,13.755999565124512,694.1372407719659,0.14999,16,0.0,0.0,1575420030,,,,0,0.0,1,6.0,13.755999565124512,0.0,0.0,0.0,66.7128,C,31166093000000,
Raw,1732152282001,27218000000,,705724.579135343,-1416187472783000064,0.0,125.10560966547455,1075.9334655180269,0.0,0,8,0.0,17,556209,797,5.0,931.978607485498,0.14999,16,0.0,0.0,1605374980,,,,0,0.0,3,6.0,16.0,0.0,0.0,79.62592515808284,66.7128,C,31166093000000,
Raw,1732152282001,27218000000,,705724.579135343,-1416187472783000064,0.0,125.10560966547455,1075.9334655180269,0.0,0,15,0.0,16431,350699925390004,797,23.48699951171875,535.2230689515175,0.14999,16,0.0,0.0,1575420030,,,,0,7.822273510002198,1,6.0,23.48699951171875,0.0,0.0,0.0,66.7128,C,31166093000000,
Fix,FLP,37.4251286000,-122.1584909000,5.400000095367432,0.8694075,5.057,180.0,1732152282245,3.0,179.9,31166093000000,14.251543,0,,,
Status,1732152282000,28,0,1,17,1575420030,0.00,71.0,77.0,0,0,0,0.0
Status,1732152282000,28,1,1,22,1575420030,0.00,20.0,65.0,0,0,0,0.0
Status,1732152282000,28,2,1,19,1575420030,0.00,201.0,64.0,0,0,0,0.0
Status,1732152282000,28,3,1,14,1575420030,0.00,56.0,51.0,0,0,0,0.0
Status,1732152282000,28,4,1,13,1575420030,21.90,231.0,46.0,1,0,0,16.9
Status,1732152282000,28,5,2,135,1575420030,0.00,197.0,45.0,0,0,0,0.0
Status,1732152282000,28,6,1,30,1575420030,25.30,133.0,34.0,1,0,0,20.3
Status,1732152282000,28,7,1,15,1575420030,0.00,272.0,29.0,0,0,0,0.0
Status,1732152282000,28,8,1,24,1575420030,0.00,313.0,19.0,0,0,0,0.0
Status,1732152282000,28,9,1,2,1575420030,18.70,45.0,16.0,1,0,0,13.700001
Status,1732152282000,28,10,1,6,1575420030,23.20,161.0,14.0,1,0,0,18.2
Status,1732152282000,28,11,1,21,1575420030,0.00,32.0,3.0,0,0,0,0.0
Status,1732152282000,28,12,1,7,1575420030,25.00,133.0,2.0,0,0,0,20.0
Status,1732152282000,28,13,3,20,1602000000,0.00,108.0,55.0,0,0,0,0.0
Status,1732152282000,28,14,3,9,1602000000,0.00,84.0,31.0,0,0,0,0.0
Status,1732152282000,28,15,3,11,1602000000,0.00,313.0,30.0,0,0,0,0.0
Status,1732152282000,28,16,3,19,1602000000,0.00,31.0,21.0,0,0,0,0.0
Status,1732152282000,28,17,3,8,1602000000,17.70,244.0,20.0,1,0,0,12.700001
Status,1732152282000,28,18,3,17,1602000000,25.70,0.0,0.0,0,0,0,20.7
Status,1732152282000,28,19,6,21,1575420030,0.00,349.0,68.0,0,0,0,0.0
Status,1732152282000,28,20,6,19,1575420030,0.00,240.0,44.0,0,0,0,0.0
Status,1732152282000,28,21,6,27,1575420030,0.00,66.0,32.0,0,0,0,0.0
Status,1732152282000,28,22,6,13,1575420030,0.00,118.0,30.0,0,0,0,0.0
Status,1732152282000,28,23,6,4,1575420030,0.00,309.0,24.0,0,0,0,0.0
Status,1732152282000,28,24,6,15,1575420030,0.00,60.0,24.0,0,0,0,0.0
Status,1732152282000,28,25,6,29,1575420030,0.00,191.0,23.0,0,0,0,0.0
Status,1732152282000,28,26,6,26,1575420030,0.00,167.0,8.0,0,0,0,0.0
Status,1732152282000,28,27,6,6,1575420030,0.00,326.0,6.0,0,0,0,0.0
Fix,GPS,37.4251200000,-122.1585133333,22.8,0.0,4.8,0.0,1732152283000,3.0,179.9,31167093000000,77.0,0,,,
Raw,1732152283001,28218000000,,705676.1602221495,-1416187472783000064,0.0,126.61718649198494,1079.3672410804163,0.0,0,7,0.0,16431,350700916944473,487,20.003999710083008,972.5034340163022,0.14999,16,0.0,0.0,1575420030,,,,0,2.1853399241693627,1,6.0,20.003999710083008,0.0,0.0,0.0,66.7128,C,31167093000000,
Raw,1732152283001,28218000000,,705676.1602221495,-1416187472783000064,0.0,126.61718649198494,1079.3672410804163,0.0,0,6,0.0,16431,350700920174290,797,18.2189998626709,-335.7369945464868,0.14999,16,0.0,0.0,1575420030,,,,0,1.7454540500460052,1,6.0,18.2189998626709,0.0,0.0,0.0,66.7128,C,31167093000000,
Raw,1732152283001,28218000000,,705676.1602221495,-1416187472783000064,0.0,126.61718649198494,1079.3672410804163,0.0,0,30,0.0,16431,350700926078587,487,20.285999298095703,861.5152068576505,0.14999,16,0.0,0.0,1575420030,,,,0,2.604018060882222,1,6.0,20.285999298095703,0.0,0.0,0.0,66.7128,C,31167093000000,
Raw,1732152283001,28218000000,,705676.1602221495,-1416187472783000064,0.0,126.61718649198494,1079.3672410804163,0.0,0,2,0.0,16431,350700919026313,797,13.668000221252441,695.2158193627098,0.14999,16,0.0,0.0,1575420030,,,,0,0.0,1,6.0,13.668000221252441,0.0,0.0,0.0,66.7128,C,31167093000000,
Raw,1732152283001,28218000000,,705676.1602221495,-1416187472783000064,0.0,126.61718649198494,1079.3672410804163,0.0,0,13,0.0,16431,350700929132170,797,16.874000549316406,730.2064865742551,0.14999,16,0.0,0.0,1575420030,,,,0,0.0,1,6.0,16.874000549316406,0.0,0.0,0.0,66.7128,C,31167093000000,
Raw,1732152283001,28218000000,,705676.1602221495,-1416187472783000064,0.0,126.61718649198494,1079.3672410804163,0.0,0,8,0.0,17,553098,797,5.0,933.1576047024704,0.14999,16,0.0,0.0,1605374980,,,,0,0.0,3,6.0,17.0,0.0,0.0,79.62592515808284,66.7128,C,31167093000000,
Fix,FLP,37.4251205000,-122.1585016000,5.400000095367432,0.85486484,5.028,180.0,1732152283245,3.0,179.9,31167093000000,17.632795,0,,,
Fix,FLP,37.4251188000,-122.1585061000,5.400000095367432,0.83686495,4.971,180.0,1732152283587,3.0,179.9,31167435000000,13.586442,0,,,
Fix,NLP,37.4257067000,-122.1581093000,5.400000095367432,,64.1,,1732152283587,,,31167435000000,13.056058,0,,,
Status,1732152283000,28,0,1,17,1575420030,0.00,71.0,77.0,0,0,0,0.0
Status,1732152283000,28,1,1,22,1575420030,0.00,20.0,65.0,0,0,0,0.0
Status,1732152283000,28,2,1,19,1575420030,0.00,201.0,64.0,0,0,0,0.0
Status,1732152283000,28,3,1,14,1575420030,0.00,56.0,51.0,0,0,0,0.0
Status,1732152283000,28,4,1,13,1575420030,24.00,231.0,46.0,1,0,0,19.0
Status,1732152283000,28,5,2,135,1575420030,0.00,197.0,45.0,0,0,0,0.0
Status,1732152283000,28,6,1,30,1575420030,27.90,133.0,34.0,1,0,0,22.9
Status,1732152283000,28,7,1,15,1575420030,0.00,272.0,29.0,0,0,0,0.0
Status,1732152283000,28,8,1,24,1575420030,0.00,313.0,19.0,0,0,0,0.0
Status,1732152283000,28,9,1,2,1575420030,18.60,45.0,16.0,1,0,0,13.6
Status,1732152283000,28,10,1,6,1575420030,23.30,161.0,14.0,1,0,0,18.3
Status,1732152283000,28,11,1,21,1575420030,0.00,32.0,3.0,0,0,0,0.0
Status,1732152283000,28,12,1,7,1575420030,25.00,133.0,2.0,0,0,0,20.0
Status,1732152283000,28,13,3,20,1602000000,0.00,108.0,55.0,0,0,0,0.0
Status,1732152283000,28,14,3,9,1602000000,0.00,84.0,31.0,0,0,0,0.0
Status,1732152283000,28,15,3,11,1602000000,0.00,313.0,30.0,0,0,0,0.0
Status,1732152283000,28,16,3,19,1602000000,0.00,31.0,21.0,0,0,0,0.0
Status,1732152283000,28,17,3,8,1602000000,21.40,244.0,20.0,1,0,0,16.4
Status,1732152283000,28,18,3,17,1602000000,25.80,0.0,0.0,0,0,0,20.8
Status,1732152283000,28,19,6,21,1575420030,0.00,349.0,68.0,0,0,0,0.0
Status,1732152283000,28,20,6,19,1575420030,0.00,240.0,44.0,0,0,0,0.0
Status,1732152283000,28,21,6,27,1575420030,0.00,66.0,32.0,0,0,0,0.0
Status,1732152283000,28,22,6,13,1575420030,0.00,118.0,30.0,0,0,0,0.0
Status,1732152283000,28,23,6,4,1575420030,0.00,309.0,24.0,0,0,0,0.0
Status,1732152283000,28,24,6,15,1575420030,0.00,60.0,24.0,0,0,0,0.0
Status,1732152283000,28,25,6,29,1575420030,0.00,191.0,23.0,0,0,0,0.0
Status,1732152283000,28,26,6,26,1575420030,0.00,167.0,8.0,0,0,0,0.0
Status,1732152283000,28,27,6,6,1575420030,0.00,326.0,6.0,0,0,0,0.0
Fix,GPS,37.4251250000,-122.1585116667,22.8,0.0,4.8,0.0,1732152284000,2.7,126.0,31168093000000,73.5,0,,,
Fix,FLP,37.4251186000,-122.1585084000,5.400000095367432,0.80334157,4.914,180.0,1732152284246,2.7,126.0,31168093000000,17.174866,0,,,
Raw,1732152284001,29218000000,,705611.5842980946,-1416187472783000064,0.0,127.09213970157074,1083.67191631736,0.0,0,7,0.0,16431,350701916941228,396,20.003999710083008,973.333738830817,0.14999,16,0.0,0.0,1575420030,,,,0,2.1853399241693627,1,6.0,20.003999710083008,0.0,0.0,0.0,66.7128,C,31168093000000,
Raw,1732152284001,29218000000,,705611.5842980946,-1416187472783000064,0.0,127.09213970157074,1083.67191631736,0.0,0,6,0.0,16431,350701920175400,487,18.329999923706055,-333.764509569436,0.14999,16,0.0,0.0,1575420030,,,,0,3.003439679494623,1,6.0,18.329999923706055,0.0,0.0,0.0,66.7128,C,31168093000000,
Raw,1732152284001,29218000000,,705611.5842980946,-1416187472783000064,0.0,127.09213970157074,1083.67191631736,0.0,0,30,0.0,16431,350701926075752,396,22.915000915527344,862.3565687752233,0.14999,16,0.0,0.0,1575420030,,,,0,6.938200260161128,1,6.0,22.915000915527344,0.0,0.0,0.0,66.7128,C,31168093000000,
Raw,1732152284001,29218000000,,705611.5842980946,-1416187472783000064,0.0,127.09213970157074,1083.67191631736,0.0,0,2,0.0,16431,350701919023993,1797,13.583999633789062,696.2973248336749,0.14999,16,0.0,0.0,1575420030,,,,0,0.0,1,6.0,13.583999633789062,0.0,0.0,0.0,66.7128,C,31168093000000,
Raw,1732152284001,29218000000,,705611.5842980946,-1416187472783000064,0.0,127.09213970157074,1083.67191631736,0.0,0,13,0.0,16431,350701929129753,797,19.020000457763672,731.8581761873721,0.14999,16,0.0,0.0,1575420030,,,,0,0.5371356006128964,1,6.0,19.020000457763672,0.0,0.0,0.0,66.7128,C,31168093000000,
Raw,1732152284001,29218000000,,705611.5842980946,-1416187472783000064,0.0,127.09213970157074,1083.67191631736,0.0,0,8,0.0,17,549976,396,5.0,934.1936268509037,0.14999,16,0.0,0.0,1605374980,,,,0,0.0,3,6.0,21.0,0.0,0.0,79.62592515808284,66.7128,C,31168093000000,
Status,1732152284000,28,0,1,17,1575420030,0.00,71.0,77.0,0,0,0,0.0
Status,1732152284000,28,1,1,22,1575420030,0.00,20.0,65.0,0,0,0,0.0
Status,1732152284000,28,2,1,19,1575420030,0.00,201.0,64.0,0,0,0,0.0
Status,1732152284000,28,3,1,14,1575420030,0.00,56.0,51.0,0,0,0,0.0
Status,1732152284000,28,4,1,13,1575420030,24.50,231.0,46.0,1,0,0,19.5
Status,1732152284000,28,5,2,135,1575420030,0.00,197.0,45.0,0,0,0,0.0
Status,1732152284000,28,6,1,30,1575420030,27.90,133.0,34.0,1,0,0,22.9
Status,1732152284000,28,7,1,15,1575420030,27.50,272.0,29.0,1,0,0,22.5
Status,1732152284000,28,8,1,24,1575420030,0.00,313.0,19.0,0,0,0,0.0
Status,1732152284000,28,9,1,2,1575420030,18.60,45.0,16.0,1,0,0,13.6
Status,1732152284000,28,10,1,6,1575420030,26.00,161.0,14.0,1,0,0,21.0
Status,1732152284000,28,11,1,21,1575420030,0.00,32.0,3.0,0,0,0,0.0
Status,1732152284000,28,12,1,7,1575420030,26.50,133.0,2.0,0,0,0,21.5
Status,1732152284000,28,13,3,20,1602000000,0.00,108.0,55.0,0,0,0,0.0
Status,1732152284000,28,14,3,9,1602000000,0.00,84.0,31.0,0,0,0,0.0
Status,1732152284000,28,15,3,11,1602000000,0.00,313.0,30.0,0,0,0,0.0
Status,1732152284000,28,16,3,19,1602000000,0.00,31.0,21.0,0,0,0,0.0
Status,1732152284000,28,17,3,8,1602000000,25.50,244.0,20.0,1,0,0,20.5
Status,1732152284000,28,18,3,17,1602000000,22.80,0.0,0.0,0,0,0,17.8
Status,1732152284000,28,19,6,21,1575420030,0.00,349.0,68.0,0,0,0,0.0
Status,1732152284000,28,20,6,19,1575420030,0.00,240.0,44.0,0,0,0,0.0
Status,1732152284000,28,21,6,27,1575420030,0.00,66.0,32.0,0,0,0,0.0
Status,1732152284000,28,22,6,13,1575420030,0.00,118.0,30.0,0,0,0,0.0
Status,1732152284000,28,23,6,4,1575420030,0.00,309.0,24.0,0,0,0,0.0
Status,1732152284000,28,24,6,15,1575420030,0.00,60.0,24.0,0,0,0,0.0
Status,1732152284000,28,25,6,29,1575420030,0.00,191.0,23.0,0,0,0,0.0
Status,1732152284000,28,26,6,26,1575420030,0.00,167.0,8.0,0,0,0,0.0
Status,1732152284000,28,27,6,6,1575420030,0.00,326.0,6.0,0,0,0,0.0
Fix,GPS,37.4251250000,-122.1585133333,22.8,0.0,4.7,0.0,1732152285000,2.7,151.8,31169093000000,72.5,0,,,
Raw,1732152285001,30218000000,,705559.5691469997,-1416187472783000064,0.0,127.63594496648177,1083.37285715104,0.0,0,7,0.0,16431,350702916937981,797,21.475000381469727,973.3324379951631,0.14999,16,0.0,0.0,1575420030,,,,0,4.684114656335362,1,6.0,21.475000381469727,0.0,0.0,0.0,66.7128,C,31169093000000,
Raw,1732152285001,30218000000,,705559.5691469997,-1416187472783000064,0.0,127.63594496648177,1083.37285715104,0.0,0,6,0.0,16431,350702920176516,487,21.003000259399414,-334.1744121756616,0.14999,16,0.0,0.0,1575420030,,,,0,3.9283434385473655,1,6.0,21.003000259399414,0.0,0.0,0.0,66.7128,C,31169093000000,
Raw,1732152285001,30218000000,,705559.5691469997,-1416187472783000064,0.0,127.63594496648177,1083.37285715104,0.0,0,30,0.0,16431,350702926072852,797,22.871000289916992,861.9825785247284,0.14999,16,0.0,0.0,1575420030,,,,0,5.599264467548864,1,6.0,22.871000289916992,0.0,0.0,0.0,66.7128,C,31169093000000,
Raw,1732152285001,30218000000,,705559.5691469997,-1416187472783000064,0.0,127.63594496648177,1083.37285715104,0.0,0,2,0.0,16431,350702919021645,797,13.569000244140625,696.5202323146531,0.14999,16,0.0,0.0,1575420030,,,,0,0.0,1,6.0,13.569000244140625,0.0,0.0,0.0,66.7128,C,31169093000000,
Raw,1732152285001,30218000000,,705559.5691469997,-1416187472783000064,0.0,127.63594496648177,1083.37285715104,0.0,0,13,0.0,16431,350702929127304,487,19.47100067138672,731.1053175526804,0.14999,16,0.0,0.0,1575420030,,,,0,1.2820967490054858,1,6.0,19.47100067138672,0.0,0.0,0.0,66.7128,C,31169093000000,
Raw,1732152285001,30218000000,,705559.5691469997,-1416187472783000064,0.0,127.63594496648177,1083.37285715104,0.0,0,8,0.0,17,546849,487,5.0,934.0355153911797,0.14999,16,0.0,0.0,1605374980,,,,0,5.0,3,6.0,19.0,0.0,0.0,80.32180218075455,66.7128,C,31169093000000,
Raw,1732152285001,30218000000,,705559.5691469997,-1416187472783000064,0.0,127.63594496648177,1083.37285715104,0.0,0,15,0.0,16431,350702925384492,487,22.452999114990234,537.4004355440567,0.14999,16,0.0,0.0,1575420030,,,,0,6.227433752581346,1,6.0,22.452999114990234,0.0,0.0,0.0,66.7128,C,31169093000000,
Fix,FLP,37.4251179000,-122.1585106000,5.400000095367432,0.76432806,4.857,180.0,1732152285245,2.7,151.8,31169093000000,20.441742,0,,,
Status,1732152285000,28,0,1,17,1575420030,0.00,71.0,77.0,0,0,0,0.0
Status,1732152285000,28,1,1,22,1575420030,0.00,20.0,65.0,0,0,0,0.0
Status,1732152285000,28,2,1,19,1575420030,0.00,201.0,64.0,0,0,0,0.0
Status,1732152285000,28,3,1,14,1575420030,0.00,56.0,51.0,0,0,0,0.0
Status,1732152285000,28,4,1,13,1575420030,30.80,231.0,46.0,1,0,0,25.8
Status,1732152285000,28,5,2,135,1575420030,0.00,197.0,45.0,0,0,0,0.0
Status,1732152285000,28,6,1,30,1575420030,27.80,133.0,34.0,1,0,0,22.8
Status,1732152285000,28,7,1,15,1575420030,0.00,272.0,29.0,0,0,0,0.0
Status,1732152285000,28,8,1,24,1575420030,0.00,313.0,19.0,0,0,0,0.0
Status,1732152285000,28,9,1,2,1575420030,18.60,45.0,16.0,1,0,0,13.6
Status,1732152285000,28,10,1,6,1575420030,32.00,161.0,14.0,1,0,0,27.0
Status,1732152285000,28,11,1,21,1575420030,0.00,32.0,3.0,0,0,0,0.0
Status,1732152285000,28,12,1,7,1575420030,26.50,133.0,2.0,0,0,0,21.5
Status,1732152285000,28,13,3,20,1602000000,0.00,108.0,55.0,0,0,0,0.0
Status,1732152285000,28,14,3,9,1602000000,0.00,84.0,31.0,0,0,0,0.0
Status,1732152285000,28,15,3,11,1602000000,0.00,313.0,30.0,0,0,0,0.0
Status,1732152285000,28,16,3,19,1602000000,0.00,31.0,21.0,0,0,0,0.0
Status,1732152285000,28,17,3,8,1602000000,25.50,244.0,20.0,1,0,0,20.5
Status,1732152285000,28,18,3,17,1602000000,24.70,0.0,0.0,0,0,0,19.7
Status,1732152285000,28,19,6,21,1575420030,0.00,349.0,68.0,0,0,0,0.0
Status,1732152285000,28,20,6,19,1575420030,0.00,240.0,44.0,0,0,0,0.0
Status,1732152285000,28,21,6,27,1575420030,0.00,66.0,32.0,0,0,0,0.0
Status,1732152285000,28,22,6,13,1575420030,0.00,118.0,30.0,0,0,0,0.0
Status,1732152285000,28,23,6,4,1575420030,0.00,309.0,24.0,0,0,0,0.0
Status,1732152285000,28,24,6,15,1575420030,0.00,60.0,24.0,0,0,0,0.0
Status,1732152285000,28,25,6,29,1575420030,0.00,191.0,23.0,0,0,0,0.0
Status,1732152285000,28,26,6,26,1575420030,0.00,167.0,8.0,0,0,0,0.0
Status,1732152285000,28,27,6,6,1575420030,0.00,326.0,6.0,0,0,0,0.0
Fix,GPS,37.4251416667,-122.1585233333,22.8,0.0,4.6,0.0,1732152286000,2.7,171.4,31170093000000,63.3,0,,,
Raw,1732152286001,31218000000,,705504.4268325123,-1416187472783000064,0.0,87.6136996117627,1083.589899550349,0.0,0,7,0.0,16431,350703916934734,797,21.475000381469727,973.0202374382283,0.14999,16,0.0,0.0,1575420030,,,,0,4.684114656335362,1,6.0,21.475000381469727,0.0,0.0,0.0,66.7128,C,31170093000000,
Raw,1732152286001,31218000000,,705504.4268325123,-1416187472783000064,0.0,87.6136996117627,1083.589899550349,0.0,0,6,0.0,16431,350703920177607,316,26.952999114990234,-334.04521132018004,0.14999,16,0.0,0.0,1575420030,,,,0,12.675025364084483,1,6.0,26.952999114990234,0.0,0.0,0.0,66.7128,C,31170093000000,
Raw,1732152286001,31218000000,,705504.4268325123,-1416187472783000064,0.0,87.6136996117627,1083.589899550349,0.0,0,30,0.0,16431,350703926069975,797,22.82900047302246,862.3538741870831,0.14999,16,0.0,0.0,1575420030,,,,0,5.599264467548864,1,6.0,22.82900047302246,0.0,0.0,0.0,66.7128,C,31170093000000,
Raw,1732152286001,31218000000,,705504.4268325123,-1416187472783000064,0.0,87.6136996117627,1083.589899550349,0.0,0,2,0.0,16431,350703919019322,1797,13.555000305175781,696.5015560313365,0.14999,16,0.0,0.0,1575420030,,,,0,0.0,1,6.0,13.555000305175781,0.0,0.0,0.0,66.7128,C,31170093000000,
Raw,1732152286001,31218000000,,705504.4268325123,-1416187472783000064,0.0,87.6136996117627,1083.589899550349,0.0,0,13,0.0,16431,350703929124857,396,25.777999877929688,731.292591428425,0.14999,16,0.0,0.0,1575420030,,,,0,11.097808329544385,1,6.0,25.777999877929688,0.0,0.0,0.0,66.7128,C,31170093000000,
Raw,1732152286001,31218000000,,705504.4268325123,-1416187472783000064,0.0,87.6136996117627,1083.589899550349,0.0,0,8,0.0,17,543733,487,5.0,934.0342388280678,0.14999,16,0.0,0.0,1605374980,,,,0,5.0,3,6.0,20.0,0.0,0.0,80.32180218075455,66.7128,C,31170093000000,
Fix,FLP,37.4251261000,-122.1585166000,5.400000095367432,0.6979564,4.8,180.0,1732152286245,2.7,171.4,31170093000000,20.368183,0,,,
Status,1732152286000,28,0,1,17,1575420030,0.00,71.0,77.0,0,0,0,0.0
Status,1732152286000,28,1,1,22,1575420030,0.00,20.0,65.0,0,0,0,0.0
Status,1732152286000,28,2,1,19,1575420030,0.00,201.0,64.0,0,0,0,0.0
Status,1732152286000,28,3,1,14,1575420030,0.00,56.0,51.0,0,0,0,0.0
Status,1732152286000,28,4,1,13,1575420030,24.30,231.0,46.0,1,0,0,19.3
Status,1732152286000,28,5,2,135,1575420030,0.00,197.0,45.0,0,0,0,0.0
Status,1732152286000,28,6,1,30,1575420030,21.30,133.0,34.0,1,0,0,16.3
Status,1732152286000,28,7,1,15,1575420030,27.60,272.0,29.0,1,0,0,22.6
Status,1732152286000,28,8,1,24,1575420030,0.00,313.0,19.0,0,0,0,0.0
Status,1732152286000,28,9,1,2,1575420030,18.50,45.0,16.0,1,0,0,13.5
Status,1732152286000,28,10,1,6,1575420030,28.00,161.0,14.0,1,0,0,23.0
Status,1732152286000,28,11,1,21,1575420030,0.00,32.0,3.0,0,0,0,0.0
Status,1732152286000,28,12,1,7,1575420030,19.10,133.0,2.0,0,0,0,14.1
Status,1732152286000,28,13,3,20,1602000000,0.00,108.0,55.0,0,0,0,0.0
Status,1732152286000,28,14,3,9,1602000000,0.00,84.0,31.0,0,0,0,0.0
Status,1732152286000,28,15,3,11,1602000000,0.00,313.0,30.0,0,0,0,0.0
Status,1732152286000,28,16,3,19,1602000000,0.00,31.0,21.0,0,0,0,0.0
Status,1732152286000,28,17,3,8,1602000000,25.50,244.0,20.0,1,0,0,20.5
Status,1732152286000,28,18,3,17,1602000000,24.30,0.0,0.0,0,0,0,19.3
Status,1732152286000,28,19,6,21,1575420030,0.00,349.0,68.0,0,0,0,0.0
Status,1732152286000,28,20,6,19,1575420030,0.00,240.0,44.0,0,0,0,0.0
Status,1732152286000,28,21,6,27,1575420030,0.00,66.0,32.0,0,0,0,0.0
Status,1732152286000,28,22,6,13,1575420030,0.00,118.0,30.0,0,0,0,0.0
Status,1732152286000,28,23,6,4,1575420030,0.00,309.0,24.0,0,0,0,0.0
Status,1732152286000,28,24,6,15,1575420030,0.00,60.0,24.0,0,0,0,0.0
Status,1732152286000,28,25,6,29,1575420030,0.00,191.0,23.0,0,0,0,0.0
Status,1732152286000,28,26,6,26,1575420030,0.00,167.0,8.0,0,0,0,0.0
Status,1732152286000,28,27,6,6,1575420030,0.00,326.0,6.0,0,0,0,0.0
Fix,GPS,37.4251383333,-122.1585283333,22.8,0.0,4.6,0.0,1732152287000,3.0,179.9,31171093000000,64.5,0,,,
Raw,1732152287001,32218000000,,705492.4914922309,-1416187472783000064,0.0,87.67942144982493,1087.8537405068912,0.0,0,7,0.0,16431,350704916931479,1797,14.100000381469727,974.5691610346876,0.14999,16,0.0,0.0,1575420030,,,,0,0.0,1,6.0,14.100000381469727,0.0,0.0,0.0,66.7128,C,31171093000000,
Raw,1732152287001,32218000000,,705492.4914922309,-1416187472783000064,0.0,87.67942144982493,1087.8537405068912,0.0,0,6,0.0,16431,350704920178720,487,22.951000213623047,-332.9938573613356,0.14999,16,0.0,0.0,1575420030,,,,0,7.0000217997039655,1,6.0,22.951000213623047,0.0,0.0,0.0,66.7128,C,31171093000000,
Raw,1732152287001,32218000000,,705492.4914922309,-1416187472783000064,0.0,87.67942144982493,1087.8537405068912,0.0,0,30,0.0,16431,350704926067094,797,16.257999420166016,865.0486481609591,0.14999,16,0.0,0.0,1575420030,,,,0,0.0,1,6.0,16.257999420166016,0.0,0.0,0.0,66.7128,C,31171093000000,
Raw,1732152287001,32218000000,,705492.4914922309,-1416187472783000064,0.0,87.67942144982493,1087.8537405068912,0.0,0,2,0.0,16431,350704919016995,1797,13.541999816894531,698.3756885412696,0.14999,16,0.0,0.0,1575420030,,,,0,0.0,1,6.0,13.541999816894531,0.0,0.0,0.0,66.7128,C,31171093000000,
Raw,1732152287001,32218000000,,705492.4914922309,-1416187472783000064,0.0,87.67942144982493,1087.8537405068912,0.0,0,13,0.0,16431,350704929122406,487,19.285999298095703,732.0801545000261,0.14999,16,0.0,0.0,1575420030,,,,0,0.9176003468815042,1,6.0,19.285999298095703,0.0,0.0,0.0,66.7128,C,31171093000000,
Raw,1732152287001,32218000000,,705492.4914922309,-1416187472783000064,0.0,87.67942144982493,1087.8537405068912,0.0,0,8,0.0,17,540621,487,5.0,935.6604890496227,0.14999,16,0.0,0.0,1605374980,,,,0,4.3748461253911595,3,6.0,18.0,0.0,0.0,80.15894771473084,66.7128,C,31171093000000,
Raw,1732152287001,32218000000,,705492.4914922309,-1416187472783000064,0.0,87.67942144982493,1087.8537405068912,0.0,0,15,0.0,16431,350704925380986,396,22.56999969482422,538.7104235059453,0.14999,16,0.0,0.0,1575420030,,,,0,6.427118170713365,1,6.0,22.56999969482422,0.0,0.0,0.0,66.7128,C,31171093000000,
Fix,FLP,37.4251290000,-122.1585222000,7.397162454905812,0.65491694,4.742,180.0,1732152287245,3.0,179.9,31171093000000,22.03937,0,,,
Status,1732152287000,27,0,1,17,1575420030,0.00,71.0,77.0,0,0,0,0.0
Status,1732152287000,27,1,1,22,1575420030,0.00,20.0,65.0,0,0,0,0.0
Status,1732152287000,27,2,1,19,1575420030,0.00,201.0,64.0,0,0,0,0.0
Status,1732152287000,27,3,1,14,1575420030,0.00,56.0,51.0,0,0,0,0.0
Status,1732152287000,27,4,1,13,1575420030,24.50,231.0,46.0,1,0,0,19.5
Status,1732152287000,27,5,1,30,1575420030,21.30,133.0,34.0,1,0,0,16.3
Status,1732152287000,27,6,1,15,1575420030,30.50,272.0,29.0,1,0,0,25.5
Status,1732152287000,27,7,1,24,1575420030,0.00,313.0,19.0,0,0,0,0.0
Status,1732152287000,27,8,1,2,1575420030,18.50,45.0,16.0,1,0,0,13.5
Status,1732152287000,27,9,1,6,1575420030,25.40,161.0,14.0,1,0,0,20.4
Status,1732152287000,27,10,1,21,1575420030,0.00,32.0,3.0,0,0,0,0.0
Status,1732152287000,27,11,1,7,1575420030,19.10,133.0,2.0,0,0,0,14.1
Status,1732152287000,27,12,3,20,1602000000,0.00,108.0,55.0,0,0,0,0.0
Status,1732152287000,27,13,3,9,1602000000,0.00,84.0,31.0,0,0,0,0.0
Status,1732152287000,27,14,3,11,1602000000,0.00,313.0,30.0,0,0,0,0.0
Status,1732152287000,27,15,3,19,1602000000,0.00,31.0,21.0,0,0,0,0.0
Status,1732152287000,27,16,3,8,1602000000,25.50,244.0,20.0,1,0,0,20.5
Status,1732152287000,27,17,3,17,1602000000,24.00,0.0,0.0,0,0,0,19.0
Status,1732152287000,27,18,6,21,1575420030,0.00,349.0,68.0,0,0,0,0.0
Status,1732152287000,27,19,6,19,1575420030,0.00,240.0,44.0,0,0,0,0.0
