# 
# Header Description:
# 
# Version: v3.1.0.3 Platform: 13 Manufacturer: samsung Model: SM-S135DL GNSS Hardware Model Name: MediaTek,MT6631,MTK_MNLD_default,MNL_VER_default
# 
# Raw,utcTimeMillis,TimeNanos,LeapSecond,TimeUncertaintyNanos,FullBiasNanos,BiasNanos,BiasUncertaintyNanos,DriftNanosPerSecond,DriftUncertaintyNanosPerSecond,HardwareClockDiscontinuityCount,Svid,TimeOffsetNanos,State,ReceivedSvTimeNanos,ReceivedSvTimeUncertaintyNanos,Cn0DbHz,PseudorangeRateMetersPerSecond,PseudorangeRateUncertaintyMetersPerSecond,AccumulatedDeltaRangeState,AccumulatedDeltaRangeMeters,AccumulatedDeltaRangeUncertaintyMeters,CarrierFrequencyHz,CarrierCycles,CarrierPhase,CarrierPhaseUncertainty,MultipathIndicator,SnrInDb,ConstellationType,AgcDb,BasebandCn0DbHz,FullInterSignalBiasNanos,FullInterSignalBiasUncertaintyNanos,SatelliteInterSignalBiasNanos,SatelliteInterSignalBiasUncertaintyNanos,CodeType,ChipsetElapsedRealtimeNanos,IsFullTracking
# 
# UncalAccel,utcTimeMillis,elapsedRealtimeNanos,UncalAccelXMps2,UncalAccelYMps2,UncalAccelZMps2,BiasXMps2,BiasYMps2,BiasZMps2
# 
# Accel,utcTimeMillis,elapsedRealtimeNanos,AccelXMps2,AccelYMps2,AccelZMps2
# 
# UncalGyro,utcTimeMillis,elapsedRealtimeNanos,UncalGyroXRadPerSec,UncalGyroYRadPerSec,UncalGyroZRadPerSec,DriftXRadPerSec,DriftYRadPerSec,DriftZRadPerSec
# 
# Gyro,utcTimeMillis,elapsedRealtimeNanos,GyroXRadPerSec,GyroYRadPerSec,GyroZRadPerSec
# 
# UncalMag,utcTimeMillis,elapsedRealtimeNanos,UncalMagXMicroT,UncalMagYMicroT,UncalMagZMicroT,BiasXMicroT,BiasYMicroT,BiasZMicroT
# 
# Mag,utcTimeMillis,elapsedRealtimeNanos,MagXMicroT,MagYMicroT,MagZMicroT
# 
# Pressure,utcTimeMillis,elapsedRealtimeNanos,PressureHpa
# 
# OrientationDeg,utcTimeMillis,elapsedRealtimeNanos,yawDeg,rollDeg,pitchDeg
# 
# Fix,Provider,LatitudeDegrees,LongitudeDegrees,AltitudeMeters,SpeedMps,AccuracyMeters,BearingDegrees,UnixTimeMillis,SpeedAccuracyMps,BearingAccuracyDegrees,elapsedRealtimeNanos,VerticalAccuracyMeters,MockLocation,NumberOfUsedSignals,VerticalSpeedAccuracyMps,SolutionType
# 
# Nav,Svid,Type,Status,MessageId,Sub-messageId,Data(Bytes)
# 
# Status,UnixTimeMillis,SignalCount,SignalIndex,ConstellationType,Svid,CarrierFrequencyHz,Cn0DbHz,AzimuthDegrees,ElevationDegrees,UsedInFix,HasAlmanacData,HasEphemerisData,BasebandCn0DbHz
# 
# Agc,utcTimeMillis,TimeNanos,LeapSecond,TimeUncertaintyNanos,FullBiasNanos,BiasNanos,BiasUncertaintyNanos,DriftNanosPerSecond,DriftUncertaintyNanosPerSecond,HardwareClockDiscontinuityCount,AgcDb,CarrierFrequencyHz,ConstellationType
# 
Fix,FLP,37.4251361000,-122.1584513000,-0.4000000059604645,0.7738924,6.8,0.00000003407616,1732150828241,2.0,128.3,29712089000000,18.986053,0,,,
Status,,26,0,1,17,1575420030,0.00,132.0,78.0,0,0,0,0.0
Status,,26,1,1,22,1575420030,0.00,353.0,69.0,0,0,0,0.0
Status,,26,2,1,14,1575420030,0.00,42.0,58.0,0,0,0,0.0
Status,,26,3,1,13,1575420030,19.70,247.0,53.0,1,0,0,14.700001
Status,,26,4,1,19,1575420030,16.60,197.0,51.0,1,0,0,11.6
Status,,26,5,1,30,1575420030,25.50,125.0,44.0,1,0,0,20.5
Status,,26,6,1,15,1575420030,23.90,285.0,31.0,1,0,0,18.9
Status,,26,7,1,2,1575420030,0.00,55.0,20.0,0,0,0,0.0
Status,,26,8,1,7,1575420030,28.50,127.0,11.0,1,0,0,23.5
Status,,26,9,1,21,1575420030,0.00,39.0,9.0,0,0,0,0.0
Status,,26,10,1,24,1575420030,0.00,312.0,9.0,0,0,0,0.0
Status,,26,11,1,6,1575420030,0.00,166.0,5.0,0,0,0,0.0
Status,,26,12,3,20,1602000000,0.00,126.0,45.0,0,0,0,0.0
Status,,26,13,3,9,1602000000,0.00,70.0,38.0,0,0,0,0.0
Status,,26,14,3,8,1602000000,18.80,255.0,29.0,1,0,0,13.799999
Status,,26,15,3,19,1602000000,0.00,41.0,29.0,0,0,0,0.0
Status,,26,16,3,11,1602000000,26.70,302.0,22.0,0,0,0,21.7
Status,,26,17,6,21,1575420030,0.00,326.0,67.0,0,0,0,0.0
Status,,26,18,6,19,1575420030,0.00,252.0,50.0,0,0,0,0.0
Status,,26,19,6,27,1575420030,0.00,59.0,38.0,0,0,0,0.0
Status,,26,20,6,29,1575420030,0.00,193.0,32.0,0,0,0,0.0
Status,,26,21,6,13,1575420030,22.10,125.0,23.0,1,0,0,17.1
Status,,26,22,6,15,1575420030,0.00,69.0,23.0,0,0,0,0.0
Status,,26,23,6,4,1575420030,0.00,316.0,19.0,0,0,0,0.0
Status,,26,24,6,26,1575420030,0.00,170.0,1.0,0,0,0,0.0
Status,,26,25,6,34,1575420030,0.00,25.0,1.0,0,0,0,0.0
Fix,GPS,37.4251783333,-122.1584033333,-27.099999999999998,0.0,6.7,0.0,1732150829000,2.0,124.7,29713089000000,72.3,0,,,
Fix,FLP,37.4251561000,-122.1584338000,-0.4000000059604645,0.78945416,6.785,0.000000023538751,1732150829241,2.0,124.7,29713089000000,18.994642,0,,,
Raw,1732150829001,63202000000,,126.05493075946691,-1416185983799000064,0.0,126.05493075946691,1440.5713393517253,0.0,0,13,0.0,16431,349246930564557,797,14.654999732971191,677.7267808723337,0.14999,16,0.0,0.0,1575420030,,,,0,0.0,1,6.0,14.654999732971191,0.0,0.0,0.0,66.7128,C,29713089000000,
Raw,1732150829001,63202000000,,126.05493075946691,-1416185983799000064,0.0,126.05493075946691,1440.5713393517253,0.0,0,7,0.0,16431,349246919805215,396,23.457000732421875,1027.7339425420496,0.14999,16,0.0,0.0,1575420030,,,,0,7.7852918219940594,1,6.0,23.457000732421875,0.0,0.0,0.0,66.7128,C,29713089000000,
Raw,1732150829001,63202000000,,126.05493075946691,-1416185983799000064,0.0,126.05493075946691,1440.5713393517253,0.0,0,30,0.0,16431,349246928274440,487,20.507999420166016,865.1400783240615,0.14999,16,0.0,0.0,1575420030,,,,0,0.4086579026319157,1,6.0,20.507999420166016,0.0,0.0,0.0,66.7128,C,29713089000000,
Raw,1732150829001,63202000000,,126.05493075946691,-1416185983799000064,0.0,126.05493075946691,1440.5713393517253,0.0,0,13,0.0,16431,349246912223609,487,17.100000381469727,-52.31078290057981,0.14999,16,0.0,0.0,1575420030,,,,0,0.0,6,6.0,17.100000381469727,0.0,0.0,-4.28336506274202,66.7128,C,29713089000000,
Raw,1732150829001,63202000000,,126.05493075946691,-1416185983799000064,0.0,126.05493075946691,1440.5713393517253,0.0,0,15,0.0,16431,349246925841991,487,18.85099983215332,469.75986196331803,0.14999,16,0.0,0.0,1575420030,,,,0,1.8412200657754934,1,6.0,18.85099983215332,0.0,0.0,0.0,66.7128,C,29713089000000,
Raw,1732150829001,63202000000,,126.05493075946691,-1416185983799000064,0.0,126.05493075946691,1440.5713393517253,0.0,0,19,0.0,16431,349246929702695,1797,11.600000381469727,-46.15234816454327,0.14999,16,0.0,0.0,1575420030,,,,0,0.0,1,6.0,11.600000381469727,0.0,0.0,0.0,66.7128,C,29713089000000,
Raw,1732150829001,63202000000,,126.05493075946691,-1416185983799000064,0.0,126.05493075946691,1440.5713393517253,0.0,0,8,0.0,17,52700,1797,5.0,907.6697456091194,0.14999,16,0.0,0.0,1605374980,,,,0,0.0,3,6.0,12.0,0.0,0.0,64.95142544548591,66.7128,C,29713089000000,
Raw,1732150829001,63202000000,,126.05493075946691,-1416185983799000064,0.0,126.05493075946691,1440.5713393517253,0.0,0,11,0.0,17,925789,396,13.800000190734863,-45.667806578703804,0.14999,16,0.0,0.0,1602000000,,,,0,6.762721774011026,3,6.0,13.800000190734863,0.0,0.0,64.95142544548591,66.7128,C,29713089000000,
Status,1732150829000,26,0,1,17,1575420030,0.00,132.0,78.0,0,0,0,0.0
Status,1732150829000,26,1,1,22,1575420030,0.00,353.0,69.0,0,0,0,0.0
Status,1732150829000,26,2,1,14,1575420030,0.00,42.0,58.0,0,0,0,0.0
Status,1732150829000,26,3,1,13,1575420030,19.60,247.0,53.0,1,0,0,14.6
Status,1732150829000,26,4,1,19,1575420030,16.60,197.0,51.0,1,0,0,11.6
Status,1732150829000,26,5,1,30,1575420030,25.40,125.0,44.0,1,0,0,20.4
Status,1732150829000,26,6,1,15,1575420030,23.90,285.0,31.0,1,0,0,18.9
Status,1732150829000,26,7,1,2,1575420030,0.00,55.0,20.0,0,0,0,0.0
Status,1732150829000,26,8,1,7,1575420030,29.20,127.0,11.0,1,0,0,24.2
Status,1732150829000,26,9,1,21,1575420030,0.00,39.0,9.0,0,0,0,0.0
Status,1732150829000,26,10,1,24,1575420030,0.00,312.0,9.0,0,0,0,0.0
Status,1732150829000,26,11,1,6,1575420030,0.00,166.0,5.0,0,0,0,0.0
Status,1732150829000,26,12,3,20,1602000000,0.00,126.0,45.0,0,0,0,0.0
Status,1732150829000,26,13,3,9,1602000000,0.00,70.0,38.0,0,0,0,0.0
Status,1732150829000,26,14,3,8,1602000000,0.00,255.0,29.0,0,0,0,0.0
Status,1732150829000,26,15,3,19,1602000000,0.00,41.0,29.0,0,0,0,0.0
Status,1732150829000,26,16,3,11,1602000000,24.60,302.0,22.0,0,0,0,19.6
Status,1732150829000,26,17,6,21,1575420030,0.00,326.0,67.0,0,0,0,0.0
Status,1732150829000,26,18,6,19,1575420030,0.00,252.0,50.0,0,0,0,0.0
Status,1732150829000,26,19,6,27,1575420030,0.00,59.0,38.0,0,0,0,0.0
Status,1732150829000,26,20,6,29,1575420030,0.00,193.0,32.0,0,0,0,0.0
Status,1732150829000,26,21,6,13,1575420030,22.10,125.0,23.0,1,0,0,17.1
Status,1732150829000,26,22,6,15,1575420030,0.00,69.0,23.0,0,0,0,0.0
Status,1732150829000,26,23,6,4,1575420030,0.00,316.0,19.0,0,0,0,0.0
Status,1732150829000,26,24,6,26,1575420030,0.00,170.0,1.0,0,0,0,0.0
Status,1732150829000,26,25,6,34,1575420030,0.00,25.0,1.0,0,0,0,0.0
Fix,GPS,37.4251983333,-122.1583750000,-24.4,0.0,6.7,0.0,1732150830000,2.0,110.4,29714089000000,71.1,0,,,
Fix,FLP,37.4251767000,-122.1584116000,-0.4000000059604645,0.8049053,6.771,0.000000020499668,1732150830241,2.0,110.4,29714089000000,19.00566,0,,,
Raw,1732150830001,64202000000,,122.19253531953534,-1416185983799000064,0.0,122.19253531953534,1439.7174227878997,0.0,0,13,0.0,16431,349247930562295,797,14.612000465393066,678.0697833592161,0.14999,16,0.0,0.0,1575420030,,,,0,0.0,1,6.0,14.612000465393066,0.0,0.0,0.0,66.7128,C,29714089000000,
Raw,1732150830001,64202000000,,122.19253531953534,-1416185983799000064,0.0,122.19253531953534,1439.7174227878997,0.0,0,7,0.0,16431,349247919801815,396,24.152000427246094,1027.4618820567207,0.14999,16,0.0,0.0,1575420030,,,,0,8.84527333730487,1,6.0,24.152000427246094,0.0,0.0,0.0,66.7128,C,29714089000000,
Raw,1732150830001,64202000000,,122.19253531953534,-1416185983799000064,0.0,122.19253531953534,1439.7174227878997,0.0,0,30,0.0,16431,349247928271579,487,20.388999938964844,864.8569607356744,0.14999,16,0.0,0.0,1575420030,,,,0,0.0,1,6.0,20.388999938964844,0.0,0.0,0.0,66.7128,C,29714089000000,
Raw,1732150830001,64202000000,,122.19253531953534,-1416185983799000064,0.0,122.19253531953534,1439.7174227878997,0.0,0,13,0.0,16431,349247912223784,487,17.100000381469727,-52.70828110967717,0.14999,16,0.0,0.0,1575420030,,,,0,0.0,6,6.0,17.100000381469727,0.0,0.0,-1.9215287806366192,66.7128,C,29714089000000,
Raw,1732150830001,64202000000,,122.19253531953534,-1416185983799000064,0.0,122.19253531953534,1439.7174227878997,0.0,0,15,0.0,16431,349247925840405,487,18.878000259399414,469.14823691390626,0.14999,16,0.0,0.0,1575420030,,,,0,1.2092403443414472,1,6.0,18.878000259399414,0.0,0.0,0.0,66.7128,C,29714089000000,
Raw,1732150830001,64202000000,,122.19253531953534,-1416185983799000064,0.0,122.19253531953534,1439.7174227878997,0.0,0,19,0.0,16431,349247929702849,1797,11.600000381469727,-46.73112711369416,0.14999,16,0.0,0.0,1575420030,,,,0,0.0,1,6.0,11.600000381469727,0.0,0.0,0.0,66.7128,C,29714089000000,
Raw,1732150830001,64202000000,,122.19253531953534,-1416185983799000064,0.0,122.19253531953534,1439.7174227878997,0.0,0,11,0.0,17,925941,487,20.0,-45.74378503971781,0.14999,16,0.0,0.0,1602000000,,,,0,3.5883785142858544,3,6.0,20.0,0.0,0.0,64.95142544548591,66.7128,C,29714089000000,
Status,1732150830000,26,0,1,17,1575420030,0.00,132.0,78.0,0,0,0,0.0
Status,1732150830000,26,1,1,22,1575420030,0.00,353.0,69.0,0,0,0,0.0
Status,1732150830000,26,2,1,14,1575420030,0.00,42.0,58.0,0,0,0,0.0
Status,1732150830000,26,3,1,13,1575420030,19.60,247.0,53.0,1,0,0,14.6
Status,1732150830000,26,4,1,19,1575420030,16.60,197.0,51.0,1,0,0,11.6
Status,1732150830000,26,5,1,30,1575420030,28.30,125.0,44.0,1,0,0,23.3
Status,1732150830000,26,6,1,15,1575420030,24.00,285.0,31.0,1,0,0,19.0
Status,1732150830000,26,7,1,2,1575420030,0.00,55.0,20.0,0,0,0,0.0
Status,1732150830000,26,8,1,7,1575420030,25.40,127.0,11.0,1,0,0,20.4
Status,1732150830000,26,9,1,21,1575420030,0.00,39.0,9.0,0,0,0,0.0
Status,1732150830000,26,10,1,24,1575420030,0.00,312.0,9.0,0,0,0,0.0
Status,1732150830000,26,11,1,6,1575420030,0.00,166.0,5.0,0,0,0,0.0
Status,1732150830000,26,12,3,20,1602000000,0.00,126.0,45.0,0,0,0,0.0
Status,1732150830000,26,13,3,9,1602000000,0.00,70.0,38.0,0,0,0,0.0
Status,1732150830000,26,14,3,8,1602000000,0.00,255.0,29.0,0,0,0,0.0
Status,1732150830000,26,15,3,19,1602000000,0.00,41.0,29.0,0,0,0,0.0
Status,1732150830000,26,16,3,11,1602000000,24.40,302.0,22.0,0,0,0,19.4
Status,1732150830000,26,17,6,21,1575420030,0.00,326.0,67.0,0,0,0,0.0
Status,1732150830000,26,18,6,19,1575420030,0.00,252.0,50.0,0,0,0,0.0
Status,1732150830000,26,19,6,27,1575420030,0.00,59.0,38.0,0,0,0,0.0
Status,1732150830000,26,20,6,29,1575420030,0.00,193.0,32.0,0,0,0,0.0
Status,1732150830000,26,21,6,13,1575420030,22.10,125.0,23.0,1,0,0,17.1
Status,1732150830000,26,22,6,15,1575420030,0.00,69.0,23.0,0,0,0,0.0
Status,1732150830000,26,23,6,4,1575420030,0.00,316.0,19.0,0,0,0,0.0
Status,1732150830000,26,24,6,26,1575420030,0.00,170.0,1.0,0,0,0,0.0
Status,1732150830000,26,25,6,34,1575420030,0.00,25.0,1.0,0,0,0,0.0
Fix,GPS,37.4252216667,-122.1583600000,-23.0,0.0,6.7,0.0,1732150831000,2.0,94.9,29715089000000,69.2,0,,,
Raw,1732150831001,65202000000,,119.07513158819374,-1416185983799000064,0.0,119.07513158819374,1439.554722545732,0.0,0,13,0.0,16431,349248930560032,487,14.571000099182129,678.2520861844263,0.14999,16,0.0,0.0,1575420030,,,,0,0.0,1,6.0,14.571000099182129,0.0,0.0,0.0,66.7128,C,29715089000000,
Raw,1732150831001,65202000000,,119.07513158819374,-1416185983799000064,0.0,119.07513158819374,1439.554722545732,0.0,0,7,0.0,16431,349248919798380,797,20.400999069213867,1027.1215276995622,0.14999,16,0.0,0.0,1575420030,,,,0,2.981990085182778,1,6.0,20.400999069213867,0.0,0.0,0.0,66.7128,C,29715089000000,
Raw,1732150831001,65202000000,,119.07513158819374,-1416185983799000064,0.0,119.07513158819374,1439.554722545732,0.0,0,30,0.0,16431,349248928268655,396,23.267000198364258,865.2148763741604,0.14999,16,0.0,0.0,1575420030,,,,0,7.525215816931903,1,6.0,23.267000198364258,0.0,0.0,0.0,66.7128,C,29715089000000,
Raw,1732150831001,65202000000,,119.07513158819374,-1416185983799000064,0.0,119.07513158819374,1439.554722545732,0.0,0,13,0.0,16431,349248912223959,487,17.139999389648438,-52.57071773927777,0.14999,16,0.0,0.0,1575420030,,,,0,0.7608368037958062,6,6.0,17.139999389648438,0.0,0.0,-0.3780422198522176,66.7128,C,29715089000000,
Raw,1732150831001,65202000000,,119.07513158819374,-1416185983799000064,0.0,119.07513158819374,1439.554722545732,0.0,0,15,0.0,16431,349248925838869,797,18.95800018310547,468.7678818603906,0.14999,16,0.0,0.0,1575420030,,,,0,3.070622381164276,1,6.0,18.95800018310547,0.0,0.0,0.0,66.7128,C,29715089000000,
Raw,1732150831001,65202000000,,119.07513158819374,-1416185983799000064,0.0,119.07513158819374,1439.554722545732,0.0,0,19,0.0,16431,349248929703005,1797,11.600000381469727,-46.823021860958605,0.14999,16,0.0,0.0,1575420030,,,,0,0.0,1,6.0,11.600000381469727,0.0,0.0,0.0,66.7128,C,29715089000000,
Raw,1732150831001,65202000000,,119.07513158819374,-1416185983799000064,0.0,119.07513158819374,1439.554722545732,0.0,0,11,0.0,17,926093,487,19.0,-45.72500744051351,0.14999,16,0.0,0.0,1602000000,,,,0,3.329078970998501,3,6.0,19.0,0.0,0.0,64.95142544548591,66.7128,C,29715089000000,
Fix,FLP,37.4251987000,-122.1583918000,-0.4000000059604645,0.8234277,6.757,0.000000010096963,1732150831241,2.0,94.9,29715089000000,19.015835,0,,,
Status,1732150831000,26,0,1,17,1575420030,0.00,132.0,78.0,0,0,0,0.0
Status,1732150831000,26,1,1,22,1575420030,0.00,353.0,69.0,0,0,0,0.0
Status,1732150831000,26,2,1,14,1575420030,0.00,42.0,58.0,0,0,0,0.0
Status,1732150831000,26,3,1,13,1575420030,23.60,247.0,53.0,1,0,0,18.6
Status,1732150831000,26,4,1,19,1575420030,18.70,197.0,51.0,1,0,0,13.700001
Status,1732150831000,26,5,1,30,1575420030,28.20,125.0,44.0,1,0,0,23.2
Status,1732150831000,26,6,1,15,1575420030,24.00,285.0,31.0,1,0,0,19.0
Status,1732150831000,26,7,1,2,1575420030,0.00,55.0,20.0,0,0,0,0.0
Status,1732150831000,26,8,1,7,1575420030,25.40,127.0,11.0,1,0,0,20.4
Status,1732150831000,26,9,1,21,1575420030,0.00,39.0,9.0,0,0,0,0.0
Status,1732150831000,26,10,1,24,1575420030,0.00,312.0,9.0,0,0,0,0.0
Status,1732150831000,26,11,1,6,1575420030,0.00,166.0,5.0,0,0,0,0.0
Status,1732150831000,26,12,3,20,1602000000,0.00,126.0,45.0,0,0,0,0.0
Status,1732150831000,26,13,3,9,1602000000,0.00,70.0,38.0,0,0,0,0.0
Status,1732150831000,26,14,3,8,1602000000,19.50,255.0,29.0,1,0,0,14.5
Status,1732150831000,26,15,3,19,1602000000,0.00,41.0,29.0,0,0,0,0.0
Status,1732150831000,26,16,3,11,1602000000,21.30,302.0,22.0,0,0,0,16.3
Status,1732150831000,26,17,6,21,1575420030,0.00,326.0,67.0,0,0,0,0.0
Status,1732150831000,26,18,6,19,1575420030,0.00,252.0,50.0,0,0,0,0.0
Status,1732150831000,26,19,6,27,1575420030,0.00,59.0,38.0,0,0,0,0.0
Status,1732150831000,26,20,6,29,1575420030,0.00,193.0,32.0,0,0,0,0.0
Status,1732150831000,26,21,6,13,1575420030,22.20,125.0,23.0,1,0,0,17.2
Status,1732150831000,26,22,6,15,1575420030,0.00,69.0,23.0,0,0,0,0.0
Status,1732150831000,26,23,6,4,1575420030,0.00,316.0,19.0,0,0,0,0.0
Status,1732150831000,26,24,6,26,1575420030,0.00,170.0,1.0,0,0,0,0.0
Status,1732150831000,26,25,6,34,1575420030,0.00,25.0,1.0,0,0,0,0.0
Fix,GPS,37.4252466667,-122.1583466667,-21.4,0.0,6.7,0.0,1732150832000,2.0,83.6,29716089000000,70.3,0,,,
Fix,FLP,37.4252221000,-122.1583744000,-0.4000000059604645,0.84463775,6.742,0.0000000049209543,1732150832241,2.0,83.6,29716089000000,19.024822,0,,,
Raw,1732150832001,66202000000,,120.16661035398305,-1416185983799000064,0.0,120.16661035398305,1439.1893879498232,0.0,0,13,0.0,16431,349249930557782,797,18.611000061035156,678.2250473861918,0.14999,16,0.0,0.0,1575420030,,,,0,0.0,1,6.0,18.611000061035156,0.0,0.0,0.0,66.7128,C,29716089000000,
Raw,1732150832001,66202000000,,120.16661035398305,-1416185983799000064,0.0,120.16661035398305,1439.1893879498232,0.0,0,7,0.0,16431,349249919794953,797,20.400999069213867,1027.2509608471248,0.14999,16,0.0,0.0,1575420030,,,,0,2.981990085182778,1,6.0,20.400999069213867,0.0,0.0,0.0,66.7128,C,29716089000000,
Raw,1732150832001,66202000000,,120.16661035398305,-1416185983799000064,0.0,120.16661035398305,1439.1893879498232,0.0,0,30,0.0,16431,349249928265789,487,23.152999877929688,864.9923405605119,0.14999,16,0.0,0.0,1575420030,,,,0,3.9901801547347846,1,6.0,23.152999877929688,0.0,0.0,0.0,66.7128,C,29716089000000,
Raw,1732150832001,66202000000,,120.16661035398305,-1416185983799000064,0.0,120.16661035398305,1439.1893879498232,0.0,0,13,0.0,16431,349249912224132,487,17.197999954223633,-52.5135274289226,0.14999,16,0.0,0.0,1575420030,,,,0,1.4250499460115735,6,6.0,17.197999954223633,0.0,0.0,1.5104740124323697,66.7128,C,29716089000000,
Raw,1732150832001,66202000000,,120.16661035398305,-1416185983799000064,0.0,120.16661035398305,1439.1893879498232,0.0,0,15,0.0,16431,349249925837306,1797,19.034000396728516,468.42957167354547,0.14999,16,0.0,0.0,1575420030,,,,0,3.070622381164276,1,6.0,19.034000396728516,0.0,0.0,0.0,66.7128,C,29716089000000,
Raw,1732150832001,66202000000,,120.16661035398305,-1416185983799000064,0.0,120.16661035398305,1439.1893879498232,0.0,0,19,0.0,16431,349249929703161,797,13.699999809265137,-47.1144090474311,0.14999,16,0.0,0.0,1575420030,,,,0,0.0,1,6.0,13.699999809265137,0.0,0.0,0.0,66.7128,C,29716089000000,
Raw,1732150832001,66202000000,,120.16661035398305,-1416185983799000064,0.0,120.16661035398305,1439.1893879498232,0.0,0,8,0.0,17,43612,797,5.0,908.9138475448018,0.14999,16,0.0,0.0,1605374980,,,,0,0.0,3,6.0,16.0,0.0,0.0,64.54011903988486,66.7128,C,29716089000000,
Raw,1732150832001,66202000000,,120.16661035398305,-1416185983799000064,0.0,120.16661035398305,1439.1893879498232,0.0,0,11,0.0,17,926245,797,14.5,-45.94115542551486,0.14999,16,0.0,0.0,1602000000,,,,0,0.0,3,6.0,14.5,0.0,0.0,64.54011903988486,66.7128,C,29716089000000,
Fix,FLP,37.4252306000,-122.1583660000,-0.4000000059604645,0.8326846,6.728,0.0000000027001128,1732150832447,2.0,83.6,29716295000000,24.810766,0,,,
Fix,NLP,37.4256265000,-122.1580690000,-0.4000000059604645,,77.6,,1732150832447,,,29716295000000,41.48575,0,,,
Status,1732150832000,26,0,1,17,1575420030,0.00,132.0,78.0,0,0,0,0.0
Status,1732150832000,26,1,1,22,1575420030,0.00,353.0,69.0,0,0,0,0.0
Status,1732150832000,26,2,1,14,1575420030,0.00,42.0,58.0,0,0,0,0.0
Status,1732150832000,26,3,1,13,1575420030,23.60,247.0,53.0,1,0,0,18.6
Status,1732150832000,26,4,1,19,1575420030,18.70,197.0,51.0,1,0,0,13.700001
Status,1732150832000,26,5,1,30,1575420030,25.30,125.0,44.0,1,0,0,20.3
Status,1732150832000,26,6,1,15,1575420030,0.00,285.0,31.0,0,0,0,0.0
Status,1732150832000,26,7,1,2,1575420030,0.00,55.0,20.0,0,0,0,0.0
Status,1732150832000,26,8,1,7,1575420030,25.30,127.0,11.0,1,0,0,20.3
Status,1732150832000,26,9,1,21,1575420030,0.00,39.0,9.0,0,0,0,0.0
Status,1732150832000,26,10,1,24,1575420030,0.00,312.0,9.0,0,0,0,0.0
Status,1732150832000,26,11,1,6,1575420030,0.00,166.0,5.0,0,0,0,0.0
Status,1732150832000,26,12,3,20,1602000000,0.00,126.0,45.0,0,0,0,0.0
Status,1732150832000,26,13,3,9,1602000000,0.00,70.0,38.0,0,0,0,0.0
Status,1732150832000,26,14,3,8,1602000000,19.50,255.0,29.0,1,0,0,14.5
Status,1732150832000,26,15,3,19,1602000000,0.00,41.0,29.0,0,0,0,0.0
Status,1732150832000,26,16,3,11,1602000000,21.30,302.0,22.0,0,0,0,16.3
Status,1732150832000,26,17,6,21,1575420030,0.00,326.0,67.0,0,0,0,0.0
Status,1732150832000,26,18,6,19,1575420030,0.00,252.0,50.0,0,0,0,0.0
Status,1732150832000,26,19,6,27,1575420030,0.00,59.0,38.0,0,0,0,0.0
Status,1732150832000,26,20,6,29,1575420030,0.00,193.0,32.0,0,0,0,0.0
Status,1732150832000,26,21,6,13,1575420030,22.20,125.0,23.0,1,0,0,17.2
Status,1732150832000,26,22,6,15,1575420030,0.00,69.0,23.0,0,0,0,0.0
Status,1732150832000,26,23,6,4,1575420030,0.00,316.0,19.0,0,0,0,0.0
Status,1732150832000,26,24,6,26,1575420030,0.00,170.0,1.0,0,0,0,0.0
Status,1732150832000,26,25,6,34,1575420030,0.00,25.0,1.0,0,0,0,0.0
Fix,GPS,37.4252716667,-122.1583333333,-19.2,0.0,6.8,0.0,1732150833000,2.0,77.4,29717089000000,69.2,0,,,
Raw,1732150833001,67202000000,,117.55968652571609,-1416185983799000064,0.0,117.55968652571609,1440.1839864797253,0.0,0,13,0.0,16431,349250930555519,797,18.611000061035156,678.7252651535306,0.14999,16,0.0,0.0,1575420030,,,,0,0.0,1,6.0,18.611000061035156,0.0,0.0,0.0,66.7128,C,29717089000000,
Raw,1732150833001,67202000000,,117.55968652571609,-1416185983799000064,0.0,117.55968652571609,1440.1839864797253,0.0,0,7,0.0,16431,349250919791528,487,20.31800079345703,1027.9239574643507,0.14999,16,0.0,0.0,1575420030,,,,0,0.04159386301431933,1,6.0,20.31800079345703,0.0,0.0,0.0,66.7128,C,29717089000000,
Raw,1732150833001,67202000000,,117.55968652571609,-1416185983799000064,0.0,117.55968652571609,1440.1839864797253,0.0,0,30,0.0,16431,349250928262907,487,20.2549991607666,865.8788600586414,0.14999,16,0.0,0.0,1575420030,,,,0,2.7105339413973004,1,6.0,20.2549991607666,0.0,0.0,0.0,66.7128,C,29717089000000,
Raw,1732150833001,67202000000,,117.55968652571609,-1416185983799000064,0.0,117.55968652571609,1440.1839864797253,0.0,0,13,0.0,16431,349250912224308,487,17.167999267578125,-52.28244326669138,0.14999,16,0.0,0.0,1575420030,,,,0,0.0,6,6.0,17.167999267578125,0.0,0.0,1.8361834163245745,66.7128,C,29717089000000,
Raw,1732150833001,67202000000,,117.55968652571609,-1416185983799000064,0.0,117.55968652571609,1440.1839864797253,0.0,0,19,0.0,16431,349250929703318,1797,13.699999809265137,-47.24820928611745,0.14999,16,0.0,0.0,1575420030,,,,0,0.0,1,6.0,13.699999809265137,0.0,0.0,0.0,66.7128,C,29717089000000,
Raw,1732150833001,67202000000,,117.55968652571609,-1416185983799000064,0.0,117.55968652571609,1440.1839864797253,0.0,0,8,0.0,17,40579,797,5.0,909.6672933300953,0.14999,16,0.0,0.0,1605374980,,,,0,0.0,3,6.0,17.0,0.0,0.0,64.05689802113044,66.7128,C,29717089000000,
Raw,1732150833001,67202000000,,117.55968652571609,-1416185983799000064,0.0,117.55968652571609,1440.1839864797253,0.0,0,11,0.0,17,926397,797,14.5,-45.39902649082324,0.14999,16,0.0,0.0,1602000000,,,,0,0.0,3,6.0,14.5,0.0,0.0,64.05689802113044,66.7128,C,29717089000000,
Fix,FLP,37.4252480000,-122.1583554000,-0.4000000059604645,0.8374749,6.728,0.000000002548922,1732150833241,2.0,77.4,29717089000000,25.06324,0,,,
Status,1732150833000,26,0,1,17,1575420030,0.00,132.0,78.0,0,0,0,0.0
Status,1732150833000,26,1,1,22,1575420030,0.00,353.0,69.0,0,0,0,0.0
Status,1732150833000,26,2,1,14,1575420030,0.00,42.0,58.0,0,0,0,0.0
Status,1732150833000,26,3,1,13,1575420030,19.40,247.0,53.0,1,0,0,14.4
Status,1732150833000,26,4,1,19,1575420030,18.40,197.0,51.0,1,0,0,13.4
Status,1732150833000,26,5,1,30,1575420030,25.20,125.0,44.0,1,0,0,20.2
Status,1732150833000,26,6,1,15,1575420030,0.00,285.0,31.0,0,0,0,0.0
Status,1732150833000,26,7,1,2,1575420030,0.00,55.0,20.0,0,0,0,0.0
Status,1732150833000,26,8,1,7,1575420030,25.20,127.0,11.0,1,0,0,20.2
Status,1732150833000,26,9,1,21,1575420030,0.00,39.0,9.0,0,0,0,0.0
Status,1732150833000,26,10,1,24,1575420030,0.00,312.0,9.0,0,0,0,0.0
Status,1732150833000,26,11,1,6,1575420030,0.00,166.0,5.0,0,0,0,0.0
Status,1732150833000,26,12,3,20,1602000000,0.00,126.0,45.0,0,0,0,0.0
Status,1732150833000,26,13,3,9,1602000000,0.00,70.0,38.0,0,0,0,0.0
Status,1732150833000,26,14,3,8,1602000000,19.50,255.0,29.0,1,0,0,14.5
Status,1732150833000,26,15,3,19,1602000000,0.00,41.0,29.0,0,0,0,0.0
Status,1732150833000,26,16,3,11,1602000000,21.20,302.0,22.0,0,0,0,16.2
Status,1732150833000,26,17,6,21,1575420030,0.00,326.0,67.0,0,0,0,0.0
Status,1732150833000,26,18,6,19,1575420030,0.00,252.0,50.0,0,0,0,0.0
Status,1732150833000,26,19,6,27,1575420030,0.00,59.0,38.0,0,0,0,0.0
Status,1732150833000,26,20,6,29,1575420030,0.00,193.0,32.0,0,0,0,0.0
Status,1732150833000,26,21,6,13,1575420030,22.10,125.0,23.0,1,0,0,17.1
Status,1732150833000,26,22,6,15,1575420030,0.00,69.0,23.0,0,0,0,0.0
Status,1732150833000,26,23,6,4,1575420030,0.00,316.0,19.0,0,0,0,0.0
Status,1732150833000,26,24,6,26,1575420030,0.00,170.0,1.0,0,0,0,0.0
Status,1732150833000,26,25,6,34,1575420030,0.00,25.0,1.0,0,0,0,0.0
Fix,GPS,37.4252916667,-122.1583250000,-17.4,0.0,6.8,0.0,1732150834000,2.1,75.1,29718089000000,68.7,0,,,
Fix,FLP,37.4252688000,-122.1583444000,-0.4000000059604645,0.8504803,6.728,0.0000000017863013,1732150834241,2.1,75.1,29718089000000,25.073227,0,,,
Raw,1732150834001,68202000000,,116.24500799972358,-1416185983799000064,0.0,116.24500799972358,1442.9299272516232,0.0,0,13,0.0,16431,349251930553264,797,14.399999618530273,679.555058925467,0.14999,16,0.0,0.0,1575420030,,,,0,0.0,1,6.0,14.399999618530273,0.0,0.0,0.0,66.7128,C,29718089000000,
Raw,1732150834001,68202000000,,116.24500799972358,-1416185983799000064,0.0,116.24500799972358,1442.9299272516232,0.0,0,7,0.0,16431,349251919788099,487,20.23900032043457,1028.4227350207868,0.14999,16,0.0,0.0,1575420030,,,,0,0.04159386301431933,1,6.0,20.23900032043457,0.0,0.0,0.0,66.7128,C,29718089000000,
Raw,1732150834001,68202000000,,116.24500799972358,-1416185983799000064,0.0,116.24500799972358,1442.9299272516232,0.0,0,30,0.0,16431,349251928260013,487,20.208999633789062,866.8931402013499,0.14999,16,0.0,0.0,1575420030,,,,0,1.099290906117092,1,6.0,20.208999633789062,0.0,0.0,0.0,66.7128,C,29718089000000,
Raw,1732150834001,68202000000,,116.24500799972358,-1416185983799000064,0.0,116.24500799972358,1442.9299272516232,0.0,0,13,0.0,16431,349251912224480,487,17.14900016784668,-51.37288039412146,0.14999,16,0.0,0.0,1575420030,,,,0,0.0,6,6.0,17.14900016784668,0.0,0.0,2.1802641246944616,66.7128,C,29718089000000,
Raw,1732150834001,68202000000,,116.24500799972358,-1416185983799000064,0.0,116.24500799972358,1442.9299272516232,0.0,0,19,0.0,16431,349251929703461,797,13.399999618530273,-46.12084935835253,0.14999,16,0.0,0.0,1575420030,,,,0,0.0,1,6.0,13.399999618530273,0.0,0.0,0.0,66.7128,C,29718089000000,
Raw,1732150834001,68202000000,,116.24500799972358,-1416185983799000064,0.0,116.24500799972358,1442.9299272516232,0.0,0,8,0.0,17,37544,797,5.0,910.4647805427512,0.14999,16,0.0,0.0,1605374980,,,,0,0.0,3,6.0,16.0,0.0,0.0,63.53111232836836,66.7128,C,29718089000000,
Raw,1732150834001,68202000000,,116.24500799972358,-1416185983799000064,0.0,116.24500799972358,1442.9299272516232,0.0,0,11,0.0,17,926549,797,14.5,-43.97923896558501,0.14999,16,0.0,0.0,1602000000,,,,0,0.0,3,6.0,14.5,0.0,0.0,63.53111232836836,66.7128,C,29718089000000,
Status,1732150834000,26,0,1,17,1575420030,0.00,132.0,78.0,0,0,0,0.0
Status,1732150834000,26,1,1,22,1575420030,0.00,353.0,69.0,0,0,0,0.0
Status,1732150834000,26,2,1,14,1575420030,0.00,42.0,58.0,0,0,0,0.0
Status,1732150834000,26,3,1,13,1575420030,19.40,247.0,53.0,1,0,0,14.4
Status,1732150834000,26,4,1,19,1575420030,18.40,197.0,51.0,1,0,0,13.4
Status,1732150834000,26,5,1,30,1575420030,25.20,125.0,44.0,1,0,0,20.2
Status,1732150834000,26,6,1,15,1575420030,0.00,285.0,31.0,0,0,0,0.0
Status,1732150834000,26,7,1,2,1575420030,0.00,55.0,20.0,0,0,0,0.0
Status,1732150834000,26,8,1,7,1575420030,25.20,127.0,11.0,1,0,0,20.2
Status,1732150834000,26,9,1,21,1575420030,0.00,39.0,9.0,0,0,0,0.0
Status,1732150834000,26,10,1,24,1575420030,0.00,312.0,9.0,0,0,0,0.0
Status,1732150834000,26,11,1,6,1575420030,0.00,166.0,5.0,0,0,0,0.0
Status,1732150834000,26,12,3,20,1602000000,0.00,126.0,45.0,0,0,0,0.0
Status,1732150834000,26,13,3,9,1602000000,0.00,70.0,38.0,0,0,0,0.0
Status,1732150834000,26,14,3,8,1602000000,19.70,255.0,29.0,1,0,0,14.700001
Status,1732150834000,26,15,3,19,1602000000,0.00,41.0,29.0,0,0,0,0.0
Status,1732150834000,26,16,3,11,1602000000,20.80,302.0,22.0,0,0,0,15.799999
Status,1732150834000,26,17,6,21,1575420030,0.00,326.0,67.0,0,0,0,0.0
Status,1732150834000,26,18,6,19,1575420030,0.00,252.0,50.0,0,0,0,0.0
Status,1732150834000,26,19,6,27,1575420030,0.00,59.0,38.0,0,0,0,0.0
Status,1732150834000,26,20,6,29,1575420030,0.00,193.0,32.0,0,0,0,0.0
Status,1732150834000,26,21,6,13,1575420030,22.20,125.0,23.0,1,0,0,17.2
Status,1732150834000,26,22,6,15,1575420030,0.00,69.0,23.0,0,0,0,0.0
Status,1732150834000,26,23,6,4,1575420030,0.00,316.0,19.0,0,0,0,0.0
Status,1732150834000,26,24,6,26,1575420030,0.00,170.0,1.0,0,0,0,0.0
Status,1732150834000,26,25,6,34,1575420030,0.00,25.0,1.0,0,0,0,0.0
Fix,GPS,37.4253116667,-122.1583233333,-14.799999999999999,0.0,6.8,0.0,1732150835000,2.1,71.7,29719089000000,66.6,0,,,
Fix,FLP,37.4252898000,-122.1583366000,-0.4000000059604645,0.86313057,6.742,0.0000000010291766,1732150835241,2.1,71.7,29719089000000,24.989874,0,,,
Raw,1732150835001,69202000000,,112.93196568944555,-1416185983799000064,0.0,112.93196568944555,1444.5351116564193,0.0,0,13,0.0,16431,349252930550995,797,14.399999618530273,680.5677594820244,0.14999,16,0.0,0.0,1575420030,,,,0,0.0,1,6.0,14.399999618530273,0.0,0.0,0.0,66.7128,C,29719089000000,
Raw,1732150835001,69202000000,,112.93196568944555,-1416185983799000064,0.0,112.93196568944555,1444.5351116564193,0.0,0,7,0.0,16431,349252919784628,487,20.21299934387207,1028.866041228268,0.14999,16,0.0,0.0,1575420030,,,,0,1.8412200657754934,1,6.0,20.21299934387207,0.0,0.0,0.0,66.7128,C,29719089000000,
Raw,1732150835001,69202000000,,112.93196568944555,-1416185983799000064,0.0,112.93196568944555,1444.5351116564193,0.0,0,30,0.0,16431,349252928257114,487,20.173999786376953,867.5553584660149,0.14999,16,0.0,0.0,1575420030,,,,0,1.4250499460115735,1,6.0,20.173999786376953,0.0,0.0,0.0,66.7128,C,29719089000000,
Raw,1732150835001,69202000000,,112.93196568944555,-1416185983799000064,0.0,112.93196568944555,1444.5351116564193,0.0,0,13,0.0,16431,349252912224654,487,17.1560001373291,-50.5658512461282,0.14999,16,0.0,0.0,1575420030,,,,0,0.0,6,6.0,17.1560001373291,0.0,0.0,-0.30181486209296665,66.7128,C,29719089000000,
Raw,1732150835001,69202000000,,112.93196568944555,-1416185983799000064,0.0,112.93196568944555,1444.5351116564193,0.0,0,19,0.0,16431,349252929703614,797,13.399999618530273,-45.56557836780417,0.14999,16,0.0,0.0,1575420030,,,,0,0.0,1,6.0,13.399999618530273,0.0,0.0,0.0,66.7128,C,29719089000000,
Raw,1732150835001,69202000000,,112.93196568944555,-1416185983799000064,0.0,112.93196568944555,1444.5351116564193,0.0,0,8,0.0,17,34488,797,5.0,910.8427344069702,0.14999,16,0.0,0.0,1605374980,,,,0,0.0,3,6.0,17.0,0.0,0.0,58.25400912950426,66.7128,C,29719089000000,
Raw,1732150835001,69202000000,,112.93196568944555,-1416185983799000064,0.0,112.93196568944555,1444.5351116564193,0.0,0,11,0.0,17,926695,797,14.699999809265137,-44.4103927458551,0.14999,16,0.0,0.0,1602000000,,,,0,0.0,3,6.0,14.699999809265137,0.0,0.0,58.25400912950426,66.7128,C,29719089000000,
Status,1732150835000,27,0,1,17,1575420030,0.00,132.0,78.0,0,0,0,0.0
Status,1732150835000,27,1,1,22,1575420030,0.00,353.0,69.0,0,0,0,0.0
Status,1732150835000,27,2,1,14,1575420030,0.00,42.0,58.0,0,0,0,0.0
Status,1732150835000,27,3,1,13,1575420030,19.40,247.0,53.0,1,0,0,14.4
Status,1732150835000,27,4,1,19,1575420030,18.40,197.0,51.0,1,0,0,13.4
Status,1732150835000,27,5,1,30,1575420030,25.10,125.0,44.0,1,0,0,20.1
Status,1732150835000,27,6,1,15,1575420030,19.90,285.0,31.0,1,0,0,14.9
Status,1732150835000,27,7,1,2,1575420030,0.00,55.0,20.0,0,0,0,0.0
Status,1732150835000,27,8,1,7,1575420030,25.30,127.0,11.0,1,0,0,20.3
Status,1732150835000,27,9,1,21,1575420030,0.00,39.0,9.0,0,0,0,0.0
Status,1732150835000,27,10,1,24,1575420030,0.00,312.0,9.0,0,0,0,0.0
Status,1732150835000,27,11,1,6,1575420030,0.00,166.0,5.0,0,0,0,0.0
Status,1732150835000,27,12,3,20,1602000000,0.00,126.0,45.0,0,0,0,0.0
Status,1732150835000,27,13,3,9,1602000000,0.00,70.0,38.0,0,0,0,0.0
Status,1732150835000,27,14,3,8,1602000000,21.90,255.0,29.0,1,0,0,16.9
Status,1732150835000,27,15,3,19,1602000000,0.00,41.0,29.0,0,0,0,0.0
Status,1732150835000,27,16,3,11,1602000000,20.70,302.0,22.0,0,0,0,15.700001
Status,1732150835000,27,17,3,17,1602000000,27.20,0.0,0.0,0,0,0,22.2
Status,1732150835000,27,18,6,21,1575420030,0.00,326.0,67.0,0,0,0,0.0
Status,1732150835000,27,19,6,19,1575420030,0.00,252.0,50.0,0,0,0,0.0
Status,1732150835000,27,20,6,27,1575420030,0.00,59.0,38.0,0,0,0,0.0
Status,1732150835000,27,21,6,29,1575420030,0.00,193.0,32.0,0,0,0,0.0
Status,1732150835000,27,22,6,13,1575420030,22.20,125.0,23.0,1,0,0,17.2
Status,1732150835000,27,23,6,15,1575420030,0.00,69.0,23.0,0,0,0,0.0
Status,1732150835000,27,24,6,4,1575420030,0.00,316.0,19.0,0,0,0,0.0
Status,1732150835000,27,25,6,26,1575420030,0.00,170.0,1.0,0,0,0,0.0
Status,1732150835000,27,26,6,34,1575420030,0.00,25.0,1.0,0,0,0,0.0
Fix,GPS,37.4253333333,-122.1583183333,-12.5,0.0,6.9,0.0,1732150836000,2.1,68.0,29720089000000,65.9,0,,,
Raw,1732150836001,70202000000,,111.97700765948774,-1416185983799000064,0.0,111.97700765948774,1444.7577459993029,0.0,0,13,0.0,16431,349253930548725,797,14.399999618530273,680.6159368596348,0.14999,16,0.0,0.0,1575420030,,,,0,0.0,1,6.0,14.399999618530273,0.0,0.0,0.0,66.7128,C,29720089000000,
Raw,1732150836001,70202000000,,111.97700765948774,-1416185983799000064,0.0,111.97700765948774,1444.7577459993029,0.0,0,7,0.0,16431,349253919781203,487,20.26099967956543,1028.9577501418676,0.14999,16,0.0,0.0,1575420030,,,,0,4.224948220159668,1,6.0,20.26099967956543,0.0,0.0,0.0,66.7128,C,29720089000000,
Raw,1732150836001,70202000000,,111.97700765948774,-1416185983799000064,0.0,111.97700765948774,1444.7577459993029,0.0,0,30,0.0,16431,349253928254226,487,20.1200008392334,866.6239601378261,0.14999,16,0.0,0.0,1575420030,,,,0,0.6450232261778988,1,6.0,20.1200008392334,0.0,0.0,0.0,66.7128,C,29720089000000,
Raw,1732150836001,70202000000,,111.97700765948774,-1416185983799000064,0.0,111.97700765948774,1444.7577459993029,0.0,0,13,0.0,16431,349253912224823,487,17.17799949645996,-50.421226196464794,0.14999,16,0.0,0.0,1575420030,,,,0,0.16568011104001457,6,6.0,17.17799949645996,0.0,0.0,-1.715833319972218,66.7128,C,29720089000000,
Raw,1732150836001,70202000000,,111.97700765948774,-1416185983799000064,0.0,111.97700765948774,1444.7577459993029,0.0,0,15,0.0,16431,349253925831043,797,14.899999618530273,471.44579142918224,0.14999,16,0.0,0.0,1575420030,,,,0,0.0,1,6.0,14.899999618530273,0.0,0.0,0.0,66.7128,C,29720089000000,
Raw,1732150836001,70202000000,,111.97700765948774,-1416185983799000064,0.0,111.97700765948774,1444.7577459993029,0.0,0,19,0.0,16431,349253929703766,797,13.399999618530273,-45.495147408829,0.14999,16,0.0,0.0,1575420030,,,,0,0.0,1,6.0,13.399999618530273,0.0,0.0,0.0,66.7128,C,29720089000000,
Raw,1732150836001,70202000000,,111.97700765948774,-1416185983799000064,0.0,111.97700765948774,1444.7577459993029,0.0,0,8,0.0,17,31430,487,5.0,911.1185632222325,0.14999,16,0.0,0.0,1605374980,,,,0,0.0,3,6.0,18.0,0.0,0.0,55.31482023723397,66.7128,C,29720089000000,
Raw,1732150836001,70202000000,,111.97700765948774,-1416185983799000064,0.0,111.97700765948774,1444.7577459993029,0.0,0,11,0.0,17,926842,797,16.899999618530273,-44.36411121788926,0.14999,16,0.0,0.0,1602000000,,,,0,0.0,3,6.0,16.899999618530273,0.0,0.0,55.31482023723397,66.7128,C,29720089000000,
Fix,FLP,37.4253111000,-122.1583298000,-0.4000000059604645,0.8752968,6.771,0.0000000006990096,1732150836241,2.1,68.0,29720089000000,25.0781,0,,,
Status,1732150836000,27,0,1,17,1575420030,0.00,132.0,78.0,0,0,0,0.0
Status,1732150836000,27,1,1,22,1575420030,0.00,353.0,69.0,0,0,0,0.0
Status,1732150836000,27,2,1,14,1575420030,0.00,42.0,58.0,0,0,0,0.0
Status,1732150836000,27,3,1,13,1575420030,19.40,247.0,53.0,1,0,0,14.4
Status,1732150836000,27,4,1,19,1575420030,18.70,197.0,51.0,1,0,0,13.700001
Status,1732150836000,27,5,1,30,1575420030,25.10,125.0,44.0,1,0,0,20.1
Status,1732150836000,27,6,1,15,1575420030,19.90,285.0,31.0,1,0,0,14.9
Status,1732150836000,27,7,1,2,1575420030,0.00,55.0,20.0,0,0,0,0.0
Status,1732150836000,27,8,1,7,1575420030,25.30,127.0,11.0,1,0,0,20.3
Status,1732150836000,27,9,1,21,1575420030,0.00,39.0,9.0,0,0,0,0.0
Status,1732150836000,27,10,1,24,1575420030,0.00,312.0,9.0,0,0,0,0.0
Status,1732150836000,27,11,1,6,1575420030,0.00,166.0,5.0,0,0,0,0.0
Status,1732150836000,27,12,3,20,1602000000,0.00,126.0,45.0,0,0,0,0.0
Status,1732150836000,27,13,3,9,1602000000,0.00,70.0,38.0,0,0,0,0.0
Status,1732150836000,27,14,3,8,1602000000,21.90,255.0,29.0,1,0,0,16.9
Status,1732150836000,27,15,3,19,1602000000,0.00,41.0,29.0,0,0,0,0.0
Status,1732150836000,27,16,3,11,1602000000,20.80,302.0,22.0,0,0,0,15.799999
Status,1732150836000,27,17,3,17,1602000000,29.80,0.0,0.0,0,0,0,24.8
Status,1732150836000,27,18,6,21,1575420030,0.00,326.0,67.0,0,0,0,0.0
Status,1732150836000,27,19,6,19,1575420030,0.00,252.0,50.0,0,0,0,0.0
Status,1732150836000,27,20,6,27,1575420030,0.00,59.0,38.0,0,0,0,0.0
Status,1732150836000,27,21,6,29,1575420030,0.00,193.0,32.0,0,0,0,0.0
Status,1732150836000,27,22,6,13,1575420030,22.30,125.0,23.0,1,0,0,17.3
Status,1732150836000,27,23,6,15,1575420030,0.00,69.0,23.0,0,0,0,0.0
Status,1732150836000,27,24,6,4,1575420030,0.00,316.0,19.0,0,0,0,0.0
Status,1732150836000,27,25,6,26,1575420030,0.00,170.0,1.0,0,0,0,0.0
Status,1732150836000,27,26,6,34,1575420030,0.00,25.0,1.0,0,0,0,0.0
Fix,GPS,37.4253533333,-122.1583100000,-10.899999999999999,0.0,6.9,0.0,1732150837000,2.1,66.7,29721089000000,64.7,0,,,
Raw,1732150837001,71202000000,,110.92611992243387,-1416185983799000064,0.0,110.92611992243387,1444.706247153815,0.0,0,13,0.0,16431,349254930546458,797,14.404999732971191,681.0626809899153,0.14999,16,0.0,0.0,1575420030,,,,0,0.0,1,6.0,14.404999732971191,0.0,0.0,0.0,66.7128,C,29721089000000,
Raw,1732150837001,71202000000,,110.92611992243387,-1416185983799000064,0.0,110.92611992243387,1444.706247153815,0.0,0,7,0.0,16431,349254919777782,487,20.33799934387207,1028.6894992466678,0.14999,16,0.0,0.0,1575420030,,,,0,5.243708281448777,1,6.0,20.33799934387207,0.0,0.0,0.0,66.7128,C,29721089000000,
Raw,1732150837001,71202000000,,110.92611992243387,-1416185983799000064,0.0,110.92611992243387,1444.706247153815,0.0,0,30,0.0,16431,349254928251335,487,20.069000244140625,867.0112374953571,0.14999,16,0.0,0.0,1575420030,,,,0,0.6450232261778988,1,6.0,20.069000244140625,0.0,0.0,0.0,66.7128,C,29721089000000,
Raw,1732150837001,71202000000,,110.92611992243387,-1416185983799000064,0.0,110.92611992243387,1444.706247153815,0.0,0,13,0.0,16431,349254912224994,487,17.263999938964844,-51.12349161590329,0.14999,16,0.0,0.0,1575420030,,,,0,2.430319652541007,6,6.0,17.263999938964844,0.0,0.0,-2.5793198244931674,66.7128,C,29721089000000,
Raw,1732150837001,71202000000,,110.92611992243387,-1416185983799000064,0.0,110.92611992243387,1444.706247153815,0.0,0,15,0.0,16431,349254925829469,797,14.899999618530273,471.6426357386663,0.14999,16,0.0,0.0,1575420030,,,,0,0.0,1,6.0,14.899999618530273,0.0,0.0,0.0,66.7128,C,29721089000000,
Raw,1732150837001,71202000000,,110.92611992243387,-1416185983799000064,0.0,110.92611992243387,1444.706247153815,0.0,0,19,0.0,16431,349254929703926,1797,13.699999809265137,-45.31693292424537,0.14999,16,0.0,0.0,1575420030,,,,0,0.0,1,6.0,13.699999809265137,0.0,0.0,0.0,66.7128,C,29721089000000,
Raw,1732150837001,71202000000,,110.92611992243387,-1416185983799000064,0.0,110.92611992243387,1444.706247153815,0.0,0,8,0.0,17,28376,797,5.0,911.3395910067601,0.14999,16,0.0,0.0,1605374980,,,,0,0.0,3,6.0,17.0,0.0,0.0,53.95836384557936,66.7128,C,29721089000000,
Raw,1732150837001,71202000000,,110.92611992243387,-1416185983799000064,0.0,110.92611992243387,1444.706247153815,0.0,0,11,0.0,17,926992,797,16.905000686645508,-44.810250527451345,0.14999,16,0.0,0.0,1602000000,,,,0,0.0,3,6.0,16.905000686645508,0.0,0.0,53.95836384557936,66.7128,C,29721089000000,
Fix,FLP,37.4253320000,-122.1583223000,-0.4000000059604645,0.88538253,6.8,0.0000000006437443,1732150837241,2.1,66.7,29721089000000,25.088066,0,,,
Fix,FLP,37.4253406000,-122.1583185000,-0.4000000059604645,0.8717638,6.85,0.00000000043148676,1732150837601,2.1,66.7,29721448000000,25.151524,0,,,
Fix,NLP,37.4257181000,-122.1581002000,5.400000095367432,,135.6,,1732150837600,,,29721448000000,41.6025,0,,,
Status,1732150837000,27,0,1,17,1575420030,0.00,132.0,78.0,0,0,0,0.0
Status,1732150837000,27,1,1,22,1575420030,0.00,353.0,69.0,0,0,0,0.0
Status,1732150837000,27,2,1,14,1575420030,0.00,42.0,58.0,0,0,0,0.0
Status,1732150837000,27,3,1,13,1575420030,19.40,247.0,53.0,1,0,0,14.4
Status,1732150837000,27,4,1,19,1575420030,18.70,197.0,51.0,1,0,0,13.700001
Status,1732150837000,27,5,1,30,1575420030,25.10,125.0,44.0,1,0,0,20.1
Status,1732150837000,27,6,1,15,1575420030,22.00,285.0,31.0,1,0,0,17.0
Status,1732150837000,27,7,1,2,1575420030,0.00,55.0,20.0,0,0,0,0.0
Status,1732150837000,27,8,1,7,1575420030,25.30,127.0,11.0,1,0,0,20.3
Status,1732150837000,27,9,1,21,1575420030,0.00,39.0,9.0,0,0,0,0.0
Status,1732150837000,27,10,1,24,1575420030,0.00,312.0,9.0,0,0,0,0.0
Status,1732150837000,27,11,1,6,1575420030,0.00,166.0,5.0,0,0,0,0.0
Status,1732150837000,27,12,3,20,1602000000,0.00,126.0,45.0,0,0,0,0.0
Status,1732150837000,27,13,3,9,1602000000,0.00,70.0,38.0,0,0,0,0.0
Status,1732150837000,27,14,3,8,1602000000,21.90,255.0,29.0,1,0,0,16.9
Status,1732150837000,27,15,3,19,1602000000,0.00,41.0,29.0,0,0,0,0.0
Status,1732150837000,27,16,3,11,1602000000,20.80,302.0,22.0,0,0,0,15.799999
Status,1732150837000,27,17,3,17,1602000000,30.50,0.0,0.0,0,0,0,25.5
Status,1732150837000,27,18,6,21,1575420030,0.00,326.0,67.0,0,0,0,0.0
Status,1732150837000,27,19,6,19,1575420030,0.00,252.0,50.0,0,0,0,0.0
Status,1732150837000,27,20,6,27,1575420030,0.00,59.0,38.0,0,0,0,0.0
Status,1732150837000,27,21,6,29,1575420030,0.00,193.0,32.0,0,0,0,0.0
Status,1732150837000,27,22,6,13,1575420030,22.30,125.0,23.0,1,0,0,17.3
Status,1732150837000,27,23,6,15,1575420030,0.00,69.0,23.0,0,0,0,0.0
Status,1732150837000,27,24,6,4,1575420030,0.00,316.0,19.0,0,0,0,0.0
Status,1732150837000,27,25,6,26,1575420030,0.00,170.0,1.0,0,0,0,0.0
Status,1732150837000,27,26,6,34,1575420030,0.00,25.0,1.0,0,0,0,0.0
Fix,GPS,37.4253683333,-122.1583000000,-11.2,0.0,6.8,0.0,1732150838000,2.0,66.2,29722089000000,63.6,0,,,
Raw,1732150838001,72202000000,,109.41580281750493,-1416185983799000064,0.0,109.41580281750493,1445.2611148361268,0.0,0,13,0.0,16431,349255930544186,797,14.409000396728516,681.1618697085247,0.14999,16,0.0,0.0,1575420030,,,,0,0.0,1,6.0,14.409000396728516,0.0,0.0,0.0,66.7128,C,29722089000000,
Raw,1732150838001,72202000000,,109.41580281750493,-1416185983799000064,0.0,109.41580281750493,1445.2611148361268,0.0,0,7,0.0,16431,349255919774401,487,20.327999114990234,1029.1388450482561,0.14999,16,0.0,0.0,1575420030,,,,0,2.5247324259926938,1,6.0,20.327999114990234,0.0,0.0,0.0,66.7128,C,29722089000000,
Raw,1732150838001,72202000000,,109.41580281750493,-1416185983799000064,0.0,109.41580281750493,1445.2611148361268,0.0,0,30,0.0,16431,349255928248438,487,20.08300018310547,866.8192713195751,0.14999,16,0.0,0.0,1575420030,,,,0,2.8924440380878926,1,6.0,20.08300018310547,0.0,0.0,0.0,66.7128,C,29722089000000,
Raw,1732150838001,72202000000,,109.41580281750493,-1416185983799000064,0.0,109.41580281750493,1445.2611148361268,0.0,0,13,0.0,16431,349255912225167,487,17.295000076293945,-50.916798122182605,0.14999,16,0.0,0.0,1575420030,,,,0,0.7608368037958062,6,6.0,17.295000076293945,0.0,0.0,-1.4575771257645003,66.7128,C,29722089000000,
Raw,1732150838001,72202000000,,109.41580281750493,-1416185983799000064,0.0,109.41580281750493,1445.2611148361268,0.0,0,15,0.0,16431,349255925827888,797,16.966999053955078,472.26852352185466,0.14999,16,0.0,0.0,1575420030,,,,0,0.0,1,6.0,16.966999053955078,0.0,0.0,0.0,66.7128,C,29722089000000,
Raw,1732150838001,72202000000,,109.41580281750493,-1416185983799000064,0.0,109.41580281750493,1445.2611148361268,0.0,0,19,0.0,16431,349255929704076,797,13.699999809265137,-45.05184120134804,0.14999,16,0.0,0.0,1575420030,,,,0,0.0,1,6.0,13.699999809265137,0.0,0.0,0.0,66.7128,C,29722089000000,
Raw,1732150838001,72202000000,,109.41580281750493,-1416185983799000064,0.0,109.41580281750493,1445.2611148361268,0.0,0,8,0.0,17,25335,797,5.0,911.8967196220502,0.14999,16,0.0,0.0,1605374980,,,,0,0.0,3,6.0,17.0,0.0,0.0,52.816797226567594,66.7128,C,29722089000000,
Raw,1732150838001,72202000000,,109.41580281750493,-1416185983799000064,0.0,109.41580281750493,1445.2611148361268,0.0,0,11,0.0,17,927140,797,16.909000396728516,-43.94401383423095,0.14999,16,0.0,0.0,1602000000,,,,0,0.0,3,6.0,16.909000396728516,0.0,0.0,52.816797226567594,66.7128,C,29722089000000,
Fix,FLP,37.4253528000,-122.1583125000,-0.4000000059604645,0.86073256,6.842,0.00000000065529604,1732150838241,2.0,66.2,29722089000000,25.15135,0,,,
Status,1732150838000,27,0,1,17,1575420030,0.00,132.0,78.0,0,0,0,0.0
Status,1732150838000,27,1,1,22,1575420030,0.00,353.0,69.0,0,0,0,0.0
Status,1732150838000,27,2,1,14,1575420030,0.00,42.0,58.0,0,0,0,0.0
Status,1732150838000,27,3,1,13,1575420030,19.60,247.0,53.0,1,0,0,14.6
Status,1732150838000,27,4,1,19,1575420030,21.20,197.0,51.0,1,0,0,16.2
Status,1732150838000,27,5,1,30,1575420030,25.10,125.0,44.0,1,0,0,20.1
Status,1732150838000,27,6,1,15,1575420030,22.00,285.0,31.0,1,0,0,17.0
Status,1732150838000,27,7,1,2,1575420030,0.00,55.0,20.0,0,0,0,0.0
Status,1732150838000,27,8,1,7,1575420030,25.30,127.0,11.0,1,0,0,20.3
Status,1732150838000,27,9,1,21,1575420030,0.00,39.0,9.0,0,0,0,0.0
Status,1732150838000,27,10,1,24,1575420030,0.00,312.0,9.0,0,0,0,0.0
Status,1732150838000,27,11,1,6,1575420030,0.00,166.0,5.0,0,0,0,0.0
Status,1732150838000,27,12,3,20,1602000000,0.00,126.0,45.0,0,0,0,0.0
Status,1732150838000,27,13,3,9,1602000000,0.00,70.0,38.0,0,0,0,0.0
Status,1732150838000,27,14,3,8,1602000000,21.90,255.0,29.0,1,0,0,16.9
Status,1732150838000,27,15,3,19,1602000000,0.00,41.0,29.0,0,0,0,0.0
Status,1732150838000,27,16,3,11,1602000000,24.40,302.0,22.0,0,0,0,19.4
Status,1732150838000,27,17,3,17,1602000000,27.80,0.0,0.0,0,0,0,22.8
Status,1732150838000,27,18,6,21,1575420030,0.00,326.0,67.0,0,0,0,0.0
Status,1732150838000,27,19,6,19,1575420030,0.00,252.0,50.0,0,0,0,0.0
Status,1732150838000,27,20,6,27,1575420030,0.00,59.0,38.0,0,0,0,0.0
Status,1732150838000,27,21,6,29,1575420030,0.00,193.0,32.0,0,0,0,0.0
Status,1732150838000,27,22,6,13,1575420030,22.40,125.0,23.0,1,0,0,17.4
Status,1732150838000,27,23,6,15,1575420030,0.00,69.0,23.0,0,0,0,0.0
Status,1732150838000,27,24,6,4,1575420030,0.00,316.0,19.0,0,0,0,0.0
Status,1732150838000,27,25,6,26,1575420030,0.00,170.0,1.0,0,0,0,0.0
Status,1732150838000,27,26,6,34,1575420030,0.00,25.0,1.0,0,0,0,0.0
Fix,GPS,37.4253833333,-122.1582933333,-11.2,0.0,6.8,0.0,1732150839000,2.0,65.6,29723089000000,62.6,0,,,
Raw,1732150839001,73202000000,,108.06815521456774,-1416185983799000064,0.0,108.06815521456774,1446.1351258135633,0.0,0,13,0.0,16431,349256930541931,797,14.600000381469727,681.4001084668524,0.14999,16,0.0,0.0,1575420030,,,,0,0.0,1,6.0,14.600000381469727,0.0,0.0,0.0,66.7128,C,29723089000000,
Raw,1732150839001,73202000000,,108.06815521456774,-1416185983799000064,0.0,108.06815521456774,1446.1351258135633,0.0,0,7,0.0,16431,349256919770964,797,20.295000076293945,1029.829960447804,0.14999,16,0.0,0.0,1575420030,,,,0,1.7390319502058889,1,6.0,20.295000076293945,0.0,0.0,0.0,66.7128,C,29723089000000,
Raw,1732150839001,73202000000,,108.06815521456774,-1416185983799000064,0.0,108.06815521456774,1446.1351258135633,0.0,0,30,0.0,16431,349256928245549,487,20.110000610351562,867.1193926882952,0.14999,16,0.0,0.0,1575420030,,,,0,3.3312186161966757,1,6.0,20.110000610351562,0.0,0.0,0.0,66.7128,C,29723089000000,
Raw,1732150839001,73202000000,,108.06815521456774,-1416185983799000064,0.0,108.06815521456774,1446.1351258135633,0.0,0,13,0.0,16431,349256912225338,396,17.40999984741211,-50.166773450879674,0.14999,16,0.0,0.0,1575420030,,,,0,3.584223580153498,6,6.0,17.40999984741211,0.0,0.0,-0.9824962622266314,66.7128,C,29723089000000,
Raw,1732150839001,73202000000,,108.06815521456774,-1416185983799000064,0.0,108.06815521456774,1446.1351258135633,0.0,0,15,0.0,16431,349256925826312,797,16.966999053955078,472.6958944925754,0.14999,16,0.0,0.0,1575420030,,,,0,0.0,1,6.0,16.966999053955078,0.0,0.0,0.0,66.7128,C,29723089000000,
Raw,1732150839001,73202000000,,108.06815521456774,-1416185983799000064,0.0,108.06815521456774,1446.1351258135633,0.0,0,19,0.0,16431,349256929704233,797,16.22599983215332,-44.54386487850201,0.14999,16,0.0,0.0,1575420030,,,,0,0.0,1,6.0,16.22599983215332,0.0,0.0,0.0,66.7128,C,29723089000000,
Raw,1732150839001,73202000000,,108.06815521456774,-1416185983799000064,0.0,108.06815521456774,1446.1351258135633,0.0,0,8,0.0,17,22293,797,5.0,912.2946425806634,0.14999,16,0.0,0.0,1605374980,,,,0,0.0,3,6.0,17.0,0.0,0.0,51.83903835270184,66.7128,C,29723089000000,
Raw,1732150839001,73202000000,,108.06815521456774,-1416185983799000064,0.0,108.06815521456774,1446.1351258135633,0.0,0,11,0.0,17,927281,487,16.913000106811523,-43.424180443120115,0.14999,16,0.0,0.0,1602000000,,,,0,3.1964673930182395,3,6.0,16.913000106811523,0.0,0.0,51.83903835270184,66.7128,C,29723089000000,
Fix,FLP,37.4253686000,-122.1583056000,-0.4000000059604645,0.85272306,6.842,0.00000000063051314,1732150839241,2.0,65.6,29723089000000,25.153896,0,,,
Status,1732150839000,27,0,1,17,1575420030,0.00,132.0,78.0,0,0,0,0.0
Status,1732150839000,27,1,1,22,1575420030,0.00,353.0,69.0,0,0,0,0.0
Status,1732150839000,27,2,1,14,1575420030,0.00,42.0,58.0,0,0,0,0.0
Status,1732150839000,27,3,1,13,1575420030,19.60,247.0,53.0,1,0,0,14.6
Status,1732150839000,27,4,1,19,1575420030,21.20,197.0,51.0,1,0,0,16.2
Status,1732150839000,27,5,1,30,1575420030,25.10,125.0,44.0,1,0,0,20.1
Status,1732150839000,27,6,1,15,1575420030,22.00,285.0,31.0,1,0,0,17.0
Status,1732150839000,27,7,1,2,1575420030,0.00,55.0,20.0,0,0,0,0.0
Status,1732150839000,27,8,1,7,1575420030,25.20,127.0,11.0,1,0,0,20.2
Status,1732150839000,27,9,1,21,1575420030,0.00,39.0,9.0,0,0,0,0.0
Status,1732150839000,27,10,1,24,1575420030,0.00,312.0,9.0,0,0,0,0.0
Status,1732150839000,27,11,1,6,1575420030,0.00,166.0,5.0,0,0,0,0.0
Status,1732150839000,27,12,3,20,1602000000,0.00,126.0,45.0,0,0,0,0.0
Status,1732150839000,27,13,3,9,1602000000,0.00,70.0,38.0,0,0,0,0.0
Status,1732150839000,27,14,3,8,1602000000,21.80,255.0,29.0,1,0,0,16.8
Status,1732150839000,27,15,3,19,1602000000,0.00,41.0,29.0,0,0,0,0.0
Status,1732150839000,27,16,3,11,1602000000,23.40,302.0,22.0,0,0,0,18.4
Status,1732150839000,27,17,3,17,1602000000,29.20,0.0,0.0,0,0,0,24.2
Status,1732150839000,27,18,6,21,1575420030,0.00,326.0,67.0,0,0,0,0.0
Status,1732150839000,27,19,6,19,1575420030,0.00,252.0,50.0,0,0,0,0.0
Status,1732150839000,27,20,6,27,1575420030,0.00,59.0,38.0,0,0,0,0.0
Status,1732150839000,27,21,6,29,1575420030,0.00,193.0,32.0,0,0,0,0.0
Status,1732150839000,27,22,6,13,1575420030,22.50,125.0,23.0,1,0,0,17.5
Status,1732150839000,27,23,6,15,1575420030,0.00,69.0,23.0,0,0,0,0.0
Status,1732150839000,27,24,6,4,1575420030,0.00,316.0,19.0,0,0,0,0.0
Status,1732150839000,27,25,6,26,1575420030,0.00,170.0,1.0,0,0,0,0.0
Status,1732150839000,27,26,6,34,1575420030,0.00,25.0,1.0,0,0,0,0.0
Fix,GPS,37.4253966667,-122.1582866667,-11.2,0.0,6.8,0.0,1732150840000,2.0,66.1,29724089000000,62.1,0,,,
Fix,FLP,37.4253838000,-122.1582986000,-0.4000000059604645,0.8431509,6.842,0.0000000006120914,1732150840241,2.0,66.1,29724089000000,29.65995,0,,,
Raw,1732150840001,74202000000,,107.05578441920107,-1416185983799000064,0.0,107.05578441920107,1446.157224429534,0.0,0,13,0.0,16431,349257930539658,797,14.600000381469727,681.4126986976454,0.14999,16,0.0,0.0,1575420030,,,,0,0.0,1,6.0,14.600000381469727,0.0,0.0,0.0,66.7128,C,29724089000000,
Raw,1732150840001,74202000000,,107.05578441920107,-1416185983799000064,0.0,107.05578441920107,1446.157224429534,0.0,0,7,0.0,16431,349257919767530,797,20.176000595092773,1030.371851414484,0.14999,16,0.0,0.0,1575420030,,,,0,0.0,1,6.0,20.176000595092773,0.0,0.0,0.0,66.7128,C,29724089000000,
Raw,1732150840001,74202000000,,107.05578441920107,-1416185983799000064,0.0,107.05578441920107,1446.157224429534,0.0,0,30,0.0,16431,349257928242660,487,20.145000457763672,867.3834623260359,0.14999,16,0.0,0.0,1575420030,,,,0,3.6669469638862706,1,6.0,20.145000457763672,0.0,0.0,0.0,66.7128,C,29724089000000,
Raw,1732150840001,74202000000,,107.05578441920107,-1416185983799000064,0.0,107.05578441920107,1446.157224429534,0.0,0,13,0.0,16431,349257912225510,487,17.479000091552734,-50.7245531959034,0.14999,16,0.0,0.0,1575420030,,,,0,2.334869355316107,6,6.0,17.479000091552734,0.0,0.0,-0.7032199379379295,66.7128,C,29724089000000,
Raw,1732150840001,74202000000,,107.05578441920107,-1416185983799000064,0.0,107.05578441920107,1446.157224429534,0.0,0,15,0.0,16431,349257925824735,797,16.966999053955078,472.6791230043234,0.14999,16,0.0,0.0,1575420030,,,,0,0.0,1,6.0,16.966999053955078,0.0,0.0,0.0,66.7128,C,29724089000000,
Raw,1732150840001,74202000000,,107.05578441920107,-1416185983799000064,0.0,107.05578441920107,1446.157224429534,0.0,0,19,0.0,16431,349257929704381,797,16.22599983215332,-44.71455309965953,0.14999,16,0.0,0.0,1575420030,,,,0,0.0,1,6.0,16.22599983215332,0.0,0.0,0.0,66.7128,C,29724089000000,
Raw,1732150840001,74202000000,,107.05578441920107,-1416185983799000064,0.0,107.05578441920107,1446.157224429534,0.0,0,8,0.0,17,19249,797,5.0,912.2109365137508,0.14999,16,0.0,0.0,1605374980,,,,0,0.0,3,6.0,17.0,0.0,0.0,51.083446929938795,66.7128,C,29724089000000,
Raw,1732150840001,74202000000,,107.05578441920107,-1416185983799000064,0.0,107.05578441920107,1446.157224429534,0.0,0,11,0.0,17,927429,487,16.836999893188477,-44.12662712868253,0.14999,16,0.0,0.0,1602000000,,,,0,1.5860754566204989,3,6.0,16.836999893188477,0.0,0.0,51.083446929938795,66.7128,C,29724089000000,
Status,1732150840000,27,0,1,17,1575420030,18.10,132.0,78.0,1,0,0,13.1
Status,1732150840000,27,1,1,22,1575420030,0.00,353.0,69.0,0,0,0,0.0
Status,1732150840000,27,2,1,14,1575420030,0.00,42.0,58.0,0,0,0,0.0
Status,1732150840000,27,3,1,13,1575420030,19.60,247.0,53.0,1,0,0,14.6
Status,1732150840000,27,4,1,19,1575420030,21.20,197.0,51.0,1,0,0,16.2
Status,1732150840000,27,5,1,30,1575420030,25.20,125.0,44.0,1,0,0,20.2
Status,1732150840000,27,6,1,15,1575420030,19.40,285.0,31.0,1,0,0,14.4
Status,1732150840000,27,7,1,2,1575420030,0.00,55.0,20.0,0,0,0,0.0
Status,1732150840000,27,8,1,7,1575420030,25.10,127.0,11.0,1,0,0,20.1
Status,1732150840000,27,9,1,21,1575420030,0.00,39.0,9.0,0,0,0,0.0
Status,1732150840000,27,10,1,24,1575420030,0.00,312.0,9.0,0,0,0,0.0
Status,1732150840000,27,11,1,6,1575420030,0.00,166.0,5.0,0,0,0,0.0
Status,1732150840000,27,12,3,20,1602000000,0.00,126.0,45.0,0,0,0,0.0
Status,1732150840000,27,13,3,9,1602000000,0.00,70.0,38.0,0,0,0,0.0
Status,1732150840000,27,14,3,8,1602000000,21.80,255.0,29.0,1,0,0,16.8
Status,1732150840000,27,15,3,19,1602000000,0.00,41.0,29.0,0,0,0,0.0
Status,1732150840000,27,16,3,11,1602000000,24.60,302.0,22.0,0,0,0,19.6
Status,1732150840000,27,17,3,17,1602000000,24.50,0.0,0.0,0,0,0,19.5
Status,1732150840000,27,18,6,21,1575420030,0.00,326.0,67.0,0,0,0,0.0
Status,1732150840000,27,19,6,19,1575420030,0.00,252.0,50.0,0,0,0,0.0
Status,1732150840000,27,20,6,27,1575420030,0.00,59.0,38.0,0,0,0,0.0
Status,1732150840000,27,21,6,29,1575420030,0.00,193.0,32.0,0,0,0,0.0
Status,1732150840000,27,22,6,13,1575420030,22.50,125.0,23.0,1,0,0,17.5
Status,1732150840000,27,23,6,15,1575420030,0.00,69.0,23.0,0,0,0,0.0
Status,1732150840000,27,24,6,4,1575420030,0.00,316.0,19.0,0,0,0,0.0
Status,1732150840000,27,25,6,26,1575420030,0.00,170.0,1.0,0,0,0,0.0
Status,1732150840000,27,26,6,34,1575420030,0.00,25.0,1.0,0,0,0,0.0
Fix,GPS,37.4254233333,-122.1582666667,-9.3,0.0,6.7,0.0,1732150841000,1.9,65.1,29725089000000,49.5,0,,,
Raw,1732150841001,75202000000,,96.9157382583568,-1416185983799000064,0.0,96.9157382583568,1441.6882484417633,0.0,0,13,0.0,16431,349258930537386,1797,14.600000381469727,680.2038042494311,0.14999,16,0.0,0.0,1575420030,,,,0,0.0,1,6.0,14.600000381469727,0.0,0.0,0.0,66.7128,C,29725089000000,
Raw,1732150841001,75202000000,,96.9157382583568,-1416185983799000064,0.0,96.9157382583568,1441.6882484417633,0.0,0,7,0.0,16431,349258919764094,487,20.055999755859375,1028.8367724260552,0.14999,16,0.0,0.0,1575420030,,,,0,0.0,1,6.0,20.055999755859375,0.0,0.0,0.0,66.7128,C,29725089000000,
Raw,1732150841001,75202000000,,96.9157382583568,-1416185983799000064,0.0,96.9157382583568,1441.6882484417633,0.0,0,30,0.0,16431,349258928239776,396,20.208999633789062,865.924668057025,0.14999,16,0.0,0.0,1575420030,,,,0,4.676264778134494,1,6.0,20.208999633789062,0.0,0.0,0.0,66.7128,C,29725089000000,
Raw,1732150841001,75202000000,,96.9157382583568,-1416185983799000064,0.0,96.9157382583568,1441.6882484417633,0.0,0,13,0.0,16431,349258912225678,487,17.510000228881836,-52.59134527607525,0.14999,16,0.0,0.0,1575420030,,,,0,0.9879318213382478,6,6.0,17.510000228881836,0.0,0.0,0.38680868498080784,66.7128,C,29725089000000,
Raw,1732150841001,75202000000,,96.9157382583568,-1416185983799000064,0.0,96.9157382583568,1441.6882484417633,0.0,0,15,0.0,16431,349258925823140,797,14.399999618530273,471.5586389221576,0.14999,16,0.0,0.0,1575420030,,,,0,0.0,1,6.0,14.399999618530273,0.0,0.0,0.0,66.7128,C,29725089000000,
Raw,1732150841001,75202000000,,96.9157382583568,-1416185983799000064,0.0,96.9157382583568,1441.6882484417633,0.0,0,19,0.0,16431,349258929704530,487,16.22599983215332,-45.67522023006104,0.14999,16,0.0,0.0,1575420030,,,,0,0.0,1,6.0,16.22599983215332,0.0,0.0,0.0,66.7128,C,29725089000000,
Raw,1732150841001,75202000000,,96.9157382583568,-1416185983799000064,0.0,96.9157382583568,1441.6882484417633,0.0,0,8,0.0,17,16209,797,5.0,910.6620095435487,0.14999,16,0.0,0.0,1605374980,,,,0,0.0,3,6.0,16.0,0.0,0.0,48.662903386558845,66.7128,C,29725089000000,
Raw,1732150841001,75202000000,,96.9157382583568,-1416185983799000064,0.0,96.9157382583568,1441.6882484417633,0.0,0,11,0.0,17,927584,487,16.764999389648438,-45.46956812870996,0.14999,16,0.0,0.0,1602000000,,,,0,3.5883785142858544,3,6.0,16.764999389648438,0.0,0.0,48.662903386558845,66.7128,C,29725089000000,
Raw,1732150841001,75202000000,,96.9157382583568,-1416185983799000064,0.0,96.9157382583568,1441.6882484417633,0.0,0,17,0.0,16431,349258933155360,797,13.100000381469727,419.0055289226236,0.14999,16,0.0,0.0,1575420030,,,,0,0.0,1,6.0,13.100000381469727,0.0,0.0,0.0,66.7128,C,29725089000000,
Fix,FLP,37.4254038000,-122.1582863000,-0.4000000059604645,0.8449823,6.828,0.0000000010218486,1732150841241,1.9,65.1,29725089000000,25.180473,0,,,
Status,1732150841000,27,0,1,17,1575420030,0.00,132.0,78.0,0,0,0,0.0
Status,1732150841000,27,1,1,22,1575420030,0.00,353.0,69.0,0,0,0,0.0
Status,1732150841000,27,2,1,14,1575420030,0.00,42.0,58.0,0,0,0,0.0
Status,1732150841000,27,3,1,13,1575420030,19.70,247.0,53.0,1,0,0,14.700001
Status,1732150841000,27,4,1,19,1575420030,21.20,197.0,51.0,1,0,0,16.2
Status,1732150841000,27,5,1,30,1575420030,25.30,125.0,44.0,1,0,0,20.3
Status,1732150841000,27,6,1,15,1575420030,22.50,285.0,31.0,1,0,0,17.5
Status,1732150841000,27,7,1,2,1575420030,0.00,55.0,20.0,0,0,0,0.0
Status,1732150841000,27,8,1,7,1575420030,25.10,127.0,11.0,1,0,0,20.1
Status,1732150841000,27,9,1,21,1575420030,0.00,39.0,9.0,0,0,0,0.0
Status,1732150841000,27,10,1,24,1575420030,0.00,312.0,9.0,0,0,0,0.0
Status,1732150841000,27,11,1,6,1575420030,0.00,166.0,5.0,0,0,0,0.0
