# 
# Header Description:
# 
# Version: v3.1.0.3 Platform: 13 Manufacturer: samsung Model: SM-S135DL GNSS Hardware Model Name: MediaTek,MT6631,MTK_MNLD_default,MNL_VER_default
# 
# Raw,utcTimeMillis,TimeNanos,LeapSecond,TimeUncertaintyNanos,FullBiasNanos,BiasNanos,BiasUncertaintyNanos,DriftNanosPerSecond,DriftUncertaintyNanosPerSecond,HardwareClockDiscontinuityCount,Svid,TimeOffsetNanos,State,ReceivedSvTimeNanos,ReceivedSvTimeUncertaintyNanos,Cn0DbHz,PseudorangeRateMetersPerSecond,PseudorangeRateUncertaintyMetersPerSecond,AccumulatedDeltaRangeState,AccumulatedDeltaRangeMeters,AccumulatedDeltaRangeUncertaintyMeters,CarrierFrequencyHz,CarrierCycles,CarrierPhase,CarrierPhaseUncertainty,MultipathIndicator,SnrInDb,ConstellationType,AgcDb,BasebandCn0DbHz,FullInterSignalBiasNanos,FullInterSignalBiasUncertaintyNanos,SatelliteInterSignalBiasNanos,SatelliteInterSignalBiasUncertaintyNanos,CodeType,ChipsetElapsedRealtimeNanos,IsFullTracking
# 
# UncalAccel,utcTimeMillis,elapsedRealtimeNanos,UncalAccelXMps2,UncalAccelYMps2,UncalAccelZMps2,BiasXMps2,BiasYMps2,BiasZMps2
# 
# Accel,utcTimeMillis,elapsedRealtimeNanos,AccelXMps2,AccelYMps2,AccelZMps2
# 
# UncalGyro,utcTimeMillis,elapsedRealtimeNanos,UncalGyroXRadPerSec,UncalGyroYRadPerSec,UncalGyroZRadPerSec,DriftXRadPerSec,DriftYRadPerSec,DriftZRadPerSec
# 
# Gyro,utcTimeMillis,elapsedRealtimeNanos,GyroXRadPerSec,GyroYRadPerSec,GyroZRadPerSec
# 
# UncalMag,utcTimeMillis,elapsedRealtimeNanos,UncalMagXMicroT,UncalMagYMicroT,UncalMagZMicroT,BiasXMicroT,BiasYMicroT,BiasZMicroT
# 
# Mag,utcTimeMillis,elapsedRealtimeNanos,MagXMicroT,MagYMicroT,MagZMicroT
# 
# Pressure,utcTimeMillis,elapsedRealtimeNanos,PressureHpa
# 
# OrientationDeg,utcTimeMillis,elapsedRealtimeNanos,yawDeg,rollDeg,pitchDeg
# 
# Fix,Provider,LatitudeDegrees,LongitudeDegrees,AltitudeMeters,SpeedMps,AccuracyMeters,BearingDegrees,UnixTimeMillis,SpeedAccuracyMps,BearingAccuracyDegrees,elapsedRealtimeNanos,VerticalAccuracyMeters,MockLocation,NumberOfUsedSignals,VerticalSpeedAccuracyMps,SolutionType
# 
# Nav,Svid,Type,Status,MessageId,Sub-messageId,Data(Bytes)
# 
# Status,UnixTimeMillis,SignalCount,SignalIndex,ConstellationType,Svid,CarrierFrequencyHz,Cn0DbHz,AzimuthDegrees,ElevationDegrees,UsedInFix,HasAlmanacData,HasEphemerisData,BasebandCn0DbHz
# 
# Agc,utcTimeMillis,TimeNanos,LeapSecond,TimeUncertaintyNanos,FullBiasNanos,BiasNanos,BiasUncertaintyNanos,DriftNanosPerSecond,DriftUncertaintyNanosPerSecond,HardwareClockDiscontinuityCount,AgcDb,CarrierFrequencyHz,ConstellationType
# 
Fix,FLP,37.4255025000,-122.1581424000,3.5782302959821752,0.07001638,5.028,,1732152842243,2.3,,31726091000000,16.603626,0,,,
Fix,FLP,37.4255011000,-122.1581464000,3.0055057027963485,0.063829824,4.933,,1732152843092,2.3,,31726940000000,13.660624,0,,,
Fix,NLP,37.4257057000,-122.1580940000,5.400000095367432,,77.6,,1732152843092,,,31726940000000,25.773218,0,,,
Status,,27,0,1,17,1575420030,0.00,59.0,74.0,0,0,0,0.0
Status,,27,1,1,19,1575420030,0.00,203.0,69.0,0,0,0,0.0
Status,,27,2,1,22,1575420030,0.00,28.0,63.0,0,0,0,0.0
Status,,27,3,1,14,1575420030,0.00,60.0,48.0,0,0,0,0.0
Status,,27,4,2,133,1575420030,0.00,191.0,45.0,0,0,0,0.0
Status,,27,5,1,13,1575420030,23.80,227.0,42.0,1,0,0,18.8
Status,,27,6,1,30,1575420030,30.50,135.0,30.0,1,0,0,25.5
Status,,27,7,1,15,1575420030,23.70,267.0,28.0,1,0,0,18.7
Status,,27,8,1,24,1575420030,25.90,313.0,23.0,1,0,0,20.9
Status,,27,9,1,6,1575420030,28.90,159.0,18.0,1,0,0,23.9
Status,,27,10,1,2,1575420030,0.00,42.0,14.0,0,0,0,0.0
Status,,27,11,1,12,1575420030,27.50,271.0,3.0,0,0,0,22.5
Status,,27,12,1,21,1575420030,0.00,30.0,1.0,0,0,0,0.0
Status,,27,13,3,20,1602000000,0.00,99.0,58.0,0,0,0,0.0
Status,,27,14,3,11,1602000000,0.00,317.0,33.0,0,0,0,0.0
Status,,27,15,3,9,1602000000,0.00,89.0,29.0,0,0,0,0.0
Status,,27,16,3,8,1602000000,32.90,241.0,17.0,1,0,0,27.900002
Status,,27,17,3,19,1602000000,0.00,28.0,17.0,0,0,0,0.0
Status,,27,18,6,21,1575420030,0.00,358.0,68.0,0,0,0,0.0
Status,,27,19,6,19,1575420030,19.60,237.0,42.0,1,0,0,14.6
Status,,27,20,6,13,1575420030,0.00,115.0,33.0,0,0,0,0.0
Status,,27,21,6,27,1575420030,0.00,69.0,30.0,0,0,0,0.0
Status,,27,22,6,4,1575420030,0.00,306.0,25.0,0,0,0,0.0
Status,,27,23,6,15,1575420030,0.00,56.0,23.0,0,0,0,0.0
Status,,27,24,6,29,1575420030,0.00,190.0,19.0,0,0,0,0.0
Status,,27,25,6,26,1575420030,0.00,165.0,11.0,0,0,0,0.0
Status,,27,26,6,6,1575420030,0.00,324.0,8.0,0,0,0,0.0
Fix,GPS,37.4255000000,-122.1581516667,25.900000000000002,0.0,4.7,0.0,1732152843000,2.4,106.6,31727091000000,53.5,0,,,
Fix,FLP,37.4255007000,-122.1581481000,3.0055057027963485,0.05524641,4.9,,1732152843244,2.4,,31727091000000,13.873393,0,,,
Raw,1732152843000,26101000000,,85.36608273456682,-1416188034899000064,0.0,85.36608273456682,1128.731443130851,0.0,0,15,0.0,16431,351260924322305,797,18.66200065612793,610.4801282026442,0.14999,16,0.0,0.0,1575420030,,,,0,0.39486403639369794,1,6.0,18.66200065612793,0.0,0.0,0.0,66.7128,C,31727091000000,
Raw,1732152843000,26101000000,,85.36608273456682,-1416188034899000064,0.0,85.36608273456682,1128.731443130851,0.0,0,24,0.0,16431,351260922920743,487,20.944000244140625,-268.5755001537112,0.14999,16,0.0,0.0,1575420030,,,,0,6.048634825731085,1,6.0,20.944000244140625,0.0,0.0,0.0,66.7128,C,31727091000000,
Raw,1732152843000,26101000000,,85.36608273456682,-1416188034899000064,0.0,85.36608273456682,1128.731443130851,0.0,0,6,0.0,16431,351260920790941,316,23.871999740600586,-317.321668153705,0.14999,16,0.0,0.0,1575420030,,,,0,8.418727357788885,1,6.0,23.871999740600586,0.0,0.0,0.0,66.7128,C,31727091000000,
Raw,1732152843000,26101000000,,85.36608273456682,-1416188034899000064,0.0,85.36608273456682,1128.731443130851,0.0,0,12,0.0,17,143744,487,22.479999542236328,-209.9069294531354,0.14999,16,0.0,0.0,1575420030,,,,0,6.316946186847138,1,6.0,22.479999542236328,0.0,0.0,0.0,66.7128,C,31727091000000,
Raw,1732152843000,26101000000,,85.36608273456682,-1416188034899000064,0.0,85.36608273456682,1128.731443130851,0.0,0,19,0.0,16431,351260917914060,1797,14.600000381469727,689.563967197033,0.14999,16,0.0,0.0,1575420030,,,,0,0.0,6,6.0,14.600000381469727,0.0,0.0,-24.03433085407845,66.7128,C,31727091000000,
Raw,1732152843000,26101000000,,85.36608273456682,-1416188034899000064,0.0,85.36608273456682,1128.731443130851,0.0,0,8,0.0,32995,16442923771157,316,5.0,979.5084259176284,0.14999,16,0.0,0.0,1605374980,,,,0,14.542425094393248,3,6.0,25.0,0.0,0.0,41.23122453878994,66.7128,C,31727091000000,
Raw,1732152843000,26101000000,,85.36608273456682,-1416188034899000064,0.0,85.36608273456682,1128.731443130851,0.0,0,13,0.0,16431,351260927713405,487,18.79400062561035,795.5551271080793,0.14999,16,0.0,0.0,1575420030,,,,0,3.071402714435672,1,6.0,18.79400062561035,0.0,0.0,0.0,66.7128,C,31727091000000,
Raw,1732152843000,26101000000,,85.36608273456682,-1416188034899000064,0.0,85.36608273456682,1128.731443130851,0.0,0,30,0.0,16431,351260924430794,396,25.45400047302246,909.987688327748,0.14999,16,0.0,0.0,1575420030,,,,0,8.470429234478754,1,6.0,25.45400047302246,0.0,0.0,0.0,66.7128,C,31727091000000,
Status,1732152843000,27,0,1,17,1575420030,0.00,59.0,74.0,0,0,0,0.0
Status,1732152843000,27,1,1,19,1575420030,0.00,203.0,69.0,0,0,0,0.0
Status,1732152843000,27,2,1,22,1575420030,0.00,28.0,63.0,0,0,0,0.0
Status,1732152843000,27,3,1,14,1575420030,0.00,60.0,48.0,0,0,0,0.0
Status,1732152843000,27,4,2,135,1575420030,0.00,197.0,45.0,0,0,0,0.0
Status,1732152843000,27,5,1,13,1575420030,23.90,227.0,42.0,1,0,0,18.9
Status,1732152843000,27,6,1,30,1575420030,32.70,135.0,30.0,1,0,0,27.7
Status,1732152843000,27,7,1,15,1575420030,25.30,267.0,28.0,1,0,0,20.3
Status,1732152843000,27,8,1,24,1575420030,25.90,313.0,23.0,1,0,0,20.9
Status,1732152843000,27,9,1,6,1575420030,39.10,159.0,18.0,1,0,0,34.1
Status,1732152843000,27,10,1,2,1575420030,0.00,42.0,14.0,0,0,0,0.0
Status,1732152843000,27,11,1,12,1575420030,26.90,271.0,3.0,0,0,0,21.9
Status,1732152843000,27,12,1,21,1575420030,0.00,30.0,1.0,0,0,0,0.0
Status,1732152843000,27,13,3,20,1602000000,0.00,99.0,58.0,0,0,0,0.0
Status,1732152843000,27,14,3,11,1602000000,0.00,317.0,33.0,0,0,0,0.0
Status,1732152843000,27,15,3,9,1602000000,0.00,89.0,29.0,0,0,0,0.0
Status,1732152843000,27,16,3,8,1602000000,32.90,241.0,17.0,1,0,0,27.900002
Status,1732152843000,27,17,3,19,1602000000,0.00,28.0,17.0,0,0,0,0.0
Status,1732152843000,27,18,6,21,1575420030,0.00,358.0,68.0,0,0,0,0.0
Status,1732152843000,27,19,6,19,1575420030,0.00,237.0,42.0,0,0,0,0.0
Status,1732152843000,27,20,6,13,1575420030,0.00,115.0,33.0,0,0,0,0.0
Status,1732152843000,27,21,6,27,1575420030,0.00,69.0,30.0,0,0,0,0.0
Status,1732152843000,27,22,6,4,1575420030,0.00,306.0,25.0,0,0,0,0.0
Status,1732152843000,27,23,6,15,1575420030,0.00,56.0,23.0,0,0,0,0.0
Status,1732152843000,27,24,6,29,1575420030,0.00,190.0,19.0,0,0,0,0.0
Status,1732152843000,27,25,6,26,1575420030,0.00,165.0,11.0,0,0,0,0.0
Status,1732152843000,27,26,6,6,1575420030,0.00,324.0,8.0,0,0,0,0.0
Fix,GPS,37.4254933333,-122.1581450000,25.900000000000002,0.0,4.7,0.0,1732152844000,2.5,73.2,31728091000000,53.6,0,,,
Fix,FLP,37.4254970000,-122.1581469000,2.922036415121001,0.08692686,4.828,,1732152844243,2.5,,31728091000000,12.565505,0,,,
Raw,1732152844000,27101000000,,84.72560974385546,-1416188034899000064,0.0,84.72560974385546,1127.4855277599777,0.0,0,15,0.0,16431,351261924320283,487,20.34600067138672,610.5246353653739,0.14999,16,0.0,0.0,1575420030,,,,0,2.877296544288114,1,6.0,20.34600067138672,0.0,0.0,0.0,66.7128,C,31728091000000,
Raw,1732152844000,27101000000,,84.72560974385546,-1416188034899000064,0.0,84.72560974385546,1127.4855277599777,0.0,0,24,0.0,16431,351261922921639,487,20.93199920654297,-268.985449218353,0.14999,16,0.0,0.0,1575420030,,,,0,3.4470673005168644,1,6.0,20.93199920654297,0.0,0.0,0.0,66.7128,C,31728091000000,
Raw,1732152844000,27101000000,,84.72560974385546,-1416188034899000064,0.0,84.72560974385546,1127.4855277599777,0.0,0,6,0.0,16431,351261920792000,58,34.13600158691406,-318.1761313446492,0.14999,16,0.0,0.0,1575420030,,,,0,21.387384086111872,1,6.0,34.13600158691406,0.0,0.0,0.0,66.7128,C,31728091000000,
Raw,1732152844000,27101000000,,84.72560974385546,-1416188034899000064,0.0,84.72560974385546,1127.4855277599777,0.0,0,12,0.0,17,144446,487,21.90999984741211,-208.6408446945658,0.14999,16,0.0,0.0,1575420030,,,,0,5.412798137254058,1,6.0,21.90999984741211,0.0,0.0,0.0,66.7128,C,31728091000000,
Raw,1732152844000,27101000000,,84.72560974385546,-1416188034899000064,0.0,84.72560974385546,1127.4855277599777,0.0,0,8,0.0,32995,16443923767891,396,5.0,979.100381637199,0.14999,16,0.0,0.0,1605374980,,,,0,15.384889212504868,3,6.0,22.0,0.0,0.0,39.8074817484603,66.7128,C,31728091000000,
Raw,1732152844000,27101000000,,84.72560974385546,-1416188034899000064,0.0,84.72560974385546,1127.4855277599777,0.0,0,13,0.0,16431,351261927710752,487,18.875999450683594,794.0683648725096,0.14999,16,0.0,0.0,1575420030,,,,0,3.071402714435672,1,6.0,18.875999450683594,0.0,0.0,0.0,66.7128,C,31728091000000,
Raw,1732152844000,27101000000,,84.72560974385546,-1416188034899000064,0.0,84.72560974385546,1127.4855277599777,0.0,0,30,0.0,16431,351261924427762,235,27.68199920654297,909.0854658849394,0.14999,16,0.0,0.0,1575420030,,,,0,13.638655421903067,1,6.0,27.68199920654297,0.0,0.0,0.0,66.7128,C,31728091000000,
Status,1732152844000,27,0,1,17,1575420030,0.00,59.0,74.0,0,0,0,0.0
Status,1732152844000,27,1,1,19,1575420030,0.00,203.0,69.0,0,0,0,0.0
Status,1732152844000,27,2,1,22,1575420030,0.00,28.0,63.0,0,0,0,0.0
Status,1732152844000,27,3,1,14,1575420030,0.00,60.0,48.0,0,0,0,0.0
Status,1732152844000,27,4,2,135,1575420030,0.00,197.0,45.0,0,0,0,0.0
Status,1732152844000,27,5,1,13,1575420030,28.60,227.0,42.0,1,0,0,23.6
Status,1732152844000,27,6,1,30,1575420030,35.40,135.0,30.0,1,0,0,30.400002
Status,1732152844000,27,7,1,15,1575420030,25.30,267.0,28.0,1,0,0,20.3
Status,1732152844000,27,8,1,24,1575420030,28.90,313.0,23.0,1,0,0,23.9
Status,1732152844000,27,9,1,6,1575420030,31.60,159.0,18.0,1,0,0,26.6
Status,1732152844000,27,10,1,2,1575420030,0.00,42.0,14.0,0,0,0,0.0
Status,1732152844000,27,11,1,12,1575420030,25.80,271.0,3.0,0,0,0,20.8
Status,1732152844000,27,12,1,21,1575420030,0.00,30.0,1.0,0,0,0,0.0
Status,1732152844000,27,13,3,20,1602000000,0.00,99.0,58.0,0,0,0,0.0
Status,1732152844000,27,14,3,11,1602000000,0.00,317.0,33.0,0,0,0,0.0
Status,1732152844000,27,15,3,9,1602000000,0.00,89.0,29.0,0,0,0,0.0
Status,1732152844000,27,16,3,8,1602000000,26.70,241.0,17.0,1,0,0,21.7
Status,1732152844000,27,17,3,19,1602000000,0.00,28.0,17.0,0,0,0,0.0
Status,1732152844000,27,18,6,21,1575420030,0.00,358.0,68.0,0,0,0,0.0
Status,1732152844000,27,19,6,19,1575420030,0.00,237.0,42.0,0,0,0,0.0
Status,1732152844000,27,20,6,13,1575420030,0.00,115.0,33.0,0,0,0,0.0
Status,1732152844000,27,21,6,27,1575420030,0.00,69.0,30.0,0,0,0,0.0
Status,1732152844000,27,22,6,4,1575420030,0.00,306.0,25.0,0,0,0,0.0
Status,1732152844000,27,23,6,15,1575420030,0.00,56.0,23.0,0,0,0,0.0
Status,1732152844000,27,24,6,29,1575420030,0.00,190.0,19.0,0,0,0,0.0
Status,1732152844000,27,25,6,26,1575420030,0.00,165.0,11.0,0,0,0,0.0
Status,1732152844000,27,26,6,6,1575420030,0.00,324.0,8.0,0,0,0,0.0
Fix,GPS,37.4254966667,-122.1581483333,26.000000000000004,0.0,4.6,0.0,1732152845000,2.7,110.6,31729091000000,53.2,0,,,
Fix,FLP,37.4254966000,-122.1581475000,2.922036415121001,0.06456276,4.771,,1732152845243,2.7,,31729091000000,12.211966,0,,,
Raw,1732152845000,28101000000,,83.74279787004127,-1416188034899000064,0.0,83.74279787004127,1124.7087513650915,0.0,0,15,0.0,16431,351262924318246,797,20.34600067138672,609.8632998106169,0.14999,16,0.0,0.0,1575420030,,,,0,2.877296544288114,1,6.0,20.34600067138672,0.0,0.0,0.0,66.7128,C,31729091000000,
Raw,1732152845000,28101000000,,83.74279787004127,-1416188034899000064,0.0,83.74279787004127,1124.7087513650915,0.0,0,24,0.0,16431,351262922922543,396,23.93600082397461,-270.6543749038841,0.14999,16,0.0,0.0,1575420030,,,,0,8.521825181113625,1,6.0,23.93600082397461,0.0,0.0,0.0,66.7128,C,31729091000000,
Raw,1732152845000,28101000000,,83.74279787004127,-1416188034899000064,0.0,83.74279787004127,1124.7087513650915,0.0,0,6,0.0,16431,351262920793067,396,26.645000457763672,-318.61088920354746,0.14999,16,0.0,0.0,1575420030,,,,0,12.287864994397466,1,6.0,26.645000457763672,0.0,0.0,0.0,66.7128,C,31729091000000,
Raw,1732152845000,28101000000,,83.74279787004127,-1416188034899000064,0.0,83.74279787004127,1124.7087513650915,0.0,0,12,0.0,17,145147,487,20.760000228881836,-211.7108168377582,0.14999,16,0.0,0.0,1575420030,,,,0,3.538498562006532,1,6.0,20.760000228881836,0.0,0.0,0.0,66.7128,C,31729091000000,
Raw,1732152845000,28101000000,,83.74279787004127,-1416188034899000064,0.0,83.74279787004127,1124.7087513650915,0.0,0,8,0.0,32995,16444923764628,797,5.0,978.0473994359926,0.14999,16,0.0,0.0,1605374980,,,,0,6.743003514378004,3,6.0,17.0,0.0,0.0,38.70390030001305,66.7128,C,31729091000000,
Raw,1732152845000,28101000000,,83.74279787004127,-1416188034899000064,0.0,83.74279787004127,1124.7087513650915,0.0,0,13,0.0,16431,351262927708136,396,23.570999145507812,794.2146159667404,0.14999,16,0.0,0.0,1575420030,,,,0,7.993644878195605,1,6.0,23.570999145507812,0.0,0.0,0.0,66.7128,C,31729091000000,
Raw,1732152845000,28101000000,,83.74279787004127,-1416188034899000064,0.0,83.74279787004127,1124.7087513650915,0.0,0,30,0.0,16431,351262924424735,74,30.354000091552734,908.2850802904642,0.14999,16,0.0,0.0,1575420030,,,,0,16.973680077933825,1,6.0,30.354000091552734,0.0,0.0,0.0,66.7128,C,31729091000000,
Status,1732152845000,27,0,1,17,1575420030,0.00,59.0,74.0,0,0,0,0.0
Status,1732152845000,27,1,1,19,1575420030,0.00,203.0,69.0,0,0,0,0.0
Status,1732152845000,27,2,1,22,1575420030,0.00,28.0,63.0,0,0,0,0.0
Status,1732152845000,27,3,1,14,1575420030,0.00,60.0,48.0,0,0,0,0.0
Status,1732152845000,27,4,2,135,1575420030,0.00,197.0,45.0,0,0,0,0.0
Status,1732152845000,27,5,1,13,1575420030,28.60,227.0,42.0,1,0,0,23.6
Status,1732152845000,27,6,1,30,1575420030,35.60,135.0,30.0,1,0,0,30.599998
Status,1732152845000,27,7,1,15,1575420030,25.30,267.0,28.0,1,0,0,20.3
Status,1732152845000,27,8,1,24,1575420030,29.00,313.0,23.0,1,0,0,24.0
Status,1732152845000,27,9,1,6,1575420030,32.50,159.0,18.0,1,0,0,27.5
Status,1732152845000,27,10,1,2,1575420030,0.00,42.0,14.0,0,0,0,0.0
Status,1732152845000,27,11,1,12,1575420030,29.40,271.0,3.0,0,0,0,24.4
Status,1732152845000,27,12,1,21,1575420030,0.00,30.0,1.0,0,0,0,0.0
Status,1732152845000,27,13,3,20,1602000000,0.00,99.0,58.0,0,0,0,0.0
Status,1732152845000,27,14,3,11,1602000000,0.00,317.0,33.0,0,0,0,0.0
Status,1732152845000,27,15,3,9,1602000000,0.00,89.0,29.0,0,0,0,0.0
Status,1732152845000,27,16,3,8,1602000000,29.20,241.0,17.0,1,0,0,24.2
Status,1732152845000,27,17,3,19,1602000000,0.00,28.0,17.0,0,0,0,0.0
Status,1732152845000,27,18,6,21,1575420030,0.00,358.0,68.0,0,0,0,0.0
Status,1732152845000,27,19,6,19,1575420030,0.00,237.0,42.0,0,0,0,0.0
Status,1732152845000,27,20,6,13,1575420030,0.00,115.0,33.0,0,0,0,0.0
Status,1732152845000,27,21,6,27,1575420030,0.00,69.0,30.0,0,0,0,0.0
Status,1732152845000,27,22,6,4,1575420030,0.00,306.0,25.0,0,0,0,0.0
Status,1732152845000,27,23,6,15,1575420030,0.00,56.0,23.0,0,0,0,0.0
Status,1732152845000,27,24,6,29,1575420030,0.00,190.0,19.0,0,0,0,0.0
Status,1732152845000,27,25,6,26,1575420030,0.00,165.0,11.0,0,0,0,0.0
Status,1732152845000,27,26,6,6,1575420030,0.00,324.0,8.0,0,0,0,0.0
Fix,GPS,37.4254966667,-122.1581466667,26.000000000000004,0.0,4.6,0.0,1732152846000,2.6,166.8,31730091000000,53.3,0,,,
Raw,1732152846000,29101000000,,83.27091761764656,-1416188034899000064,0.0,83.27091761764656,1122.3126005124454,0.0,0,15,0.0,16431,351263924316218,797,20.34600067138672,608.2132827004834,0.14999,16,0.0,0.0,1575420030,,,,0,2.877296544288114,1,6.0,20.34600067138672,0.0,0.0,0.0,66.7128,C,31730091000000,
Raw,1732152846000,29101000000,,83.27091761764656,-1416188034899000064,0.0,83.27091761764656,1122.3126005124454,0.0,0,24,0.0,16431,351263922923447,316,23.952999114990234,-269.6071092856662,0.14999,16,0.0,0.0,1575420030,,,,0,9.019720188618365,1,6.0,23.952999114990234,0.0,0.0,0.0,66.7128,C,31730091000000,
Raw,1732152846000,29101000000,,83.27091761764656,-1416188034899000064,0.0,83.27091761764656,1122.3126005124454,0.0,0,6,0.0,16431,351263920794127,235,27.516000747680664,-318.5723751765089,0.14999,16,0.0,0.0,1575420030,,,,0,13.437317839639364,1,6.0,27.516000747680664,0.0,0.0,0.0,66.7128,C,31730091000000,
Raw,1732152846000,29101000000,,83.27091761764656,-1416188034899000064,0.0,83.27091761764656,1122.3126005124454,0.0,0,12,0.0,17,145850,316,24.375999450683594,-210.8220673356506,0.14999,16,0.0,0.0,1575420030,,,,0,9.163688506181476,1,6.0,24.375999450683594,0.0,0.0,0.0,66.7128,C,31730091000000,
Raw,1732152846000,29101000000,,83.27091761764656,-1416188034899000064,0.0,83.27091761764656,1122.3126005124454,0.0,0,8,0.0,32995,16445923761361,316,5.0,978.6327948059047,0.14999,16,0.0,0.0,1605374980,,,,0,10.132217117511367,3,6.0,25.0,0.0,0.0,38.18685905685984,66.7128,C,31730091000000,
Raw,1732152846000,29101000000,,83.27091761764656,-1416188034899000064,0.0,83.27091761764656,1122.3126005124454,0.0,0,13,0.0,16431,351263927705489,797,23.570999145507812,793.5612248011554,0.14999,16,0.0,0.0,1575420030,,,,0,7.993644878195605,1,6.0,23.570999145507812,0.0,0.0,0.0,66.7128,C,31730091000000,
Raw,1732152846000,29101000000,,83.27091761764656,-1416188034899000064,0.0,83.27091761764656,1122.3126005124454,0.0,0,30,0.0,16431,351263924421710,74,30.614999771118164,908.5621582847438,0.14999,16,0.0,0.0,1575420030,,,,0,17.29682483667883,1,6.0,30.614999771118164,0.0,0.0,0.0,66.7128,C,31730091000000,
Fix,FLP,37.4254964000,-122.1581471000,3.1552036436000463,0.043009173,4.728,,1732152846243,2.6,,31730091000000,12.818923,0,,,
Status,1732152846000,27,0,1,17,1575420030,0.00,59.0,74.0,0,0,0,0.0
Status,1732152846000,27,1,1,19,1575420030,0.00,203.0,69.0,0,0,0,0.0
Status,1732152846000,27,2,1,22,1575420030,0.00,28.0,63.0,0,0,0,0.0
Status,1732152846000,27,3,1,14,1575420030,0.00,60.0,48.0,0,0,0,0.0
Status,1732152846000,27,4,2,135,1575420030,0.00,197.0,45.0,0,0,0,0.0
Status,1732152846000,27,5,1,13,1575420030,28.60,227.0,42.0,1,0,0,23.6
Status,1732152846000,27,6,1,30,1575420030,33.70,135.0,30.0,1,0,0,28.7
Status,1732152846000,27,7,1,15,1575420030,19.10,267.0,28.0,1,0,0,14.1
Status,1732152846000,27,8,1,24,1575420030,29.00,313.0,23.0,1,0,0,24.0
Status,1732152846000,27,9,1,6,1575420030,31.90,159.0,18.0,1,0,0,26.9
Status,1732152846000,27,10,1,2,1575420030,0.00,42.0,14.0,0,0,0,0.0
Status,1732152846000,27,11,1,12,1575420030,30.70,271.0,3.0,0,0,0,25.7
Status,1732152846000,27,12,1,21,1575420030,0.00,30.0,1.0,0,0,0,0.0
Status,1732152846000,27,13,3,20,1602000000,0.00,99.0,58.0,0,0,0,0.0
Status,1732152846000,27,14,3,11,1602000000,0.00,317.0,33.0,0,0,0,0.0
Status,1732152846000,27,15,3,9,1602000000,0.00,89.0,29.0,0,0,0,0.0
Status,1732152846000,27,16,3,8,1602000000,32.40,241.0,17.0,1,0,0,27.400002
Status,1732152846000,27,17,3,19,1602000000,0.00,28.0,17.0,0,0,0,0.0
Status,1732152846000,27,18,6,21,1575420030,0.00,358.0,68.0,0,0,0,0.0
Status,1732152846000,27,19,6,19,1575420030,0.00,237.0,42.0,0,0,0,0.0
Status,1732152846000,27,20,6,13,1575420030,0.00,115.0,33.0,0,0,0,0.0
Status,1732152846000,27,21,6,27,1575420030,0.00,69.0,30.0,0,0,0,0.0
Status,1732152846000,27,22,6,4,1575420030,0.00,306.0,25.0,0,0,0,0.0
Status,1732152846000,27,23,6,15,1575420030,0.00,56.0,23.0,0,0,0,0.0
Status,1732152846000,27,24,6,29,1575420030,0.00,190.0,19.0,0,0,0,0.0
Status,1732152846000,27,25,6,26,1575420030,0.00,165.0,11.0,0,0,0,0.0
Status,1732152846000,27,26,6,6,1575420030,0.00,324.0,8.0,0,0,0,0.0
Fix,GPS,37.4255000000,-122.1581433333,26.000000000000004,0.0,4.5,0.0,1732152847000,2.3,179.9,31731091000000,53.4,0,,,
Raw,1732152847000,30101000000,,82.70171432973996,-1416188034899000064,0.0,82.70171432973996,1121.9960319480497,0.0,0,15,0.0,16431,351264924314177,797,14.100000381469727,609.2772268901209,0.14999,16,0.0,0.0,1575420030,,,,0,0.0,1,6.0,14.100000381469727,0.0,0.0,0.0,66.7128,C,31731091000000,
Raw,1732152847000,30101000000,,82.70171432973996,-1416188034899000064,0.0,82.70171432973996,1121.9960319480497,0.0,0,24,0.0,16431,351264922924345,316,24.02199935913086,-270.1560619316099,0.14999,16,0.0,0.0,1575420030,,,,0,10.526388717552457,1,6.0,24.02199935913086,0.0,0.0,0.0,66.7128,C,31731091000000,
Raw,1732152847000,30101000000,,82.70171432973996,-1416188034899000064,0.0,82.70171432973996,1121.9960319480497,0.0,0,6,0.0,16431,351264920795190,235,26.916000366210938,-318.12916188586036,0.14999,16,0.0,0.0,1575420030,,,,0,12.64576126258483,1,6.0,26.916000366210938,0.0,0.0,0.0,66.7128,C,31731091000000,
Raw,1732152847000,30101000000,,82.70171432973996,-1416188034899000064,0.0,82.70171432973996,1121.9960319480497,0.0,0,12,0.0,17,146556,316,25.667999267578125,-209.90846258087035,0.14999,16,0.0,0.0,1575420030,,,,0,10.962758037118444,1,6.0,25.667999267578125,0.0,0.0,0.0,66.7128,C,31731091000000,
Raw,1732152847000,30101000000,,82.70171432973996,-1416188034899000064,0.0,82.70171432973996,1121.9960319480497,0.0,0,8,0.0,32995,16446923758091,235,5.0,978.9730900583208,0.14999,16,0.0,0.0,1605374980,,,,0,14.00327082963889,3,6.0,28.0,0.0,0.0,37.98256307395134,66.7128,C,31731091000000,
Raw,1732152847000,30101000000,,82.70171432973996,-1416188034899000064,0.0,82.70171432973996,1121.9960319480497,0.0,0,13,0.0,16431,351264927702841,797,23.570999145507812,794.0442994129126,0.14999,16,0.0,0.0,1575420030,,,,0,7.993644878195605,1,6.0,23.570999145507812,0.0,0.0,0.0,66.7128,C,31731091000000,
Raw,1732152847000,30101000000,,82.70171432973996,-1416188034899000064,0.0,82.70171432973996,1121.9960319480497,0.0,0,30,0.0,16431,351264924418684,235,28.729999542236328,909.1759668797174,0.14999,16,0.0,0.0,1575420030,,,,0,14.979621814089294,1,6.0,28.729999542236328,0.0,0.0,0.0,66.7128,C,31731091000000,
Fix,FLP,37.4254982000,-122.1581454000,2.922036415121001,0.001377116,4.671,,1732152847243,2.3,,31731091000000,13.272442,0,,,
Fix,FLP,37.4254991000,-122.1581445000,3.0055057027963485,0.013920953,4.628,,1732152847962,2.3,,31731810000000,12.591543,0,,,
Fix,NLP,37.4256733000,-122.1581045000,5.400000095367432,,25.787,,1732152847962,,,31731810000000,29.044493,0,,,
Status,1732152847000,27,0,1,17,1575420030,0.00,59.0,74.0,0,0,0,0.0
Status,1732152847000,27,1,1,19,1575420030,0.00,203.0,69.0,0,0,0,0.0
Status,1732152847000,27,2,1,22,1575420030,0.00,28.0,63.0,0,0,0,0.0
Status,1732152847000,27,3,1,14,1575420030,0.00,60.0,48.0,0,0,0,0.0
Status,1732152847000,27,4,2,135,1575420030,0.00,197.0,45.0,0,0,0,0.0
Status,1732152847000,27,5,1,13,1575420030,21.00,227.0,42.0,1,0,0,16.0
Status,1732152847000,27,6,1,30,1575420030,31.80,135.0,30.0,1,0,0,26.8
Status,1732152847000,27,7,1,15,1575420030,22.70,267.0,28.0,1,0,0,17.7
Status,1732152847000,27,8,1,24,1575420030,29.00,313.0,23.0,1,0,0,24.0
Status,1732152847000,27,9,1,6,1575420030,30.30,159.0,18.0,1,0,0,25.3
Status,1732152847000,27,10,1,2,1575420030,0.00,42.0,14.0,0,0,0,0.0
Status,1732152847000,27,11,1,12,1575420030,32.00,271.0,3.0,0,0,0,27.0
Status,1732152847000,27,12,1,21,1575420030,0.00,30.0,1.0,0,0,0,0.0
Status,1732152847000,27,13,3,20,1602000000,0.00,99.0,58.0,0,0,0,0.0
Status,1732152847000,27,14,3,11,1602000000,0.00,317.0,33.0,0,0,0,0.0
Status,1732152847000,27,15,3,9,1602000000,0.00,89.0,29.0,0,0,0,0.0
Status,1732152847000,27,16,3,8,1602000000,32.30,241.0,17.0,1,0,0,27.3
Status,1732152847000,27,17,3,19,1602000000,0.00,28.0,17.0,0,0,0,0.0
Status,1732152847000,27,18,6,21,1575420030,0.00,358.0,68.0,0,0,0,0.0
Status,1732152847000,27,19,6,19,1575420030,0.00,237.0,42.0,0,0,0,0.0
Status,1732152847000,27,20,6,13,1575420030,0.00,115.0,33.0,0,0,0,0.0
Status,1732152847000,27,21,6,27,1575420030,0.00,69.0,30.0,0,0,0,0.0
Status,1732152847000,27,22,6,4,1575420030,0.00,306.0,25.0,0,0,0,0.0
Status,1732152847000,27,23,6,15,1575420030,0.00,56.0,23.0,0,0,0,0.0
Status,1732152847000,27,24,6,29,1575420030,0.00,190.0,19.0,0,0,0,0.0
Status,1732152847000,27,25,6,26,1575420030,0.00,165.0,11.0,0,0,0,0.0
Status,1732152847000,27,26,6,6,1575420030,0.00,324.0,8.0,0,0,0,0.0
Fix,GPS,37.4255133333,-122.1581333333,26.000000000000004,0.0,4.5,0.0,1732152848000,2.6,89.6,31732091000000,53.8,0,,,
Raw,1732152848000,31101000000,,82.95140005430453,-1416188034899000064,0.0,82.95140005430453,1124.2985150035881,0.0,0,15,0.0,16431,351265924312134,797,17.724000930786133,611.7884901199653,0.14999,16,0.0,0.0,1575420030,,,,0,0.0,1,6.0,17.724000930786133,0.0,0.0,0.0,66.7128,C,31732091000000,
Raw,1732152848000,31101000000,,82.95140005430453,-1416188034899000064,0.0,82.95140005430453,1124.2985150035881,0.0,0,24,0.0,16431,351265922925250,396,23.985000610351562,-269.9736661895673,0.14999,16,0.0,0.0,1575420030,,,,0,7.546683787098082,1,6.0,23.985000610351562,0.0,0.0,0.0,66.7128,C,31732091000000,
Raw,1732152848000,31101000000,,82.95140005430453,-1416188034899000064,0.0,82.95140005430453,1124.2985150035881,0.0,0,6,0.0,16431,351265920796246,316,25.323999404907227,-316.87218297686803,0.14999,16,0.0,0.0,1575420030,,,,0,10.485609818058212,1,6.0,25.323999404907227,0.0,0.0,0.0,66.7128,C,31732091000000,
Raw,1732152848000,31101000000,,82.95140005430453,-1416188034899000064,0.0,82.95140005430453,1124.2985150035881,0.0,0,12,0.0,17,147255,235,27.003000259399414,-209.4404404959654,0.14999,16,0.0,0.0,1575420030,,,,0,12.772333843145947,1,6.0,27.003000259399414,0.0,0.0,0.0,66.7128,C,31732091000000,
Raw,1732152848000,31101000000,,82.95140005430453,-1416188034899000064,0.0,82.95140005430453,1124.2985150035881,0.0,0,8,0.0,32995,16447923754826,316,5.0,980.0472267339541,0.14999,16,0.0,0.0,1605374980,,,,0,11.826491810463084,3,6.0,26.0,0.0,0.0,36.809748339733076,66.7128,C,31732091000000,
Raw,1732152848000,31101000000,,82.95140005430453,-1416188034899000064,0.0,82.95140005430453,1124.2985150035881,0.0,0,13,0.0,16431,351265927700173,797,15.98900032043457,799.1360489127552,0.14999,16,0.0,0.0,1575420030,,,,0,0.0,1,6.0,15.98900032043457,0.0,0.0,0.0,66.7128,C,31732091000000,
Raw,1732152848000,31101000000,,82.95140005430453,-1416188034899000064,0.0,82.95140005430453,1124.2985150035881,0.0,0,30,0.0,16431,351265924415653,316,26.760000228881836,910.2391212762794,0.14999,16,0.0,0.0,1575420030,,,,0,12.452375397583426,1,6.0,26.760000228881836,0.0,0.0,0.0,66.7128,C,31732091000000,
Fix,FLP,37.4255045000,-122.1581407000,3.0055057027963485,0.09055698,4.585,,1732152848243,2.6,,31732091000000,12.008054,0,,,
Status,1732152848000,27,0,1,17,1575420030,0.00,59.0,74.0,0,0,0,0.0
Status,1732152848000,27,1,1,19,1575420030,0.00,203.0,69.0,0,0,0,0.0
Status,1732152848000,27,2,1,22,1575420030,0.00,28.0,63.0,0,0,0,0.0
Status,1732152848000,27,3,1,14,1575420030,0.00,60.0,48.0,0,0,0,0.0
Status,1732152848000,27,4,2,135,1575420030,0.00,197.0,45.0,0,0,0,0.0
Status,1732152848000,27,5,1,13,1575420030,21.00,227.0,42.0,1,0,0,16.0
Status,1732152848000,27,6,1,30,1575420030,32.30,135.0,30.0,1,0,0,27.3
Status,1732152848000,27,7,1,15,1575420030,22.70,267.0,28.0,1,0,0,17.7
Status,1732152848000,27,8,1,24,1575420030,28.90,313.0,23.0,1,0,0,23.9
Status,1732152848000,27,9,1,6,1575420030,33.20,159.0,18.0,1,0,0,28.2
Status,1732152848000,27,10,1,2,1575420030,0.00,42.0,14.0,0,0,0,0.0
Status,1732152848000,27,11,1,12,1575420030,31.40,271.0,3.0,0,0,0,26.4
Status,1732152848000,27,12,1,21,1575420030,0.00,30.0,1.0,0,0,0,0.0
Status,1732152848000,27,13,3,20,1602000000,0.00,99.0,58.0,0,0,0,0.0
Status,1732152848000,27,14,3,11,1602000000,0.00,317.0,33.0,0,0,0,0.0
Status,1732152848000,27,15,3,9,1602000000,0.00,89.0,29.0,0,0,0,0.0
Status,1732152848000,27,16,3,8,1602000000,32.40,241.0,17.0,1,0,0,27.400002
Status,1732152848000,27,17,3,19,1602000000,0.00,28.0,17.0,0,0,0,0.0
Status,1732152848000,27,18,6,21,1575420030,0.00,358.0,68.0,0,0,0,0.0
Status,1732152848000,27,19,6,19,1575420030,0.00,237.0,42.0,0,0,0,0.0
Status,1732152848000,27,20,6,13,1575420030,0.00,115.0,33.0,0,0,0,0.0
Status,1732152848000,27,21,6,27,1575420030,0.00,69.0,30.0,0,0,0,0.0
Status,1732152848000,27,22,6,4,1575420030,0.00,306.0,25.0,0,0,0,0.0
Status,1732152848000,27,23,6,15,1575420030,0.00,56.0,23.0,0,0,0,0.0
Status,1732152848000,27,24,6,29,1575420030,0.00,190.0,19.0,0,0,0,0.0
Status,1732152848000,27,25,6,26,1575420030,0.00,165.0,11.0,0,0,0,0.0
Status,1732152848000,27,26,6,6,1575420030,0.00,324.0,8.0,0,0,0,0.0
Fix,GPS,37.4255150000,-122.1581266667,26.000000000000004,0.0,4.5,0.0,1732152849000,2.5,179.9,31733091000000,54.3,0,,,
Raw,1732152849000,32101000000,,83.20320440152881,-1416188034899000064,0.0,83.20320440152881,1125.755113140095,0.0,0,15,0.0,16431,351266924310096,797,17.724000930786133,610.228091294702,0.14999,16,0.0,0.0,1575420030,,,,0,0.0,1,6.0,17.724000930786133,0.0,0.0,0.0,66.7128,C,31733091000000,
Raw,1732152849000,32101000000,,83.20320440152881,-1416188034899000064,0.0,83.20320440152881,1125.755113140095,0.0,0,24,0.0,16431,351266922926143,487,23.882999420166016,-267.47894215589383,0.14999,16,0.0,0.0,1575420030,,,,0,5.485789236014735,1,6.0,23.882999420166016,0.0,0.0,0.0,66.7128,C,31733091000000,
Raw,1732152849000,32101000000,,83.20320440152881,-1416188034899000064,0.0,83.20320440152881,1125.755113140095,0.0,0,6,0.0,16431,351266920797306,235,28.155000686645508,-317.2559759531833,0.14999,16,0.0,0.0,1575420030,,,,0,14.242657216887643,1,6.0,28.155000686645508,0.0,0.0,0.0,66.7128,C,31733091000000,
Raw,1732152849000,32101000000,,83.20320440152881,-1416188034899000064,0.0,83.20320440152881,1125.755113140095,0.0,0,12,0.0,17,147957,316,26.43400001525879,-209.12024909144236,0.14999,16,0.0,0.0,1575420030,,,,0,12.0179904037187,1,6.0,26.43400001525879,0.0,0.0,0.0,66.7128,C,31733091000000,
Raw,1732152849000,32101000000,,83.20320440152881,-1416188034899000064,0.0,83.20320440152881,1125.755113140095,0.0,0,8,0.0,32995,16448923751561,235,5.0,980.1878310424282,0.14999,16,0.0,0.0,1605374980,,,,0,16.088588759074046,3,6.0,29.0,0.0,0.0,35.06513188842844,66.7128,C,31733091000000,
Raw,1732152849000,32101000000,,83.20320440152881,-1416188034899000064,0.0,83.20320440152881,1125.755113140095,0.0,0,13,0.0,16431,351266927697502,1797,15.98900032043457,800.6838575072254,0.14999,16,0.0,0.0,1575420030,,,,0,0.0,1,6.0,15.98900032043457,0.0,0.0,0.0,66.7128,C,31733091000000,
Raw,1732152849000,32101000000,,83.20320440152881,-1416188034899000064,0.0,83.20320440152881,1125.755113140095,0.0,0,30,0.0,16431,351266924412621,235,27.266000747680664,909.7371845475408,0.14999,16,0.0,0.0,1575420030,,,,0,13.11118811084459,1,6.0,27.266000747680664,0.0,0.0,0.0,66.7128,C,31733091000000,
Fix,FLP,37.4255099000,-122.1581349000,3.0055057027963485,0.13929436,4.557,0.0000000008270969,1732152849244,2.5,179.9,31733091000000,12.774623,0,,,
Status,1732152849000,27,0,1,17,1575420030,0.00,59.0,74.0,0,0,0,0.0
Status,1732152849000,27,1,1,19,1575420030,0.00,203.0,69.0,0,0,0,0.0
Status,1732152849000,27,2,1,22,1575420030,0.00,28.0,63.0,0,0,0,0.0
Status,1732152849000,27,3,1,14,1575420030,0.00,60.0,48.0,0,0,0,0.0
Status,1732152849000,27,4,2,135,1575420030,0.00,197.0,45.0,0,0,0,0.0
Status,1732152849000,27,5,1,13,1575420030,21.00,227.0,42.0,1,0,0,16.0
Status,1732152849000,27,6,1,30,1575420030,29.10,135.0,30.0,1,0,0,24.1
Status,1732152849000,27,7,1,15,1575420030,22.70,267.0,28.0,1,0,0,17.7
Status,1732152849000,27,8,1,24,1575420030,29.00,313.0,23.0,1,0,0,24.0
Status,1732152849000,27,9,1,6,1575420030,31.70,159.0,18.0,1,0,0,26.7
Status,1732152849000,27,10,1,2,1575420030,0.00,42.0,14.0,0,0,0,0.0
Status,1732152849000,27,11,1,12,1575420030,25.50,271.0,3.0,0,0,0,20.5
Status,1732152849000,27,12,1,21,1575420030,0.00,30.0,1.0,0,0,0,0.0
Status,1732152849000,27,13,3,20,1602000000,0.00,99.0,58.0,0,0,0,0.0
Status,1732152849000,27,14,3,11,1602000000,0.00,317.0,33.0,0,0,0,0.0
Status,1732152849000,27,15,3,9,1602000000,0.00,89.0,29.0,0,0,0,0.0
Status,1732152849000,27,16,3,8,1602000000,32.50,241.0,17.0,1,0,0,27.5
Status,1732152849000,27,17,3,19,1602000000,0.00,28.0,17.0,0,0,0,0.0
Status,1732152849000,27,18,6,21,1575420030,0.00,358.0,68.0,0,0,0,0.0
Status,1732152849000,27,19,6,19,1575420030,19.30,237.0,42.0,1,0,0,14.299999
Status,1732152849000,27,20,6,13,1575420030,0.00,115.0,33.0,0,0,0,0.0
Status,1732152849000,27,21,6,27,1575420030,0.00,69.0,30.0,0,0,0,0.0
Status,1732152849000,27,22,6,4,1575420030,0.00,306.0,25.0,0,0,0,0.0
Status,1732152849000,27,23,6,15,1575420030,0.00,56.0,23.0,0,0,0,0.0
Status,1732152849000,27,24,6,29,1575420030,0.00,190.0,19.0,0,0,0,0.0
Status,1732152849000,27,25,6,26,1575420030,0.00,165.0,11.0,0,0,0,0.0
Status,1732152849000,27,26,6,6,1575420030,0.00,324.0,8.0,0,0,0,0.0
Fix,GPS,37.4255116667,-122.1581216667,26.000000000000004,0.0,4.5,0.0,1732152850000,2.5,164.9,31734091000000,52.8,0,,,
Fix,FLP,37.4255113000,-122.1581291000,3.088975814668928,0.10936022,4.528,0.000000003228085,1732152850244,2.5,164.9,31734091000000,12.405847,0,,,
Raw,1732152850000,33101000000,,82.04773432429421,-1416188034899000064,0.0,82.04773432429421,1127.8113035010613,0.0,0,15,0.0,16431,351267924308055,797,17.724000930786133,612.3181160647655,0.14999,16,0.0,0.0,1575420030,,,,0,0.0,1,6.0,17.724000930786133,0.0,0.0,0.0,66.7128,C,31734091000000,
Raw,1732152850000,33101000000,,82.04773432429421,-1416188034899000064,0.0,82.04773432429421,1127.8113035010613,0.0,0,24,0.0,16431,351267922927036,487,23.952999114990234,-266.8113347149484,0.14999,16,0.0,0.0,1575420030,,,,0,10.444638564552829,1,6.0,23.952999114990234,0.0,0.0,0.0,66.7128,C,31734091000000,
Raw,1732152850000,33101000000,,82.04773432429421,-1416188034899000064,0.0,82.04773432429421,1127.8113035010613,0.0,0,6,0.0,16431,351267920798366,487,26.714000701904297,-317.117994457038,0.14999,16,0.0,0.0,1575420030,,,,0,12.386944657755699,1,6.0,26.714000701904297,0.0,0.0,0.0,66.7128,C,31734091000000,
Raw,1732152850000,33101000000,,82.04773432429421,-1416188034899000064,0.0,82.04773432429421,1127.8113035010613,0.0,0,12,0.0,17,148654,487,20.450000762939453,-210.0333892620605,0.14999,16,0.0,0.0,1575420030,,,,0,3.071402714435672,1,6.0,20.450000762939453,0.0,0.0,0.0,66.7128,C,31734091000000,
Raw,1732152850000,33101000000,,82.04773432429421,-1416188034899000064,0.0,82.04773432429421,1127.8113035010613,0.0,0,19,0.0,16431,351267917897983,797,14.300000190734863,692.2158600527467,0.14999,16,0.0,0.0,1575420030,,,,0,0.0,6,6.0,14.300000190734863,0.0,0.0,-27.54057548204945,66.7128,C,31734091000000,
Raw,1732152850000,33101000000,,82.04773432429421,-1416188034899000064,0.0,82.04773432429421,1127.8113035010613,0.0,0,8,0.0,32995,16449923748293,74,5.0,980.5346914765631,0.14999,16,0.0,0.0,1605374980,,,,0,16.777265089374573,3,6.0,30.0,0.0,0.0,31.832878312526265,66.7128,C,31734091000000,
Raw,1732152850000,33101000000,,82.04773432429421,-1416188034899000064,0.0,82.04773432429421,1127.8113035010613,0.0,0,13,0.0,16431,351267927694846,396,15.98900032043457,794.8828738255128,0.14999,16,0.0,0.0,1575420030,,,,0,0.0,1,6.0,15.98900032043457,0.0,0.0,0.0,66.7128,C,31734091000000,
Raw,1732152850000,33101000000,,82.04773432429421,-1416188034899000064,0.0,82.04773432429421,1127.8113035010613,0.0,0,30,0.0,16431,351267924409585,396,24.062999725341797,910.5000317417177,0.14999,16,0.0,0.0,1575420030,,,,0,8.724420712869456,1,6.0,24.062999725341797,0.0,0.0,0.0,66.7128,C,31734091000000,
Status,1732152850000,27,0,1,17,1575420030,0.00,59.0,74.0,0,0,0,0.0
Status,1732152850000,27,1,1,19,1575420030,0.00,203.0,69.0,0,0,0,0.0
Status,1732152850000,27,2,1,22,1575420030,0.00,28.0,63.0,0,0,0,0.0
Status,1732152850000,27,3,1,14,1575420030,0.00,60.0,48.0,0,0,0,0.0
Status,1732152850000,27,4,2,135,1575420030,0.00,197.0,45.0,0,0,0,0.0
Status,1732152850000,27,5,1,13,1575420030,32.00,227.0,42.0,1,0,0,27.0
Status,1732152850000,27,6,1,30,1575420030,30.20,135.0,30.0,1,0,0,25.2
Status,1732152850000,27,7,1,15,1575420030,22.70,267.0,28.0,1,0,0,17.7
Status,1732152850000,27,8,1,24,1575420030,30.20,313.0,23.0,1,0,0,25.2
Status,1732152850000,27,9,1,6,1575420030,23.80,159.0,18.0,1,0,0,18.8
Status,1732152850000,27,10,1,2,1575420030,0.00,42.0,14.0,0,0,0,0.0
Status,1732152850000,27,11,1,12,1575420030,28.00,271.0,3.0,0,0,0,23.0
Status,1732152850000,27,12,1,21,1575420030,0.00,30.0,1.0,0,0,0,0.0
Status,1732152850000,27,13,3,20,1602000000,0.00,99.0,58.0,0,0,0,0.0
Status,1732152850000,27,14,3,11,1602000000,0.00,317.0,33.0,0,0,0,0.0
Status,1732152850000,27,15,3,9,1602000000,0.00,89.0,29.0,0,0,0,0.0
Status,1732152850000,27,16,3,8,1602000000,34.30,241.0,17.0,1,0,0,29.3
Status,1732152850000,27,17,3,19,1602000000,0.00,28.0,17.0,0,0,0,0.0
Status,1732152850000,27,18,6,21,1575420030,0.00,358.0,68.0,0,0,0,0.0
Status,1732152850000,27,19,6,19,1575420030,19.30,237.0,42.0,1,0,0,14.299999
Status,1732152850000,27,20,6,13,1575420030,0.00,115.0,33.0,0,0,0,0.0
Status,1732152850000,27,21,6,27,1575420030,0.00,69.0,30.0,0,0,0,0.0
Status,1732152850000,27,22,6,4,1575420030,0.00,306.0,25.0,0,0,0,0.0
Status,1732152850000,27,23,6,15,1575420030,0.00,56.0,23.0,0,0,0,0.0
Status,1732152850000,27,24,6,29,1575420030,0.00,190.0,19.0,0,0,0,0.0
Status,1732152850000,27,25,6,26,1575420030,0.00,165.0,11.0,0,0,0,0.0
Status,1732152850000,27,26,6,6,1575420030,0.00,324.0,8.0,0,0,0,0.0
Fix,GPS,37.4255066667,-122.1581150000,26.000000000000004,0.0,4.5,0.0,1732152851000,2.9,93.0,31735091000000,51.5,0,,,
Fix,FLP,37.4255092000,-122.1581228000,3.0492654710703735,0.039130714,4.514,,1732152851243,2.9,,31735091000000,12.17351,0,,,
Raw,1732152851000,34101000000,,81.44056760872863,-1416188034899000064,0.0,81.44056760872863,1127.429401617311,0.0,0,15,0.0,16431,351268924306000,797,17.652999877929688,609.8311970450154,0.14999,16,0.0,0.0,1575420030,,,,0,0.0,1,6.0,17.652999877929688,0.0,0.0,0.0,66.7128,C,31735091000000,
Raw,1732152851000,34101000000,,81.44056760872863,-1416188034899000064,0.0,81.44056760872863,1127.429401617311,0.0,0,24,0.0,16431,351268922927929,316,25.187000274658203,-269.6970527794498,0.14999,16,0.0,0.0,1575420030,,,,0,10.320552316527133,1,6.0,25.187000274658203,0.0,0.0,0.0,66.7128,C,31735091000000,
Raw,1732152851000,34101000000,,81.44056760872863,-1416188034899000064,0.0,81.44056760872863,1127.429401617311,0.0,0,6,0.0,16431,351268920799424,487,18.844999313354492,-317.37486304026606,0.14999,16,0.0,0.0,1575420030,,,,0,0.2632571301672666,1,6.0,18.844999313354492,0.0,0.0,0.0,66.7128,C,31735091000000,
Raw,1732152851000,34101000000,,81.44056760872863,-1416188034899000064,0.0,81.44056760872863,1127.429401617311,0.0,0,12,0.0,17,149354,396,23.045000076293945,-210.42196745524544,0.14999,16,0.0,0.0,1575420030,,,,0,7.195690996770127,1,6.0,23.045000076293945,0.0,0.0,0.0,66.7128,C,31735091000000,
Raw,1732152851000,34101000000,,81.44056760872863,-1416188034899000064,0.0,81.44056760872863,1127.429401617311,0.0,0,19,0.0,16431,351268917895673,797,14.300000190734863,692.1908189664093,0.14999,16,0.0,0.0,1575420030,,,,0,0.0,6,6.0,14.300000190734863,0.0,0.0,-30.346407715270846,66.7128,C,31735091000000,
Raw,1732152851000,34101000000,,81.44056760872863,-1416188034899000064,0.0,81.44056760872863,1127.429401617311,0.0,0,8,0.0,32995,16450923745024,316,5.0,978.627506187298,0.14999,16,0.0,0.0,1605374980,,,,0,16.156580414575195,3,6.0,25.0,0.0,0.0,30.277621833368602,66.7128,C,31735091000000,
Raw,1732152851000,34101000000,,81.44056760872863,-1416188034899000064,0.0,81.44056760872863,1127.429401617311,0.0,0,13,0.0,16431,351268927692228,235,27.04800033569336,795.068707490355,0.14999,16,0.0,0.0,1575420030,,,,0,12.83493512052656,1,6.0,27.04800033569336,0.0,0.0,0.0,66.7128,C,31735091000000,
Raw,1732152851000,34101000000,,81.44056760872863,-1416188034899000064,0.0,81.44056760872863,1127.429401617311,0.0,0,30,0.0,16431,351268924406549,316,25.187000274658203,909.6526302300375,0.14999,16,0.0,0.0,1575420030,,,,0,10.320552316527133,1,6.0,25.187000274658203,0.0,0.0,0.0,66.7128,C,31735091000000,
Status,1732152851000,27,0,1,17,1575420030,0.00,59.0,74.0,0,0,0,0.0
Status,1732152851000,27,1,1,19,1575420030,0.00,203.0,69.0,0,0,0,0.0
Status,1732152851000,27,2,1,22,1575420030,0.00,28.0,63.0,0,0,0,0.0
Status,1732152851000,27,3,1,14,1575420030,0.00,60.0,48.0,0,0,0,0.0
Status,1732152851000,27,4,2,135,1575420030,0.00,197.0,45.0,0,0,0,0.0
Status,1732152851000,27,5,1,13,1575420030,0.00,227.0,42.0,0,0,0,0.0
Status,1732152851000,27,6,1,30,1575420030,27.50,135.0,30.0,1,0,0,22.5
Status,1732152851000,27,7,1,15,1575420030,22.60,267.0,28.0,1,0,0,17.6
Status,1732152851000,27,8,1,24,1575420030,28.40,313.0,23.0,1,0,0,23.4
Status,1732152851000,27,9,1,6,1575420030,35.30,159.0,18.0,1,0,0,30.3
Status,1732152851000,27,10,1,2,1575420030,0.00,42.0,14.0,0,0,0,0.0
Status,1732152851000,27,11,1,12,1575420030,26.50,271.0,3.0,0,0,0,21.5
Status,1732152851000,27,12,1,21,1575420030,0.00,30.0,1.0,0,0,0,0.0
Status,1732152851000,27,13,3,20,1602000000,0.00,99.0,58.0,0,0,0,0.0
Status,1732152851000,27,14,3,11,1602000000,0.00,317.0,33.0,0,0,0,0.0
Status,1732152851000,27,15,3,9,1602000000,0.00,89.0,29.0,0,0,0,0.0
Status,1732152851000,27,16,3,8,1602000000,32.10,241.0,17.0,1,0,0,27.099998
Status,1732152851000,27,17,3,19,1602000000,0.00,28.0,17.0,0,0,0,0.0
Status,1732152851000,27,18,6,21,1575420030,0.00,358.0,68.0,0,0,0,0.0
Status,1732152851000,27,19,6,19,1575420030,19.30,237.0,42.0,1,0,0,14.299999
Status,1732152851000,27,20,6,13,1575420030,0.00,115.0,33.0,0,0,0,0.0
Status,1732152851000,27,21,6,27,1575420030,0.00,69.0,30.0,0,0,0,0.0
Status,1732152851000,27,22,6,4,1575420030,0.00,306.0,25.0,0,0,0,0.0
Status,1732152851000,27,23,6,15,1575420030,0.00,56.0,23.0,0,0,0,0.0
Status,1732152851000,27,24,6,29,1575420030,0.00,190.0,19.0,0,0,0,0.0
Status,1732152851000,27,25,6,26,1575420030,0.00,165.0,11.0,0,0,0,0.0
Status,1732152851000,27,26,6,6,1575420030,0.00,324.0,8.0,0,0,0,0.0
Fix,GPS,37.4255000000,-122.1581050000,26.000000000000004,0.0,4.5,0.0,1732152852000,3.1,106.3,31736091000000,51.5,0,,,
Fix,FLP,37.4255044000,-122.1581149000,3.4132503517493546,0.05933312,4.5,,1732152852244,3.1,,31736091000000,11.898897,0,,,
Raw,1732152852000,35101000000,,81.54583070754175,-1416188034899000064,0.0,81.54583070754175,1124.936464285789,0.0,0,15,0.0,16431,351269924303971,487,17.586000442504883,610.3321581470136,0.14999,16,0.0,0.0,1575420030,,,,0,0.0,1,6.0,17.586000442504883,0.0,0.0,0.0,66.7128,C,31736091000000,
Raw,1732152852000,35101000000,,81.54583070754175,-1416188034899000064,0.0,81.54583070754175,1124.936464285789,0.0,0,24,0.0,16431,351269922928828,396,23.434999465942383,-269.53245061081583,0.14999,16,0.0,0.0,1575420030,,,,0,7.773038997588732,1,6.0,23.434999465942383,0.0,0.0,0.0,66.7128,C,31736091000000,
Raw,1732152852000,35101000000,,81.54583070754175,-1416188034899000064,0.0,81.54583070754175,1124.936464285789,0.0,0,6,0.0,16431,351269920800484,74,30.323999404907227,-318.5090058967977,0.14999,16,0.0,0.0,1575420030,,,,0,16.934860394822913,1,6.0,30.323999404907227,0.0,0.0,0.0,66.7128,C,31736091000000,
Raw,1732152852000,35101000000,,81.54583070754175,-1416188034899000064,0.0,81.54583070754175,1124.936464285789,0.0,0,12,0.0,17,150052,487,21.514999389648438,-210.14846675901398,0.14999,16,0.0,0.0,1575420030,,,,0,4.805676690754195,1,6.0,21.514999389648438,0.0,0.0,0.0,66.7128,C,31736091000000,
Raw,1732152852000,35101000000,,81.54583070754175,-1416188034899000064,0.0,81.54583070754175,1124.936464285789,0.0,0,19,0.0,16431,351269917893365,487,14.300000190734863,691.6040491696701,0.14999,16,0.0,0.0,1575420030,,,,0,0.0,6,6.0,14.300000190734863,0.0,0.0,-32.89777239035605,66.7128,C,31736091000000,
Raw,1732152852000,35101000000,,81.54583070754175,-1416188034899000064,0.0,81.54583070754175,1124.936464285789,0.0,0,8,0.0,32995,16451923741760,235,5.0,978.6885988505131,0.14999,16,0.0,0.0,1605374980,,,,0,13.618208591711326,3,6.0,27.0,0.0,0.0,30.116387668460394,66.7128,C,31736091000000,
Raw,1732152852000,35101000000,,81.54583070754175,-1416188034899000064,0.0,81.54583070754175,1124.936464285789,0.0,0,30,0.0,16431,351269924403520,396,22.479999542236328,907.6868817233373,0.14999,16,0.0,0.0,1575420030,,,,0,6.316946186847138,1,6.0,22.479999542236328,0.0,0.0,0.0,66.7128,C,31736091000000,
Fix,FLP,37.4255020000,-122.1581106000,3.087957603061476,0.086447276,4.5,,1732152853108,3.1,,31736956000000,10.028058,0,,,
Fix,NLP,37.4256577000,-122.1580363000,5.400000095367432,,82.5,,1732152853109,,,31736956000000,63.373272,0,,,
Status,1732152852000,27,0,1,17,1575420030,0.00,59.0,74.0,0,0,0,0.0
Status,1732152852000,27,1,1,19,1575420030,0.00,203.0,69.0,0,0,0,0.0
Status,1732152852000,27,2,1,22,1575420030,0.00,28.0,63.0,0,0,0,0.0
Status,1732152852000,27,3,1,14,1575420030,0.00,60.0,48.0,0,0,0,0.0
Status,1732152852000,27,4,2,138,1575420030,0.00,156.0,43.0,0,0,0,0.0
Status,1732152852000,27,5,1,13,1575420030,0.00,227.0,42.0,0,0,0,0.0
Status,1732152852000,27,6,1,30,1575420030,25.70,135.0,30.0,1,0,0,20.7
Status,1732152852000,27,7,1,15,1575420030,26.00,267.0,28.0,1,0,0,21.0
Status,1732152852000,27,8,1,24,1575420030,28.00,313.0,23.0,1,0,0,23.0
Status,1732152852000,27,9,1,6,1575420030,34.40,159.0,18.0,1,0,0,29.400002
Status,1732152852000,27,10,1,2,1575420030,0.00,42.0,14.0,0,0,0,0.0
Status,1732152852000,27,11,1,12,1575420030,25.50,271.0,3.0,0,0,0,20.5
Status,1732152852000,27,12,1,21,1575420030,0.00,30.0,1.0,0,0,0,0.0
Status,1732152852000,27,13,3,20,1602000000,0.00,99.0,58.0,0,0,0,0.0
Status,1732152852000,27,14,3,11,1602000000,0.00,317.0,33.0,0,0,0,0.0
Status,1732152852000,27,15,3,9,1602000000,0.00,89.0,29.0,0,0,0,0.0
Status,1732152852000,27,16,3,8,1602000000,31.90,241.0,17.0,1,0,0,26.9
Status,1732152852000,27,17,3,19,1602000000,0.00,28.0,17.0,0,0,0,0.0
Status,1732152852000,27,18,6,21,1575420030,0.00,358.0,68.0,0,0,0,0.0
Status,1732152852000,27,19,6,19,1575420030,19.30,237.0,42.0,1,0,0,14.299999
Status,1732152852000,27,20,6,13,1575420030,0.00,115.0,33.0,0,0,0,0.0
Status,1732152852000,27,21,6,27,1575420030,0.00,69.0,30.0,0,0,0,0.0
Status,1732152852000,27,22,6,4,1575420030,0.00,306.0,25.0,0,0,0,0.0
Status,1732152852000,27,23,6,15,1575420030,0.00,56.0,23.0,0,0,0,0.0
Status,1732152852000,27,24,6,29,1575420030,0.00,190.0,19.0,0,0,0,0.0
Status,1732152852000,27,25,6,26,1575420030,0.00,165.0,11.0,0,0,0,0.0
Status,1732152852000,27,26,6,6,1575420030,0.00,324.0,8.0,0,0,0,0.0
Fix,GPS,37.4254950000,-122.1581066667,26.000000000000004,0.0,4.5,0.0,1732152853000,2.9,140.6,31737091000000,51.6,0,,,
Raw,1732152853000,36101000000,,81.72333056815144,-1416188034899000064,0.0,81.72333056815144,1120.3669386988606,0.0,0,15,0.0,16431,351270924301948,487,21.003000259399414,609.126515787934,0.14999,16,0.0,0.0,1575420030,,,,0,3.9817523654617597,1,6.0,21.003000259399414,0.0,0.0,0.0,66.7128,C,31737091000000,
Raw,1732152853000,36101000000,,81.72333056815144,-1416188034899000064,0.0,81.72333056815144,1120.3669386988606,0.0,0,24,0.0,16431,351270922929732,396,23.007999420166016,-270.58622040730324,0.14999,16,0.0,0.0,1575420030,,,,0,7.135788072182939,1,6.0,23.007999420166016,0.0,0.0,0.0,66.7128,C,31737091000000,
Raw,1732152853000,36101000000,,81.72333056815144,-1416188034899000064,0.0,81.72333056815144,1120.3669386988606,0.0,0,6,0.0,16431,351270920801542,235,29.41699981689453,-319.2376596966438,0.14999,16,0.0,0.0,1575420030,,,,0,15.837325864233273,1,6.0,29.41699981689453,0.0,0.0,0.0,66.7128,C,31737091000000,
Raw,1732152853000,36101000000,,81.72333056815144,-1416188034899000064,0.0,81.72333056815144,1120.3669386988606,0.0,0,12,0.0,17,150756,487,20.450000762939453,-210.0673039058942,0.14999,16,0.0,0.0,1575420030,,,,0,3.071402714435672,1,6.0,20.450000762939453,0.0,0.0,0.0,66.7128,C,31737091000000,
Raw,1732152853000,36101000000,,81.72333056815144,-1416188034899000064,0.0,81.72333056815144,1120.3669386988606,0.0,0,19,0.0,16431,351270917891060,487,14.300000190734863,690.2464413311658,0.14999,16,0.0,0.0,1575420030,,,,0,0.0,6,6.0,14.300000190734863,0.0,0.0,-34.815730182941465,66.7128,C,31737091000000,
Raw,1732152853000,36101000000,,81.72333056815144,-1416188034899000064,0.0,81.72333056815144,1120.3669386988606,0.0,0,8,0.0,32995,16452923738499,235,5.0,977.6151916395154,0.14999,16,0.0,0.0,1605374980,,,,0,13.434858466893246,3,6.0,27.0,0.0,0.0,29.049924306395443,66.7128,C,31737091000000,
Raw,1732152853000,36101000000,,81.72333056815144,-1416188034899000064,0.0,81.72333056815144,1120.3669386988606,0.0,0,30,0.0,16431,351270924400491,487,20.709999084472656,908.9405156263624,0.14999,16,0.0,0.0,1575420030,,,,0,3.4470673005168644,1,6.0,20.709999084472656,0.0,0.0,0.0,66.7128,C,31737091000000,
Status,1732152853000,27,0,1,17,1575420030,0.00,59.0,74.0,0,0,0,0.0
Status,1732152853000,27,1,1,19,1575420030,0.00,203.0,69.0,0,0,0,0.0
Status,1732152853000,27,2,1,22,1575420030,0.00,28.0,63.0,0,0,0,0.0
Status,1732152853000,27,3,1,14,1575420030,0.00,60.0,48.0,0,0,0,0.0
Status,1732152853000,27,4,2,138,1575420030,0.00,156.0,43.0,0,0,0,0.0
Status,1732152853000,27,5,1,13,1575420030,24.80,227.0,42.0,1,0,0,19.8
Status,1732152853000,27,6,1,30,1575420030,25.80,135.0,30.0,1,0,0,20.8
Status,1732152853000,27,7,1,15,1575420030,26.10,267.0,28.0,1,0,0,21.1
Status,1732152853000,27,8,1,24,1575420030,26.80,313.0,23.0,1,0,0,21.8
Status,1732152853000,27,9,1,6,1575420030,34.40,159.0,18.0,1,0,0,29.400002
Status,1732152853000,27,10,1,2,1575420030,0.00,42.0,14.0,0,0,0,0.0
Status,1732152853000,27,11,1,12,1575420030,25.00,271.0,3.0,0,0,0,20.0
Status,1732152853000,27,12,1,21,1575420030,0.00,30.0,1.0,0,0,0,0.0
Status,1732152853000,27,13,3,20,1602000000,0.00,99.0,58.0,0,0,0,0.0
Status,1732152853000,27,14,3,11,1602000000,0.00,317.0,33.0,0,0,0,0.0
Status,1732152853000,27,15,3,9,1602000000,0.00,89.0,29.0,0,0,0,0.0
Status,1732152853000,27,16,3,8,1602000000,32.10,241.0,17.0,1,0,0,27.099998
Status,1732152853000,27,17,3,19,1602000000,0.00,28.0,17.0,0,0,0,0.0
Status,1732152853000,27,18,6,21,1575420030,0.00,358.0,68.0,0,0,0,0.0
Status,1732152853000,27,19,6,19,1575420030,24.20,237.0,42.0,1,0,0,19.2
Status,1732152853000,27,20,6,13,1575420030,0.00,115.0,33.0,0,0,0,0.0
Status,1732152853000,27,21,6,27,1575420030,0.00,69.0,30.0,0,0,0,0.0
Status,1732152853000,27,22,6,4,1575420030,0.00,306.0,25.0,0,0,0,0.0
Status,1732152853000,27,23,6,15,1575420030,0.00,56.0,23.0,0,0,0,0.0
Status,1732152853000,27,24,6,29,1575420030,0.00,190.0,19.0,0,0,0,0.0
Status,1732152853000,27,25,6,26,1575420030,0.00,165.0,11.0,0,0,0,0.0
Status,1732152853000,27,26,6,6,1575420030,0.00,324.0,8.0,0,0,0,0.0
Fix,GPS,37.4254983333,-122.1581050000,26.000000000000004,0.0,4.5,0.0,1732152854000,3.1,179.9,31738091000000,61.4,0,,,
Raw,1732152854000,37101000000,,98.4919998794053,-1416188034899000064,0.0,98.4919998794053,1116.4577437090566,0.0,0,15,0.0,16431,351271924299939,396,21.076000213623047,608.9133181159438,0.14999,16,0.0,0.0,1575420030,,,,0,6.316946186847138,1,6.0,21.076000213623047,0.0,0.0,0.0,66.7128,C,31738091000000,
Raw,1732152854000,37101000000,,98.4919998794053,-1416188034899000064,0.0,98.4919998794053,1116.4577437090566,0.0,0,24,0.0,16431,351271922930632,487,21.783000946044922,-271.90378109103415,0.14999,16,0.0,0.0,1575420030,,,,0,5.1900708148948675,1,6.0,21.783000946044922,0.0,0.0,0.0,66.7128,C,31738091000000,
Raw,1732152854000,37101000000,,98.4919998794053,-1416188034899000064,0.0,98.4919998794053,1116.4577437090566,0.0,0,6,0.0,16431,351271920802604,235,29.399999618530273,-320.4377735041944,0.14999,16,0.0,0.0,1575420030,,,,0,15.815224351957033,1,6.0,29.399999618530273,0.0,0.0,0.0,66.7128,C,31738091000000,
Raw,1732152854000,37101000000,,98.4919998794053,-1416188034899000064,0.0,98.4919998794053,1116.4577437090566,0.0,0,12,0.0,17,151461,487,19.95800018310547,-210.44217686629702,0.14999,16,0.0,0.0,1575420030,,,,0,2.161583305131138,1,6.0,19.95800018310547,0.0,0.0,0.0,66.7128,C,31738091000000,
Raw,1732152854000,37101000000,,98.4919998794053,-1416188034899000064,0.0,98.4919998794053,1116.4577437090566,0.0,0,13,0.0,16431,351271927684258,487,19.84600067138672,793.1384532136395,0.14999,16,0.0,0.0,1575420030,,,,0,1.9457737034610112,1,6.0,19.84600067138672,0.0,0.0,0.0,66.7128,C,31738091000000,
Raw,1732152854000,37101000000,,98.4919998794053,-1416188034899000064,0.0,98.4919998794053,1116.4577437090566,0.0,0,19,0.0,16431,351271917888666,396,19.200000762939453,688.0538828365256,0.14999,16,0.0,0.0,1575420030,,,,0,2.974891836649845,6,6.0,19.200000762939453,0.0,0.0,-20.95796991031283,66.7128,C,31738091000000,
Raw,1732152854000,37101000000,,98.4919998794053,-1416188034899000064,0.0,98.4919998794053,1116.4577437090566,0.0,0,8,0.0,32995,16453923735235,235,5.0,977.1155083642633,0.14999,16,0.0,0.0,1605374980,,,,0,13.618208591711326,3,6.0,27.0,0.0,0.0,27.489128480478715,66.7128,C,31738091000000,
Raw,1732152854000,37101000000,,98.4919998794053,-1416188034899000064,0.0,98.4919998794053,1116.4577437090566,0.0,0,30,0.0,16431,351271924397463,487,20.809999465942383,907.5664615085195,0.14999,16,0.0,0.0,1575420030,,,,0,3.628977397207457,1,6.0,20.809999465942383,0.0,0.0,0.0,66.7128,C,31738091000000,
Fix,FLP,37.4254984000,-122.1581076000,3.445851428578244,0.09418857,4.5,,1732152854243,3.1,,31738091000000,13.491137,0,,,
Status,1732152854000,27,0,1,17,1575420030,0.00,59.0,74.0,0,0,0,0.0
Status,1732152854000,27,1,1,19,1575420030,0.00,203.0,69.0,0,0,0,0.0
Status,1732152854000,27,2,1,22,1575420030,0.00,28.0,63.0,0,0,0,0.0
Status,1732152854000,27,3,1,14,1575420030,0.00,60.0,48.0,0,0,0,0.0
Status,1732152854000,27,4,2,138,1575420030,0.00,156.0,43.0,0,0,0,0.0
Status,1732152854000,27,5,1,13,1575420030,26.40,227.0,42.0,1,0,0,21.4
Status,1732152854000,27,6,1,30,1575420030,34.80,135.0,30.0,1,0,0,29.8
Status,1732152854000,27,7,1,15,1575420030,26.10,267.0,28.0,1,0,0,21.1
Status,1732152854000,27,8,1,24,1575420030,25.10,313.0,23.0,1,0,0,20.1
Status,1732152854000,27,9,1,6,1575420030,30.80,159.0,18.0,1,0,0,25.8
Status,1732152854000,27,10,1,2,1575420030,0.00,42.0,14.0,0,0,0,0.0
Status,1732152854000,27,11,1,12,1575420030,24.90,271.0,3.0,0,0,0,19.9
Status,1732152854000,27,12,1,21,1575420030,0.00,30.0,1.0,0,0,0,0.0
Status,1732152854000,27,13,3,20,1602000000,0.00,99.0,58.0,0,0,0,0.0
Status,1732152854000,27,14,3,11,1602000000,0.00,317.0,33.0,0,0,0,0.0
Status,1732152854000,27,15,3,9,1602000000,0.00,89.0,29.0,0,0,0,0.0
Status,1732152854000,27,16,3,8,1602000000,30.50,241.0,17.0,1,0,0,25.5
Status,1732152854000,27,17,3,19,1602000000,0.00,28.0,17.0,0,0,0,0.0
Status,1732152854000,27,18,6,21,1575420030,0.00,358.0,68.0,0,0,0,0.0
Status,1732152854000,27,19,6,19,1575420030,24.20,237.0,42.0,1,0,0,19.2
Status,1732152854000,27,20,6,13,1575420030,0.00,115.0,33.0,0,0,0,0.0
Status,1732152854000,27,21,6,27,1575420030,0.00,69.0,30.0,0,0,0,0.0
Status,1732152854000,27,22,6,4,1575420030,0.00,306.0,25.0,0,0,0,0.0
Status,1732152854000,27,23,6,15,1575420030,0.00,56.0,23.0,0,0,0,0.0
Status,1732152854000,27,24,6,29,1575420030,0.00,190.0,19.0,0,0,0,0.0
Status,1732152854000,27,25,6,26,1575420030,0.00,165.0,11.0,0,0,0,0.0
Status,1732152854000,27,26,6,6,1575420030,0.00,324.0,8.0,0,0,0,0.0
Fix,GPS,37.4254966667,-122.1581116667,26.099999999999998,0.0,4.6,0.0,1732152855000,3.2,179.9,31739091000000,61.2,0,,,
Fix,FLP,37.4254972000,-122.1581094000,3.445851428578244,0.086143576,4.514,,1732152855243,3.2,,31739091000000,14.993472,0,,,
Raw,1732152855000,38101000000,,98.63413846451161,-1416188034899000064,0.0,98.63413846451161,1110.236778785525,0.0,0,15,0.0,16431,351272924297921,396,21.073999404907227,605.7842508673316,0.14999,16,0.0,0.0,1575420030,,,,0,4.06775197531624,1,6.0,21.073999404907227,0.0,0.0,0.0,66.7128,C,31739091000000,
Raw,1732152855000,38101000000,,98.63413846451161,-1416188034899000064,0.0,98.63413846451161,1110.236778785525,0.0,0,24,0.0,16431,351272922931540,797,20.12700080871582,-272.10359873915564,0.14999,16,0.0,0.0,1575420030,,,,0,2.4755653093254533,1,6.0,20.12700080871582,0.0,0.0,0.0,66.7128,C,31739091000000,
Raw,1732152855000,38101000000,,98.63413846451161,-1416188034899000064,0.0,98.63413846451161,1110.236778785525,0.0,0,6,0.0,16431,351272920803669,316,25.822999954223633,-321.63194063447014,0.14999,16,0.0,0.0,1575420030,,,,0,11.191849724844946,1,6.0,25.822999954223633,0.0,0.0,0.0,66.7128,C,31739091000000,
Raw,1732152855000,38101000000,,98.63413846451161,-1416188034899000064,0.0,98.63413846451161,1110.236778785525,0.0,0,12,0.0,17,152170,487,19.902999877929688,-215.00866751246323,0.14999,16,0.0,0.0,1575420030,,,,0,2.0543487376889757,1,6.0,19.902999877929688,0.0,0.0,0.0,66.7128,C,31739091000000,
Raw,1732152855000,38101000000,,98.63413846451161,-1416188034899000064,0.0,98.63413846451161,1110.236778785525,0.0,0,13,0.0,16431,351272927681623,396,21.381999969482422,791.0303561196702,0.14999,16,0.0,0.0,1575420030,,,,0,4.566600415364088,1,6.0,21.381999969482422,0.0,0.0,0.0,66.7128,C,31739091000000,
Raw,1732152855000,38101000000,,98.63413846451161,-1416188034899000064,0.0,98.63413846451161,1110.236778785525,0.0,0,19,0.0,16431,351272917886373,487,19.200000762939453,686.4052594788785,0.14999,16,0.0,0.0,1575420030,,,,0,2.974891836649845,6,6.0,19.200000762939453,0.0,0.0,-13.15679509306709,66.7128,C,31739091000000,
Raw,1732152855000,38101000000,,98.63413846451161,-1416188034899000064,0.0,98.63413846451161,1110.236778785525,0.0,0,30,0.0,16431,351272924394430,74,29.773000717163086,905.5424541478912,0.14999,16,0.0,0.0,1575420030,,,,0,16.267941408102914,1,6.0,29.773000717163086,0.0,0.0,0.0,66.7128,C,31739091000000,
Raw,1732152855000,38101000000,,98.63413846451161,-1416188034899000064,0.0,98.63413846451161,1110.236778785525,0.0,0,8,0.0,32995,16454923731980,396,5.0,975.7895240232568,0.14999,16,0.0,0.0,1605374980,,,,0,11.697000621882601,3,6.0,22.0,0.0,0.0,27.279668864160474,66.7128,C,31739091000000,
Status,1732152855000,27,0,1,17,1575420030,0.00,59.0,74.0,0,0,0,0.0
Status,1732152855000,27,1,1,19,1575420030,0.00,203.0,69.0,0,0,0,0.0
Status,1732152855000,27,2,1,22,1575420030,0.00,28.0,63.0,0,0,0,0.0
Status,1732152855000,27,3,1,14,1575420030,0.00,60.0,48.0,0,0,0,0.0
Status,1732152855000,27,4,2,138,1575420030,0.00,156.0,43.0,0,0,0,0.0
Status,1732152855000,27,5,1,13,1575420030,29.30,227.0,42.0,1,0,0,24.3
Status,1732152855000,27,6,1,30,1575420030,0.00,135.0,30.0,0,0,0,0.0
Status,1732152855000,27,7,1,15,1575420030,26.80,267.0,28.0,1,0,0,21.8
Status,1732152855000,27,8,1,24,1575420030,23.40,313.0,23.0,1,0,0,18.4
Status,1732152855000,27,9,1,6,1575420030,36.70,159.0,18.0,1,0,0,31.7
Status,1732152855000,27,10,1,2,1575420030,0.00,42.0,14.0,0,0,0,0.0
Status,1732152855000,27,11,1,12,1575420030,0.00,271.0,3.0,0,0,0,0.0
Status,1732152855000,27,12,1,21,1575420030,0.00,30.0,1.0,0,0,0,0.0
Status,1732152855000,27,13,3,20,1602000000,0.00,99.0,58.0,0,0,0,0.0
Status,1732152855000,27,14,3,11,1602000000,0.00,317.0,33.0,0,0,0,0.0
Status,1732152855000,27,15,3,9,1602000000,27.70,89.0,29.0,1,0,0,22.7
Status,1732152855000,27,16,3,8,1602000000,25.60,241.0,17.0,1,0,0,20.6
Status,1732152855000,27,17,3,19,1602000000,0.00,28.0,17.0,0,0,0,0.0
