# 
# Header Description:
# 
# Version: v3.1.0.3 Platform: 13 Manufacturer: samsung Model: SM-S135DL GNSS Hardware Model Name: MediaTek,MT6631,MTK_MNLD_default,MNL_VER_default
# 
# Raw,utcTimeMillis,TimeNanos,LeapSecond,TimeUncertaintyNanos,FullBiasNanos,BiasNanos,BiasUncertaintyNanos,DriftNanosPerSecond,DriftUncertaintyNanosPerSecond,HardwareClockDiscontinuityCount,Svid,TimeOffsetNanos,State,ReceivedSvTimeNanos,ReceivedSvTimeUncertaintyNanos,Cn0DbHz,PseudorangeRateMetersPerSecond,PseudorangeRateUncertaintyMetersPerSecond,AccumulatedDeltaRangeState,AccumulatedDeltaRangeMeters,AccumulatedDeltaRangeUncertaintyMeters,CarrierFrequencyHz,CarrierCycles,CarrierPhase,CarrierPhaseUncertainty,MultipathIndicator,SnrInDb,ConstellationType,AgcDb,BasebandCn0DbHz,FullInterSignalBiasNanos,FullInterSignalBiasUncertaintyNanos,SatelliteInterSignalBiasNanos,SatelliteInterSignalBiasUncertaintyNanos,CodeType,ChipsetElapsedRealtimeNanos,IsFullTracking
# 
# UncalAccel,utcTimeMillis,elapsedRealtimeNanos,UncalAccelXMps2,UncalAccelYMps2,UncalAccelZMps2,BiasXMps2,BiasYMps2,BiasZMps2
# 
# Accel,utcTimeMillis,elapsedRealtimeNanos,AccelXMps2,AccelYMps2,AccelZMps2
# 
# UncalGyro,utcTimeMillis,elapsedRealtimeNanos,UncalGyroXRadPerSec,UncalGyroYRadPerSec,UncalGyroZRadPerSec,DriftXRadPerSec,DriftYRadPerSec,DriftZRadPerSec
# 
# Gyro,utcTimeMillis,elapsedRealtimeNanos,GyroXRadPerSec,GyroYRadPerSec,GyroZRadPerSec
# 
# UncalMag,utcTimeMillis,elapsedRealtimeNanos,UncalMagXMicroT,UncalMagYMicroT,UncalMagZMicroT,BiasXMicroT,BiasYMicroT,BiasZMicroT
# 
# Mag,utcTimeMillis,elapsedRealtimeNanos,MagXMicroT,MagYMicroT,MagZMicroT
# 
# Pressure,utcTimeMillis,elapsedRealtimeNanos,PressureHpa
# 
# OrientationDeg,utcTimeMillis,elapsedRealtimeNanos,yawDeg,rollDeg,pitchDeg
# 
# Fix,Provider,LatitudeDegrees,LongitudeDegrees,AltitudeMeters,SpeedMps,AccuracyMeters,BearingDegrees,UnixTimeMillis,SpeedAccuracyMps,BearingAccuracyDegrees,elapsedRealtimeNanos,VerticalAccuracyMeters,MockLocation,NumberOfUsedSignals,VerticalSpeedAccuracyMps,SolutionType
# 
# Nav,Svid,Type,Status,MessageId,Sub-messageId,Data(Bytes)
# 
# Status,UnixTimeMillis,SignalCount,SignalIndex,ConstellationType,Svid,CarrierFrequencyHz,Cn0DbHz,AzimuthDegrees,ElevationDegrees,UsedInFix,HasAlmanacData,HasEphemerisData,BasebandCn0DbHz
# 
# Agc,utcTimeMillis,TimeNanos,LeapSecond,TimeUncertaintyNanos,FullBiasNanos,BiasNanos,BiasUncertaintyNanos,DriftNanosPerSecond,DriftUncertaintyNanosPerSecond,HardwareClockDiscontinuityCount,AgcDb,CarrierFrequencyHz,ConstellationType
# 
Fix,FLP,37.4248726000,-122.1587469000,5.400000095367432,0.14352018,4.457,180.0,1732152175243,3.0,118.3,31059091000000,18.97966,0,,,
Status,,27,0,1,17,1575420030,0.00,74.0,78.0,0,0,0,0.0
Status,,27,1,1,22,1575420030,0.00,18.0,65.0,0,0,0,0.0
Status,,27,2,1,19,1575420030,0.00,201.0,63.0,0,0,0,0.0
Status,,27,3,1,14,1575420030,0.00,55.0,51.0,0,0,0,0.0
Status,,27,4,1,13,1575420030,29.50,232.0,46.0,1,0,0,24.5
Status,,27,5,2,135,1575420030,0.00,197.0,45.0,0,0,0,0.0
Status,,27,6,1,30,1575420030,29.80,132.0,34.0,1,0,0,24.8
Status,,27,7,1,15,1575420030,22.90,273.0,30.0,1,0,0,17.9
Status,,27,8,1,24,1575420030,0.00,313.0,18.0,0,0,0,0.0
Status,,27,9,1,2,1575420030,23.10,46.0,16.0,1,0,0,18.1
Status,,27,10,1,6,1575420030,27.70,161.0,13.0,1,0,0,22.7
Status,,27,11,1,21,1575420030,0.00,33.0,4.0,0,0,0,0.0
Status,,27,12,1,7,1575420030,27.80,132.0,3.0,0,0,0,22.8
Status,,27,13,3,20,1602000000,0.00,110.0,55.0,0,0,0,0.0
Status,,27,14,3,9,1602000000,0.00,83.0,32.0,0,0,0,0.0
Status,,27,15,3,11,1602000000,0.00,312.0,29.0,0,0,0,0.0
Status,,27,16,3,19,1602000000,0.00,32.0,22.0,0,0,0,0.0
Status,,27,17,3,8,1602000000,24.10,245.0,21.0,1,0,0,19.1
Status,,27,18,6,21,1575420030,0.00,347.0,68.0,0,0,0,0.0
Status,,27,19,6,19,1575420030,0.00,241.0,45.0,0,0,0,0.0
Status,,27,20,6,27,1575420030,0.00,66.0,33.0,0,0,0,0.0
Status,,27,21,6,13,1575420030,0.00,119.0,30.0,0,0,0,0.0
Status,,27,22,6,4,1575420030,0.00,310.0,24.0,0,0,0,0.0
Status,,27,23,6,15,1575420030,0.00,60.0,24.0,0,0,0,0.0
Status,,27,24,6,29,1575420030,0.00,191.0,23.0,0,0,0,0.0
Status,,27,25,6,26,1575420030,0.00,167.0,7.0,0,0,0,0.0
Status,,27,26,6,6,1575420030,0.00,326.0,6.0,0,0,0,0.0
Fix,GPS,37.4248533333,-122.1587366667,23.7,0.0,4.4,0.0,1732152175999,2.9,123.5,31060091000000,51.7,0,,,
Raw,1732152176000,30202000000,,995388.4080032461,-1416187363798000128,0.0,106.69644565697894,1096.0658502370804,0.0,0,30,0.0,16431,350593925384398,396,24.78499984741211,857.5627106401226,0.14999,16,0.0,0.0,1575420030,,,,0,9.701382380300382,1,6.0,24.78499984741211,0.0,0.0,0.0,66.7128,C,31060091000000,
Raw,1732152176000,30202000000,,995388.4080032461,-1416187363798000128,0.0,106.69644565697894,1096.0658502370804,0.0,0,6,0.0,16431,350593919054483,487,22.676000595092773,-331.5247028655097,0.14999,16,0.0,0.0,1575420030,,,,0,6.583624920952497,1,6.0,22.676000595092773,0.0,0.0,0.0,66.7128,C,31060091000000,
Raw,1732152176000,30202000000,,995388.4080032461,-1416187363798000128,0.0,106.69644565697894,1096.0658502370804,0.0,0,15,0.0,16431,350593924577304,797,17.858999252319336,528.2946324252074,0.14999,16,0.0,0.0,1575420030,,,,0,0.0,1,6.0,17.858999252319336,0.0,0.0,0.0,66.7128,C,31060091000000,
Raw,1732152176000,30202000000,,995388.4080032461,-1416187363798000128,0.0,106.69644565697894,1096.0658502370804,0.0,0,2,0.0,16431,350593918272825,797,18.097999572753906,691.1649242196481,0.14999,16,0.0,0.0,1575420030,,,,0,0.0,1,6.0,18.097999572753906,0.0,0.0,0.0,66.7128,C,31060091000000,
Raw,1732152176000,30202000000,,995388.4080032461,-1416187363798000128,0.0,106.69644565697894,1096.0658502370804,0.0,0,7,0.0,16431,350593916290502,396,22.832000732421875,971.7443034954221,0.14999,16,0.0,0.0,1575420030,,,,0,6.842924464239849,1,6.0,22.832000732421875,0.0,0.0,0.0,66.7128,C,31060091000000,
Raw,1732152176000,30202000000,,995388.4080032461,-1416187363798000128,0.0,106.69644565697894,1096.0658502370804,0.0,0,8,0.0,17,884660,487,5.0,929.4672431119591,0.14999,16,0.0,0.0,1605374980,,,,0,2.8606926880720183,3,6.0,19.0,0.0,0.0,113.82435916634189,66.7128,C,31060091000000,
Raw,1732152176000,30202000000,,995388.4080032461,-1416187363798000128,0.0,106.69644565697894,1096.0658502370804,0.0,0,13,0.0,16431,350593928390489,797,24.509000778198242,723.3767277239763,0.14999,16,0.0,0.0,1575420030,,,,0,9.325717794219191,1,6.0,24.509000778198242,0.0,0.0,0.0,66.7128,C,31060091000000,
Fix,FLP,37.4248625000,-122.1587421000,5.400000095367432,0.1673976,4.442,180.0,1732152176243,2.9,123.5,31060091000000,16.378103,0,,,
Status,1732152175999,27,0,1,17,1575420030,0.00,74.0,78.0,0,0,0,0.0
Status,1732152175999,27,1,1,22,1575420030,0.00,18.0,65.0,0,0,0,0.0
Status,1732152175999,27,2,1,19,1575420030,0.00,201.0,63.0,0,0,0,0.0
Status,1732152175999,27,3,1,14,1575420030,0.00,55.0,51.0,0,0,0,0.0
Status,1732152175999,27,4,1,13,1575420030,24.10,232.0,46.0,1,0,0,19.1
Status,1732152175999,27,5,2,135,1575420030,0.00,197.0,45.0,0,0,0,0.0
Status,1732152175999,27,6,1,30,1575420030,27.70,132.0,34.0,1,0,0,22.7
Status,1732152175999,27,7,1,15,1575420030,22.90,273.0,30.0,1,0,0,17.9
Status,1732152175999,27,8,1,24,1575420030,0.00,313.0,18.0,0,0,0,0.0
Status,1732152175999,27,9,1,2,1575420030,23.10,46.0,16.0,1,0,0,18.1
Status,1732152175999,27,10,1,6,1575420030,25.50,161.0,13.0,1,0,0,20.5
Status,1732152175999,27,11,1,21,1575420030,0.00,33.0,4.0,0,0,0,0.0
Status,1732152175999,27,12,1,7,1575420030,30.70,132.0,3.0,0,0,0,25.7
Status,1732152175999,27,13,3,20,1602000000,0.00,110.0,55.0,0,0,0,0.0
Status,1732152175999,27,14,3,9,1602000000,0.00,83.0,32.0,0,0,0,0.0
Status,1732152175999,27,15,3,11,1602000000,0.00,312.0,29.0,0,0,0,0.0
Status,1732152175999,27,16,3,19,1602000000,0.00,32.0,22.0,0,0,0,0.0
Status,1732152175999,27,17,3,8,1602000000,27.30,245.0,21.0,1,0,0,22.3
Status,1732152175999,27,18,6,21,1575420030,0.00,347.0,68.0,0,0,0,0.0
Status,1732152175999,27,19,6,19,1575420030,0.00,241.0,45.0,0,0,0,0.0
Status,1732152175999,27,20,6,27,1575420030,0.00,66.0,33.0,0,0,0,0.0
Status,1732152175999,27,21,6,13,1575420030,0.00,119.0,30.0,0,0,0,0.0
Status,1732152175999,27,22,6,4,1575420030,0.00,310.0,24.0,0,0,0,0.0
Status,1732152175999,27,23,6,15,1575420030,0.00,60.0,24.0,0,0,0,0.0
Status,1732152175999,27,24,6,29,1575420030,0.00,191.0,23.0,0,0,0,0.0
Status,1732152175999,27,25,6,26,1575420030,0.00,167.0,7.0,0,0,0,0.0
Status,1732152175999,27,26,6,6,1575420030,0.00,326.0,6.0,0,0,0,0.0
Fix,GPS,37.4248550000,-122.1587450000,23.7,0.0,4.4,0.0,1732152176999,2.9,121.6,31061091000000,52.0,0,,,
Fix,FLP,37.4248581000,-122.1587435000,5.400000095367432,0.17337747,4.428,180.0,1732152177243,2.9,121.6,31061091000000,22.305649,0,,,
Raw,1732152177000,31202000000,,995340.7708809006,-1416187363798000128,0.0,106.80712301370019,1095.7373722852751,0.0,0,30,0.0,16431,350594925381535,487,22.715999603271484,857.067835590648,0.14999,16,0.0,0.0,1575420030,,,,0,6.649179116177214,1,6.0,22.715999603271484,0.0,0.0,0.0,66.7128,C,31061091000000,
Raw,1732152177000,31202000000,,995340.7708809006,-1416187363798000128,0.0,106.80712301370019,1095.7373722852751,0.0,0,6,0.0,16431,350594919055556,487,20.48699951171875,-331.8803885000176,0.14999,16,0.0,0.0,1575420030,,,,0,3.061799739838872,1,6.0,20.48699951171875,0.0,0.0,0.0,66.7128,C,31061091000000,
Raw,1732152177000,31202000000,,995340.7708809006,-1416187363798000128,0.0,106.80712301370019,1095.7373722852751,0.0,0,15,0.0,16431,350594924575543,487,17.850000381469727,528.0073335793614,0.14999,16,0.0,0.0,1575420030,,,,0,0.0,1,6.0,17.850000381469727,0.0,0.0,0.0,66.7128,C,31061091000000,
Raw,1732152177000,31202000000,,995340.7708809006,-1416187363798000128,0.0,106.80712301370019,1095.7373722852751,0.0,0,2,0.0,16431,350594918270516,797,18.1200008392334,691.3566116449329,0.14999,16,0.0,0.0,1575420030,,,,0,0.0,1,6.0,18.1200008392334,0.0,0.0,0.0,66.7128,C,31061091000000,
Raw,1732152177000,31202000000,,995340.7708809006,-1416187363798000128,0.0,106.80712301370019,1095.7373722852751,0.0,0,7,0.0,16431,350594916287265,316,25.73699951171875,972.048606121601,0.14999,16,0.0,0.0,1575420030,,,,0,11.059991770537714,1,6.0,25.73699951171875,0.0,0.0,0.0,66.7128,C,31061091000000,
Raw,1732152177000,31202000000,,995340.7708809006,-1416187363798000128,0.0,106.80712301370019,1095.7373722852751,0.0,0,8,0.0,17,881510,396,5.0,929.211201024932,0.14999,16,0.0,0.0,1605374980,,,,0,7.57490045729342,3,6.0,21.0,0.0,0.0,112.58088095705229,66.7128,C,31061091000000,
Raw,1732152177000,31202000000,,995340.7708809006,-1416187363798000128,0.0,106.80712301370019,1095.7373722852751,0.0,0,13,0.0,16431,350594928388098,487,19.115999221801758,722.6535095588268,0.14999,16,0.0,0.0,1575420030,,,,0,0.6936423508520289,1,6.0,19.115999221801758,0.0,0.0,0.0,66.7128,C,31061091000000,
Status,1732152176999,28,0,1,17,1575420030,0.00,74.0,78.0,0,0,0,0.0
Status,1732152176999,28,1,1,22,1575420030,0.00,18.0,65.0,0,0,0,0.0
Status,1732152176999,28,2,1,19,1575420030,0.00,201.0,63.0,0,0,0,0.0
Status,1732152176999,28,3,1,14,1575420030,0.00,55.0,51.0,0,0,0,0.0
Status,1732152176999,28,4,1,13,1575420030,30.50,232.0,46.0,1,0,0,25.5
Status,1732152176999,28,5,2,135,1575420030,0.00,197.0,45.0,0,0,0,0.0
Status,1732152176999,28,6,1,30,1575420030,27.70,132.0,34.0,1,0,0,22.7
Status,1732152176999,28,7,1,15,1575420030,25.50,273.0,30.0,1,0,0,20.5
Status,1732152176999,28,8,1,24,1575420030,0.00,313.0,18.0,0,0,0,0.0
Status,1732152176999,28,9,1,2,1575420030,23.20,46.0,16.0,1,0,0,18.2
Status,1732152176999,28,10,1,6,1575420030,25.50,161.0,13.0,1,0,0,20.5
Status,1732152176999,28,11,1,21,1575420030,0.00,33.0,4.0,0,0,0,0.0
Status,1732152176999,28,12,1,7,1575420030,32.10,132.0,3.0,0,0,0,27.099998
Status,1732152176999,28,13,3,20,1602000000,0.00,110.0,55.0,0,0,0,0.0
Status,1732152176999,28,14,3,9,1602000000,0.00,83.0,32.0,0,0,0,0.0
Status,1732152176999,28,15,3,11,1602000000,0.00,312.0,29.0,0,0,0,0.0
Status,1732152176999,28,16,3,19,1602000000,0.00,32.0,22.0,0,0,0,0.0
Status,1732152176999,28,17,3,8,1602000000,23.90,245.0,21.0,1,0,0,18.9
Status,1732152176999,28,18,3,17,1602000000,31.10,0.0,0.0,0,0,0,26.1
Status,1732152176999,28,19,6,21,1575420030,0.00,347.0,68.0,0,0,0,0.0
Status,1732152176999,28,20,6,19,1575420030,28.10,241.0,45.0,1,0,0,23.1
Status,1732152176999,28,21,6,27,1575420030,0.00,66.0,33.0,0,0,0,0.0
Status,1732152176999,28,22,6,13,1575420030,0.00,119.0,30.0,0,0,0,0.0
Status,1732152176999,28,23,6,4,1575420030,0.00,310.0,24.0,0,0,0,0.0
Status,1732152176999,28,24,6,15,1575420030,0.00,60.0,24.0,0,0,0,0.0
Status,1732152176999,28,25,6,29,1575420030,0.00,191.0,23.0,0,0,0,0.0
Status,1732152176999,28,26,6,26,1575420030,0.00,167.0,7.0,0,0,0,0.0
Status,1732152176999,28,27,6,6,1575420030,0.00,326.0,6.0,0,0,0,0.0
Fix,GPS,37.4248533333,-122.1587566667,23.599999999999998,0.0,4.5,0.0,1732152177999,2.9,124.9,31062091000000,52.3,0,,,
Fix,FLP,37.4248550000,-122.1587495000,5.400000095367432,0.16061692,4.416,180.0,1732152178243,2.9,124.9,31062091000000,17.28622,0,,,
Raw,1732152178000,32202000000,,9044560.420529325,-1416187363798000128,0.0,106.60591112110038,1094.820884954804,0.0,0,30,0.0,16431,350595925378677,487,22.715999603271484,856.864161893981,0.14999,16,0.0,0.0,1575420030,,,,0,6.649179116177214,1,6.0,22.715999603271484,0.0,0.0,0.0,66.7128,C,31062091000000,
Raw,1732152178000,32202000000,,9044560.420529325,-1416187363798000128,0.0,106.60591112110038,1094.820884954804,0.0,0,6,0.0,16431,350595919056663,797,20.48699951171875,-331.66091894183904,0.14999,16,0.0,0.0,1575420030,,,,0,3.061799739838872,1,6.0,20.48699951171875,0.0,0.0,0.0,66.7128,C,31062091000000,
Raw,1732152178000,32202000000,,9044560.420529325,-1416187363798000128,0.0,106.60591112110038,1094.820884954804,0.0,0,15,0.0,16431,350595924573776,396,20.48699951171875,528.0739549482074,0.14999,16,0.0,0.0,1575420030,,,,0,3.061799739838872,1,6.0,20.48699951171875,0.0,0.0,0.0,66.7128,C,31062091000000,
Raw,1732152178000,32202000000,,9044560.420529325,-1416187363798000128,0.0,106.60591112110038,1094.820884954804,0.0,0,2,0.0,16431,350595918268210,487,18.159000396728516,691.2485493688272,0.14999,16,0.0,0.0,1575420030,,,,0,0.2957457765132423,1,6.0,18.159000396728516,0.0,0.0,0.0,66.7128,C,31062091000000,
Raw,1732152178000,32202000000,,9044560.420529325,-1416187363798000128,0.0,106.60591112110038,1094.820884954804,0.0,0,7,0.0,16431,350595916284027,316,27.051000595092773,972.0945999536494,0.14999,16,0.0,0.0,1575420030,,,,0,12.799421580015245,1,6.0,27.051000595092773,0.0,0.0,0.0,66.7128,C,31062091000000,
Raw,1732152178000,32202000000,,9044560.420529325,-1416187363798000128,0.0,106.60591112110038,1094.820884954804,0.0,0,19,0.0,16431,350595918371564,487,23.100000381469727,633.4712833832506,0.14999,16,0.0,0.0,1575420030,,,,0,8.626475719787164,6,6.0,23.100000381469727,0.0,0.0,-8.265318156387815,66.7128,C,31062091000000,
Raw,1732152178000,32202000000,,9044560.420529325,-1416187363798000128,0.0,106.60591112110038,1094.820884954804,0.0,0,8,0.0,17,878416,487,5.0,929.2567925646449,0.14999,16,0.0,0.0,1605374980,,,,0,2.378019093737632,3,6.0,19.0,0.0,0.0,113.53575480371144,66.7128,C,31062091000000,
Raw,1732152178000,32202000000,,9044560.420529325,-1416187363798000128,0.0,106.60591112110038,1094.820884954804,0.0,0,13,0.0,16431,350595928385743,316,25.466999053955078,722.3547354841768,0.14999,16,0.0,0.0,1575420030,,,,0,10.657795402789354,1,6.0,25.466999053955078,0.0,0.0,0.0,66.7128,C,31062091000000,
Fix,NLP,37.4256110000,-122.1580468000,5.400000095367432,,30.747,,1732152178268,,,31062116000000,70.43837,0,,,
Status,1732152177999,28,0,1,17,1575420030,0.00,74.0,78.0,0,0,0,0.0
Status,1732152177999,28,1,1,22,1575420030,0.00,18.0,65.0,0,0,0,0.0
Status,1732152177999,28,2,1,19,1575420030,0.00,201.0,63.0,0,0,0,0.0
Status,1732152177999,28,3,1,14,1575420030,0.00,55.0,51.0,0,0,0,0.0
Status,1732152177999,28,4,1,13,1575420030,30.00,232.0,46.0,1,0,0,25.0
Status,1732152177999,28,5,2,135,1575420030,0.00,197.0,45.0,0,0,0,0.0
Status,1732152177999,28,6,1,30,1575420030,26.20,132.0,34.0,1,0,0,21.2
Status,1732152177999,28,7,1,15,1575420030,25.50,273.0,30.0,1,0,0,20.5
Status,1732152177999,28,8,1,24,1575420030,0.00,313.0,18.0,0,0,0,0.0
Status,1732152177999,28,9,1,2,1575420030,26.10,46.0,16.0,1,0,0,21.1
Status,1732152177999,28,10,1,6,1575420030,25.50,161.0,13.0,1,0,0,20.5
Status,1732152177999,28,11,1,21,1575420030,0.00,33.0,4.0,0,0,0,0.0
Status,1732152177999,28,12,1,7,1575420030,30.40,132.0,3.0,0,0,0,25.4
Status,1732152177999,28,13,3,20,1602000000,0.00,110.0,55.0,0,0,0,0.0
Status,1732152177999,28,14,3,9,1602000000,0.00,83.0,32.0,0,0,0,0.0
Status,1732152177999,28,15,3,11,1602000000,0.00,312.0,29.0,0,0,0,0.0
Status,1732152177999,28,16,3,19,1602000000,0.00,32.0,22.0,0,0,0,0.0
Status,1732152177999,28,17,3,8,1602000000,23.70,245.0,21.0,1,0,0,18.7
Status,1732152177999,28,18,3,17,1602000000,34.90,0.0,0.0,0,0,0,29.900002
Status,1732152177999,28,19,6,21,1575420030,0.00,347.0,68.0,0,0,0,0.0
Status,1732152177999,28,20,6,19,1575420030,28.10,241.0,45.0,1,0,0,23.1
Status,1732152177999,28,21,6,27,1575420030,0.00,66.0,33.0,0,0,0,0.0
Status,1732152177999,28,22,6,13,1575420030,0.00,119.0,30.0,0,0,0,0.0
Status,1732152177999,28,23,6,4,1575420030,0.00,310.0,24.0,0,0,0,0.0
Status,1732152177999,28,24,6,15,1575420030,0.00,60.0,24.0,0,0,0,0.0
Status,1732152177999,28,25,6,29,1575420030,0.00,191.0,23.0,0,0,0,0.0
Status,1732152177999,28,26,6,26,1575420030,0.00,167.0,7.0,0,0,0,0.0
Status,1732152177999,28,27,6,6,1575420030,0.00,326.0,6.0,0,0,0,0.0
Fix,GPS,37.4248400000,-122.1587533333,23.599999999999998,0.0,4.5,0.0,1732152179000,2.8,146.8,31063091000000,52.7,0,,,
Fix,FLP,37.4248476000,-122.1587524000,5.400000095367432,0.17826277,4.442,180.0,1732152179243,2.8,146.8,31063091000000,20.003548,0,,,
Raw,1732152179000,33202000000,,8853509.917184107,-1416187363798000128,0.0,107.00734239838734,1094.057218546916,0.0,0,30,0.0,16431,350596925375823,487,21.152999877929688,857.3737178029781,0.14999,16,0.0,0.0,1575420030,,,,0,4.172146296835499,1,6.0,21.152999877929688,0.0,0.0,0.0,66.7128,C,31063091000000,
Raw,1732152179000,33202000000,,8853509.917184107,-1416187363798000128,0.0,107.00734239838734,1094.057218546916,0.0,0,6,0.0,16431,350596919057768,797,20.48699951171875,-331.5156434743487,0.14999,16,0.0,0.0,1575420030,,,,0,3.061799739838872,1,6.0,20.48699951171875,0.0,0.0,0.0,66.7128,C,31063091000000,
Raw,1732152179000,33202000000,,8853509.917184107,-1416187363798000128,0.0,107.00734239838734,1094.057218546916,0.0,0,15,0.0,16431,350596924571961,487,20.541000366210938,527.9443359669799,0.14999,16,0.0,0.0,1575420030,,,,0,4.840621406574493,1,6.0,20.541000366210938,0.0,0.0,0.0,66.7128,C,31063091000000,
Raw,1732152179000,33202000000,,8853509.917184107,-1416187363798000128,0.0,107.00734239838734,1094.057218546916,0.0,0,2,0.0,16431,350596918265862,487,21.05299949645996,690.8511440765622,0.14999,16,0.0,0.0,1575420030,,,,0,3.996667810685396,1,6.0,21.05299949645996,0.0,0.0,0.0,66.7128,C,31063091000000,
Raw,1732152179000,33202000000,,8853509.917184107,-1416187363798000128,0.0,107.00734239838734,1094.057218546916,0.0,0,7,0.0,16431,350596916280781,316,25.38599967956543,972.2456827231662,0.14999,16,0.0,0.0,1575420030,,,,0,10.575072019056577,1,6.0,25.38599967956543,0.0,0.0,0.0,66.7128,C,31063091000000,
Raw,1732152179000,33202000000,,8853509.917184107,-1416187363798000128,0.0,107.00734239838734,1094.057218546916,0.0,0,19,0.0,16431,350596918369452,396,23.100000381469727,633.1520211470518,0.14999,16,0.0,0.0,1575420030,,,,0,8.626475719787164,6,6.0,23.100000381469727,0.0,0.0,-7.954854668136671,66.7128,C,31063091000000,
Raw,1732152179000,33202000000,,8853509.917184107,-1416187363798000128,0.0,107.00734239838734,1094.057218546916,0.0,0,8,0.0,17,875305,487,5.0,929.1081641451811,0.14999,16,0.0,0.0,1605374980,,,,0,2.0406605879917223,3,6.0,19.0,0.0,0.0,113.23225430120384,66.7128,C,31063091000000,
Raw,1732152179000,33202000000,,8853509.917184107,-1416187363798000128,0.0,107.00734239838734,1094.057218546916,0.0,0,13,0.0,16431,350596928383304,316,25.016000747680664,722.5696056591506,0.14999,16,0.0,0.0,1575420030,,,,0,10.06147082006736,1,6.0,25.016000747680664,0.0,0.0,0.0,66.7128,C,31063091000000,
Status,1732152179000,28,0,1,17,1575420030,0.00,74.0,78.0,0,0,0,0.0
Status,1732152179000,28,1,1,22,1575420030,0.00,18.0,65.0,0,0,0,0.0
Status,1732152179000,28,2,1,19,1575420030,0.00,201.0,63.0,0,0,0,0.0
Status,1732152179000,28,3,1,14,1575420030,0.00,55.0,51.0,0,0,0,0.0
Status,1732152179000,28,4,1,13,1575420030,29.90,232.0,46.0,1,0,0,24.9
Status,1732152179000,28,5,2,138,1575420030,0.00,156.0,43.0,0,0,0,0.0
Status,1732152179000,28,6,1,30,1575420030,24.90,132.0,34.0,1,0,0,19.9
Status,1732152179000,28,7,1,15,1575420030,25.50,273.0,30.0,1,0,0,20.5
Status,1732152179000,28,8,1,24,1575420030,0.00,313.0,18.0,0,0,0,0.0
Status,1732152179000,28,9,1,2,1575420030,26.00,46.0,16.0,1,0,0,21.0
Status,1732152179000,28,10,1,6,1575420030,19.50,161.0,13.0,1,0,0,14.5
Status,1732152179000,28,11,1,21,1575420030,0.00,33.0,4.0,0,0,0,0.0
Status,1732152179000,28,12,1,7,1575420030,29.60,132.0,3.0,0,0,0,24.6
Status,1732152179000,28,13,3,20,1602000000,0.00,110.0,55.0,0,0,0,0.0
Status,1732152179000,28,14,3,9,1602000000,0.00,83.0,32.0,0,0,0,0.0
Status,1732152179000,28,15,3,11,1602000000,0.00,312.0,29.0,0,0,0,0.0
Status,1732152179000,28,16,3,19,1602000000,0.00,32.0,22.0,0,0,0,0.0
Status,1732152179000,28,17,3,8,1602000000,24.00,245.0,21.0,1,0,0,19.0
Status,1732152179000,28,18,3,17,1602000000,37.60,0.0,0.0,0,0,0,32.6
Status,1732152179000,28,19,6,21,1575420030,0.00,347.0,68.0,0,0,0,0.0
Status,1732152179000,28,20,6,19,1575420030,23.10,241.0,45.0,1,0,0,18.1
Status,1732152179000,28,21,6,27,1575420030,0.00,66.0,33.0,0,0,0,0.0
Status,1732152179000,28,22,6,13,1575420030,0.00,119.0,30.0,0,0,0,0.0
Status,1732152179000,28,23,6,4,1575420030,0.00,310.0,24.0,0,0,0,0.0
Status,1732152179000,28,24,6,15,1575420030,0.00,60.0,24.0,0,0,0,0.0
Status,1732152179000,28,25,6,29,1575420030,0.00,191.0,23.0,0,0,0,0.0
Status,1732152179000,28,26,6,26,1575420030,0.00,167.0,7.0,0,0,0,0.0
Status,1732152179000,28,27,6,6,1575420030,0.00,326.0,6.0,0,0,0,0.0
Fix,GPS,37.4248216667,-122.1587516667,23.599999999999998,0.0,4.4,0.0,1732152180000,3.0,179.9,31064091000000,53.0,0,,,
Fix,FLP,37.4248342000,-122.1587521000,5.400000095367432,0.31798762,4.442,180.0,1732152180243,3.0,179.9,31064091000000,19.084642,0,,,
Raw,1732152180001,34202000000,,8766523.072438333,-1416187363799000064,0.0,107.71576400773418,1093.2309467736916,0.0,0,30,0.0,16431,350597926372963,487,19.92799949645996,857.3076539351268,0.14999,16,0.0,0.0,1575420030,,,,0,2.124688122644327,1,6.0,19.92799949645996,0.0,0.0,0.0,66.7128,C,31064091000000,
Raw,1732152180001,34202000000,,8766523.072438333,-1416187363799000064,0.0,107.71576400773418,1093.2309467736916,0.0,0,6,0.0,16431,350597920058846,797,14.5,-331.4281622766242,0.14999,16,0.0,0.0,1575420030,,,,0,0.0,1,6.0,14.5,0.0,0.0,0.0,66.7128,C,31064091000000,
Raw,1732152180001,34202000000,,8766523.072438333,-1416187363799000064,0.0,107.71576400773418,1093.2309467736916,0.0,0,15,0.0,16431,350597925570189,487,20.53499984741211,528.039018219217,0.14999,16,0.0,0.0,1575420030,,,,0,2.9625313492078695,1,6.0,20.53499984741211,0.0,0.0,0.0,66.7128,C,31064091000000,
Raw,1732152180001,34202000000,,8766523.072438333,-1416187363799000064,0.0,107.71576400773418,1093.2309467736916,0.0,0,2,0.0,16431,350597919263551,487,21.016000747680664,690.0397942958614,0.14999,16,0.0,0.0,1575420030,,,,0,2.760524811121354,1,6.0,21.016000747680664,0.0,0.0,0.0,66.7128,C,31064091000000,
Raw,1732152180001,34202000000,,8766523.072438333,-1416187363799000064,0.0,107.71576400773418,1093.2309467736916,0.0,0,7,0.0,16431,350597917277542,316,24.570999145507812,972.0156206460915,0.14999,16,0.0,0.0,1575420030,,,,0,9.421168091444088,1,6.0,24.570999145507812,0.0,0.0,0.0,66.7128,C,31064091000000,
Raw,1732152180001,34202000000,,8766523.072438333,-1416187363799000064,0.0,107.71576400773418,1093.2309467736916,0.0,0,19,0.0,16431,350597919367315,487,18.100000381469727,633.5775802395402,0.14999,16,0.0,0.0,1575420030,,,,0,1.0741070971206357,6,6.0,18.100000381469727,0.0,0.0,7.062744940176832,66.7128,C,31064091000000,
Raw,1732152180001,34202000000,,8766523.072438333,-1416187363799000064,0.0,107.71576400773418,1093.2309467736916,0.0,0,8,0.0,17,872204,487,5.0,928.889142388401,0.14999,16,0.0,0.0,1605374980,,,,0,2.7027630711513426,3,6.0,19.0,0.0,0.0,114.61307686860219,66.7128,C,31064091000000,
Raw,1732152180001,34202000000,,8766523.072438333,-1416187363799000064,0.0,107.71576400773418,1093.2309467736916,0.0,0,13,0.0,16431,350597929380903,396,24.902000427246094,722.3668611308078,0.14999,16,0.0,0.0,1575420030,,,,0,9.883292476990974,1,6.0,24.902000427246094,0.0,0.0,0.0,66.7128,C,31064091000000,
Status,1732152180000,28,0,1,17,1575420030,0.00,74.0,78.0,0,0,0,0.0
Status,1732152180000,28,1,1,22,1575420030,0.00,18.0,65.0,0,0,0,0.0
Status,1732152180000,28,2,1,19,1575420030,0.00,201.0,63.0,0,0,0,0.0
Status,1732152180000,28,3,1,14,1575420030,0.00,55.0,51.0,0,0,0,0.0
Status,1732152180000,28,4,1,13,1575420030,29.90,232.0,46.0,1,0,0,24.9
Status,1732152180000,28,5,2,138,1575420030,0.00,156.0,43.0,0,0,0,0.0
Status,1732152180000,28,6,1,30,1575420030,24.90,132.0,34.0,1,0,0,19.9
Status,1732152180000,28,7,1,15,1575420030,25.50,273.0,30.0,1,0,0,20.5
Status,1732152180000,28,8,1,24,1575420030,0.00,313.0,18.0,0,0,0,0.0
Status,1732152180000,28,9,1,2,1575420030,25.90,46.0,16.0,1,0,0,20.9
Status,1732152180000,28,10,1,6,1575420030,24.80,161.0,13.0,1,0,0,19.8
Status,1732152180000,28,11,1,21,1575420030,0.00,33.0,4.0,0,0,0,0.0
Status,1732152180000,28,12,1,7,1575420030,29.50,132.0,3.0,0,0,0,24.5
Status,1732152180000,28,13,3,20,1602000000,0.00,110.0,55.0,0,0,0,0.0
Status,1732152180000,28,14,3,9,1602000000,0.00,83.0,32.0,0,0,0,0.0
Status,1732152180000,28,15,3,11,1602000000,0.00,312.0,29.0,0,0,0,0.0
Status,1732152180000,28,16,3,19,1602000000,0.00,32.0,22.0,0,0,0,0.0
Status,1732152180000,28,17,3,8,1602000000,24.00,245.0,21.0,1,0,0,19.0
Status,1732152180000,28,18,3,17,1602000000,33.90,0.0,0.0,0,0,0,28.900002
Status,1732152180000,28,19,6,21,1575420030,0.00,347.0,68.0,0,0,0,0.0
Status,1732152180000,28,20,6,19,1575420030,22.80,241.0,45.0,1,0,0,17.8
Status,1732152180000,28,21,6,27,1575420030,0.00,66.0,33.0,0,0,0,0.0
Status,1732152180000,28,22,6,13,1575420030,0.00,119.0,30.0,0,0,0,0.0
Status,1732152180000,28,23,6,4,1575420030,0.00,310.0,24.0,0,0,0,0.0
Status,1732152180000,28,24,6,15,1575420030,0.00,60.0,24.0,0,0,0,0.0
Status,1732152180000,28,25,6,29,1575420030,0.00,191.0,23.0,0,0,0,0.0
Status,1732152180000,28,26,6,26,1575420030,0.00,167.0,7.0,0,0,0,0.0
Status,1732152180000,28,27,6,6,1575420030,0.00,326.0,6.0,0,0,0,0.0
Fix,GPS,37.4248116667,-122.1587500000,23.599999999999998,0.0,4.4,0.0,1732152181000,3.0,179.9,31065091000000,53.5,0,,,
Fix,FLP,37.4248214000,-122.1587512000,5.400000095367432,0.42883268,4.442,180.0,1732152181244,3.0,179.9,31065091000000,20.418926,0,,,
Raw,1732152181001,35202000000,,8697886.422479648,-1416187363799000064,0.0,108.59059611043588,1091.1427301990775,0.0,0,30,0.0,16431,350598926370105,797,19.92799949645996,855.8608459374982,0.14999,16,0.0,0.0,1575420030,,,,0,2.124688122644327,1,6.0,19.92799949645996,0.0,0.0,0.0,66.7128,C,31065091000000,
Raw,1732152181001,35202000000,,8697886.422479648,-1416187363799000064,0.0,108.59059611043588,1091.1427301990775,0.0,0,6,0.0,16431,350598920059992,487,19.75200080871582,-332.2158647234739,0.14999,16,0.0,0.0,1575420030,,,,0,1.7884181424513264,1,6.0,19.75200080871582,0.0,0.0,0.0,66.7128,C,31065091000000,
Raw,1732152181001,35202000000,,8697886.422479648,-1416187363799000064,0.0,108.59059611043588,1091.1427301990775,0.0,0,15,0.0,16431,350598925568428,797,20.530000686645508,528.0744659907857,0.14999,16,0.0,0.0,1575420030,,,,0,2.9625313492078695,1,6.0,20.530000686645508,0.0,0.0,0.0,66.7128,C,31065091000000,
Raw,1732152181001,35202000000,,8697886.422479648,-1416187363799000064,0.0,108.59059611043588,1091.1427301990775,0.0,0,2,0.0,16431,350598919261258,487,20.945999145507812,689.4348127999677,0.14999,16,0.0,0.0,1575420030,,,,0,1.5567806914550228,1,6.0,20.945999145507812,0.0,0.0,0.0,66.7128,C,31065091000000,
Raw,1732152181001,35202000000,,8697886.422479648,-1416187363799000064,0.0,108.59059611043588,1091.1427301990775,0.0,0,7,0.0,16431,350598917274304,316,24.540000915527344,970.8912340569641,0.14999,16,0.0,0.0,1575420030,,,,0,9.373574056536995,1,6.0,24.540000915527344,0.0,0.0,0.0,66.7128,C,31065091000000,
Raw,1732152181001,35202000000,,8697886.422479648,-1416187363799000064,0.0,108.59059611043588,1091.1427301990775,0.0,0,19,0.0,16431,350598919365192,487,17.799999237060547,633.0468857511672,0.14999,16,0.0,0.0,1575420030,,,,0,0.5630250076728718,6,6.0,17.799999237060547,0.0,0.0,15.39820526215002,66.7128,C,31065091000000,
Raw,1732152181001,35202000000,,8697886.422479648,-1416187363799000064,0.0,108.59059611043588,1091.1427301990775,0.0,0,8,0.0,17,869106,797,5.0,928.2820454455856,0.14999,16,0.0,0.0,1605374980,,,,0,2.7027630711513426,3,6.0,16.0,0.0,0.0,115.22738463992052,66.7128,C,31065091000000,
Raw,1732152181001,35202000000,,8697886.422479648,-1416187363799000064,0.0,108.59059611043588,1091.1427301990775,0.0,0,13,0.0,16431,350598929378494,797,24.902000427246094,722.0757526948325,0.14999,16,0.0,0.0,1575420030,,,,0,9.883292476990974,1,6.0,24.902000427246094,0.0,0.0,0.0,66.7128,C,31065091000000,
Status,1732152181000,28,0,1,17,1575420030,0.00,74.0,78.0,0,0,0,0.0
Status,1732152181000,28,1,1,22,1575420030,0.00,18.0,65.0,0,0,0,0.0
Status,1732152181000,28,2,1,19,1575420030,0.00,201.0,63.0,0,0,0,0.0
Status,1732152181000,28,3,1,14,1575420030,0.00,55.0,51.0,0,0,0,0.0
Status,1732152181000,28,4,1,13,1575420030,29.90,232.0,46.0,1,0,0,24.9
Status,1732152181000,28,5,2,138,1575420030,0.00,156.0,43.0,0,0,0,0.0
Status,1732152181000,28,6,1,30,1575420030,17.00,132.0,34.0,1,0,0,12.0
Status,1732152181000,28,7,1,15,1575420030,19.10,273.0,30.0,1,0,0,14.1
Status,1732152181000,28,8,1,24,1575420030,0.00,313.0,18.0,0,0,0,0.0
Status,1732152181000,28,9,1,2,1575420030,25.90,46.0,16.0,1,0,0,20.9
Status,1732152181000,28,10,1,6,1575420030,27.40,161.0,13.0,1,0,0,22.4
Status,1732152181000,28,11,1,21,1575420030,0.00,33.0,4.0,0,0,0,0.0
Status,1732152181000,28,12,1,7,1575420030,28.70,132.0,3.0,0,0,0,23.7
Status,1732152181000,28,13,3,20,1602000000,0.00,110.0,55.0,0,0,0,0.0
Status,1732152181000,28,14,3,9,1602000000,0.00,83.0,32.0,0,0,0,0.0
Status,1732152181000,28,15,3,11,1602000000,0.00,312.0,29.0,0,0,0,0.0
Status,1732152181000,28,16,3,19,1602000000,0.00,32.0,22.0,0,0,0,0.0
Status,1732152181000,28,17,3,8,1602000000,24.00,245.0,21.0,1,0,0,19.0
Status,1732152181000,28,18,3,17,1602000000,35.10,0.0,0.0,0,0,0,30.099998
Status,1732152181000,28,19,6,21,1575420030,0.00,347.0,68.0,0,0,0,0.0
Status,1732152181000,28,20,6,19,1575420030,23.80,241.0,45.0,1,0,0,18.8
Status,1732152181000,28,21,6,27,1575420030,0.00,66.0,33.0,0,0,0,0.0
Status,1732152181000,28,22,6,13,1575420030,0.00,119.0,30.0,0,0,0,0.0
Status,1732152181000,28,23,6,4,1575420030,0.00,310.0,24.0,0,0,0,0.0
Status,1732152181000,28,24,6,15,1575420030,0.00,60.0,24.0,0,0,0,0.0
Status,1732152181000,28,25,6,29,1575420030,0.00,191.0,23.0,0,0,0,0.0
Status,1732152181000,28,26,6,26,1575420030,0.00,167.0,7.0,0,0,0,0.0
Status,1732152181000,28,27,6,6,1575420030,0.00,326.0,6.0,0,0,0,0.0
Fix,GPS,37.4248066667,-122.1587533333,23.7,0.0,4.4,0.0,1732152182000,3.0,179.9,31066091000000,54.0,0,,,
Raw,1732152182001,36202000000,,8658938.644814074,-1416187363799000064,0.0,109.62663440218121,1088.6267510061032,0.0,0,30,0.0,16431,350599926367251,1797,12.0,854.7674006535669,0.14999,16,0.0,0.0,1575420030,,,,0,0.0,1,6.0,12.0,0.0,0.0,0.0,66.7128,C,31066091000000,
Raw,1732152182001,36202000000,,8658938.644814074,-1416187363799000064,0.0,109.62663440218121,1088.6267510061032,0.0,0,6,0.0,16431,350599920061141,487,22.43600082397461,-333.360693015734,0.14999,16,0.0,0.0,1575420030,,,,0,6.248220715954636,1,6.0,22.43600082397461,0.0,0.0,0.0,66.7128,C,31066091000000,
Raw,1732152182001,36202000000,,8658938.644814074,-1416187363799000064,0.0,109.62663440218121,1088.6267510061032,0.0,0,15,0.0,16431,350599925566671,797,14.100000381469727,527.3199348531103,0.14999,16,0.0,0.0,1575420030,,,,0,0.0,1,6.0,14.100000381469727,0.0,0.0,0.0,66.7128,C,31066091000000,
Raw,1732152182001,36202000000,,8658938.644814074,-1416187363799000064,0.0,109.62663440218121,1088.6267510061032,0.0,0,2,0.0,16431,350599919258968,487,20.89699935913086,689.1362710173988,0.14999,16,0.0,0.0,1575420030,,,,0,2.2339460366743715,1,6.0,20.89699935913086,0.0,0.0,0.0,66.7128,C,31066091000000,
Raw,1732152182001,36202000000,,8658938.644814074,-1416187363799000064,0.0,109.62663440218121,1088.6267510061032,0.0,0,7,0.0,16431,350599917271067,396,23.666000366210938,970.43399032462,0.14999,16,0.0,0.0,1575420030,,,,0,8.090139345020173,1,6.0,23.666000366210938,0.0,0.0,0.0,66.7128,C,31066091000000,
Raw,1732152182001,36202000000,,8658938.644814074,-1416187363799000064,0.0,109.62663440218121,1088.6267510061032,0.0,0,19,0.0,16431,350599919363081,487,18.799999237060547,632.1404355924834,0.14999,16,0.0,0.0,1575420030,,,,0,2.341846674408494,6,6.0,18.799999237060547,0.0,0.0,19.91523068251971,66.7128,C,31066091000000,
Raw,1732152182001,36202000000,,8658938.644814074,-1416187363799000064,0.0,109.62663440218121,1088.6267510061032,0.0,0,8,0.0,17,866010,1797,5.0,927.4333133422924,0.14999,16,0.0,0.0,1605374980,,,,0,2.7027630711513426,3,6.0,13.0,0.0,0.0,115.59832627843721,66.7128,C,31066091000000,
Raw,1732152182001,36202000000,,8658938.644814074,-1416187363799000064,0.0,109.62663440218121,1088.6267510061032,0.0,0,13,0.0,16431,350599929376085,797,24.902000427246094,721.9397224521681,0.14999,16,0.0,0.0,1575420030,,,,0,9.883292476990974,1,6.0,24.902000427246094,0.0,0.0,0.0,66.7128,C,31066091000000,
Fix,FLP,37.4248121000,-122.1587521000,5.400000095367432,0.4468859,4.442,180.0,1732152182243,3.0,179.9,31066091000000,21.376968,0,,,
Fix,FLP,37.4248080000,-122.1587526000,5.400000095367432,0.37602377,4.442,180.0,1732152183137,3.0,179.9,31066984000000,21.286575,0,,,
Fix,NLP,37.4256133000,-122.1580490000,5.400000095367432,,29.176,,1732152183136,,,31066984000000,54.821037,0,,,
Status,1732152182000,28,0,1,17,1575420030,23.60,74.0,78.0,1,0,0,18.6
Status,1732152182000,28,1,1,22,1575420030,0.00,18.0,65.0,0,0,0,0.0
Status,1732152182000,28,2,1,19,1575420030,0.00,201.0,63.0,0,0,0,0.0
Status,1732152182000,28,3,1,14,1575420030,0.00,55.0,51.0,0,0,0,0.0
Status,1732152182000,28,4,1,13,1575420030,22.10,232.0,46.0,1,0,0,17.1
Status,1732152182000,28,5,2,138,1575420030,0.00,156.0,43.0,0,0,0,0.0
Status,1732152182000,28,6,1,30,1575420030,17.00,132.0,34.0,1,0,0,12.0
Status,1732152182000,28,7,1,15,1575420030,19.10,273.0,30.0,1,0,0,14.1
Status,1732152182000,28,8,1,24,1575420030,0.00,313.0,18.0,0,0,0,0.0
Status,1732152182000,28,9,1,2,1575420030,28.70,46.0,16.0,1,0,0,23.7
Status,1732152182000,28,10,1,6,1575420030,27.70,161.0,13.0,1,0,0,22.7
Status,1732152182000,28,11,1,21,1575420030,0.00,33.0,4.0,0,0,0,0.0
Status,1732152182000,28,12,1,7,1575420030,26.50,132.0,3.0,0,0,0,21.5
Status,1732152182000,28,13,3,20,1602000000,0.00,110.0,55.0,0,0,0,0.0
Status,1732152182000,28,14,3,9,1602000000,0.00,83.0,32.0,0,0,0,0.0
Status,1732152182000,28,15,3,11,1602000000,0.00,312.0,29.0,0,0,0,0.0
Status,1732152182000,28,16,3,19,1602000000,0.00,32.0,22.0,0,0,0,0.0
Status,1732152182000,28,17,3,8,1602000000,16.60,245.0,21.0,1,0,0,11.6
Status,1732152182000,28,18,3,17,1602000000,32.80,0.0,0.0,0,0,0,27.8
Status,1732152182000,28,19,6,21,1575420030,0.00,347.0,68.0,0,0,0,0.0
Status,1732152182000,28,20,6,19,1575420030,23.90,241.0,45.0,1,0,0,18.9
Status,1732152182000,28,21,6,27,1575420030,0.00,66.0,33.0,0,0,0,0.0
Status,1732152182000,28,22,6,13,1575420030,0.00,119.0,30.0,0,0,0,0.0
Status,1732152182000,28,23,6,4,1575420030,0.00,310.0,24.0,0,0,0,0.0
Status,1732152182000,28,24,6,15,1575420030,0.00,60.0,24.0,0,0,0,0.0
Status,1732152182000,28,25,6,29,1575420030,0.00,191.0,23.0,0,0,0,0.0
Status,1732152182000,28,26,6,26,1575420030,0.00,167.0,7.0,0,0,0,0.0
Status,1732152182000,28,27,6,6,1575420030,0.00,326.0,6.0,0,0,0,0.0
Fix,GPS,37.4247966667,-122.1587566667,23.599999999999998,0.0,4.7,0.0,1732152183000,3.1,179.9,31067091000000,53.8,0,,,
Raw,1732152183001,37202000000,,13658355.608132077,-1416187363799000064,0.0,109.71258813230907,1088.6395966160956,0.0,0,30,0.0,16431,350600926364399,1797,12.0,854.8163678242529,0.14999,16,0.0,0.0,1575420030,,,,0,0.0,1,6.0,12.0,0.0,0.0,0.0,66.7128,C,31067091000000,
Raw,1732152183001,37202000000,,13658355.608132077,-1416187363799000064,0.0,109.71258813230907,1088.6395966160956,0.0,0,6,0.0,16431,350600920062295,396,22.676000595092773,-332.86484233951893,0.14999,16,0.0,0.0,1575420030,,,,0,6.583624920952497,1,6.0,22.676000595092773,0.0,0.0,0.0,66.7128,C,31067091000000,
Raw,1732152183001,37202000000,,13658355.608132077,-1416187363799000064,0.0,109.71258813230907,1088.6395966160956,0.0,0,15,0.0,16431,350600925564912,797,14.100000381469727,527.2045786056595,0.14999,16,0.0,0.0,1575420030,,,,0,0.0,1,6.0,14.100000381469727,0.0,0.0,0.0,66.7128,C,31067091000000,
Raw,1732152183001,37202000000,,13658355.608132077,-1416187363799000064,0.0,109.71258813230907,1088.6395966160956,0.0,0,2,0.0,16431,350600919256666,396,23.701000213623047,689.5432002849869,0.14999,16,0.0,0.0,1575420030,,,,0,8.14528803592395,1,6.0,23.701000213623047,0.0,0.0,0.0,66.7128,C,31067091000000,
Raw,1732152183001,37202000000,,13658355.608132077,-1416187363799000064,0.0,109.71258813230907,1088.6395966160956,0.0,0,7,0.0,16431,350600917267829,487,21.52899932861328,971.2156996357785,0.14999,16,0.0,0.0,1575420030,,,,0,4.7598218505396925,1,6.0,21.52899932861328,0.0,0.0,0.0,66.7128,C,31067091000000,
Raw,1732152183001,37202000000,,13658355.608132077,-1416187363799000064,0.0,109.71258813230907,1088.6395966160956,0.0,0,19,0.0,16431,350600919360960,396,18.915000915527344,632.9395203513047,0.14999,16,0.0,0.0,1575420030,,,,0,5.899342910330464,6,6.0,18.915000915527344,0.0,0.0,26.357898859251268,66.7128,C,31067091000000,
Raw,1732152183001,37202000000,,13658355.608132077,-1416187363799000064,0.0,109.71258813230907,1088.6395966160956,0.0,0,8,0.0,17,862915,1797,5.0,927.709415706793,0.14999,16,0.0,0.0,1605374980,,,,0,0.0,3,6.0,13.0,0.0,0.0,115.33104843968697,66.7128,C,31067091000000,
Raw,1732152183001,37202000000,,13658355.608132077,-1416187363799000064,0.0,109.71258813230907,1088.6395966160956,0.0,0,17,0.0,16431,350600933166466,797,18.55500030517578,460.44662201608867,0.14999,16,0.0,0.0,1575420030,,,,0,0.0,1,6.0,18.55500030517578,0.0,0.0,0.0,66.7128,C,31067091000000,
Raw,1732152183001,37202000000,,13658355.608132077,-1416187363799000064,0.0,109.71258813230907,1088.6395966160956,0.0,0,13,0.0,16431,350600929373690,797,17.054000854492188,721.6321677368543,0.14999,16,0.0,0.0,1575420030,,,,0,0.0,1,6.0,17.054000854492188,0.0,0.0,0.0,66.7128,C,31067091000000,
Status,1732152183000,28,0,1,17,1575420030,21.30,74.0,78.0,1,0,0,16.3
Status,1732152183000,28,1,1,22,1575420030,0.00,18.0,65.0,0,0,0,0.0
Status,1732152183000,28,2,1,19,1575420030,0.00,201.0,63.0,0,0,0,0.0
Status,1732152183000,28,3,1,14,1575420030,0.00,55.0,51.0,0,0,0,0.0
Status,1732152183000,28,4,1,13,1575420030,23.80,232.0,46.0,1,0,0,18.8
Status,1732152183000,28,5,2,138,1575420030,0.00,156.0,43.0,0,0,0,0.0
Status,1732152183000,28,6,1,30,1575420030,17.00,132.0,34.0,1,0,0,12.0
Status,1732152183000,28,7,1,15,1575420030,19.10,273.0,30.0,1,0,0,14.1
Status,1732152183000,28,8,1,24,1575420030,0.00,313.0,18.0,0,0,0,0.0
Status,1732152183000,28,9,1,2,1575420030,28.70,46.0,16.0,1,0,0,23.7
Status,1732152183000,28,10,1,6,1575420030,28.20,161.0,13.0,1,0,0,23.2
Status,1732152183000,28,11,1,21,1575420030,0.00,33.0,4.0,0,0,0,0.0
Status,1732152183000,28,12,1,7,1575420030,25.40,132.0,3.0,0,0,0,20.4
Status,1732152183000,28,13,3,20,1602000000,0.00,110.0,55.0,0,0,0,0.0
Status,1732152183000,28,14,3,9,1602000000,0.00,83.0,32.0,0,0,0,0.0
Status,1732152183000,28,15,3,11,1602000000,0.00,312.0,29.0,0,0,0,0.0
Status,1732152183000,28,16,3,19,1602000000,0.00,32.0,22.0,0,0,0,0.0
Status,1732152183000,28,17,3,8,1602000000,16.60,245.0,21.0,1,0,0,11.6
Status,1732152183000,28,18,3,17,1602000000,28.60,0.0,0.0,0,0,0,23.6
Status,1732152183000,28,19,6,21,1575420030,0.00,347.0,68.0,0,0,0,0.0
Status,1732152183000,28,20,6,19,1575420030,27.20,241.0,45.0,1,0,0,22.2
Status,1732152183000,28,21,6,27,1575420030,0.00,66.0,33.0,0,0,0,0.0
Status,1732152183000,28,22,6,13,1575420030,0.00,119.0,30.0,0,0,0,0.0
Status,1732152183000,28,23,6,4,1575420030,0.00,310.0,24.0,0,0,0,0.0
Status,1732152183000,28,24,6,15,1575420030,0.00,60.0,24.0,0,0,0,0.0
Status,1732152183000,28,25,6,29,1575420030,0.00,191.0,23.0,0,0,0,0.0
Status,1732152183000,28,26,6,26,1575420030,0.00,167.0,7.0,0,0,0,0.0
Status,1732152183000,28,27,6,6,1575420030,0.00,326.0,6.0,0,0,0,0.0
Fix,GPS,37.4247966667,-122.1587616667,23.599999999999998,0.0,4.6,0.0,1732152184001,2.9,179.9,31068091000000,47.6,0,,,
Raw,1732152184002,38202000000,,13394403.837871065,-1416187363800000000,0.0,106.08530890976273,1089.9956175671334,0.0,0,30,0.0,16431,350601927361547,797,12.0,855.212472280864,0.14999,16,0.0,0.0,1575420030,,,,0,0.0,1,6.0,12.0,0.0,0.0,0.0,66.7128,C,31068091000000,
Raw,1732152184002,38202000000,,13394403.837871065,-1416187363800000000,0.0,106.08530890976273,1089.9956175671334,0.0,0,6,0.0,16431,350601921063379,396,23.243000030517578,-332.1941686431036,0.14999,16,0.0,0.0,1575420030,,,,0,7.459203412524242,1,6.0,23.243000030517578,0.0,0.0,0.0,66.7128,C,31068091000000,
Raw,1732152184002,38202000000,,13394403.837871065,-1416187363800000000,0.0,106.08530890976273,1089.9956175671334,0.0,0,15,0.0,16431,350601926563152,797,14.100000381469727,527.3584024217326,0.14999,16,0.0,0.0,1575420030,,,,0,0.0,1,6.0,14.100000381469727,0.0,0.0,0.0,66.7128,C,31068091000000,
Raw,1732152184002,38202000000,,13394403.837871065,-1416187363800000000,0.0,106.08530890976273,1089.9956175671334,0.0,0,2,0.0,16431,350601920254365,396,23.71500015258789,690.2062083427275,0.14999,16,0.0,0.0,1575420030,,,,0,8.574308057636602,1,6.0,23.71500015258789,0.0,0.0,0.0,66.7128,C,31068091000000,
Raw,1732152184002,38202000000,,13394403.837871065,-1416187363800000000,0.0,106.08530890976273,1089.9956175671334,0.0,0,7,0.0,16431,350601918264590,487,20.381000518798828,971.5660890108384,0.14999,16,0.0,0.0,1575420030,,,,0,2.8621153217068542,1,6.0,20.381000518798828,0.0,0.0,0.0,66.7128,C,31068091000000,
Raw,1732152184002,38202000000,,13394403.837871065,-1416187363800000000,0.0,106.08530890976273,1089.9956175671334,0.0,0,19,0.0,16431,350601920358836,396,22.200000762939453,633.6062915407583,0.14999,16,0.0,0.0,1575420030,,,,0,7.399506341534996,6,6.0,22.200000762939453,0.0,0.0,32.30537337213085,66.7128,C,31068091000000,
Raw,1732152184002,38202000000,,13394403.837871065,-1416187363800000000,0.0,106.08530890976273,1089.9956175671334,0.0,0,8,0.0,17,859819,487,5.0,928.6408508631251,0.14999,16,0.0,0.0,1605374980,,,,0,0.0,3,6.0,19.0,0.0,0.0,115.15437862202279,66.7128,C,31068091000000,
Raw,1732152184002,38202000000,,13394403.837871065,-1416187363800000000,0.0,106.08530890976273,1089.9956175671334,0.0,0,17,0.0,16431,350601934164921,797,16.3439998626709,459.4729929875644,0.14999,16,0.0,0.0,1575420030,,,,0,0.0,1,6.0,16.3439998626709,0.0,0.0,0.0,66.7128,C,31068091000000,
Raw,1732152184002,38202000000,,13394403.837871065,-1416187363800000000,0.0,106.08530890976273,1089.9956175671334,0.0,0,13,0.0,16431,350601930371286,487,18.77400016784668,722.4857946763068,0.14999,16,0.0,0.0,1575420030,,,,0,0.019980086800575947,1,6.0,18.77400016784668,0.0,0.0,0.0,66.7128,C,31068091000000,
Fix,FLP,37.4247990000,-122.1587571000,5.400000095367432,0.3401469,4.485,180.0,1732152184244,2.9,179.9,31068091000000,17.263014,0,,,
Status,1732152184001,28,0,1,17,1575420030,21.30,74.0,78.0,1,0,0,16.3
Status,1732152184001,28,1,1,22,1575420030,0.00,18.0,65.0,0,0,0,0.0
Status,1732152184001,28,2,1,19,1575420030,0.00,201.0,63.0,0,0,0,0.0
Status,1732152184001,28,3,1,14,1575420030,0.00,55.0,51.0,0,0,0,0.0
Status,1732152184001,28,4,1,13,1575420030,23.80,232.0,46.0,1,0,0,18.8
Status,1732152184001,28,5,2,138,1575420030,0.00,156.0,43.0,0,0,0,0.0
Status,1732152184001,28,6,1,30,1575420030,25.70,132.0,34.0,1,0,0,20.7
Status,1732152184001,28,7,1,15,1575420030,24.40,273.0,30.0,1,0,0,19.4
Status,1732152184001,28,8,1,24,1575420030,0.00,313.0,18.0,0,0,0,0.0
Status,1732152184001,28,9,1,2,1575420030,28.70,46.0,16.0,1,0,0,23.7
Status,1732152184001,28,10,1,6,1575420030,27.10,161.0,13.0,1,0,0,22.1
Status,1732152184001,28,11,1,21,1575420030,0.00,33.0,4.0,0,0,0,0.0
Status,1732152184001,28,12,1,7,1575420030,25.50,132.0,3.0,0,0,0,20.5
Status,1732152184001,28,13,3,20,1602000000,0.00,110.0,55.0,0,0,0,0.0
Status,1732152184001,28,14,3,9,1602000000,0.00,83.0,32.0,0,0,0,0.0
Status,1732152184001,28,15,3,11,1602000000,0.00,312.0,29.0,0,0,0,0.0
Status,1732152184001,28,16,3,19,1602000000,0.00,32.0,22.0,0,0,0,0.0
Status,1732152184001,28,17,3,8,1602000000,16.60,245.0,21.0,1,0,0,11.6
Status,1732152184001,28,18,3,17,1602000000,27.90,0.0,0.0,0,0,0,22.9
Status,1732152184001,28,19,6,21,1575420030,0.00,347.0,68.0,0,0,0,0.0
Status,1732152184001,28,20,6,19,1575420030,22.60,241.0,45.0,1,0,0,17.6
Status,1732152184001,28,21,6,27,1575420030,0.00,66.0,33.0,0,0,0,0.0
Status,1732152184001,28,22,6,13,1575420030,0.00,119.0,30.0,0,0,0,0.0
Status,1732152184001,28,23,6,4,1575420030,0.00,310.0,24.0,0,0,0,0.0
Status,1732152184001,28,24,6,15,1575420030,0.00,60.0,24.0,0,0,0,0.0
Status,1732152184001,28,25,6,29,1575420030,0.00,191.0,23.0,0,0,0,0.0
Status,1732152184001,28,26,6,26,1575420030,0.00,167.0,7.0,0,0,0,0.0
Status,1732152184001,28,27,6,6,1575420030,0.00,326.0,6.0,0,0,0,0.0
Fix,GPS,37.4248000000,-122.1587666667,23.599999999999998,0.0,4.6,0.0,1732152185001,2.9,179.9,31069091000000,46.6,0,,,
Raw,1732152185002,39202000000,,13150758.61581548,-1416187363800000000,0.0,104.48315937399252,1091.3295062707477,0.0,0,30,0.0,16431,350602927358669,487,20.701000213623047,856.5729605411733,0.14999,16,0.0,0.0,1575420030,,,,0,3.447902843746604,1,6.0,20.701000213623047,0.0,0.0,0.0,66.7128,C,31069091000000,
Raw,1732152185002,39202000000,,13150758.61581548,-1416187363800000000,0.0,104.48315937399252,1091.3295062707477,0.0,0,6,0.0,16431,350602921064475,396,22.104999542236328,-332.100694309688,0.14999,16,0.0,0.0,1575420030,,,,0,5.683085524686114,1,6.0,22.104999542236328,0.0,0.0,0.0,66.7128,C,31069091000000,
Raw,1732152185002,39202000000,,13150758.61581548,-1416187363800000000,0.0,104.48315937399252,1091.3295062707477,0.0,0,15,0.0,16431,350602926561419,487,19.378000259399414,528.299185349996,0.14999,16,0.0,0.0,1575420030,,,,0,1.0741070971206357,1,6.0,19.378000259399414,0.0,0.0,0.0,66.7128,C,31069091000000,
Raw,1732152185002,39202000000,,13150758.61581548,-1416187363800000000,0.0,104.48315937399252,1091.3295062707477,0.0,0,2,0.0,16431,350602920252062,797,23.729000091552734,690.9081485532525,0.14999,16,0.0,0.0,1575420030,,,,0,8.574308057636602,1,6.0,23.729000091552734,0.0,0.0,0.0,66.7128,C,31069091000000,
Raw,1732152185002,39202000000,,13150758.61581548,-1416187363800000000,0.0,104.48315937399252,1091.3295062707477,0.0,0,7,0.0,16431,350602918261346,487,20.472999572753906,971.9171288037252,0.14999,16,0.0,0.0,1575420030,,,,0,5.899342910330464,1,6.0,20.472999572753906,0.0,0.0,0.0,66.7128,C,31069091000000,
Raw,1732152185002,39202000000,,13150758.61581548,-1416187363800000000,0.0,104.48315937399252,1091.3295062707477,0.0,0,19,0.0,16431,350602920356717,487,17.600000381469727,633.9019993599385,0.14999,16,0.0,0.0,1575420030,,,,0,0.15895728590713354,6,6.0,17.600000381469727,0.0,0.0,31.717103550386756,66.7128,C,31069091000000,
Raw,1732152185002,39202000000,,13150758.61581548,-1416187363800000000,0.0,104.48315937399252,1091.3295062707477,0.0,0,8,0.0,17,856721,396,5.0,929.2155778127445,0.14999,16,0.0,0.0,1605374980,,,,0,0.0,3,6.0,22.0,0.0,0.0,114.90044361011594,66.7128,C,31069091000000,
Raw,1732152185002,39202000000,,13150758.61581548,-1416187363800000000,0.0,104.48315937399252,1091.3295062707477,0.0,0,17,0.0,16431,350602934163384,797,16.3439998626709,460.92667683079213,0.14999,16,0.0,0.0,1575420030,,,,0,0.0,1,6.0,16.3439998626709,0.0,0.0,0.0,66.7128,C,31069091000000,
Raw,1732152185002,39202000000,,13150758.61581548,-1416187363800000000,0.0,104.48315937399252,1091.3295062707477,0.0,0,13,0.0,16431,350602930368856,487,18.780000686645508,723.4240223916786,0.14999,16,0.0,0.0,1575420030,,,,0,0.2957457765132423,1,6.0,18.780000686645508,0.0,0.0,0.0,66.7128,C,31069091000000,
Fix,FLP,37.4247984000,-122.1587613000,5.400000095367432,0.23104042,4.5,180.0,1732152185244,2.9,179.9,31069091000000,16.07867,0,,,
Status,1732152185001,28,0,1,17,1575420030,21.30,74.0,78.0,1,0,0,16.3
Status,1732152185001,28,1,1,22,1575420030,0.00,18.0,65.0,0,0,0,0.0
Status,1732152185001,28,2,1,19,1575420030,0.00,201.0,63.0,0,0,0,0.0
Status,1732152185001,28,3,1,14,1575420030,0.00,55.0,51.0,0,0,0,0.0
Status,1732152185001,28,4,1,13,1575420030,23.80,232.0,46.0,1,0,0,18.8
Status,1732152185001,28,5,2,138,1575420030,0.00,156.0,43.0,0,0,0,0.0
Status,1732152185001,28,6,1,30,1575420030,25.70,132.0,34.0,1,0,0,20.7
Status,1732152185001,28,7,1,15,1575420030,24.40,273.0,30.0,1,0,0,19.4
Status,1732152185001,28,8,1,24,1575420030,0.00,313.0,18.0,0,0,0,0.0
Status,1732152185001,28,9,1,2,1575420030,22.60,46.0,16.0,1,0,0,17.6
Status,1732152185001,28,10,1,6,1575420030,29.60,161.0,13.0,1,0,0,24.6
Status,1732152185001,28,11,1,21,1575420030,0.00,33.0,4.0,0,0,0,0.0
Status,1732152185001,28,12,1,7,1575420030,25.60,132.0,3.0,0,0,0,20.6
Status,1732152185001,28,13,3,20,1602000000,0.00,110.0,55.0,0,0,0,0.0
Status,1732152185001,28,14,3,9,1602000000,0.00,83.0,32.0,0,0,0,0.0
Status,1732152185001,28,15,3,11,1602000000,0.00,312.0,29.0,0,0,0,0.0
Status,1732152185001,28,16,3,19,1602000000,0.00,32.0,22.0,0,0,0,0.0
Status,1732152185001,28,17,3,8,1602000000,26.90,245.0,21.0,1,0,0,21.9
Status,1732152185001,28,18,3,17,1602000000,25.80,0.0,0.0,0,0,0,20.8
Status,1732152185001,28,19,6,21,1575420030,0.00,347.0,68.0,0,0,0,0.0
Status,1732152185001,28,20,6,19,1575420030,20.00,241.0,45.0,1,0,0,15.0
Status,1732152185001,28,21,6,27,1575420030,0.00,66.0,33.0,0,0,0,0.0
Status,1732152185001,28,22,6,13,1575420030,0.00,119.0,30.0,0,0,0,0.0
Status,1732152185001,28,23,6,4,1575420030,0.00,310.0,24.0,0,0,0,0.0
Status,1732152185001,28,24,6,15,1575420030,0.00,60.0,24.0,0,0,0,0.0
Status,1732152185001,28,25,6,29,1575420030,0.00,191.0,23.0,0,0,0,0.0
Status,1732152185001,28,26,6,26,1575420030,0.00,167.0,7.0,0,0,0,0.0
Status,1732152185001,28,27,6,6,1575420030,0.00,326.0,6.0,0,0,0,0.0
Fix,GPS,37.4248066667,-122.1587666667,23.7,0.0,4.6,0.0,1732152186001,2.8,179.9,31070091000000,46.7,0,,,
Fix,FLP,37.4248021000,-122.1587637000,5.400000095367432,0.08103976,4.528,,1732152186243,2.8,,31070091000000,13.230659,0,,,
Raw,1732152186002,40202000000,,12939464.941442924,-1416187363800000000,0.0,105.03913558529396,1091.7107351400316,0.0,0,30,0.0,16431,350603927355811,797,20.701000213623047,857.0119925743629,0.14999,16,0.0,0.0,1575420030,,,,0,3.447902843746604,1,6.0,20.701000213623047,0.0,0.0,0.0,66.7128,C,31070091000000,
Raw,1732152186002,40202000000,,12939464.941442924,-1416187363800000000,0.0,105.03913558529396,1091.7107351400316,0.0,0,6,0.0,16431,350603921065588,396,24.632999420166016,-331.7319074018087,0.14999,16,0.0,0.0,1575420030,,,,0,9.515580864895774,1,6.0,24.632999420166016,0.0,0.0,0.0,66.7128,C,31070091000000,
Raw,1732152186002,40202000000,,12939464.941442924,-1416187363800000000,0.0,105.03913558529396,1091.7107351400316,0.0,0,15,0.0,16431,350603926559655,797,19.378000259399414,528.733664458397,0.14999,16,0.0,0.0,1575420030,,,,0,1.0741070971206357,1,6.0,19.378000259399414,0.0,0.0,0.0,66.7128,C,31070091000000,
Raw,1732152186002,40202000000,,12939464.941442924,-1416187363800000000,0.0,105.03913558529396,1091.7107351400316,0.0,0,2,0.0,16431,350603920249759,797,17.60099983215332,690.7547428629254,0.14999,16,0.0,0.0,1575420030,,,,0,0.0,1,6.0,17.60099983215332,0.0,0.0,0.0,66.7128,C,31070091000000,
Raw,1732152186002,40202000000,,12939464.941442924,-1416187363800000000,0.0,105.03913558529396,1091.7107351400316,0.0,0,7,0.0,16431,350603918258103,487,20.559999465942383,972.0596632246592,0.14999,16,0.0,0.0,1575420030,,,,0,5.899342910330464,1,6.0,20.559999465942383,0.0,0.0,0.0,66.7128,C,31070091000000,
Raw,1732152186002,40202000000,,12939464.941442924,-1416187363800000000,0.0,105.03913558529396,1091.7107351400316,0.0,0,19,0.0,16431,350603920354599,487,15.0,633.3996445054539,0.14999,16,0.0,0.0,1575420030,,,,0,0.0,6,6.0,15.0,0.0,0.0,31.45525994803072,66.7128,C,31070091000000,
Raw,1732152186002,40202000000,,12939464.941442924,-1416187363800000000,0.0,105.03913558529396,1091.7107351400316,0.0,0,8,0.0,17,853640,487,5.0,928.7129766789508,0.14999,16,0.0,0.0,1605374980,,,,0,7.0112937319367346,3,6.0,18.0,0.0,0.0,114.10638901026512,66.7128,C,31070091000000,
Raw,1732152186002,40202000000,,12939464.941442924,-1416187363800000000,0.0,105.03913558529396,1091.7107351400316,0.0,0,17,0.0,16431,350603934161847,797,16.3439998626709,460.4512678577097,0.14999,16,0.0,0.0,1575420030,,,,0,0.0,1,6.0,16.3439998626709,0.0,0.0,0.0,66.7128,C,31070091000000,
Raw,1732152186002,40202000000,,12939464.941442924,-1416187363800000000,0.0,105.03913558529396,1091.7107351400316,0.0,0,13,0.0,16431,350603930366442,487,18.785999298095703,723.7081620652223,0.14999,16,0.0,0.0,1575420030,,,,0,0.2957457765132423,1,6.0,18.785999298095703,0.0,0.0,0.0,66.7128,C,31070091000000,
Status,1732152186001,27,0,1,17,1575420030,20.90,74.0,78.0,1,0,0,15.9
Status,1732152186001,27,1,1,22,1575420030,0.00,18.0,65.0,0,0,0,0.0
Status,1732152186001,27,2,1,19,1575420030,0.00,201.0,63.0,0,0,0,0.0
Status,1732152186001,27,3,1,14,1575420030,0.00,55.0,51.0,0,0,0,0.0
Status,1732152186001,27,4,1,13,1575420030,27.10,232.0,46.0,1,0,0,22.1
Status,1732152186001,27,5,2,138,1575420030,0.00,156.0,43.0,0,0,0,0.0
Status,1732152186001,27,6,1,30,1575420030,25.70,132.0,34.0,1,0,0,20.7
Status,1732152186001,27,7,1,15,1575420030,21.70,273.0,30.0,1,0,0,16.7
Status,1732152186001,27,8,1,24,1575420030,0.00,313.0,18.0,0,0,0,0.0
Status,1732152186001,27,9,1,2,1575420030,22.60,46.0,16.0,1,0,0,17.6
Status,1732152186001,27,10,1,6,1575420030,28.10,161.0,13.0,1,0,0,23.1
Status,1732152186001,27,11,1,21,1575420030,0.00,33.0,4.0,0,0,0,0.0
Status,1732152186001,27,12,1,7,1575420030,25.60,132.0,3.0,0,0,0,20.6
Status,1732152186001,27,13,3,20,1602000000,0.00,110.0,55.0,0,0,0,0.0
Status,1732152186001,27,14,3,9,1602000000,0.00,83.0,32.0,0,0,0,0.0
Status,1732152186001,27,15,3,11,1602000000,0.00,312.0,29.0,0,0,0,0.0
Status,1732152186001,27,16,3,19,1602000000,0.00,32.0,22.0,0,0,0,0.0
Status,1732152186001,27,17,3,8,1602000000,26.90,245.0,21.0,1,0,0,21.9
Status,1732152186001,27,18,6,21,1575420030,0.00,347.0,68.0,0,0,0,0.0
Status,1732152186001,27,19,6,19,1575420030,20.00,241.0,45.0,1,0,0,15.0
Status,1732152186001,27,20,6,27,1575420030,0.00,66.0,33.0,0,0,0,0.0
Status,1732152186001,27,21,6,13,1575420030,0.00,119.0,30.0,0,0,0,0.0
Status,1732152186001,27,22,6,4,1575420030,0.00,310.0,24.0,0,0,0,0.0
Status,1732152186001,27,23,6,15,1575420030,0.00,60.0,24.0,0,0,0,0.0
Status,1732152186001,27,24,6,29,1575420030,0.00,191.0,23.0,0,0,0,0.0
Status,1732152186001,27,25,6,26,1575420030,0.00,167.0,7.0,0,0,0,0.0
Status,1732152186001,27,26,6,6,1575420030,0.00,326.0,6.0,0,0,0,0.0
Fix,GPS,37.4248150000,-122.1587633333,23.599999999999998,0.0,4.6,0.0,1732152187001,2.9,179.9,31071091000000,46.5,0,,,
Raw,1732152187002,41202000000,,12735694.805237561,-1416187363800000000,0.0,104.98625909002435,1094.8166207129557,0.0,0,30,0.0,16431,350604927352950,487,20.701000213623047,857.9741463740831,0.14999,16,0.0,0.0,1575420030,,,,0,3.447902843746604,1,6.0,20.701000213623047,0.0,0.0,0.0,66.7128,C,31071091000000,
Raw,1732152187002,41202000000,,12735694.805237561,-1416187363800000000,0.0,104.98625909002435,1094.8166207129557,0.0,0,6,0.0,16431,350604921066689,396,23.055999755859375,-330.91512198641124,0.14999,16,0.0,0.0,1575420030,,,,0,7.156528549943097,1,6.0,23.055999755859375,0.0,0.0,0.0,66.7128,C,31071091000000,
Raw,1732152187002,41202000000,,12735694.805237561,-1416187363800000000,0.0,104.98625909002435,1094.8166207129557,0.0,0,15,0.0,16431,350604926557888,797,16.660999298095703,530.3725780070562,0.14999,16,0.0,0.0,1575420030,,,,0,0.0,1,6.0,16.660999298095703,0.0,0.0,0.0,66.7128,C,31071091000000,
Raw,1732152187002,41202000000,,12735694.805237561,-1416187363800000000,0.0,104.98625909002435,1094.8166207129557,0.0,0,2,0.0,16431,350604920247453,1797,17.60099983215332,691.6892539050003,0.14999,16,0.0,0.0,1575420030,,,,0,0.0,1,6.0,17.60099983215332,0.0,0.0,0.0,66.7128,C,31071091000000,
Raw,1732152187002,41202000000,,12735694.805237561,-1416187363800000000,0.0,104.98625909002435,1094.8166207129557,0.0,0,7,0.0,16431,350604918254858,797,20.64299964904785,973.2947137612001,0.14999,16,0.0,0.0,1575420030,,,,0,5.899342910330464,1,6.0,20.64299964904785,0.0,0.0,0.0,66.7128,C,31071091000000,
Raw,1732152187002,41202000000,,12735694.805237561,-1416187363800000000,0.0,104.98625909002435,1094.8166207129557,0.0,0,19,0.0,16431,350604920352484,487,15.0,634.699179323695,0.14999,16,0.0,0.0,1575420030,,,,0,0.0,6,6.0,15.0,0.0,0.0,28.47260449207872,66.7128,C,31071091000000,
Raw,1732152187002,41202000000,,12735694.805237561,-1416187363800000000,0.0,104.98625909002435,1094.8166207129557,0.0,0,8,0.0,17,850540,487,5.0,929.7517343197668,0.14999,16,0.0,0.0,1605374980,,,,0,7.0112937319367346,3,6.0,19.0,0.0,0.0,111.238045225553,66.7128,C,31071091000000,
Raw,1732152187002,41202000000,,12735694.805237561,-1416187363800000000,0.0,104.98625909002435,1094.8166207129557,0.0,0,17,0.0,16431,350604934160328,797,15.887999534606934,461.13824845821495,0.14999,16,0.0,0.0,1575420030,,,,0,0.0,1,6.0,15.887999534606934,0.0,0.0,0.0,66.7128,C,31071091000000,
Raw,1732152187002,41202000000,,12735694.805237561,-1416187363800000000,0.0,104.98625909002435,1094.8166207129557,0.0,0,13,0.0,16431,350604930363973,396,22.06100082397461,724.4449460879051,0.14999,16,0.0,0.0,1575420030,,,,0,5.609786442958007,1,6.0,22.06100082397461,0.0,0.0,0.0,66.7128,C,31071091000000,
Fix,FLP,37.4248088000,-122.1587635000,5.400000095367432,0.06671769,4.557,,1732152187243,2.9,,31071091000000,14.59227,0,,,
Status,1732152187001,27,0,1,17,1575420030,20.90,74.0,78.0,1,0,0,15.9
Status,1732152187001,27,1,1,22,1575420030,0.00,18.0,65.0,0,0,0,0.0
Status,1732152187001,27,2,1,19,1575420030,0.00,201.0,63.0,0,0,0,0.0
Status,1732152187001,27,3,1,14,1575420030,0.00,55.0,51.0,0,0,0,0.0
Status,1732152187001,27,4,1,13,1575420030,27.10,232.0,46.0,1,0,0,22.1
Status,1732152187001,27,5,2,138,1575420030,0.00,156.0,43.0,0,0,0,0.0
Status,1732152187001,27,6,1,30,1575420030,24.30,132.0,34.0,1,0,0,19.3
Status,1732152187001,27,7,1,15,1575420030,21.70,273.0,30.0,1,0,0,16.7
Status,1732152187001,27,8,1,24,1575420030,0.00,313.0,18.0,0,0,0,0.0
Status,1732152187001,27,9,1,2,1575420030,18.10,46.0,16.0,1,0,0,13.1
Status,1732152187001,27,10,1,6,1575420030,27.40,161.0,13.0,1,0,0,22.4
Status,1732152187001,27,11,1,21,1575420030,0.00,33.0,4.0,0,0,0,0.0
Status,1732152187001,27,12,1,7,1575420030,28.50,132.0,3.0,0,0,0,23.5
Status,1732152187001,27,13,3,20,1602000000,0.00,110.0,55.0,0,0,0,0.0
Status,1732152187001,27,14,3,9,1602000000,0.00,83.0,32.0,0,0,0,0.0
Status,1732152187001,27,15,3,11,1602000000,0.00,312.0,29.0,0,0,0,0.0
Status,1732152187001,27,16,3,19,1602000000,0.00,32.0,22.0,0,0,0,0.0
Status,1732152187001,27,17,3,8,1602000000,26.90,245.0,21.0,1,0,0,21.9
Status,1732152187001,27,18,6,21,1575420030,0.00,347.0,68.0,0,0,0,0.0
Status,1732152187001,27,19,6,19,1575420030,21.10,241.0,45.0,1,0,0,16.1
Status,1732152187001,27,20,6,27,1575420030,0.00,66.0,33.0,0,0,0,0.0
Status,1732152187001,27,21,6,13,1575420030,0.00,119.0,30.0,0,0,0,0.0
Status,1732152187001,27,22,6,4,1575420030,0.00,310.0,24.0,0,0,0,0.0
Status,1732152187001,27,23,6,15,1575420030,0.00,60.0,24.0,0,0,0,0.0
Status,1732152187001,27,24,6,29,1575420030,0.00,191.0,23.0,0,0,0,0.0
Status,1732152187001,27,25,6,26,1575420030,0.00,167.0,7.0,0,0,0,0.0
Status,1732152187001,27,26,6,6,1575420030,0.00,326.0,6.0,0,0,0,0.0
Fix,GPS,37.4248033333,-122.1587450000,23.599999999999998,0.0,4.6,0.0,1732152188002,3.2,179.9,31072091000000,45.7,0,,,
Fix,FLP,37.4248060000,-122.1587552000,5.400000095367432,0.0070165284,4.616,,1732152188243,3.2,,31072091000000,13.295311,0,,,
