# 
# Header Description:
# 
# Version: v3.1.0.3 Platform: 13 Manufacturer: samsung Model: SM-S135DL GNSS Hardware Model Name: MediaTek,MT6631,MTK_MNLD_default,MNL_VER_default
# 
# Raw,utcTimeMillis,TimeNanos,LeapSecond,TimeUncertaintyNanos,FullBiasNanos,BiasNanos,BiasUncertaintyNanos,DriftNanosPerSecond,DriftUncertaintyNanosPerSecond,HardwareClockDiscontinuityCount,Svid,TimeOffsetNanos,State,ReceivedSvTimeNanos,ReceivedSvTimeUncertaintyNanos,Cn0DbHz,PseudorangeRateMetersPerSecond,PseudorangeRateUncertaintyMetersPerSecond,AccumulatedDeltaRangeState,AccumulatedDeltaRangeMeters,AccumulatedDeltaRangeUncertaintyMeters,CarrierFrequencyHz,CarrierCycles,CarrierPhase,CarrierPhaseUncertainty,MultipathIndicator,SnrInDb,ConstellationType,AgcDb,BasebandCn0DbHz,FullInterSignalBiasNanos,FullInterSignalBiasUncertaintyNanos,SatelliteInterSignalBiasNanos,SatelliteInterSignalBiasUncertaintyNanos,CodeType,ChipsetElapsedRealtimeNanos,IsFullTracking
# 
# UncalAccel,utcTimeMillis,elapsedRealtimeNanos,UncalAccelXMps2,UncalAccelYMps2,UncalAccelZMps2,BiasXMps2,BiasYMps2,BiasZMps2
# 
# Accel,utcTimeMillis,elapsedRealtimeNanos,AccelXMps2,AccelYMps2,AccelZMps2
# 
# UncalGyro,utcTimeMillis,elapsedRealtimeNanos,UncalGyroXRadPerSec,UncalGyroYRadPerSec,UncalGyroZRadPerSec,DriftXRadPerSec,DriftYRadPerSec,DriftZRadPerSec
# 
# Gyro,utcTimeMillis,elapsedRealtimeNanos,GyroXRadPerSec,GyroYRadPerSec,GyroZRadPerSec
# 
# UncalMag,utcTimeMillis,elapsedRealtimeNanos,UncalMagXMicroT,UncalMagYMicroT,UncalMagZMicroT,BiasXMicroT,BiasYMicroT,BiasZMicroT
# 
# Mag,utcTimeMillis,elapsedRealtimeNanos,MagXMicroT,MagYMicroT,MagZMicroT
# 
# Pressure,utcTimeMillis,elapsedRealtimeNanos,PressureHpa
# 
# OrientationDeg,utcTimeMillis,elapsedRealtimeNanos,yawDeg,rollDeg,pitchDeg
# 
# Fix,Provider,LatitudeDegrees,LongitudeDegrees,AltitudeMeters,SpeedMps,AccuracyMeters,BearingDegrees,UnixTimeMillis,SpeedAccuracyMps,BearingAccuracyDegrees,elapsedRealtimeNanos,VerticalAccuracyMeters,MockLocation,NumberOfUsedSignals,VerticalSpeedAccuracyMps,SolutionType
# 
# Nav,Svid,Type,Status,MessageId,Sub-messageId,Data(Bytes)
# 
# Status,UnixTimeMillis,SignalCount,SignalIndex,ConstellationType,Svid,CarrierFrequencyHz,Cn0DbHz,AzimuthDegrees,ElevationDegrees,UsedInFix,HasAlmanacData,HasEphemerisData,BasebandCn0DbHz
# 
# Agc,utcTimeMillis,TimeNanos,LeapSecond,TimeUncertaintyNanos,FullBiasNanos,BiasNanos,BiasUncertaintyNanos,DriftNanosPerSecond,DriftUncertaintyNanosPerSecond,HardwareClockDiscontinuityCount,AgcDb,CarrierFrequencyHz,ConstellationType
# 
Fix,FLP,37.4253031000,-122.1583497000,3.3427371067397615,0.28390998,6.3,0.0,1732151693242,2.4,179.9,30577090000000,10.52898,0,,,
Status,,26,0,1,17,1575420030,0.00,92.0,79.0,0,0,0,0.0
Status,,26,1,1,22,1575420030,0.00,10.0,67.0,0,0,0,0.0
Status,,26,2,1,19,1575420030,19.30,199.0,59.0,1,0,0,14.299999
Status,,26,3,1,14,1575420030,0.00,51.0,54.0,0,0,0,0.0
Status,,26,4,1,13,1575420030,30.70,236.0,49.0,1,0,0,25.7
Status,,26,5,1,30,1575420030,24.70,130.0,38.0,1,0,0,19.7
Status,,26,6,1,15,1575420030,23.70,277.0,30.0,1,0,0,18.7
Status,,26,7,1,2,1575420030,0.00,49.0,18.0,0,0,0,0.0
Status,,26,8,1,24,1575420030,0.00,313.0,15.0,0,0,0,0.0
Status,,26,9,1,6,1575420030,0.00,163.0,10.0,0,0,0,0.0
Status,,26,10,1,21,1575420030,0.00,35.0,5.0,0,0,0,0.0
Status,,26,11,1,7,1575420030,29.60,131.0,5.0,1,0,0,24.6
Status,,26,12,3,20,1602000000,0.00,116.0,52.0,0,0,0,0.0
Status,,26,13,3,9,1602000000,0.00,79.0,34.0,0,0,0,0.0
Status,,26,14,3,11,1602000000,24.20,309.0,27.0,0,0,0,19.2
Status,,26,15,3,8,1602000000,0.00,248.0,24.0,0,0,0,0.0
Status,,26,16,3,19,1602000000,0.00,34.0,24.0,0,0,0,0.0
Status,,26,17,6,21,1575420030,0.00,340.0,68.0,0,0,0,0.0
Status,,26,18,6,19,1575420030,0.00,245.0,47.0,0,0,0,0.0
Status,,26,19,6,27,1575420030,0.00,63.0,35.0,0,0,0,0.0
Status,,26,20,6,13,1575420030,0.00,121.0,27.0,0,0,0,0.0
Status,,26,21,6,29,1575420030,0.00,192.0,26.0,0,0,0,0.0
Status,,26,22,6,15,1575420030,0.00,63.0,24.0,0,0,0,0.0
Status,,26,23,6,4,1575420030,0.00,312.0,22.0,0,0,0,0.0
Status,,26,24,6,26,1575420030,0.00,168.0,5.0,0,0,0,0.0
Status,,26,25,6,6,1575420030,0.00,328.0,4.0,0,0,0,0.0
Fix,GPS,37.4253133333,-122.1583433333,23.500000000000004,0.0,6.3,0.0,1732151694000,2.4,179.9,30578090000000,76.4,0,,,
Raw,1732151694000,15931000000,,707039.968297001,-1416186896069999872,0.0,146.34095267971054,1192.1423673775407,0.0,0,15,0.0,16431,350111925405517,797,18.683000564575195,501.7460633985277,0.14999,16,0.0,0.0,1575420030,,,,0,0.0,1,6.0,18.683000564575195,0.0,0.0,0.0,66.7128,C,30578090000000,
Raw,1732151694000,15931000000,,707039.968297001,-1416186896069999872,0.0,146.34095267971054,1192.1423673775407,0.0,0,7,0.0,16431,350111917865075,316,24.58099937438965,985.8217611082097,0.14999,16,0.0,0.0,1575420030,,,,0,9.405898430954695,1,6.0,24.58099937438965,0.0,0.0,0.0,66.7128,C,30578090000000,
Raw,1732151694000,15931000000,,707039.968297001,-1416186896069999872,0.0,146.34095267971054,1192.1423673775407,0.0,0,30,0.0,16431,350111926760232,797,19.6560001373291,851.9916032018198,0.14999,16,0.0,0.0,1575420030,,,,0,1.6319113922121953,1,6.0,19.6560001373291,0.0,0.0,0.0,66.7128,C,30578090000000,
Raw,1732151694000,15931000000,,707039.968297001,-1416186896069999872,0.0,146.34095267971054,1192.1423673775407,0.0,0,19,0.0,16431,350111930805502,797,14.300000190734863,-47.094896512622675,0.14999,16,0.0,0.0,1575420030,,,,0,0.0,1,6.0,14.300000190734863,0.0,0.0,0.0,66.7128,C,30578090000000,
Raw,1732151694000,15931000000,,707039.968297001,-1416186896069999872,0.0,146.34095267971054,1192.1423673775407,0.0,0,11,0.0,17,124209,487,19.0,-115.38784454695791,0.14999,16,0.0,0.0,1602000000,,,,0,2.925011249232762,3,6.0,19.0,0.0,0.0,108.67631620913818,66.7128,C,30578090000000,
Raw,1732151694000,15931000000,,707039.968297001,-1416186896069999872,0.0,146.34095267971054,1192.1423673775407,0.0,0,13,0.0,16431,350111929536525,316,25.700000762939453,701.8813012532682,0.14999,16,0.0,0.0,1575420030,,,,0,10.981736807559582,1,6.0,25.700000762939453,0.0,0.0,0.0,66.7128,C,30578090000000,
Fix,FLP,37.4253091000,-122.1583469000,3.3412103780254716,0.29109007,6.3,0.000000034514006,1732151694242,2.4,179.9,30578090000000,11.245465,0,,,
Status,1732151694000,27,0,1,17,1575420030,0.00,92.0,79.0,0,0,0,0.0
Status,1732151694000,27,1,1,22,1575420030,0.00,10.0,67.0,0,0,0,0.0
Status,1732151694000,27,2,1,19,1575420030,19.30,199.0,59.0,1,0,0,14.299999
Status,1732151694000,27,3,1,14,1575420030,0.00,51.0,54.0,0,0,0,0.0
Status,1732151694000,27,4,1,13,1575420030,32.50,236.0,49.0,1,0,0,27.5
Status,1732151694000,27,5,2,133,1575420030,0.00,191.0,45.0,0,0,0,0.0
Status,1732151694000,27,6,1,30,1575420030,37.90,130.0,38.0,1,0,0,32.9
Status,1732151694000,27,7,1,15,1575420030,23.70,277.0,30.0,1,0,0,18.7
Status,1732151694000,27,8,1,2,1575420030,0.00,49.0,18.0,0,0,0,0.0
Status,1732151694000,27,9,1,24,1575420030,0.00,313.0,15.0,0,0,0,0.0
Status,1732151694000,27,10,1,6,1575420030,0.00,163.0,10.0,0,0,0,0.0
Status,1732151694000,27,11,1,21,1575420030,0.00,35.0,5.0,0,0,0,0.0
Status,1732151694000,27,12,1,7,1575420030,37.40,131.0,5.0,1,0,0,32.4
Status,1732151694000,27,13,3,20,1602000000,0.00,116.0,52.0,0,0,0,0.0
Status,1732151694000,27,14,3,9,1602000000,0.00,79.0,34.0,0,0,0,0.0
Status,1732151694000,27,15,3,11,1602000000,21.40,309.0,27.0,0,0,0,16.4
Status,1732151694000,27,16,3,8,1602000000,0.00,248.0,24.0,0,0,0,0.0
Status,1732151694000,27,17,3,19,1602000000,0.00,34.0,24.0,0,0,0,0.0
Status,1732151694000,27,18,6,21,1575420030,0.00,340.0,68.0,0,0,0,0.0
Status,1732151694000,27,19,6,19,1575420030,0.00,245.0,47.0,0,0,0,0.0
Status,1732151694000,27,20,6,27,1575420030,0.00,63.0,35.0,0,0,0,0.0
Status,1732151694000,27,21,6,13,1575420030,0.00,121.0,27.0,0,0,0,0.0
Status,1732151694000,27,22,6,29,1575420030,0.00,192.0,26.0,0,0,0,0.0
Status,1732151694000,27,23,6,15,1575420030,0.00,63.0,24.0,0,0,0,0.0
Status,1732151694000,27,24,6,4,1575420030,0.00,312.0,22.0,0,0,0,0.0
Status,1732151694000,27,25,6,26,1575420030,0.00,168.0,5.0,0,0,0,0.0
Status,1732151694000,27,26,6,6,1575420030,0.00,328.0,4.0,0,0,0,0.0
Fix,GPS,37.4253300000,-122.1583466667,23.500000000000004,0.0,6.2,0.0,1732151695000,2.3,179.9,30579090000000,72.5,0,,,
Fix,FLP,37.4253201000,-122.1583468000,5.400000095367432,0.33503824,6.266,0.0000000008818533,1732151695242,2.3,179.9,30579090000000,13.666764,0,,,
Raw,1732151695000,16931000000,,707028.0850761095,-1416186896069999872,0.0,141.83230734403756,1192.1959310462967,0.0,0,15,0.0,16431,350112925403840,487,18.715999603271484,501.6620201236029,0.14999,16,0.0,0.0,1575420030,,,,0,1.0408065209778732,1,6.0,18.715999603271484,0.0,0.0,0.0,66.7128,C,30579090000000,
Raw,1732151695000,16931000000,,707028.0850761095,-1416186896069999872,0.0,141.83230734403756,1192.1959310462967,0.0,0,7,0.0,16431,350112917861795,74,32.4379997253418,986.311061147739,0.14999,16,0.0,0.0,1575420030,,,,0,19.432679779439255,1,6.0,32.4379997253418,0.0,0.0,0.0,66.7128,C,30579090000000,
Raw,1732151695000,16931000000,,707028.0850761095,-1416186896069999872,0.0,141.83230734403756,1192.1959310462967,0.0,0,30,0.0,16431,350112926757311,58,32.948001861572266,853.5940468937537,0.14999,16,0.0,0.0,1575420030,,,,0,20.02998111224407,1,6.0,32.948001861572266,0.0,0.0,0.0,66.7128,C,30579090000000,
Raw,1732151695000,16931000000,,707028.0850761095,-1416186896069999872,0.0,141.83230734403756,1192.1959310462967,0.0,0,19,0.0,16431,350112930805657,797,14.300000190734863,-46.35815894835596,0.14999,16,0.0,0.0,1575420030,,,,0,0.0,1,6.0,14.300000190734863,0.0,0.0,0.0,66.7128,C,30579090000000,
Raw,1732151695000,16931000000,,707028.0850761095,-1416186896069999872,0.0,141.83230734403756,1192.1959310462967,0.0,0,11,0.0,17,124590,797,17.0,-114.15044187822473,0.14999,16,0.0,0.0,1602000000,,,,0,0.0,3,6.0,17.0,0.0,0.0,108.67631620913818,66.7128,C,30579090000000,
Raw,1732151695000,16931000000,,707028.0850761095,-1416186896069999872,0.0,141.83230734403756,1192.1959310462967,0.0,0,13,0.0,16431,350112929534221,235,27.513999938964844,702.1201904294228,0.14999,16,0.0,0.0,1575420030,,,,0,13.412079866159628,1,6.0,27.513999938964844,0.0,0.0,0.0,66.7128,C,30579090000000,
Status,1732151695000,27,0,1,17,1575420030,0.00,92.0,79.0,0,0,0,0.0
Status,1732151695000,27,1,1,22,1575420030,0.00,10.0,67.0,0,0,0,0.0
Status,1732151695000,27,2,1,19,1575420030,22.10,199.0,59.0,1,0,0,17.1
Status,1732151695000,27,3,1,14,1575420030,0.00,51.0,54.0,0,0,0,0.0
Status,1732151695000,27,4,1,13,1575420030,31.50,236.0,49.0,1,0,0,26.5
Status,1732151695000,27,5,2,133,1575420030,0.00,191.0,45.0,0,0,0,0.0
Status,1732151695000,27,6,1,30,1575420030,33.40,130.0,38.0,1,0,0,28.400002
Status,1732151695000,27,7,1,15,1575420030,23.70,277.0,30.0,1,0,0,18.7
Status,1732151695000,27,8,1,2,1575420030,0.00,49.0,18.0,0,0,0,0.0
Status,1732151695000,27,9,1,24,1575420030,0.00,313.0,15.0,0,0,0,0.0
Status,1732151695000,27,10,1,6,1575420030,0.00,163.0,10.0,0,0,0,0.0
Status,1732151695000,27,11,1,21,1575420030,0.00,35.0,5.0,0,0,0,0.0
Status,1732151695000,27,12,1,7,1575420030,32.70,131.0,5.0,1,0,0,27.7
Status,1732151695000,27,13,3,20,1602000000,0.00,116.0,52.0,0,0,0,0.0
Status,1732151695000,27,14,3,9,1602000000,0.00,79.0,34.0,0,0,0,0.0
Status,1732151695000,27,15,3,11,1602000000,21.40,309.0,27.0,0,0,0,16.4
Status,1732151695000,27,16,3,8,1602000000,0.00,248.0,24.0,0,0,0,0.0
Status,1732151695000,27,17,3,19,1602000000,0.00,34.0,24.0,0,0,0,0.0
Status,1732151695000,27,18,6,21,1575420030,0.00,340.0,68.0,0,0,0,0.0
Status,1732151695000,27,19,6,19,1575420030,0.00,245.0,47.0,0,0,0,0.0
Status,1732151695000,27,20,6,27,1575420030,0.00,63.0,35.0,0,0,0,0.0
Status,1732151695000,27,21,6,13,1575420030,0.00,121.0,27.0,0,0,0,0.0
Status,1732151695000,27,22,6,29,1575420030,0.00,192.0,26.0,0,0,0,0.0
Status,1732151695000,27,23,6,15,1575420030,0.00,63.0,24.0,0,0,0,0.0
Status,1732151695000,27,24,6,4,1575420030,0.00,312.0,22.0,0,0,0,0.0
Status,1732151695000,27,25,6,26,1575420030,0.00,168.0,5.0,0,0,0,0.0
Status,1732151695000,27,26,6,6,1575420030,0.00,328.0,4.0,0,0,0,0.0
Fix,GPS,37.4253433333,-122.1583200000,23.500000000000004,0.0,6.2,0.0,1732151696000,2.3,179.9,30580090000000,71.2,0,,,
Raw,1732151696000,17931000000,,707007.914872228,-1416186896069999872,0.0,140.32182482112316,1189.8431195271392,0.0,0,15,0.0,16431,350113925402167,797,18.746999740600586,501.1650079869825,0.14999,16,0.0,0.0,1575420030,,,,0,1.0408065209778732,1,6.0,18.746999740600586,0.0,0.0,0.0,66.7128,C,30580090000000,
Raw,1732151696000,17931000000,,707007.914872228,-1416186896069999872,0.0,140.32182482112316,1189.8431195271392,0.0,0,7,0.0,16431,350113917858514,235,27.722000122070312,985.2276508817092,0.14999,16,0.0,0.0,1575420030,,,,0,13.673111218771442,1,6.0,27.722000122070312,0.0,0.0,0.0,66.7128,C,30580090000000,
Raw,1732151696000,17931000000,,707007.914872228,-1416186896069999872,0.0,140.32182482112316,1189.8431195271392,0.0,0,19,0.0,16431,350113930805788,797,17.062000274658203,-46.20159408572644,0.14999,16,0.0,0.0,1575420030,,,,0,0.0,1,6.0,17.062000274658203,0.0,0.0,0.0,66.7128,C,30580090000000,
Raw,1732151696000,17931000000,,707007.914872228,-1416186896069999872,0.0,140.32182482112316,1189.8431195271392,0.0,0,11,0.0,17,124970,487,19.0,-116.33316645726502,0.14999,16,0.0,0.0,1602000000,,,,0,0.0,3,6.0,19.0,0.0,0.0,108.67631620913818,66.7128,C,30580090000000,
Raw,1732151696000,17931000000,,707007.914872228,-1416186896069999872,0.0,140.32182482112316,1189.8431195271392,0.0,0,13,0.0,16431,350113929531870,316,26.538999557495117,701.1750404100355,0.14999,16,0.0,0.0,1575420030,,,,0,12.14644315527547,1,6.0,26.538999557495117,0.0,0.0,0.0,66.7128,C,30580090000000,
Raw,1732151696000,17931000000,,707007.914872228,-1416186896069999872,0.0,140.32182482112316,1189.8431195271392,0.0,0,30,0.0,16431,350113926754508,235,28.4060001373291,853.0005870850803,0.14999,16,0.0,0.0,1575420030,,,,0,14.568237564023141,1,6.0,28.4060001373291,0.0,0.0,0.0,66.7128,C,30580090000000,
Fix,FLP,37.4253320000,-122.1583357000,3.2577496278690523,0.3778218,6.25,0.00000012054929,1732151696242,2.3,179.9,30580090000000,18.526953,0,,,
Fix,NLP,37.4256770000,-122.1581123000,-0.4000000059604645,,24.608,,1732151696378,,,30580226000000,29.009811,0,,,
Status,1732151696000,27,0,1,17,1575420030,0.00,92.0,79.0,0,0,0,0.0
Status,1732151696000,27,1,1,22,1575420030,0.00,10.0,67.0,0,0,0,0.0
Status,1732151696000,27,2,1,19,1575420030,22.10,199.0,59.0,1,0,0,17.1
Status,1732151696000,27,3,1,14,1575420030,0.00,51.0,54.0,0,0,0,0.0
Status,1732151696000,27,4,1,13,1575420030,30.00,236.0,49.0,1,0,0,25.0
Status,1732151696000,27,5,2,133,1575420030,0.00,191.0,45.0,0,0,0,0.0
Status,1732151696000,27,6,1,30,1575420030,27.00,130.0,38.0,1,0,0,22.0
Status,1732151696000,27,7,1,15,1575420030,23.80,277.0,30.0,1,0,0,18.8
Status,1732151696000,27,8,1,2,1575420030,0.00,49.0,18.0,0,0,0,0.0
Status,1732151696000,27,9,1,24,1575420030,0.00,313.0,15.0,0,0,0,0.0
Status,1732151696000,27,10,1,6,1575420030,0.00,163.0,10.0,0,0,0,0.0
Status,1732151696000,27,11,1,21,1575420030,0.00,35.0,5.0,0,0,0,0.0
Status,1732151696000,27,12,1,7,1575420030,32.70,131.0,5.0,1,0,0,27.7
Status,1732151696000,27,13,3,20,1602000000,0.00,116.0,52.0,0,0,0,0.0
Status,1732151696000,27,14,3,9,1602000000,0.00,79.0,34.0,0,0,0,0.0
Status,1732151696000,27,15,3,11,1602000000,23.70,309.0,27.0,0,0,0,18.7
Status,1732151696000,27,16,3,8,1602000000,22.70,248.0,24.0,1,0,0,17.7
Status,1732151696000,27,17,3,19,1602000000,0.00,34.0,24.0,0,0,0,0.0
Status,1732151696000,27,18,6,21,1575420030,0.00,340.0,68.0,0,0,0,0.0
Status,1732151696000,27,19,6,19,1575420030,0.00,245.0,47.0,0,0,0,0.0
Status,1732151696000,27,20,6,27,1575420030,0.00,63.0,35.0,0,0,0,0.0
Status,1732151696000,27,21,6,13,1575420030,0.00,121.0,27.0,0,0,0,0.0
Status,1732151696000,27,22,6,29,1575420030,0.00,192.0,26.0,0,0,0,0.0
Status,1732151696000,27,23,6,15,1575420030,0.00,63.0,24.0,0,0,0,0.0
Status,1732151696000,27,24,6,4,1575420030,0.00,312.0,22.0,0,0,0,0.0
Status,1732151696000,27,25,6,26,1575420030,0.00,168.0,5.0,0,0,0,0.0
Status,1732151696000,27,26,6,6,1575420030,0.00,328.0,4.0,0,0,0,0.0
Fix,GPS,37.4253466667,-122.1583233333,23.400000000000002,0.0,6.3,0.0,1732151697000,2.3,179.9,30581090000000,71.1,0,,,
Fix,FLP,37.4253415000,-122.1583282000,3.1070743735953537,0.37340498,6.25,0.000000036466766,1732151697243,2.3,179.9,30581090000000,15.759052,0,,,
Raw,1732151697000,18931000000,,996815.4368980157,-1416186896069999872,0.0,140.13992865943882,1186.7904967004897,0.0,0,15,0.0,16431,350114925400495,797,18.777000427246094,500.2023896031002,0.14999,16,0.0,0.0,1575420030,,,,0,1.0408065209778732,1,6.0,18.777000427246094,0.0,0.0,0.0,66.7128,C,30581090000000,
Raw,1732151697000,18931000000,,996815.4368980157,-1416186896069999872,0.0,140.13992865943882,1186.7904967004897,0.0,0,7,0.0,16431,350114917855223,396,27.722000122070312,985.1487644909838,0.14999,16,0.0,0.0,1575420030,,,,0,13.673111218771442,1,6.0,27.722000122070312,0.0,0.0,0.0,66.7128,C,30581090000000,
Raw,1732151697000,18931000000,,996815.4368980157,-1416186896069999872,0.0,140.13992865943882,1186.7904967004897,0.0,0,19,0.0,16431,350114930805942,797,17.062000274658203,-47.632513305011024,0.14999,16,0.0,0.0,1575420030,,,,0,0.0,1,6.0,17.062000274658203,0.0,0.0,0.0,66.7128,C,30581090000000,
Raw,1732151697000,18931000000,,996815.4368980157,-1416186896069999872,0.0,140.13992865943882,1186.7904967004897,0.0,0,8,0.0,17,364069,487,5.0,916.7012472600626,0.14999,16,0.0,0.0,1605374980,,,,0,0.3013213985971124,3,6.0,18.0,0.0,0.0,105.66332102245843,66.7128,C,30581090000000,
Raw,1732151697000,18931000000,,996815.4368980157,-1416186896069999872,0.0,140.13992865943882,1186.7904967004897,0.0,0,11,0.0,17,125354,487,17.700000762939453,-117.83944058905738,0.14999,16,0.0,0.0,1602000000,,,,0,2.0556973736109563,3,6.0,17.700000762939453,0.0,0.0,105.66332102245843,66.7128,C,30581090000000,
Raw,1732151697000,18931000000,,996815.4368980157,-1416186896069999872,0.0,140.13992865943882,1186.7904967004897,0.0,0,13,0.0,16431,350114929529533,487,24.98900032043457,700.1449644058156,0.14999,16,0.0,0.0,1575420030,,,,0,9.9927010747905,1,6.0,24.98900032043457,0.0,0.0,0.0,66.7128,C,30581090000000,
Raw,1732151697000,18931000000,,996815.4368980157,-1416186896069999872,0.0,140.13992865943882,1186.7904967004897,0.0,0,30,0.0,16431,350114926751667,487,21.959999084472656,852.6067126324473,0.14999,16,0.0,0.0,1575420030,,,,0,5.453279692718875,1,6.0,21.959999084472656,0.0,0.0,0.0,66.7128,C,30581090000000,
Status,1732151697000,27,0,1,17,1575420030,0.00,92.0,79.0,0,0,0,0.0
Status,1732151697000,27,1,1,22,1575420030,0.00,10.0,67.0,0,0,0,0.0
Status,1732151697000,27,2,1,19,1575420030,22.10,199.0,59.0,1,0,0,17.1
Status,1732151697000,27,3,1,14,1575420030,0.00,51.0,54.0,0,0,0,0.0
Status,1732151697000,27,4,1,13,1575420030,0.00,236.0,49.0,0,0,0,0.0
Status,1732151697000,27,5,2,133,1575420030,0.00,191.0,45.0,0,0,0,0.0
Status,1732151697000,27,6,1,30,1575420030,27.00,130.0,38.0,1,0,0,22.0
Status,1732151697000,27,7,1,15,1575420030,23.70,277.0,30.0,1,0,0,18.7
Status,1732151697000,27,8,1,2,1575420030,0.00,49.0,18.0,0,0,0,0.0
Status,1732151697000,27,9,1,24,1575420030,0.00,313.0,15.0,0,0,0,0.0
Status,1732151697000,27,10,1,6,1575420030,0.00,163.0,10.0,0,0,0,0.0
Status,1732151697000,27,11,1,21,1575420030,0.00,35.0,5.0,0,0,0,0.0
Status,1732151697000,27,12,1,7,1575420030,29.60,131.0,5.0,1,0,0,24.6
Status,1732151697000,27,13,3,20,1602000000,0.00,116.0,52.0,0,0,0,0.0
Status,1732151697000,27,14,3,9,1602000000,0.00,79.0,34.0,0,0,0,0.0
Status,1732151697000,27,15,3,11,1602000000,26.40,309.0,27.0,0,0,0,21.4
Status,1732151697000,27,16,3,8,1602000000,22.90,248.0,24.0,1,0,0,17.9
Status,1732151697000,27,17,3,19,1602000000,0.00,34.0,24.0,0,0,0,0.0
Status,1732151697000,27,18,6,21,1575420030,0.00,340.0,68.0,0,0,0,0.0
Status,1732151697000,27,19,6,19,1575420030,0.00,245.0,47.0,0,0,0,0.0
Status,1732151697000,27,20,6,27,1575420030,0.00,63.0,35.0,0,0,0,0.0
Status,1732151697000,27,21,6,13,1575420030,0.00,121.0,27.0,0,0,0,0.0
Status,1732151697000,27,22,6,29,1575420030,0.00,192.0,26.0,0,0,0,0.0
Status,1732151697000,27,23,6,15,1575420030,0.00,63.0,24.0,0,0,0,0.0
Status,1732151697000,27,24,6,4,1575420030,0.00,312.0,22.0,0,0,0,0.0
Status,1732151697000,27,25,6,26,1575420030,0.00,168.0,5.0,0,0,0,0.0
Status,1732151697000,27,26,6,6,1575420030,0.00,328.0,4.0,0,0,0,0.0
Fix,GPS,37.4253150000,-122.1583500000,23.500000000000004,0.0,6.3,0.0,1732151698000,2.3,179.9,30582090000000,65.8,0,,,
Fix,FLP,37.4253322000,-122.1583366000,3.247062640105555,0.27839613,6.257,0.0,1732151698242,2.3,179.9,30582090000000,17.58205,0,,,
Raw,1732151698000,19931000000,,705909.1860142793,-1416186896069999872,0.0,130.6112546483285,1183.685811630435,0.0,0,15,0.0,16431,350115925398801,487,18.71299934387207,499.24427768559025,0.14999,16,0.0,0.0,1575420030,,,,0,0.0,1,6.0,18.71299934387207,0.0,0.0,0.0,66.7128,C,30582090000000,
Raw,1732151698000,19931000000,,705909.1860142793,-1416186896069999872,0.0,130.6112546483285,1183.685811630435,0.0,0,7,0.0,16431,350115917851934,316,24.58099937438965,984.4270794535693,0.14999,16,0.0,0.0,1575420030,,,,0,9.405898430954695,1,6.0,24.58099937438965,0.0,0.0,0.0,66.7128,C,30582090000000,
Raw,1732151698000,19931000000,,705909.1860142793,-1416186896069999872,0.0,130.6112546483285,1183.685811630435,0.0,0,19,0.0,16431,350115930806115,797,17.097000122070312,-48.93451041931136,0.14999,16,0.0,0.0,1575420030,,,,0,0.0,1,6.0,17.097000122070312,0.0,0.0,0.0,66.7128,C,30582090000000,
Raw,1732151698000,19931000000,,705909.1860142793,-1416186896069999872,0.0,130.6112546483285,1183.685811630435,0.0,0,8,0.0,17,360907,487,5.0,915.8413908210796,0.14999,16,0.0,0.0,1605374980,,,,0,0.7007430172095139,3,6.0,20.0,0.0,0.0,105.66332102245843,66.7128,C,30582090000000,
Raw,1732151698000,19931000000,,705909.1860142793,-1416186896069999872,0.0,130.6112546483285,1183.685811630435,0.0,0,11,0.0,17,125748,487,17.899999618530273,-118.50218475951387,0.14999,16,0.0,0.0,1602000000,,,,0,6.307859231239831,3,6.0,17.899999618530273,0.0,0.0,105.66332102245843,66.7128,C,30582090000000,
Raw,1732151698000,19931000000,,705909.1860142793,-1416186896069999872,0.0,130.6112546483285,1183.685811630435,0.0,0,30,0.0,16431,350115926748825,487,21.959999084472656,851.8695104840184,0.14999,16,0.0,0.0,1575420030,,,,0,5.453279692718875,1,6.0,21.959999084472656,0.0,0.0,0.0,66.7128,C,30582090000000,
Status,1732151698000,27,0,1,17,1575420030,0.00,92.0,79.0,0,0,0,0.0
Status,1732151698000,27,1,1,22,1575420030,0.00,10.0,67.0,0,0,0,0.0
Status,1732151698000,27,2,1,19,1575420030,22.10,199.0,59.0,1,0,0,17.1
Status,1732151698000,27,3,1,14,1575420030,0.00,51.0,54.0,0,0,0,0.0
Status,1732151698000,27,4,1,13,1575420030,26.30,236.0,49.0,1,0,0,21.3
Status,1732151698000,27,5,2,133,1575420030,0.00,191.0,45.0,0,0,0,0.0
Status,1732151698000,27,6,1,30,1575420030,24.70,130.0,38.0,1,0,0,19.7
Status,1732151698000,27,7,1,15,1575420030,23.80,277.0,30.0,1,0,0,18.8
Status,1732151698000,27,8,1,2,1575420030,0.00,49.0,18.0,0,0,0,0.0
Status,1732151698000,27,9,1,24,1575420030,0.00,313.0,15.0,0,0,0,0.0
Status,1732151698000,27,10,1,6,1575420030,0.00,163.0,10.0,0,0,0,0.0
Status,1732151698000,27,11,1,21,1575420030,0.00,35.0,5.0,0,0,0,0.0
Status,1732151698000,27,12,1,7,1575420030,32.70,131.0,5.0,1,0,0,27.7
Status,1732151698000,27,13,3,20,1602000000,0.00,116.0,52.0,0,0,0,0.0
Status,1732151698000,27,14,3,9,1602000000,0.00,79.0,34.0,0,0,0,0.0
Status,1732151698000,27,15,3,11,1602000000,23.00,309.0,27.0,0,0,0,18.0
Status,1732151698000,27,16,3,8,1602000000,21.60,248.0,24.0,1,0,0,16.6
Status,1732151698000,27,17,3,19,1602000000,0.00,34.0,24.0,0,0,0,0.0
Status,1732151698000,27,18,6,21,1575420030,0.00,340.0,68.0,0,0,0,0.0
Status,1732151698000,27,19,6,19,1575420030,0.00,245.0,47.0,0,0,0,0.0
Status,1732151698000,27,20,6,27,1575420030,0.00,63.0,35.0,0,0,0,0.0
Status,1732151698000,27,21,6,13,1575420030,0.00,121.0,27.0,0,0,0,0.0
Status,1732151698000,27,22,6,29,1575420030,0.00,192.0,26.0,0,0,0,0.0
Status,1732151698000,27,23,6,15,1575420030,0.00,63.0,24.0,0,0,0,0.0
Status,1732151698000,27,24,6,4,1575420030,0.00,312.0,22.0,0,0,0,0.0
Status,1732151698000,27,25,6,26,1575420030,0.00,168.0,5.0,0,0,0,0.0
Status,1732151698000,27,26,6,6,1575420030,0.00,328.0,4.0,0,0,0,0.0
Fix,GPS,37.4253066667,-122.1583500000,23.500000000000004,0.0,6.4,0.0,1732151699000,2.3,178.5,30583090000000,66.4,0,,,
Raw,1732151699000,20931000000,,705879.5300814406,-1416186896069999872,0.0,131.82458284708662,1179.2195747717715,0.0,0,15,0.0,16431,350116925397110,797,18.75,498.11961234596555,0.14999,16,0.0,0.0,1575420030,,,,0,1.2820967490054858,1,6.0,18.75,0.0,0.0,0.0,66.7128,C,30583090000000,
Raw,1732151699000,20931000000,,705879.5300814406,-1416186896069999872,0.0,131.82458284708662,1179.2195747717715,0.0,0,7,0.0,16431,350116917848653,316,27.722000122070312,983.4912211174242,0.14999,16,0.0,0.0,1575420030,,,,0,13.673111218771442,1,6.0,27.722000122070312,0.0,0.0,0.0,66.7128,C,30583090000000,
Raw,1732151699000,20931000000,,705879.5300814406,-1416186896069999872,0.0,131.82458284708662,1179.2195747717715,0.0,0,19,0.0,16431,350116930806279,797,17.1299991607666,-49.296607315256296,0.14999,16,0.0,0.0,1575420030,,,,0,0.0,1,6.0,17.1299991607666,0.0,0.0,0.0,66.7128,C,30583090000000,
Raw,1732151699000,20931000000,,705879.5300814406,-1416186896069999872,0.0,131.82458284708662,1179.2195747717715,0.0,0,8,0.0,17,357831,797,5.0,915.2168779100939,0.14999,16,0.0,0.0,1605374980,,,,0,0.0,3,6.0,16.0,0.0,0.0,104.9584462527948,66.7128,C,30583090000000,
Raw,1732151699000,20931000000,,705879.5300814406,-1416186896069999872,0.0,131.82458284708662,1179.2195747717715,0.0,0,11,0.0,17,126145,396,16.600000381469727,-119.24131857928809,0.14999,16,0.0,0.0,1602000000,,,,0,0.9176003468815042,3,6.0,16.600000381469727,0.0,0.0,104.9584462527948,66.7128,C,30583090000000,
Raw,1732151699000,20931000000,,705879.5300814406,-1416186896069999872,0.0,131.82458284708662,1179.2195747717715,0.0,0,13,0.0,16431,350116929524942,487,21.34000015258789,698.3778720868315,0.14999,16,0.0,0.0,1575420030,,,,0,4.439425527995129,1,6.0,21.34000015258789,0.0,0.0,0.0,66.7128,C,30583090000000,
Raw,1732151699000,20931000000,,705879.5300814406,-1416186896069999872,0.0,131.82458284708662,1179.2195747717715,0.0,0,30,0.0,16431,350116926745985,487,19.716999053955078,850.5480472933259,0.14999,16,0.0,0.0,1575420030,,,,0,1.7454540500460052,1,6.0,19.716999053955078,0.0,0.0,0.0,66.7128,C,30583090000000,
Fix,FLP,37.4253228000,-122.1583418000,3.653736124722273,0.19845276,6.271,0.0,1732151699242,2.3,178.5,30583090000000,21.310175,0,,,
Status,1732151699000,27,0,1,17,1575420030,0.00,92.0,79.0,0,0,0,0.0
Status,1732151699000,27,1,1,22,1575420030,0.00,10.0,67.0,0,0,0,0.0
Status,1732151699000,27,2,1,19,1575420030,22.20,199.0,59.0,1,0,0,17.2
Status,1732151699000,27,3,1,14,1575420030,0.00,51.0,54.0,0,0,0,0.0
Status,1732151699000,27,4,1,13,1575420030,24.40,236.0,49.0,1,0,0,19.4
Status,1732151699000,27,5,2,133,1575420030,0.00,191.0,45.0,0,0,0,0.0
Status,1732151699000,27,6,1,30,1575420030,26.40,130.0,38.0,1,0,0,21.4
Status,1732151699000,27,7,1,15,1575420030,23.80,277.0,30.0,1,0,0,18.8
Status,1732151699000,27,8,1,2,1575420030,19.80,49.0,18.0,1,0,0,14.799999
Status,1732151699000,27,9,1,24,1575420030,0.00,313.0,15.0,0,0,0,0.0
Status,1732151699000,27,10,1,6,1575420030,0.00,163.0,10.0,0,0,0,0.0
Status,1732151699000,27,11,1,21,1575420030,0.00,35.0,5.0,0,0,0,0.0
Status,1732151699000,27,12,1,7,1575420030,33.20,131.0,5.0,1,0,0,28.2
Status,1732151699000,27,13,3,20,1602000000,0.00,116.0,52.0,0,0,0,0.0
Status,1732151699000,27,14,3,9,1602000000,0.00,79.0,34.0,0,0,0,0.0
Status,1732151699000,27,15,3,11,1602000000,23.10,309.0,27.0,0,0,0,18.1
Status,1732151699000,27,16,3,8,1602000000,21.60,248.0,24.0,1,0,0,16.6
Status,1732151699000,27,17,3,19,1602000000,0.00,34.0,24.0,0,0,0,0.0
Status,1732151699000,27,18,6,21,1575420030,0.00,340.0,68.0,0,0,0,0.0
Status,1732151699000,27,19,6,19,1575420030,0.00,245.0,47.0,0,0,0,0.0
Status,1732151699000,27,20,6,27,1575420030,0.00,63.0,35.0,0,0,0,0.0
Status,1732151699000,27,21,6,13,1575420030,0.00,121.0,27.0,0,0,0,0.0
Status,1732151699000,27,22,6,29,1575420030,0.00,192.0,26.0,0,0,0,0.0
Status,1732151699000,27,23,6,15,1575420030,0.00,63.0,24.0,0,0,0,0.0
Status,1732151699000,27,24,6,4,1575420030,0.00,312.0,22.0,0,0,0,0.0
Status,1732151699000,27,25,6,26,1575420030,0.00,168.0,5.0,0,0,0,0.0
Status,1732151699000,27,26,6,6,1575420030,0.00,328.0,4.0,0,0,0,0.0
Fix,GPS,37.4252983333,-122.1583433333,23.500000000000004,0.0,6.3,0.0,1732151700000,2.2,179.9,30584090000000,67.2,0,,,
Raw,1732151700000,21931000000,,705852.5322374854,-1416186896069999872,0.0,132.72144099077295,1179.4004117976808,0.0,0,15,0.0,16431,350117925395426,797,18.79199981689453,498.7154879922819,0.14999,16,0.0,0.0,1575420030,,,,0,1.516864814430368,1,6.0,18.79199981689453,0.0,0.0,0.0,66.7128,C,30584090000000,
Raw,1732151700000,21931000000,,705852.5322374854,-1416186896069999872,0.0,132.72144099077295,1179.4004117976808,0.0,0,7,0.0,16431,350117917845378,235,28.197999954223633,983.8324117260744,0.14999,16,0.0,0.0,1575420030,,,,0,14.30659459980209,1,6.0,28.197999954223633,0.0,0.0,0.0,66.7128,C,30584090000000,
Raw,1732151700000,21931000000,,705852.5322374854,-1416186896069999872,0.0,132.72144099077295,1179.4004117976808,0.0,0,2,0.0,16431,350117919356683,797,14.800000190734863,670.8022468529855,0.14999,16,0.0,0.0,1575420030,,,,0,0.0,1,6.0,14.800000190734863,0.0,0.0,0.0,66.7128,C,30584090000000,
Raw,1732151700000,21931000000,,705852.5322374854,-1416186896069999872,0.0,132.72144099077295,1179.4004117976808,0.0,0,19,0.0,16431,350117930806442,797,17.160999298095703,-48.21528767795601,0.14999,16,0.0,0.0,1575420030,,,,0,0.0,1,6.0,17.160999298095703,0.0,0.0,0.0,66.7128,C,30584090000000,
Raw,1732151700000,21931000000,,705852.5322374854,-1416186896069999872,0.0,132.72144099077295,1179.4004117976808,0.0,0,8,0.0,17,354774,797,5.0,917.3626893182156,0.14999,16,0.0,0.0,1605374980,,,,0,0.0,3,6.0,16.0,0.0,0.0,104.22274997112189,66.7128,C,30584090000000,
Raw,1732151700000,21931000000,,705852.5322374854,-1416186896069999872,0.0,132.72144099077295,1179.4004117976808,0.0,0,11,0.0,17,126534,396,16.600000381469727,-119.43800365124558,0.14999,16,0.0,0.0,1602000000,,,,0,2.925011249232762,3,6.0,16.600000381469727,0.0,0.0,104.22274997112189,66.7128,C,30584090000000,
Raw,1732151700000,21931000000,,705852.5322374854,-1416186896069999872,0.0,132.72144099077295,1179.4004117976808,0.0,0,13,0.0,16431,350117929522612,797,19.410999298095703,698.552741565448,0.14999,16,0.0,0.0,1575420030,,,,0,1.1622894752217379,1,6.0,19.410999298095703,0.0,0.0,0.0,66.7128,C,30584090000000,
Raw,1732151700000,21931000000,,705852.5322374854,-1416186896069999872,0.0,132.72144099077295,1179.4004117976808,0.0,0,30,0.0,16431,350117926743150,487,21.385000228881836,850.491368025549,0.14999,16,0.0,0.0,1575420030,,,,0,4.521756851891772,1,6.0,21.385000228881836,0.0,0.0,0.0,66.7128,C,30584090000000,
Fix,FLP,37.4253131000,-122.1583424000,3.547332291970342,0.12897958,6.271,0.0,1732151700242,2.2,179.9,30584090000000,13.86517,0,,,
Status,1732151700000,27,0,1,17,1575420030,0.00,92.0,79.0,0,0,0,0.0
Status,1732151700000,27,1,1,22,1575420030,0.00,10.0,67.0,0,0,0,0.0
Status,1732151700000,27,2,1,19,1575420030,0.00,199.0,59.0,0,0,0,0.0
Status,1732151700000,27,3,1,14,1575420030,0.00,51.0,54.0,0,0,0,0.0
Status,1732151700000,27,4,1,13,1575420030,22.80,236.0,49.0,1,0,0,17.8
Status,1732151700000,27,5,2,133,1575420030,0.00,191.0,45.0,0,0,0,0.0
Status,1732151700000,27,6,1,30,1575420030,26.40,130.0,38.0,1,0,0,21.4
Status,1732151700000,27,7,1,15,1575420030,23.80,277.0,30.0,1,0,0,18.8
Status,1732151700000,27,8,1,2,1575420030,0.00,49.0,18.0,0,0,0,0.0
Status,1732151700000,27,9,1,24,1575420030,0.00,313.0,15.0,0,0,0,0.0
Status,1732151700000,27,10,1,6,1575420030,0.00,163.0,10.0,0,0,0,0.0
Status,1732151700000,27,11,1,21,1575420030,0.00,35.0,5.0,0,0,0,0.0
Status,1732151700000,27,12,1,7,1575420030,29.80,131.0,5.0,1,0,0,24.8
Status,1732151700000,27,13,3,20,1602000000,0.00,116.0,52.0,0,0,0,0.0
Status,1732151700000,27,14,3,9,1602000000,0.00,79.0,34.0,0,0,0,0.0
Status,1732151700000,27,15,3,11,1602000000,29.60,309.0,27.0,0,0,0,24.6
Status,1732151700000,27,16,3,8,1602000000,25.60,248.0,24.0,1,0,0,20.6
Status,1732151700000,27,17,3,19,1602000000,0.00,34.0,24.0,0,0,0,0.0
Status,1732151700000,27,18,6,21,1575420030,0.00,340.0,68.0,0,0,0,0.0
Status,1732151700000,27,19,6,19,1575420030,0.00,245.0,47.0,0,0,0,0.0
Status,1732151700000,27,20,6,27,1575420030,0.00,63.0,35.0,0,0,0,0.0
Status,1732151700000,27,21,6,13,1575420030,0.00,121.0,27.0,0,0,0,0.0
Status,1732151700000,27,22,6,29,1575420030,0.00,192.0,26.0,0,0,0,0.0
Status,1732151700000,27,23,6,15,1575420030,0.00,63.0,24.0,0,0,0,0.0
Status,1732151700000,27,24,6,4,1575420030,0.00,312.0,22.0,0,0,0,0.0
Status,1732151700000,27,25,6,26,1575420030,0.00,168.0,5.0,0,0,0,0.0
Status,1732151700000,27,26,6,6,1575420030,0.00,328.0,4.0,0,0,0,0.0
Fix,GPS,37.4252816667,-122.1583400000,23.500000000000004,0.0,6.4,0.0,1732151701000,2.2,161.2,30585090000000,67.9,0,,,
Raw,1732151701000,22931000000,,705802.9666977146,-1416186896069999872,0.0,133.93620705355838,1177.0319008340455,0.0,0,15,0.0,16431,350118925393764,797,18.832000732421875,498.3957147135048,0.14999,16,0.0,0.0,1575420030,,,,0,1.516864814430368,1,6.0,18.832000732421875,0.0,0.0,0.0,66.7128,C,30585090000000,
Raw,1732151701000,22931000000,,705802.9666977146,-1416186896069999872,0.0,133.93620705355838,1177.0319008340455,0.0,0,7,0.0,16431,350118917842101,316,24.819000244140625,983.0038723313756,0.14999,16,0.0,0.0,1575420030,,,,0,9.77167414520089,1,6.0,24.819000244140625,0.0,0.0,0.0,66.7128,C,30585090000000,
Raw,1732151701000,22931000000,,705802.9666977146,-1416186896069999872,0.0,133.93620705355838,1177.0319008340455,0.0,0,8,0.0,17,351659,487,5.0,916.7269608884606,0.14999,16,0.0,0.0,1605374980,,,,0,5.119807273783748,3,6.0,20.0,0.0,0.0,104.22274997112189,66.7128,C,30585090000000,
Raw,1732151701000,22931000000,,705802.9666977146,-1416186896069999872,0.0,133.93620705355838,1177.0319008340455,0.0,0,11,0.0,17,126924,316,20.600000381469727,-118.88655444833576,0.14999,16,0.0,0.0,1602000000,,,,0,10.54028202740014,3,6.0,20.600000381469727,0.0,0.0,104.22274997112189,66.7128,C,30585090000000,
Raw,1732151701000,22931000000,,705802.9666977146,-1416186896069999872,0.0,133.93620705355838,1177.0319008340455,0.0,0,13,0.0,16431,350118929520293,797,17.768999099731445,696.7193995449477,0.14999,16,0.0,0.0,1575420030,,,,0,0.0,1,6.0,17.768999099731445,0.0,0.0,0.0,66.7128,C,30585090000000,
Raw,1732151701000,22931000000,,705802.9666977146,-1416186896069999872,0.0,133.93620705355838,1177.0319008340455,0.0,0,30,0.0,16431,350118926740313,487,21.444000244140625,850.5541798042657,0.14999,16,0.0,0.0,1575420030,,,,0,6.427118170713365,1,6.0,21.444000244140625,0.0,0.0,0.0,66.7128,C,30585090000000,
Fix,FLP,37.4253004000,-122.1583415000,5.400000095367432,0.05537924,6.3,,1732151701242,2.2,,30585090000000,13.998072,0,,,
Fix,FLP,37.4252940000,-122.1583410000,5.400000095367432,0.022557193,6.35,,1732151701578,2.2,,30585426000000,15.768636,0,,,
Fix,NLP,37.4257091000,-122.1581068000,5.400000095367432,,20.425,,1732151701578,,,30585426000000,13.360086,0,,,
Status,1732151701000,27,0,1,17,1575420030,0.00,92.0,79.0,0,0,0,0.0
Status,1732151701000,27,1,1,22,1575420030,0.00,10.0,67.0,0,0,0,0.0
Status,1732151701000,27,2,1,19,1575420030,0.00,199.0,59.0,0,0,0,0.0
Status,1732151701000,27,3,1,14,1575420030,0.00,51.0,54.0,0,0,0,0.0
Status,1732151701000,27,4,1,13,1575420030,0.00,236.0,49.0,0,0,0,0.0
Status,1732151701000,27,5,2,133,1575420030,0.00,191.0,45.0,0,0,0,0.0
Status,1732151701000,27,6,1,30,1575420030,26.50,130.0,38.0,1,0,0,21.5
Status,1732151701000,27,7,1,15,1575420030,23.90,277.0,30.0,1,0,0,18.9
Status,1732151701000,27,8,1,2,1575420030,0.00,49.0,18.0,0,0,0,0.0
Status,1732151701000,27,9,1,24,1575420030,0.00,313.0,15.0,0,0,0,0.0
Status,1732151701000,27,10,1,6,1575420030,0.00,163.0,10.0,0,0,0,0.0
Status,1732151701000,27,11,1,21,1575420030,0.00,35.0,5.0,0,0,0,0.0
Status,1732151701000,27,12,1,7,1575420030,31.10,131.0,5.0,1,0,0,26.1
Status,1732151701000,27,13,3,20,1602000000,0.00,116.0,52.0,0,0,0,0.0
Status,1732151701000,27,14,3,9,1602000000,0.00,79.0,34.0,0,0,0,0.0
Status,1732151701000,27,15,3,11,1602000000,25.90,309.0,27.0,0,0,0,20.9
Status,1732151701000,27,16,3,8,1602000000,23.10,248.0,24.0,1,0,0,18.1
Status,1732151701000,27,17,3,19,1602000000,0.00,34.0,24.0,0,0,0,0.0
Status,1732151701000,27,18,6,21,1575420030,0.00,340.0,68.0,0,0,0,0.0
Status,1732151701000,27,19,6,19,1575420030,0.00,245.0,47.0,0,0,0,0.0
Status,1732151701000,27,20,6,27,1575420030,0.00,63.0,35.0,0,0,0,0.0
Status,1732151701000,27,21,6,13,1575420030,0.00,121.0,27.0,0,0,0,0.0
Status,1732151701000,27,22,6,29,1575420030,0.00,192.0,26.0,0,0,0,0.0
Status,1732151701000,27,23,6,15,1575420030,0.00,63.0,24.0,0,0,0,0.0
Status,1732151701000,27,24,6,4,1575420030,0.00,312.0,22.0,0,0,0,0.0
Status,1732151701000,27,25,6,26,1575420030,0.00,168.0,5.0,0,0,0,0.0
Status,1732151701000,27,26,6,6,1575420030,0.00,328.0,4.0,0,0,0,0.0
Fix,GPS,37.4252666667,-122.1583366667,23.500000000000004,0.0,6.4,0.0,1732151702000,2.2,149.4,30586090000000,68.6,0,,,
Raw,1732151702000,23931000000,,705780.1905243393,-1416186896069999872,0.0,135.01899501288176,1178.9654370290434,0.0,0,15,0.0,16431,350119925392100,487,18.8700008392334,499.03354230965925,0.14999,16,0.0,0.0,1575420030,,,,0,1.516864814430368,1,6.0,18.8700008392334,0.0,0.0,0.0,66.7128,C,30586090000000,
Raw,1732151702000,23931000000,,705780.1905243393,-1416186896069999872,0.0,135.01899501288176,1178.9654370290434,0.0,0,7,0.0,16431,350119917838824,396,26.106000900268555,983.0279377909727,0.14999,16,0.0,0.0,1575420030,,,,0,11.547178687726607,1,6.0,26.106000900268555,0.0,0.0,0.0,66.7128,C,30586090000000,
Raw,1732151702000,23931000000,,705780.1905243393,-1416186896069999872,0.0,135.01899501288176,1178.9654370290434,0.0,0,8,0.0,17,348598,396,5.0,919.7020824039579,0.14999,16,0.0,0.0,1605374980,,,,0,1.1085067050061115,3,6.0,21.0,0.0,0.0,104.22274997112189,66.7128,C,30586090000000,
Raw,1732151702000,23931000000,,705780.1905243393,-1416186896069999872,0.0,135.01899501288176,1178.9654370290434,0.0,0,11,0.0,17,127325,396,18.100000381469727,-119.62189619819769,0.14999,16,0.0,0.0,1602000000,,,,0,5.584592353185018,3,6.0,18.100000381469727,0.0,0.0,104.22274997112189,66.7128,C,30586090000000,
Raw,1732151702000,23931000000,,705780.1905243393,-1416186896069999872,0.0,135.01899501288176,1178.9654370290434,0.0,0,30,0.0,16431,350119926737475,797,21.5,850.9520496806928,0.14999,16,0.0,0.0,1575420030,,,,0,6.427118170713365,1,6.0,21.5,0.0,0.0,0.0,66.7128,C,30586090000000,
Fix,FLP,37.4252845000,-122.1583395000,5.400000095367432,0.021673588,6.357,,1732151702243,2.2,,30586090000000,14.0147,0,,,
Status,1732151702000,27,0,1,17,1575420030,0.00,92.0,79.0,0,0,0,0.0
Status,1732151702000,27,1,1,22,1575420030,0.00,10.0,67.0,0,0,0,0.0
Status,1732151702000,27,2,1,19,1575420030,0.00,199.0,59.0,0,0,0,0.0
Status,1732151702000,27,3,1,14,1575420030,0.00,51.0,54.0,0,0,0,0.0
Status,1732151702000,27,4,1,13,1575420030,0.00,236.0,49.0,0,0,0,0.0
Status,1732151702000,27,5,2,133,1575420030,0.00,191.0,45.0,0,0,0,0.0
Status,1732151702000,27,6,1,30,1575420030,26.60,130.0,38.0,1,0,0,21.6
Status,1732151702000,27,7,1,15,1575420030,23.80,277.0,30.0,1,0,0,18.8
Status,1732151702000,27,8,1,2,1575420030,0.00,49.0,18.0,0,0,0,0.0
Status,1732151702000,27,9,1,24,1575420030,0.00,313.0,15.0,0,0,0,0.0
Status,1732151702000,27,10,1,6,1575420030,0.00,163.0,10.0,0,0,0,0.0
Status,1732151702000,27,11,1,21,1575420030,0.00,35.0,5.0,0,0,0,0.0
Status,1732151702000,27,12,1,7,1575420030,31.10,131.0,5.0,1,0,0,26.1
Status,1732151702000,27,13,3,20,1602000000,0.00,116.0,52.0,0,0,0,0.0
Status,1732151702000,27,14,3,9,1602000000,0.00,79.0,34.0,0,0,0,0.0
Status,1732151702000,27,15,3,11,1602000000,25.80,309.0,27.0,0,0,0,20.8
Status,1732151702000,27,16,3,8,1602000000,24.20,248.0,24.0,1,0,0,19.2
Status,1732151702000,27,17,3,19,1602000000,0.00,34.0,24.0,0,0,0,0.0
Status,1732151702000,27,18,6,21,1575420030,0.00,340.0,68.0,0,0,0,0.0
Status,1732151702000,27,19,6,19,1575420030,0.00,245.0,47.0,0,0,0,0.0
Status,1732151702000,27,20,6,27,1575420030,0.00,63.0,35.0,0,0,0,0.0
Status,1732151702000,27,21,6,13,1575420030,0.00,121.0,27.0,0,0,0,0.0
Status,1732151702000,27,22,6,29,1575420030,0.00,192.0,26.0,0,0,0,0.0
Status,1732151702000,27,23,6,15,1575420030,0.00,63.0,24.0,0,0,0,0.0
Status,1732151702000,27,24,6,4,1575420030,0.00,312.0,22.0,0,0,0,0.0
Status,1732151702000,27,25,6,26,1575420030,0.00,168.0,5.0,0,0,0,0.0
Status,1732151702000,27,26,6,6,1575420030,0.00,328.0,4.0,0,0,0,0.0
Fix,GPS,37.4252566667,-122.1583433333,23.500000000000004,0.0,6.4,0.0,1732151703000,2.2,156.1,30587090000000,69.5,0,,,
Raw,1732151703000,24931000000,,705749.5964424829,-1416186896069999872,0.0,136.4694180826202,1181.7603206771043,0.0,0,15,0.0,16431,350120925390462,797,18.77400016784668,499.78221968689206,0.14999,16,0.0,0.0,1575420030,,,,0,0.0,1,6.0,18.77400016784668,0.0,0.0,0.0,66.7128,C,30587090000000,
Raw,1732151703000,24931000000,,705749.5964424829,-1416186896069999872,0.0,136.4694180826202,1181.7603206771043,0.0,0,7,0.0,16431,350120917835544,487,26.106000900268555,983.720446943007,0.14999,16,0.0,0.0,1575420030,,,,0,11.547178687726607,1,6.0,26.106000900268555,0.0,0.0,0.0,66.7128,C,30587090000000,
Raw,1732151703000,24931000000,,705749.5964424829,-1416186896069999872,0.0,136.4694180826202,1181.7603206771043,0.0,0,8,0.0,17,345457,487,5.0,919.2770780707554,0.14999,16,0.0,0.0,1605374980,,,,0,2.9708471848244584,3,6.0,20.0,0.0,0.0,104.22274997112189,66.7128,C,30587090000000,
Raw,1732151703000,24931000000,,705749.5964424829,-1416186896069999872,0.0,136.4694180826202,1181.7603206771043,0.0,0,11,0.0,17,127714,487,19.200000762939453,-116.61117543818519,0.14999,16,0.0,0.0,1602000000,,,,0,5.481187683863213,3,6.0,19.200000762939453,0.0,0.0,104.22274997112189,66.7128,C,30587090000000,
Raw,1732151703000,24931000000,,705749.5964424829,-1416186896069999872,0.0,136.4694180826202,1181.7603206771043,0.0,0,30,0.0,16431,350120926734635,487,21.55299949645996,852.030721188269,0.14999,16,0.0,0.0,1575420030,,,,0,6.427118170713365,1,6.0,21.55299949645996,0.0,0.0,0.0,66.7128,C,30587090000000,
Fix,FLP,37.4252733000,-122.1583410000,5.400000095367432,0.06736373,6.371,,1732151703243,2.2,,30587090000000,12.483424,0,,,
Status,1732151703000,27,0,1,17,1575420030,0.00,92.0,79.0,0,0,0,0.0
Status,1732151703000,27,1,1,22,1575420030,0.00,10.0,67.0,0,0,0,0.0
Status,1732151703000,27,2,1,19,1575420030,0.00,199.0,59.0,0,0,0,0.0
Status,1732151703000,27,3,1,14,1575420030,0.00,51.0,54.0,0,0,0,0.0
Status,1732151703000,27,4,1,13,1575420030,22.80,236.0,49.0,1,0,0,17.8
Status,1732151703000,27,5,2,135,1575420030,0.00,197.0,45.0,0,0,0,0.0
Status,1732151703000,27,6,1,30,1575420030,21.40,130.0,38.0,1,0,0,16.4
Status,1732151703000,27,7,1,15,1575420030,23.90,277.0,30.0,1,0,0,18.9
Status,1732151703000,27,8,1,2,1575420030,0.00,49.0,18.0,0,0,0,0.0
Status,1732151703000,27,9,1,24,1575420030,0.00,313.0,15.0,0,0,0,0.0
Status,1732151703000,27,10,1,6,1575420030,0.00,163.0,10.0,0,0,0,0.0
Status,1732151703000,27,11,1,21,1575420030,0.00,35.0,5.0,0,0,0,0.0
Status,1732151703000,27,12,1,7,1575420030,23.70,131.0,5.0,1,0,0,18.7
Status,1732151703000,27,13,3,20,1602000000,0.00,116.0,52.0,0,0,0,0.0
Status,1732151703000,27,14,3,9,1602000000,0.00,79.0,34.0,0,0,0,0.0
Status,1732151703000,27,15,3,11,1602000000,23.70,309.0,27.0,0,0,0,18.7
Status,1732151703000,27,16,3,8,1602000000,24.50,248.0,24.0,1,0,0,19.5
Status,1732151703000,27,17,3,19,1602000000,0.00,34.0,24.0,0,0,0,0.0
Status,1732151703000,27,18,6,21,1575420030,0.00,340.0,68.0,0,0,0,0.0
Status,1732151703000,27,19,6,19,1575420030,0.00,245.0,47.0,0,0,0,0.0
Status,1732151703000,27,20,6,27,1575420030,0.00,63.0,35.0,0,0,0,0.0
Status,1732151703000,27,21,6,13,1575420030,0.00,121.0,27.0,0,0,0,0.0
Status,1732151703000,27,22,6,29,1575420030,0.00,192.0,26.0,0,0,0,0.0
Status,1732151703000,27,23,6,15,1575420030,0.00,63.0,24.0,0,0,0,0.0
Status,1732151703000,27,24,6,4,1575420030,0.00,312.0,22.0,0,0,0,0.0
Status,1732151703000,27,25,6,26,1575420030,0.00,168.0,5.0,0,0,0,0.0
Status,1732151703000,27,26,6,6,1575420030,0.00,328.0,4.0,0,0,0,0.0
Fix,GPS,37.4252633333,-122.1583450000,23.500000000000004,0.0,6.5,0.0,1732151704000,2.2,179.9,30588090000000,69.7,0,,,
Raw,1732151704000,25931000000,,705722.3901209683,-1416186896069999872,0.0,136.9787146108759,1183.2743147335943,0.0,0,15,0.0,16431,350121925388823,487,18.882999420166016,499.61283230138844,0.14999,16,0.0,0.0,1575420030,,,,0,3.840161060446265,1,6.0,18.882999420166016,0.0,0.0,0.0,66.7128,C,30588090000000,
Raw,1732151704000,25931000000,,705722.3901209683,-1416186896069999872,0.0,136.9787146108759,1183.2743147335943,0.0,0,7,0.0,16431,350121917832261,487,18.68199920654297,983.954132776546,0.14999,16,0.0,0.0,1575420030,,,,0,0.0,1,6.0,18.68199920654297,0.0,0.0,0.0,66.7128,C,30588090000000,
Raw,1732151704000,25931000000,,705722.3901209683,-1416186896069999872,0.0,136.9787146108759,1183.2743147335943,0.0,0,8,0.0,17,342380,487,5.0,920.7085612346572,0.14999,16,0.0,0.0,1605374980,,,,0,3.416375079047504,3,6.0,20.0,0.0,0.0,104.22274997112189,66.7128,C,30588090000000,
Raw,1732151704000,25931000000,,705722.3901209683,-1416186896069999872,0.0,136.9787146108759,1183.2743147335943,0.0,0,11,0.0,17,128101,487,19.5,-117.61680496637473,0.14999,16,0.0,0.0,1602000000,,,,0,2.0884271305799422,3,6.0,19.5,0.0,0.0,104.22274997112189,66.7128,C,30588090000000,
Raw,1732151704000,25931000000,,705722.3901209683,-1416186896069999872,0.0,136.9787146108759,1183.2743147335943,0.0,0,13,0.0,16431,350121929513221,797,17.768999099731445,701.6344212295254,0.14999,16,0.0,0.0,1575420030,,,,0,0.0,1,6.0,17.768999099731445,0.0,0.0,0.0,66.7128,C,30588090000000,
Raw,1732151704000,25931000000,,705722.3901209683,-1416186896069999872,0.0,136.9787146108759,1183.2743147335943,0.0,0,30,0.0,16431,350121926731789,797,16.364999771118164,852.9066481675026,0.14999,16,0.0,0.0,1575420030,,,,0,0.0,1,6.0,16.364999771118164,0.0,0.0,0.0,66.7128,C,30588090000000,
Fix,FLP,37.4252689000,-122.1583425000,5.400000095367432,0.08014321,6.4,,1732151704243,2.2,,30588090000000,12.018537,0,,,
Status,1732151704000,27,0,1,17,1575420030,0.00,92.0,79.0,0,0,0,0.0
Status,1732151704000,27,1,1,22,1575420030,0.00,10.0,67.0,0,0,0,0.0
Status,1732151704000,27,2,1,19,1575420030,0.00,199.0,59.0,0,0,0,0.0
Status,1732151704000,27,3,1,14,1575420030,0.00,51.0,54.0,0,0,0,0.0
Status,1732151704000,27,4,1,13,1575420030,26.30,236.0,49.0,1,0,0,21.3
Status,1732151704000,27,5,2,135,1575420030,0.00,197.0,45.0,0,0,0,0.0
Status,1732151704000,27,6,1,30,1575420030,21.40,130.0,38.0,1,0,0,16.4
Status,1732151704000,27,7,1,15,1575420030,29.10,277.0,30.0,1,0,0,24.1
Status,1732151704000,27,8,1,2,1575420030,0.00,49.0,18.0,0,0,0,0.0
Status,1732151704000,27,9,1,24,1575420030,0.00,313.0,15.0,0,0,0,0.0
Status,1732151704000,27,10,1,6,1575420030,0.00,163.0,10.0,0,0,0,0.0
Status,1732151704000,27,11,1,21,1575420030,0.00,35.0,5.0,0,0,0,0.0
Status,1732151704000,27,12,1,7,1575420030,23.70,131.0,5.0,1,0,0,18.7
Status,1732151704000,27,13,3,20,1602000000,0.00,116.0,52.0,0,0,0,0.0
Status,1732151704000,27,14,3,9,1602000000,0.00,79.0,34.0,0,0,0,0.0
Status,1732151704000,27,15,3,11,1602000000,23.20,309.0,27.0,0,0,0,18.2
Status,1732151704000,27,16,3,8,1602000000,24.50,248.0,24.0,1,0,0,19.5
Status,1732151704000,27,17,3,19,1602000000,0.00,34.0,24.0,0,0,0,0.0
Status,1732151704000,27,18,6,21,1575420030,0.00,340.0,68.0,0,0,0,0.0
Status,1732151704000,27,19,6,19,1575420030,0.00,245.0,47.0,0,0,0,0.0
Status,1732151704000,27,20,6,27,1575420030,0.00,63.0,35.0,0,0,0,0.0
Status,1732151704000,27,21,6,13,1575420030,0.00,121.0,27.0,0,0,0,0.0
Status,1732151704000,27,22,6,29,1575420030,0.00,192.0,26.0,0,0,0,0.0
Status,1732151704000,27,23,6,15,1575420030,0.00,63.0,24.0,0,0,0,0.0
Status,1732151704000,27,24,6,4,1575420030,0.00,312.0,22.0,0,0,0,0.0
Status,1732151704000,27,25,6,26,1575420030,0.00,168.0,5.0,0,0,0,0.0
Status,1732151704000,27,26,6,6,1575420030,0.00,328.0,4.0,0,0,0,0.0
Fix,FLP,37.4252711000,-122.1583454000,5.400000095367432,0.06578553,6.414,,1732151705242,2.2,,30589090000000,13.632774,0,,,
Fix,GPS,37.4252750000,-122.1583500000,23.500000000000004,0.0,6.5,0.0,1732151705000,2.2,179.9,30589090000000,69.5,0,,,
Raw,1732151705000,26931000000,,705692.942665689,-1416186896069999872,0.0,136.86838081458595,1186.575037241299,0.0,0,15,0.0,16431,350122925387165,316,24.149999618530273,500.5908748794527,0.14999,16,0.0,0.0,1575420030,,,,0,8.826624512248362,1,6.0,24.149999618530273,0.0,0.0,0.0,66.7128,C,30589090000000,
Raw,1732151705000,26931000000,,705692.942665689,-1416186896069999872,0.0,136.86838081458595,1186.575037241299,0.0,0,7,0.0,16431,350122917828976,487,18.68199920654297,985.4014053583367,0.14999,16,0.0,0.0,1575420030,,,,0,0.0,1,6.0,18.68199920654297,0.0,0.0,0.0,66.7128,C,30589090000000,
Raw,1732151705000,26931000000,,705692.942665689,-1416186896069999872,0.0,136.86838081458595,1186.575037241299,0.0,0,8,0.0,17,339309,797,5.0,921.3039867433062,0.14999,16,0.0,0.0,1605374980,,,,0,3.416375079047504,3,6.0,16.0,0.0,0.0,104.22274997112189,66.7128,C,30589090000000,
Raw,1732151705000,26931000000,,705692.942665689,-1416186896069999872,0.0,136.86838081458595,1186.575037241299,0.0,0,11,0.0,17,128493,487,19.5,-115.429968504297,0.14999,16,0.0,0.0,1602000000,,,,0,1.283602755014992,3,6.0,19.5,0.0,0.0,104.22274997112189,66.7128,C,30589090000000,
Raw,1732151705000,26931000000,,705692.942665689,-1416186896069999872,0.0,136.86838081458595,1186.575037241299,0.0,0,13,0.0,16431,350122929510884,396,21.292999267578125,701.9807222639588,0.14999,16,0.0,0.0,1575420030,,,,0,4.356306332571975,1,6.0,21.292999267578125,0.0,0.0,0.0,66.7128,C,30589090000000,
Raw,1732151705000,26931000000,,705692.942665689,-1416186896069999872,0.0,136.86838081458595,1186.575037241299,0.0,0,30,0.0,16431,350122926728943,797,16.364999771118164,853.6527703318437,0.14999,16,0.0,0.0,1575420030,,,,0,0.0,1,6.0,16.364999771118164,0.0,0.0,0.0,66.7128,C,30589090000000,
Status,1732151705000,27,0,1,17,1575420030,0.00,92.0,79.0,0,0,0,0.0
Status,1732151705000,27,1,1,22,1575420030,0.00,10.0,67.0,0,0,0,0.0
Status,1732151705000,27,2,1,19,1575420030,0.00,199.0,59.0,0,0,0,0.0
Status,1732151705000,27,3,1,14,1575420030,0.00,51.0,54.0,0,0,0,0.0
Status,1732151705000,27,4,1,13,1575420030,30.50,236.0,49.0,1,0,0,25.5
Status,1732151705000,27,5,2,135,1575420030,0.00,197.0,45.0,0,0,0,0.0
Status,1732151705000,27,6,1,30,1575420030,21.40,130.0,38.0,1,0,0,16.4
Status,1732151705000,27,7,1,15,1575420030,29.10,277.0,30.0,1,0,0,24.1
Status,1732151705000,27,8,1,2,1575420030,0.00,49.0,18.0,0,0,0,0.0
Status,1732151705000,27,9,1,24,1575420030,0.00,313.0,15.0,0,0,0,0.0
Status,1732151705000,27,10,1,6,1575420030,0.00,163.0,10.0,0,0,0,0.0
Status,1732151705000,27,11,1,21,1575420030,0.00,35.0,5.0,0,0,0,0.0
Status,1732151705000,27,12,1,7,1575420030,22.50,131.0,5.0,1,0,0,17.5
Status,1732151705000,27,13,3,20,1602000000,0.00,116.0,52.0,0,0,0,0.0
Status,1732151705000,27,14,3,9,1602000000,0.00,79.0,34.0,0,0,0,0.0
Status,1732151705000,27,15,3,11,1602000000,28.60,309.0,27.0,0,0,0,23.6
Status,1732151705000,27,16,3,8,1602000000,23.60,248.0,24.0,1,0,0,18.6
Status,1732151705000,27,17,3,19,1602000000,0.00,34.0,24.0,0,0,0,0.0
Status,1732151705000,27,18,6,21,1575420030,0.00,340.0,68.0,0,0,0,0.0
Status,1732151705000,27,19,6,19,1575420030,0.00,245.0,47.0,0,0,0,0.0
Status,1732151705000,27,20,6,27,1575420030,0.00,63.0,35.0,0,0,0,0.0
Status,1732151705000,27,21,6,13,1575420030,0.00,121.0,27.0,0,0,0,0.0
Status,1732151705000,27,22,6,29,1575420030,0.00,192.0,26.0,0,0,0,0.0
Status,1732151705000,27,23,6,15,1575420030,0.00,63.0,24.0,0,0,0,0.0
Status,1732151705000,27,24,6,4,1575420030,0.00,312.0,22.0,0,0,0,0.0
Status,1732151705000,27,25,6,26,1575420030,0.00,168.0,5.0,0,0,0,0.0
Status,1732151705000,27,26,6,6,1575420030,0.00,328.0,4.0,0,0,0,0.0
Fix,GPS,37.4252950000,-122.1583400000,23.500000000000004,0.0,6.5,0.0,1732151706000,2.2,179.9,30590090000000,66.2,0,,,
Raw,1732151706000,27931000000,,705659.8468531186,-1416186896069999872,0.0,131.1501228225971,1189.101160041646,0.0,0,15,0.0,16431,350123925385484,396,24.05299949645996,501.4085894631744,0.14999,16,0.0,0.0,1575420030,,,,0,5.8840732498410695,1,6.0,24.05299949645996,0.0,0.0,0.0,66.7128,C,30590090000000,
Raw,1732151706000,27931000000,,705659.8468531186,-1416186896069999872,0.0,131.1501228225971,1189.101160041646,0.0,0,7,0.0,16431,350123917825702,487,17.510000228881836,986.2902477772767,0.14999,16,0.0,0.0,1575420030,,,,0,0.0,1,6.0,17.510000228881836,0.0,0.0,0.0,66.7128,C,30590090000000,
Raw,1732151706000,27931000000,,705659.8468531186,-1416186896069999872,0.0,131.1501228225971,1189.101160041646,0.0,0,8,0.0,17,336228,487,5.0,920.9503787612938,0.14999,16,0.0,0.0,1605374980,,,,0,2.004753593333359,3,6.0,18.0,0.0,0.0,104.22274997112189,66.7128,C,30590090000000,
Raw,1732151706000,27931000000,,705659.8468531186,-1416186896069999872,0.0,131.1501228225971,1189.101160041646,0.0,0,11,0.0,17,128879,316,18.600000381469727,-116.85272572284005,0.14999,16,0.0,0.0,1602000000,,,,0,9.292853542536584,3,6.0,18.600000381469727,0.0,0.0,104.22274997112189,66.7128,C,30590090000000,
Raw,1732151706000,27931000000,,705659.8468531186,-1416186896069999872,0.0,131.1501228225971,1189.101160041646,0.0,0,13,0.0,16431,350123929508473,396,25.48699951171875,702.4346209903357,0.14999,16,0.0,0.0,1575420030,,,,0,10.704714569614985,1,6.0,25.48699951171875,0.0,0.0,0.0,66.7128,C,30590090000000,
Raw,1732151706000,27931000000,,705659.8468531186,-1416186896069999872,0.0,131.1501228225971,1189.101160041646,0.0,0,30,0.0,16431,350123926726093,797,16.364999771118164,854.6867488430255,0.14999,16,0.0,0.0,1575420030,,,,0,0.0,1,6.0,16.364999771118164,0.0,0.0,0.0,66.7128,C,30590090000000,
Fix,FLP,37.4252807000,-122.1583433000,5.400000095367432,0.024197293,6.442,,1732151706242,2.2,,30590090000000,11.783135,0,,,
Fix,FLP,37.4252852000,-122.1583423000,5.400000095367432,0.0062732925,6.457,,1732151706431,2.2,,30590279000000,11.181445,0,,,
Fix,NLP,37.4257040000,-122.1581026000,5.400000095367432,,20.152,,1732151706432,,,30590279000000,15.997472,0,,,
Status,1732151706000,27,0,1,17,1575420030,0.00,92.0,79.0,0,0,0,0.0
Status,1732151706000,27,1,1,22,1575420030,0.00,10.0,67.0,0,0,0,0.0
Status,1732151706000,27,2,1,19,1575420030,0.00,199.0,59.0,0,0,0,0.0
Status,1732151706000,27,3,1,14,1575420030,0.00,51.0,54.0,0,0,0,0.0
Status,1732151706000,27,4,1,13,1575420030,0.00,236.0,49.0,0,0,0,0.0
Status,1732151706000,27,5,2,135,1575420030,0.00,197.0,45.0,0,0,0,0.0
Status,1732151706000,27,6,1,30,1575420030,21.40,130.0,38.0,1,0,0,16.4
Status,1732151706000,27,7,1,15,1575420030,25.10,277.0,30.0,1,0,0,20.1
Status,1732151706000,27,8,1,2,1575420030,0.00,49.0,18.0,0,0,0,0.0
Status,1732151706000,27,9,1,24,1575420030,0.00,313.0,15.0,0,0,0,0.0
Status,1732151706000,27,10,1,6,1575420030,0.00,163.0,10.0,0,0,0,0.0
Status,1732151706000,27,11,1,21,1575420030,0.00,35.0,5.0,0,0,0,0.0
Status,1732151706000,27,12,1,7,1575420030,28.10,131.0,5.0,1,0,0,23.1
Status,1732151706000,27,13,3,20,1602000000,0.00,116.0,52.0,0,0,0,0.0
Status,1732151706000,27,14,3,9,1602000000,0.00,79.0,34.0,0,0,0,0.0
Status,1732151706000,27,15,3,11,1602000000,28.80,309.0,27.0,0,0,0,23.8
Status,1732151706000,27,16,3,8,1602000000,19.20,248.0,24.0,1,0,0,14.200001
Status,1732151706000,27,17,3,19,1602000000,0.00,34.0,24.0,0,0,0,0.0
Status,1732151706000,27,18,6,21,1575420030,0.00,340.0,68.0,0,0,0,0.0
Status,1732151706000,27,19,6,19,1575420030,0.00,245.0,47.0,0,0,0,0.0
Status,1732151706000,27,20,6,27,1575420030,0.00,63.0,35.0,0,0,0,0.0
Status,1732151706000,27,21,6,13,1575420030,0.00,121.0,27.0,0,0,0,0.0
Status,1732151706000,27,22,6,29,1575420030,0.00,192.0,26.0,0,0,0,0.0
Status,1732151706000,27,23,6,15,1575420030,0.00,63.0,24.0,0,0,0,0.0
Status,1732151706000,27,24,6,4,1575420030,0.00,312.0,22.0,0,0,0,0.0
Status,1732151706000,27,25,6,26,1575420030,0.00,168.0,5.0,0,0,0,0.0
Status,1732151706000,27,26,6,6,1575420030,0.00,328.0,4.0,0,0,0,0.0
Fix,GPS,37.4253016667,-122.1583416667,23.500000000000004,0.0,6.5,0.0,1732151707000,2.1,179.9,30591090000000,63.4,0,,,
Raw,1732151707000,28931000000,,705624.5099067836,-1416186896069999872,0.0,126.28314395707504,1192.3740219119422,0.0,0,15,0.0,16431,350124925383810,487,20.118999481201172,502.4545077873222,0.14999,16,0.0,0.0,1575420030,,,,0,2.397201394117846,1,6.0,20.118999481201172,0.0,0.0,0.0,66.7128,C,30591090000000,
Raw,1732151707000,28931000000,,705624.5099067836,-1416186896069999872,0.0,126.28314395707504,1192.3740219119422,0.0,0,7,0.0,16431,350124917822383,396,23.06100082397461,986.6789188872941,0.14999,16,0.0,0.0,1575420030,,,,0,7.182889388501362,1,6.0,23.06100082397461,0.0,0.0,0.0,66.7128,C,30591090000000,
Raw,1732151707000,28931000000,,705624.5099067836,-1416186896069999872,0.0,126.28314395707504,1192.3740219119422,0.0,0,8,0.0,17,333147,797,5.0,922.9479264822696,0.14999,16,0.0,0.0,1605374980,,,,0,0.0,3,6.0,17.0,0.0,0.0,104.22274997112189,66.7128,C,30591090000000,
Raw,1732151707000,28931000000,,705624.5099067836,-1416186896069999872,0.0,126.28314395707504,1192.3740219119422,0.0,0,11,0.0,17,129264,316,14.199999809265137,-116.23617170517079,0.14999,16,0.0,0.0,1602000000,,,,0,9.503533859305676,3,6.0,14.199999809265137,0.0,0.0,104.22274997112189,66.7128,C,30591090000000,
Raw,1732151707000,28931000000,,705624.5099067836,-1416186896069999872,0.0,126.28314395707504,1192.3740219119422,0.0,0,30,0.0,16431,350124926723250,797,16.39900016784668,855.4696660730054,0.14999,16,0.0,0.0,1575420030,,,,0,0.0,1,6.0,16.39900016784668,0.0,0.0,0.0,66.7128,C,30591090000000,
Fix,FLP,37.4252911000,-122.1583421000,5.400000095367432,0.0152870985,6.471,,1732151707242,2.1,,30591090000000,12.197225,0,,,
Status,1732151707000,27,0,1,17,1575420030,0.00,92.0,79.0,0,0,0,0.0
Status,1732151707000,27,1,1,22,1575420030,0.00,10.0,67.0,0,0,0,0.0
Status,1732151707000,27,2,1,19,1575420030,0.00,199.0,59.0,0,0,0,0.0
Status,1732151707000,27,3,1,14,1575420030,0.00,51.0,54.0,0,0,0,0.0
Status,1732151707000,27,4,1,13,1575420030,23.60,236.0,49.0,1,0,0,18.6
Status,1732151707000,27,5,2,135,1575420030,0.00,197.0,45.0,0,0,0,0.0
Status,1732151707000,27,6,1,30,1575420030,21.40,130.0,38.0,1,0,0,16.4
Status,1732151707000,27,7,1,15,1575420030,25.20,277.0,30.0,1,0,0,20.2
Status,1732151707000,27,8,1,2,1575420030,0.00,49.0,18.0,0,0,0,0.0
Status,1732151707000,27,9,1,24,1575420030,0.00,313.0,15.0,0,0,0,0.0
Status,1732151707000,27,10,1,6,1575420030,0.00,163.0,10.0,0,0,0,0.0
Status,1732151707000,27,11,1,21,1575420030,0.00,35.0,5.0,0,0,0,0.0
Status,1732151707000,27,12,1,7,1575420030,28.10,131.0,5.0,1,0,0,23.1
Status,1732151707000,27,13,3,20,1602000000,0.00,116.0,52.0,0,0,0,0.0
Status,1732151707000,27,14,3,9,1602000000,0.00,79.0,34.0,0,0,0,0.0
Status,1732151707000,27,15,3,11,1602000000,31.30,309.0,27.0,0,0,0,26.3
Status,1732151707000,27,16,3,8,1602000000,21.90,248.0,24.0,1,0,0,16.9
Status,1732151707000,27,17,3,19,1602000000,0.00,34.0,24.0,0,0,0,0.0
Status,1732151707000,27,18,6,21,1575420030,0.00,340.0,68.0,0,0,0,0.0
Status,1732151707000,27,19,6,19,1575420030,0.00,245.0,47.0,0,0,0,0.0
Status,1732151707000,27,20,6,27,1575420030,0.00,63.0,35.0,0,0,0,0.0
Status,1732151707000,27,21,6,13,1575420030,0.00,121.0,27.0,0,0,0,0.0
Status,1732151707000,27,22,6,29,1575420030,0.00,192.0,26.0,0,0,0,0.0
Status,1732151707000,27,23,6,15,1575420030,0.00,63.0,24.0,0,0,0,0.0
Status,1732151707000,27,24,6,4,1575420030,0.00,312.0,22.0,0,0,0,0.0
Status,1732151707000,27,25,6,26,1575420030,0.00,168.0,5.0,0,0,0,0.0
Status,1732151707000,27,26,6,6,1575420030,0.00,328.0,4.0,0,0,0,0.0
Fix,GPS,37.4253100000,-122.1583433333,23.500000000000004,0.0,6.5,0.0,1732151708000,2.1,179.9,30592090000000,62.9,0,,,
Fix,FLP,37.4252986000,-122.1583425000,5.400000095367432,0.040762205,6.485,,1732151708242,2.1,,30592090000000,16.730253,0,,,
Raw,1732151708000,29931000000,,705594.6976157753,-1416186896069999872,0.0,125.396872564457,1196.5066485929285,0.0,0,13,0.0,16431,350125929503761,487,18.610000610351562,705.0516235754753,0.14999,16,0.0,0.0,1575420030,,,,0,0.0,1,6.0,18.610000610351562,0.0,0.0,0.0,66.7128,C,30592090000000,
Raw,1732151708000,29931000000,,705594.6976157753,-1416186896069999872,0.0,125.396872564457,1196.5066485929285,0.0,0,15,0.0,16431,350125925382151,396,20.240999221801758,503.6089065133217,0.14999,16,0.0,0.0,1575420030,,,,0,6.427118170713365,1,6.0,20.240999221801758,0.0,0.0,0.0,66.7128,C,30592090000000,
