# 
# Header Description:
# 
# Version: v3.1.0.3 Platform: 13 Manufacturer: samsung Model: SM-S135DL GNSS Hardware Model Name: MediaTek,MT6631,MTK_MNLD_default,MNL_VER_default
# 
# Raw,utcTimeMillis,TimeNanos,LeapSecond,TimeUncertaintyNanos,FullBiasNanos,BiasNanos,BiasUncertaintyNanos,DriftNanosPerSecond,DriftUncertaintyNanosPerSecond,HardwareClockDiscontinuityCount,Svid,TimeOffsetNanos,State,ReceivedSvTimeNanos,ReceivedSvTimeUncertaintyNanos,Cn0DbHz,PseudorangeRateMetersPerSecond,PseudorangeRateUncertaintyMetersPerSecond,AccumulatedDeltaRangeState,AccumulatedDeltaRangeMeters,AccumulatedDeltaRangeUncertaintyMeters,CarrierFrequencyHz,CarrierCycles,CarrierPhase,CarrierPhaseUncertainty,MultipathIndicator,SnrInDb,ConstellationType,AgcDb,BasebandCn0DbHz,FullInterSignalBiasNanos,FullInterSignalBiasUncertaintyNanos,SatelliteInterSignalBiasNanos,SatelliteInterSignalBiasUncertaintyNanos,CodeType,ChipsetElapsedRealtimeNanos,IsFullTracking
# 
# UncalAccel,utcTimeMillis,elapsedRealtimeNanos,UncalAccelXMps2,UncalAccelYMps2,UncalAccelZMps2,BiasXMps2,BiasYMps2,BiasZMps2
# 
# Accel,utcTimeMillis,elapsedRealtimeNanos,AccelXMps2,AccelYMps2,AccelZMps2
# 
# UncalGyro,utcTimeMillis,elapsedRealtimeNanos,UncalGyroXRadPerSec,UncalGyroYRadPerSec,UncalGyroZRadPerSec,DriftXRadPerSec,DriftYRadPerSec,DriftZRadPerSec
# 
# Gyro,utcTimeMillis,elapsedRealtimeNanos,GyroXRadPerSec,GyroYRadPerSec,GyroZRadPerSec
# 
# UncalMag,utcTimeMillis,elapsedRealtimeNanos,UncalMagXMicroT,UncalMagYMicroT,UncalMagZMicroT,BiasXMicroT,BiasYMicroT,BiasZMicroT
# 
# Mag,utcTimeMillis,elapsedRealtimeNanos,MagXMicroT,MagYMicroT,MagZMicroT
# 
# Pressure,utcTimeMillis,elapsedRealtimeNanos,PressureHpa
# 
# OrientationDeg,utcTimeMillis,elapsedRealtimeNanos,yawDeg,rollDeg,pitchDeg
# 
# Fix,Provider,LatitudeDegrees,LongitudeDegrees,AltitudeMeters,SpeedMps,AccuracyMeters,BearingDegrees,UnixTimeMillis,SpeedAccuracyMps,BearingAccuracyDegrees,elapsedRealtimeNanos,VerticalAccuracyMeters,MockLocation,NumberOfUsedSignals,VerticalSpeedAccuracyMps,SolutionType
# 
# Nav,Svid,Type,Status,MessageId,Sub-messageId,Data(Bytes)
# 
# Status,UnixTimeMillis,SignalCount,SignalIndex,ConstellationType,Svid,CarrierFrequencyHz,Cn0DbHz,AzimuthDegrees,ElevationDegrees,UsedInFix,HasAlmanacData,HasEphemerisData,BasebandCn0DbHz
# 
# Agc,utcTimeMillis,TimeNanos,LeapSecond,TimeUncertaintyNanos,FullBiasNanos,BiasNanos,BiasUncertaintyNanos,DriftNanosPerSecond,DriftUncertaintyNanosPerSecond,HardwareClockDiscontinuityCount,AgcDb,CarrierFrequencyHz,ConstellationType
# 
Fix,FLP,37.4243610000,-122.1708034000,2.0,0.0033692387,2.5,,1732148617209,2.2,,27501057000000,0.9683946,0,,,
Status,,29,0,1,14,1575420030,27.80,12.0,69.0,1,0,0,22.8
Status,,29,1,1,22,1575420030,34.90,307.0,68.0,1,0,0,29.900002
Status,,29,2,1,17,1575420030,26.40,168.0,63.0,1,0,0,21.4
Status,,29,3,1,30,1575420030,29.20,107.0,58.0,1,0,0,24.2
Status,,29,4,1,13,1575420030,28.30,277.0,56.0,1,0,0,23.3
Status,,29,5,1,19,1575420030,0.00,194.0,34.0,0,0,0,0.0
Status,,29,6,1,15,1575420030,30.60,303.0,27.0,1,0,0,25.6
Status,,29,7,1,7,1575420030,36.90,117.0,25.0,1,0,0,31.900002
Status,,29,8,2,131,1575420030,29.00,3.0,23.0,0,0,0,24.0
Status,,29,9,1,2,1575420030,0.00,71.0,21.0,0,0,0,0.0
Status,,29,10,1,21,1575420030,27.90,53.0,14.0,1,0,0,22.9
Status,,29,11,3,9,1602000000,28.40,46.0,47.0,1,0,0,23.4
Status,,29,12,3,8,1602000000,26.10,277.0,39.0,1,0,0,21.1
Status,,29,13,3,19,1602000000,0.00,62.0,36.0,0,0,0,0.0
Status,,29,14,3,20,1602000000,0.00,140.0,28.0,0,0,0,0.0
Status,,29,15,3,18,1602000000,24.70,25.0,11.0,1,0,0,19.7
Status,,29,16,3,11,1602000000,0.00,287.0,11.0,0,0,0,0.0
Status,,29,17,3,16,1602000000,27.50,83.0,4.0,0,0,0,22.5
Status,,29,18,3,17,1602000000,27.10,0.0,0.0,0,0,0,22.1
Status,,29,19,6,21,1575420030,0.00,294.0,64.0,0,0,0,0.0
Status,,29,20,6,19,1575420030,0.00,275.0,54.0,0,0,0,0.0
Status,,29,21,6,27,1575420030,24.40,47.0,48.0,1,0,0,19.4
Status,,29,22,6,29,1575420030,22.30,196.0,46.0,1,0,0,17.3
Status,,29,23,6,15,1575420030,25.90,83.0,18.0,1,0,0,20.9
Status,,29,24,6,4,1575420030,0.00,323.0,11.0,0,0,0,0.0
Status,,29,25,6,13,1575420030,0.00,134.0,11.0,0,0,0,0.0
Status,,29,26,6,34,1575420030,0.00,35.0,5.0,0,0,0,0.0
Status,,29,27,6,7,1575420030,0.00,162.0,4.0,0,0,0,0.0
Status,,29,28,6,30,1575420030,0.00,67.0,2.0,0,0,0,0.0
Fix,GPS,37.4243650000,-122.1707833333,2.0,0.0,2.6,58.22,1732148618000,2.8,122.9,27502057000000,37.7,0,,,
Raw,1732148618000,16600000000,,696345.0694947102,-1416183819400000000,0.0,96.50357389870672,2087.766359266318,0.0,0,17,0.0,16431,347035931583324,396,21.42300033569336,356.53900592604447,0.14999,16,0.0,0.0,1575420030,,,,0,4.610432932083021,1,6.0,21.42300033569336,0.0,0.0,0.0,66.7128,C,27502057000000,
Raw,1732148618000,16600000000,,696345.0694947102,-1416183819400000000,0.0,96.50357389870672,2087.766359266318,0.0,0,7,0.0,16431,347035923250583,74,31.934999465942383,1107.2871044569972,0.14999,16,0.0,0.0,1575420030,,,,0,18.856629284651767,1,6.0,31.934999465942383,0.0,0.0,0.0,66.7128,C,27502057000000,
Raw,1732148618000,16600000000,,696345.0694947102,-1416183819400000000,0.0,96.50357389870672,2087.766359266318,0.0,0,30,0.0,16431,347035930275695,316,24.198999404907227,881.2362470380294,0.14999,16,0.0,0.0,1575420030,,,,0,8.870303019448428,1,6.0,24.198999404907227,0.0,0.0,0.0,66.7128,C,27502057000000,
Raw,1732148618000,16600000000,,696345.0694947102,-1416183819400000000,0.0,96.50357389870672,2087.766359266318,0.0,0,14,0.0,16431,347035932029719,396,22.849000930786133,738.394224930368,0.14999,16,0.0,0.0,1575420030,,,,0,6.846285226378146,1,6.0,22.849000930786133,0.0,0.0,0.0,66.7128,C,27502057000000,
Raw,1732148618000,16600000000,,696345.0694947102,-1416183819400000000,0.0,96.50357389870672,2087.766359266318,0.0,0,22,0.0,16431,347035930853411,74,29.92799949645996,598.618226000521,0.14999,16,0.0,0.0,1575420030,,,,0,16.45009495532493,1,6.0,29.92799949645996,0.0,0.0,0.0,66.7128,C,27502057000000,
Raw,1732148618000,16600000000,,696345.0694947102,-1416183819400000000,0.0,96.50357389870672,2087.766359266318,0.0,0,13,0.0,16431,347035930813649,396,23.315000534057617,589.7951223443127,0.14999,16,0.0,0.0,1575420030,,,,0,7.555731589622524,1,6.0,23.315000534057617,0.0,0.0,0.0,66.7128,C,27502057000000,
Raw,1732148618000,16600000000,,696345.0694947102,-1416183819400000000,0.0,96.50357389870672,2087.766359266318,0.0,0,27,0.0,16431,347035917681898,396,19.399999618530273,914.9986931002167,0.14999,16,0.0,0.0,1575420030,,,,0,3.324460045264521,6,6.0,19.399999618530273,0.0,0.0,14.906645791938509,66.7128,C,27502057000000,
Raw,1732148618000,16600000000,,696345.0694947102,-1416183819400000000,0.0,96.50357389870672,2087.766359266318,0.0,0,15,0.0,16431,347035910023424,396,20.899999618530273,343.57067331265915,0.14999,16,0.0,0.0,1575420030,,,,0,5.589099586765513,6,6.0,20.899999618530273,0.0,0.0,14.906645791938509,66.7128,C,27502057000000,
Raw,1732148618000,16600000000,,696345.0694947102,-1416183819400000000,0.0,96.50357389870672,2087.766359266318,0.0,0,29,0.0,16431,347035917885139,487,17.299999237060547,1060.129210331993,0.14999,16,0.0,0.0,1575420030,,,,0,0.0,6,6.0,17.299999237060547,0.0,0.0,14.906645791938509,66.7128,C,27502057000000,
Raw,1732148618000,16600000000,,696345.0694947102,-1416183819400000000,0.0,96.50357389870672,2087.766359266318,0.0,0,21,0.0,16431,347035919200873,487,22.922000885009766,848.5829492044526,0.14999,16,0.0,0.0,1575420030,,,,0,6.968623722571784,1,6.0,22.922000885009766,0.0,0.0,0.0,66.7128,C,27502057000000,
Raw,1732148618000,16600000000,,696345.0694947102,-1416183819400000000,0.0,96.50357389870672,2087.766359266318,0.0,0,16,0.0,17,282027,487,5.0,1118.613698434117,0.14999,16,0.0,0.0,1601437440,,,,0,7.8781315136856,3,6.0,20.0,0.0,0.0,54.09646518238008,66.7128,C,27502057000000,
Raw,1732148618000,16600000000,,696345.0694947102,-1416183819400000000,0.0,96.50357389870672,2087.766359266318,0.0,0,9,0.0,17,19334,487,5.0,842.6683091979886,0.14999,16,0.0,0.0,1600875010,,,,0,8.996953208994055,3,6.0,18.0,0.0,0.0,54.09646518238008,66.7128,C,27502057000000,
Raw,1732148618000,16600000000,,696345.0694947102,-1416183819400000000,0.0,96.50357389870672,2087.766359266318,0.0,0,8,0.0,17,961989,487,5.0,794.5092644650107,0.14999,16,0.0,0.0,1605374980,,,,0,5.80589189718346,3,6.0,19.0,0.0,0.0,54.09646518238008,66.7128,C,27502057000000,
Raw,1732148618000,16600000000,,696345.0694947102,-1416183819400000000,0.0,96.50357389870672,2087.766359266318,0.0,0,18,0.0,17,821751,487,5.0,1195.4288292822434,0.14999,16,0.0,0.0,1600312450,,,,0,2.253545645527899,3,6.0,18.0,0.0,0.0,54.09646518238008,66.7128,C,27502057000000,
Raw,1732148618000,16600000000,,696345.0694947102,-1416183819400000000,0.0,96.50357389870672,2087.766359266318,0.0,0,15,0.0,16431,347035924532187,316,25.584999084472656,379.5516481241482,0.14999,16,0.0,0.0,1575420030,,,,0,10.828000234233762,1,6.0,25.584999084472656,0.0,0.0,0.0,66.7128,C,27502057000000,
Fix,FLP,37.4243630000,-122.1707936000,2.0,0.01519426,2.516,,1732148618209,2.8,,27502057000000,0.9773718,0,,,
Status,1732148618000,29,0,1,14,1575420030,26.10,12.0,69.0,1,0,0,21.1
Status,1732148618000,29,1,1,22,1575420030,34.70,307.0,68.0,1,0,0,29.7
Status,1732148618000,29,2,1,17,1575420030,27.70,168.0,63.0,1,0,0,22.7
Status,1732148618000,29,3,1,30,1575420030,32.30,107.0,58.0,1,0,0,27.3
Status,1732148618000,29,4,1,13,1575420030,30.90,277.0,56.0,1,0,0,25.9
Status,1732148618000,29,5,1,19,1575420030,0.00,194.0,34.0,0,0,0,0.0
Status,1732148618000,29,6,1,15,1575420030,25.40,303.0,27.0,1,0,0,20.4
Status,1732148618000,29,7,1,7,1575420030,33.30,117.0,25.0,1,0,0,28.3
Status,1732148618000,29,8,2,131,1575420030,29.00,3.0,23.0,0,0,0,24.0
Status,1732148618000,29,9,1,2,1575420030,0.00,71.0,21.0,0,0,0,0.0
Status,1732148618000,29,10,1,21,1575420030,34.50,53.0,14.0,1,0,0,29.5
Status,1732148618000,29,11,3,9,1602000000,23.10,46.0,47.0,1,0,0,18.1
Status,1732148618000,29,12,3,8,1602000000,26.00,277.0,39.0,1,0,0,21.0
Status,1732148618000,29,13,3,19,1602000000,0.00,62.0,36.0,0,0,0,0.0
Status,1732148618000,29,14,3,20,1602000000,0.00,140.0,28.0,0,0,0,0.0
Status,1732148618000,29,15,3,18,1602000000,24.60,25.0,11.0,1,0,0,19.6
Status,1732148618000,29,16,3,11,1602000000,0.00,287.0,11.0,0,0,0,0.0
Status,1732148618000,29,17,3,16,1602000000,24.70,83.0,4.0,0,0,0,19.7
Status,1732148618000,29,18,3,17,1602000000,33.60,0.0,0.0,0,0,0,28.599998
Status,1732148618000,29,19,6,21,1575420030,0.00,294.0,64.0,0,0,0,0.0
Status,1732148618000,29,20,6,19,1575420030,0.00,275.0,54.0,0,0,0,0.0
Status,1732148618000,29,21,6,27,1575420030,24.80,47.0,48.0,1,0,0,19.8
Status,1732148618000,29,22,6,29,1575420030,21.70,196.0,46.0,1,0,0,16.7
Status,1732148618000,29,23,6,15,1575420030,27.70,83.0,18.0,1,0,0,22.7
Status,1732148618000,29,24,6,4,1575420030,0.00,323.0,11.0,0,0,0,0.0
Status,1732148618000,29,25,6,13,1575420030,0.00,134.0,11.0,0,0,0,0.0
Status,1732148618000,29,26,6,34,1575420030,0.00,35.0,5.0,0,0,0,0.0
Status,1732148618000,29,27,6,7,1575420030,0.00,162.0,4.0,0,0,0,0.0
Status,1732148618000,29,28,6,30,1575420030,0.00,67.0,2.0,0,0,0,0.0
Fix,GPS,37.4243633333,-122.1707833333,2.0,0.0,2.6,58.22,1732148619000,2.5,179.9,27503057000000,40.1,0,,,
Raw,1732148619000,17600000000,,696075.9770847871,-1416183819400000000,0.0,105.95658826816786,2091.051992376169,0.0,0,17,0.0,16431,347036931582125,396,22.738000869750977,357.53967375280325,0.14999,16,0.0,0.0,1575420030,,,,0,6.659484701295279,1,6.0,22.738000869750977,0.0,0.0,0.0,66.7128,C,27503057000000,
Raw,1732148619000,17600000000,,696075.9770847871,-1416183819400000000,0.0,105.95658826816786,2091.051992376169,0.0,0,7,0.0,16431,347036923246890,235,28.264999389648438,1108.004422403288,0.14999,16,0.0,0.0,1575420030,,,,0,14.38868852106743,1,6.0,28.264999389648438,0.0,0.0,0.0,66.7128,C,27503057000000,
Raw,1732148619000,17600000000,,696075.9770847871,-1416183819400000000,0.0,105.95658826816786,2091.051992376169,0.0,0,30,0.0,16431,347036930272753,396,27.33300018310547,882.5173843234512,0.14999,16,0.0,0.0,1575420030,,,,0,13.169560002238914,1,6.0,27.33300018310547,0.0,0.0,0.0,66.7128,C,27503057000000,
Raw,1732148619000,17600000000,,696075.9770847871,-1416183819400000000,0.0,105.95658826816786,2091.051992376169,0.0,0,14,0.0,16431,347036932027256,487,21.148000717163086,739.7823559483226,0.14999,16,0.0,0.0,1575420030,,,,0,4.118647467373993,1,6.0,21.148000717163086,0.0,0.0,0.0,66.7128,C,27503057000000,
Raw,1732148619000,17600000000,,696075.9770847871,-1416183819400000000,0.0,105.95658826816786,2091.051992376169,0.0,0,22,0.0,16431,347036930851414,396,29.709999084472656,599.8722315708758,0.14999,16,0.0,0.0,1575420030,,,,0,16.18090400639857,1,6.0,29.709999084472656,0.0,0.0,0.0,66.7128,C,27503057000000,
Raw,1732148619000,17600000000,,696075.9770847871,-1416183819400000000,0.0,105.95658826816786,2091.051992376169,0.0,0,15,0.0,16431,347036924530778,487,20.351999282836914,381.09704088097556,0.14999,16,0.0,0.0,1575420030,,,,0,2.8497031061688034,1,6.0,20.351999282836914,0.0,0.0,0.0,66.7128,C,27503057000000,
Raw,1732148619000,17600000000,,696075.9770847871,-1416183819400000000,0.0,105.95658826816786,2091.051992376169,0.0,0,13,0.0,16431,347036930811678,396,25.867000579833984,590.8939103461082,0.14999,16,0.0,0.0,1575420030,,,,0,11.209021393790927,1,6.0,25.867000579833984,0.0,0.0,0.0,66.7128,C,27503057000000,
Raw,1732148619000,17600000000,,696075.9770847871,-1416183819400000000,0.0,105.95658826816786,2091.051992376169,0.0,0,27,0.0,16431,347036917678844,396,19.799999237060547,915.3885721290554,0.14999,16,0.0,0.0,1575420030,,,,0,3.9483304489233992,6,6.0,19.799999237060547,0.0,0.0,16.07439335725008,66.7128,C,27503057000000,
Raw,1732148619000,17600000000,,696075.9770847871,-1416183819400000000,0.0,105.95658826816786,2091.051992376169,0.0,0,15,0.0,16431,347036910022275,396,22.700000762939453,345.0663787933493,0.14999,16,0.0,0.0,1575420030,,,,0,8.052203264123166,6,6.0,22.700000762939453,0.0,0.0,16.07439335725008,66.7128,C,27503057000000,
Raw,1732148619000,17600000000,,696075.9770847871,-1416183819400000000,0.0,105.95658826816786,2091.051992376169,0.0,0,29,0.0,16431,347036917881600,797,16.700000762939453,1061.3220766266147,0.14999,16,0.0,0.0,1575420030,,,,0,0.0,6,6.0,16.700000762939453,0.0,0.0,16.07439335725008,66.7128,C,27503057000000,
Raw,1732148619000,17600000000,,696075.9770847871,-1416183819400000000,0.0,105.95658826816786,2091.051992376169,0.0,0,21,0.0,16431,347036919198042,235,29.516000747680664,851.0385552516767,0.14999,16,0.0,0.0,1575420030,,,,0,15.94642403495995,1,6.0,29.516000747680664,0.0,0.0,0.0,66.7128,C,27503057000000,
Raw,1732148619000,17600000000,,696075.9770847871,-1416183819400000000,0.0,105.95658826816786,2091.051992376169,0.0,0,16,0.0,17,278291,487,5.0,1120.2857202875712,0.14999,16,0.0,0.0,1601437440,,,,0,3.780871481171485,3,6.0,20.0,0.0,0.0,46.08936175763477,66.7128,C,27503057000000,
Raw,1732148619000,17600000000,,696075.9770847871,-1416183819400000000,0.0,105.95658826816786,2091.051992376169,0.0,0,9,0.0,17,16523,487,5.0,843.2771126676988,0.14999,16,0.0,0.0,1600875010,,,,0,1.0216242205976593,3,6.0,18.0,0.0,0.0,46.08936175763477,66.7128,C,27503057000000,
Raw,1732148619000,17600000000,,696075.9770847871,-1416183819400000000,0.0,105.95658826816786,2091.051992376169,0.0,0,8,0.0,17,959345,797,5.0,795.7487160636424,0.14999,16,0.0,0.0,1605374980,,,,0,2.378019093737632,3,6.0,17.0,0.0,0.0,46.08936175763477,66.7128,C,27503057000000,
Raw,1732148619000,17600000000,,696075.9770847871,-1416183819400000000,0.0,105.95658826816786,2091.051992376169,0.0,0,18,0.0,17,817761,797,5.0,1196.729371524922,0.14999,16,0.0,0.0,1600312450,,,,0,2.253545645527899,3,6.0,17.0,0.0,0.0,46.08936175763477,66.7128,C,27503057000000,
Fix,FLP,37.4243632000,-122.1707885000,2.0,0.02246654,2.533,,1732148619209,2.5,,27503057000000,0.9883831,0,,,
Status,1732148619000,29,0,1,14,1575420030,26.00,12.0,69.0,1,0,0,21.0
Status,1732148619000,29,1,1,22,1575420030,28.00,307.0,68.0,1,0,0,23.0
Status,1732148619000,29,2,1,17,1575420030,29.50,168.0,63.0,1,0,0,24.5
Status,1732148619000,29,3,1,30,1575420030,30.70,107.0,58.0,1,0,0,25.7
Status,1732148619000,29,4,1,13,1575420030,27.70,277.0,56.0,1,0,0,22.7
Status,1732148619000,29,5,1,19,1575420030,0.00,194.0,34.0,0,0,0,0.0
Status,1732148619000,29,6,1,15,1575420030,26.30,303.0,27.0,1,0,0,21.3
Status,1732148619000,29,7,1,7,1575420030,38.40,117.0,25.0,1,0,0,33.4
Status,1732148619000,29,8,2,131,1575420030,30.00,3.0,23.0,0,0,0,25.0
Status,1732148619000,29,9,1,2,1575420030,0.00,71.0,21.0,0,0,0,0.0
Status,1732148619000,29,10,1,21,1575420030,31.20,53.0,14.0,1,0,0,26.2
Status,1732148619000,29,11,3,9,1602000000,23.10,46.0,47.0,1,0,0,18.1
Status,1732148619000,29,12,3,8,1602000000,22.90,277.0,39.0,1,0,0,17.9
Status,1732148619000,29,13,3,19,1602000000,0.00,62.0,36.0,0,0,0,0.0
Status,1732148619000,29,14,3,20,1602000000,0.00,140.0,28.0,0,0,0,0.0
Status,1732148619000,29,15,3,18,1602000000,20.50,25.0,11.0,1,0,0,15.5
Status,1732148619000,29,16,3,11,1602000000,0.00,287.0,11.0,0,0,0,0.0
Status,1732148619000,29,17,3,16,1602000000,0.00,83.0,4.0,0,0,0,0.0
Status,1732148619000,29,18,3,17,1602000000,30.70,0.0,0.0,0,0,0,25.7
Status,1732148619000,29,19,6,21,1575420030,25.50,294.0,64.0,1,0,0,20.5
Status,1732148619000,29,20,6,19,1575420030,0.00,275.0,54.0,0,0,0,0.0
Status,1732148619000,29,21,6,27,1575420030,22.40,47.0,48.0,1,0,0,17.4
Status,1732148619000,29,22,6,29,1575420030,20.00,196.0,46.0,1,0,0,15.0
Status,1732148619000,29,23,6,15,1575420030,31.80,83.0,18.0,1,0,0,26.8
Status,1732148619000,29,24,6,4,1575420030,0.00,323.0,11.0,0,0,0,0.0
Status,1732148619000,29,25,6,13,1575420030,0.00,134.0,11.0,0,0,0,0.0
Status,1732148619000,29,26,6,34,1575420030,0.00,35.0,5.0,0,0,0,0.0
Status,1732148619000,29,27,6,7,1575420030,0.00,162.0,4.0,0,0,0,0.0
Status,1732148619000,29,28,6,30,1575420030,0.00,67.0,2.0,0,0,0,0.0
Fix,GPS,37.4243600000,-122.1707800000,2.0,0.0,2.6,58.22,1732148620000,2.1,179.9,27504057000000,38.9,0,,,
Raw,1732148620000,18600000000,,695689.3554506965,-1416183819400000000,0.0,102.13872207747129,2090.9034164370505,0.0,0,17,0.0,16431,347037931580933,396,24.47100067138672,357.65856083988604,0.14999,16,0.0,0.0,1575420030,,,,0,9.252161857628874,1,6.0,24.47100067138672,0.0,0.0,0.0,66.7128,C,27504057000000,
Raw,1732148620000,18600000000,,695689.3554506965,-1416183819400000000,0.0,102.13872207747129,2090.9034164370505,0.0,0,7,0.0,16431,347037923243197,58,33.367000579833984,1108.7822292074848,0.14999,16,0.0,0.0,1575420030,,,,0,20.512081227395274,1,6.0,33.367000579833984,0.0,0.0,0.0,66.7128,C,27504057000000,
Raw,1732148620000,18600000000,,695689.3554506965,-1416183819400000000,0.0,102.13872207747129,2090.9034164370505,0.0,0,30,0.0,16431,347037930269807,316,25.71500015258789,882.4770584181805,0.14999,16,0.0,0.0,1575420030,,,,0,11.020599913279625,1,6.0,25.71500015258789,0.0,0.0,0.0,66.7128,C,27504057000000,
Raw,1732148620000,18600000000,,695689.3554506965,-1416183819400000000,0.0,102.13872207747129,2090.9034164370505,0.0,0,14,0.0,16431,347037932024790,487,20.95599937438965,739.2873415235994,0.14999,16,0.0,0.0,1575420030,,,,0,3.8619029732705474,1,6.0,20.95599937438965,0.0,0.0,0.0,66.7128,C,27504057000000,
Raw,1732148620000,18600000000,,695689.3554506965,-1416183819400000000,0.0,102.13872207747129,2090.9034164370505,0.0,0,22,0.0,16431,347037930849417,487,22.95800018310547,599.9805725974787,0.14999,16,0.0,0.0,1575420030,,,,0,7.029152815175541,1,6.0,22.95800018310547,0.0,0.0,0.0,66.7128,C,27504057000000,
Raw,1732148620000,18600000000,,695689.3554506965,-1416183819400000000,0.0,102.13872207747129,2090.9034164370505,0.0,0,15,0.0,16431,347037924529443,487,21.333999633789062,380.9697448205587,0.14999,16,0.0,0.0,1575420030,,,,0,4.449578526974741,1,6.0,21.333999633789062,0.0,0.0,0.0,66.7128,C,27504057000000,
Raw,1732148620000,18600000000,,695689.3554506965,-1416183819400000000,0.0,102.13872207747129,2090.9034164370505,0.0,0,13,0.0,16431,347037930809707,396,22.738000869750977,590.8633407082417,0.14999,16,0.0,0.0,1575420030,,,,0,6.659484701295279,1,6.0,22.738000869750977,0.0,0.0,0.0,66.7128,C,27504057000000,
Raw,1732148620000,18600000000,,695689.3554506965,-1416183819400000000,0.0,102.13872207747129,2090.9034164370505,0.0,0,21,0.0,16431,347037920291285,487,20.5,531.8889807121682,0.14999,16,0.0,0.0,1575420030,,,,0,4.923471842938942,6,6.0,20.5,0.0,0.0,14.226713126212651,66.7128,C,27504057000000,
Raw,1732148620000,18600000000,,695689.3554506965,-1416183819400000000,0.0,102.13872207747129,2090.9034164370505,0.0,0,27,0.0,16431,347037917675788,487,17.399999618530273,916.8298051167388,0.14999,16,0.0,0.0,1575420030,,,,0,0.0,6,6.0,17.399999618530273,0.0,0.0,14.226713126212651,66.7128,C,27504057000000,
Raw,1732148620000,18600000000,,695689.3554506965,-1416183819400000000,0.0,102.13872207747129,2090.9034164370505,0.0,0,15,0.0,16431,347037910021126,235,26.799999237060547,345.5257596128391,0.14999,16,0.0,0.0,1575420030,,,,0,13.258343292833807,6,6.0,26.799999237060547,0.0,0.0,14.226713126212651,66.7128,C,27504057000000,
Raw,1732148620000,18600000000,,695689.3554506965,-1416183819400000000,0.0,102.13872207747129,2090.9034164370505,0.0,0,29,0.0,16431,347037917878059,487,15.0,1061.631954262739,0.14999,16,0.0,0.0,1575420030,,,,0,0.0,6,6.0,15.0,0.0,0.0,14.226713126212651,66.7128,C,27504057000000,
Raw,1732148620000,18600000000,,695689.3554506965,-1416183819400000000,0.0,102.13872207747129,2090.9034164370505,0.0,0,21,0.0,16431,347037919195205,396,26.187000274658203,851.0286131506077,0.14999,16,0.0,0.0,1575420030,,,,0,11.645224660561198,1,6.0,26.187000274658203,0.0,0.0,0.0,66.7128,C,27504057000000,
Raw,1732148620000,18600000000,,695689.3554506965,-1416183819400000000,0.0,102.13872207747129,2090.9034164370505,0.0,0,9,0.0,17,13704,797,5.0,844.0806820416568,0.14999,16,0.0,0.0,1600875010,,,,0,0.0,3,6.0,17.0,0.0,0.0,45.50378167321244,66.7128,C,27504057000000,
Raw,1732148620000,18600000000,,695689.3554506965,-1416183819400000000,0.0,102.13872207747129,2090.9034164370505,0.0,0,8,0.0,17,956680,487,5.0,795.9081952695577,0.14999,16,0.0,0.0,1605374980,,,,0,0.7446181647112402,3,6.0,18.0,0.0,0.0,45.50378167321244,66.7128,C,27504057000000,
Raw,1732148620000,18600000000,,695689.3554506965,-1416183819400000000,0.0,102.13872207747129,2090.9034164370505,0.0,0,18,0.0,17,813788,487,5.0,1196.8993256314698,0.14999,16,0.0,0.0,1600312450,,,,0,0.0,3,6.0,20.0,0.0,0.0,45.50378167321244,66.7128,C,27504057000000,
Fix,FLP,37.4243616000,-122.1707842000,2.0,0.027752273,2.55,,1732148620209,2.1,,27504057000000,0.9983872,0,,,
Status,1732148620000,29,0,1,14,1575420030,26.10,12.0,69.0,1,0,0,21.1
Status,1732148620000,29,1,1,22,1575420030,29.50,307.0,68.0,1,0,0,24.5
Status,1732148620000,29,2,1,17,1575420030,28.10,168.0,63.0,1,0,0,23.1
Status,1732148620000,29,3,1,30,1575420030,33.00,107.0,58.0,1,0,0,28.0
Status,1732148620000,29,4,1,13,1575420030,0.00,277.0,56.0,0,0,0,0.0
Status,1732148620000,29,5,1,19,1575420030,25.20,194.0,34.0,1,0,0,20.2
Status,1732148620000,29,6,1,15,1575420030,25.80,303.0,27.0,1,0,0,20.8
Status,1732148620000,29,7,1,7,1575420030,34.60,117.0,25.0,1,0,0,29.599998
Status,1732148620000,29,8,2,131,1575420030,29.00,3.0,23.0,0,0,0,24.0
Status,1732148620000,29,9,1,2,1575420030,0.00,71.0,21.0,0,0,0,0.0
Status,1732148620000,29,10,1,21,1575420030,28.60,53.0,14.0,1,0,0,23.6
Status,1732148620000,29,11,3,9,1602000000,23.00,46.0,47.0,1,0,0,18.0
Status,1732148620000,29,12,3,8,1602000000,22.90,277.0,39.0,1,0,0,17.9
Status,1732148620000,29,13,3,19,1602000000,0.00,62.0,36.0,0,0,0,0.0
Status,1732148620000,29,14,3,20,1602000000,0.00,140.0,28.0,0,0,0,0.0
Status,1732148620000,29,15,3,18,1602000000,20.60,25.0,11.0,1,0,0,15.6
Status,1732148620000,29,16,3,11,1602000000,0.00,287.0,11.0,0,0,0,0.0
Status,1732148620000,29,17,3,16,1602000000,28.50,83.0,4.0,0,0,0,23.5
Status,1732148620000,29,18,3,17,1602000000,29.80,0.0,0.0,0,0,0,24.8
Status,1732148620000,29,19,6,21,1575420030,21.80,294.0,64.0,1,0,0,16.8
Status,1732148620000,29,20,6,19,1575420030,0.00,275.0,54.0,0,0,0,0.0
Status,1732148620000,29,21,6,27,1575420030,22.90,47.0,48.0,1,0,0,17.9
Status,1732148620000,29,22,6,29,1575420030,20.10,196.0,46.0,1,0,0,15.1
Status,1732148620000,29,23,6,15,1575420030,28.30,83.0,18.0,1,0,0,23.3
Status,1732148620000,29,24,6,4,1575420030,0.00,323.0,11.0,0,0,0,0.0
Status,1732148620000,29,25,6,13,1575420030,0.00,134.0,11.0,0,0,0,0.0
Status,1732148620000,29,26,6,34,1575420030,0.00,35.0,5.0,0,0,0,0.0
Status,1732148620000,29,27,6,7,1575420030,0.00,162.0,4.0,0,0,0,0.0
Status,1732148620000,29,28,6,30,1575420030,0.00,67.0,2.0,0,0,0,0.0
Fix,GPS,37.4243633333,-122.1707750000,2.0,0.0,2.6,58.22,1732148621000,2.5,179.9,27505057000000,33.9,0,,,
Fix,FLP,37.4243625000,-122.1707796000,2.0,0.035057947,2.566,,1732148621210,2.5,,27505057000000,1.0083816,0,,,
Raw,1732148621000,19600000000,,695162.7932547923,-1416183819400000000,0.0,87.98179280275285,2094.5293298911038,0.0,0,17,0.0,16431,347038931579738,396,23.138999938964844,359.47459710034786,0.14999,16,0.0,0.0,1575420030,,,,0,7.32562834151603,1,6.0,23.138999938964844,0.0,0.0,0.0,66.7128,C,27505057000000,
Raw,1732148621000,19600000000,,695162.7932547923,-1416183819400000000,0.0,87.98179280275285,2094.5293298911038,0.0,0,7,0.0,16431,347038923239492,396,29.6299991607666,1109.4739021080272,0.14999,16,0.0,0.0,1575420030,,,,0,16.096369133417383,1,6.0,29.6299991607666,0.0,0.0,0.0,66.7128,C,27505057000000,
Raw,1732148621000,19600000000,,695162.7932547923,-1416183819400000000,0.0,87.98179280275285,2094.5293298911038,0.0,0,30,0.0,16431,347038930266863,396,27.97800064086914,883.2497547965942,0.14999,16,0.0,0.0,1575420030,,,,0,14.019020407187167,1,6.0,27.97800064086914,0.0,0.0,0.0,66.7128,C,27505057000000,
Raw,1732148621000,19600000000,,695162.7932547923,-1416183819400000000,0.0,87.98179280275285,2094.5293298911038,0.0,0,14,0.0,16431,347038932022329,396,21.072999954223633,740.0284461789898,0.14999,16,0.0,0.0,1575420030,,,,0,7.555731589622524,1,6.0,21.072999954223633,0.0,0.0,0.0,66.7128,C,27505057000000,
Raw,1732148621000,19600000000,,695162.7932547923,-1416183819400000000,0.0,87.98179280275285,2094.5293298911038,0.0,0,22,0.0,16431,347038930847413,396,24.5,600.887766090822,0.14999,16,0.0,0.0,1575420030,,,,0,9.298735104000528,1,6.0,24.5,0.0,0.0,0.0,66.7128,C,27505057000000,
Raw,1732148621000,19600000000,,695162.7932547923,-1416183819400000000,0.0,87.98179280275285,2094.5293298911038,0.0,0,15,0.0,16431,347038924528168,487,20.812000274658203,382.8127037332145,0.14999,16,0.0,0.0,1575420030,,,,0,3.5973376585954453,1,6.0,20.812000274658203,0.0,0.0,0.0,66.7128,C,27505057000000,
Raw,1732148621000,19600000000,,695162.7932547923,-1416183819400000000,0.0,87.98179280275285,2094.5293298911038,0.0,0,21,0.0,16431,347038920289507,487,16.799999237060547,533.1084212208624,0.14999,16,0.0,0.0,1575420030,,,,0,0.0,6,6.0,16.799999237060547,0.0,0.0,13.35139536349633,66.7128,C,27505057000000,
Raw,1732148621000,19600000000,,695162.7932547923,-1416183819400000000,0.0,87.98179280275285,2094.5293298911038,0.0,0,27,0.0,16431,347038917672729,487,17.899999618530273,917.2205203970694,0.14999,16,0.0,0.0,1575420030,,,,0,0.6388847880156545,6,6.0,17.899999618530273,0.0,0.0,13.35139536349633,66.7128,C,27505057000000,
Raw,1732148621000,19600000000,,695162.7932547923,-1416183819400000000,0.0,87.98179280275285,2094.5293298911038,0.0,0,15,0.0,16431,347038910019973,235,23.299999237060547,345.8113162680772,0.14999,16,0.0,0.0,1575420030,,,,0,8.96735307533667,6,6.0,23.299999237060547,0.0,0.0,13.35139536349633,66.7128,C,27505057000000,
Raw,1732148621000,19600000000,,695162.7932547923,-1416183819400000000,0.0,87.98179280275285,2094.5293298911038,0.0,0,29,0.0,16431,347038917874515,487,15.074999809265137,1062.5036070676813,0.14999,16,0.0,0.0,1575420030,,,,0,0.0,6,6.0,15.074999809265137,0.0,0.0,13.35139536349633,66.7128,C,27505057000000,
Raw,1732148621000,19600000000,,695162.7932547923,-1416183819400000000,0.0,87.98179280275285,2094.5293298911038,0.0,0,21,0.0,16431,347038919192363,396,23.552000045776367,851.9210793260122,0.14999,16,0.0,0.0,1575420030,,,,0,7.944302626389043,1,6.0,23.552000045776367,0.0,0.0,0.0,66.7128,C,27505057000000,
Raw,1732148621000,19600000000,,695162.7932547923,-1416183819400000000,0.0,87.98179280275285,2094.5293298911038,0.0,0,16,0.0,17,270809,396,5.0,1123.0878102677618,0.14999,16,0.0,0.0,1601437440,,,,0,9.12108964866249,3,6.0,23.0,0.0,0.0,44.786432881733326,66.7128,C,27505057000000,
Raw,1732148621000,19600000000,,695162.7932547923,-1416183819400000000,0.0,87.98179280275285,2094.5293298911038,0.0,0,9,0.0,17,10887,797,5.0,844.5761006657016,0.14999,16,0.0,0.0,1600875010,,,,0,0.0,3,6.0,17.0,0.0,0.0,44.786432881733326,66.7128,C,27505057000000,
Raw,1732148621000,19600000000,,695162.7932547923,-1416183819400000000,0.0,87.98179280275285,2094.5293298911038,0.0,0,8,0.0,17,954020,487,5.0,797.016434416896,0.14999,16,0.0,0.0,1605374980,,,,0,0.7446181647112402,3,6.0,18.0,0.0,0.0,44.786432881733326,66.7128,C,27505057000000,
Raw,1732148621000,19600000000,,695162.7932547923,-1416183819400000000,0.0,87.98179280275285,2094.5293298911038,0.0,0,18,0.0,17,809789,797,5.0,1199.149159433757,0.14999,16,0.0,0.0,1600312450,,,,0,0.5276445528959393,3,6.0,17.0,0.0,0.0,44.786432881733326,66.7128,C,27505057000000,
Raw,1732148621000,19600000000,,695162.7932547923,-1416183819400000000,0.0,87.98179280275285,2094.5293298911038,0.0,0,19,0.0,16431,347038925035688,487,20.19099998474121,0.19628680848952432,0.14999,16,0.0,0.0,1575420030,,,,0,2.5518719981419027,1,6.0,20.19099998474121,0.0,0.0,0.0,66.7128,C,27505057000000,
Status,1732148621000,29,0,1,14,1575420030,29.50,12.0,69.0,1,0,0,24.5
Status,1732148621000,29,1,1,22,1575420030,33.70,307.0,68.0,1,0,0,28.7
Status,1732148621000,29,2,1,17,1575420030,28.30,168.0,63.0,1,0,0,23.3
Status,1732148621000,29,3,1,30,1575420030,29.90,107.0,58.0,1,0,0,24.9
Status,1732148621000,29,4,1,13,1575420030,31.20,277.0,56.0,1,0,0,26.2
Status,1732148621000,29,5,1,19,1575420030,30.40,194.0,34.0,1,0,0,25.4
Status,1732148621000,29,6,1,15,1575420030,26.30,303.0,27.0,1,0,0,21.3
Status,1732148621000,29,7,1,7,1575420030,30.60,117.0,25.0,1,0,0,25.6
Status,1732148621000,29,8,2,131,1575420030,29.00,3.0,23.0,0,0,0,24.0
Status,1732148621000,29,9,1,2,1575420030,0.00,71.0,21.0,0,0,0,0.0
Status,1732148621000,29,10,1,21,1575420030,33.50,53.0,14.0,1,0,0,28.5
Status,1732148621000,29,11,3,9,1602000000,23.00,46.0,47.0,1,0,0,18.0
Status,1732148621000,29,12,3,8,1602000000,22.90,277.0,39.0,1,0,0,17.9
Status,1732148621000,29,13,3,19,1602000000,0.00,62.0,36.0,0,0,0,0.0
Status,1732148621000,29,14,3,20,1602000000,0.00,140.0,28.0,0,0,0,0.0
Status,1732148621000,29,15,3,18,1602000000,20.50,25.0,11.0,1,0,0,15.5
Status,1732148621000,29,16,3,11,1602000000,0.00,287.0,11.0,0,0,0,0.0
Status,1732148621000,29,17,3,16,1602000000,23.40,83.0,4.0,0,0,0,18.4
Status,1732148621000,29,18,3,17,1602000000,24.90,0.0,0.0,0,0,0,19.9
Status,1732148621000,29,19,6,21,1575420030,24.00,294.0,64.0,1,0,0,19.0
Status,1732148621000,29,20,6,19,1575420030,0.00,275.0,54.0,0,0,0,0.0
Status,1732148621000,29,21,6,27,1575420030,24.40,47.0,48.0,1,0,0,19.4
Status,1732148621000,29,22,6,29,1575420030,20.10,196.0,46.0,1,0,0,15.1
Status,1732148621000,29,23,6,15,1575420030,30.60,83.0,18.0,1,0,0,25.6
Status,1732148621000,29,24,6,4,1575420030,0.00,323.0,11.0,0,0,0,0.0
Status,1732148621000,29,25,6,13,1575420030,0.00,134.0,11.0,0,0,0,0.0
Status,1732148621000,29,26,6,34,1575420030,0.00,35.0,5.0,0,0,0,0.0
Status,1732148621000,29,27,6,7,1575420030,0.00,162.0,4.0,0,0,0,0.0
Status,1732148621000,29,28,6,30,1575420030,0.00,67.0,2.0,0,0,0,0.0
Fix,GPS,37.4243566667,-122.1707850000,2.1000000000000014,0.0,2.6,58.22,1732148622000,2.3,179.9,27506057000000,33.7,0,,,
Raw,1732148622000,20600000000,,694603.1873657075,-1416183819400000000,0.0,87.89707970751581,2096.4280128198843,0.0,0,17,0.0,16431,347039931578540,487,23.280000686645508,359.99081979207125,0.14999,16,0.0,0.0,1575420030,,,,0,7.498774732165998,1,6.0,23.280000686645508,0.0,0.0,0.0,66.7128,C,27506057000000,
Raw,1732148622000,20600000000,,694603.1873657075,-1416183819400000000,0.0,87.89707970751581,2096.4280128198843,0.0,0,7,0.0,16431,347039923235791,316,25.611000061035156,1110.6348979291286,0.14999,16,0.0,0.0,1575420030,,,,0,10.866863339953804,1,6.0,25.611000061035156,0.0,0.0,0.0,66.7128,C,27506057000000,
Raw,1732148622000,20600000000,,694603.1873657075,-1416183819400000000,0.0,87.89707970751581,2096.4280128198843,0.0,0,30,0.0,16431,347039930263919,396,24.908000946044922,884.6278043382312,0.14999,16,0.0,0.0,1575420030,,,,0,9.88250288655017,1,6.0,24.908000946044922,0.0,0.0,0.0,66.7128,C,27506057000000,
Raw,1732148622000,20600000000,,694603.1873657075,-1416183819400000000,0.0,87.89707970751581,2096.4280128198843,0.0,0,14,0.0,16431,347039932019865,316,24.47100067138672,740.5226243522213,0.14999,16,0.0,0.0,1575420030,,,,0,9.252161857628874,1,6.0,24.47100067138672,0.0,0.0,0.0,66.7128,C,27506057000000,
Raw,1732148622000,20600000000,,694603.1873657075,-1416183819400000000,0.0,87.89707970751581,2096.4280128198843,0.0,0,22,0.0,16431,347039930845408,235,28.722000122070312,601.3869617730041,0.14999,16,0.0,0.0,1575420030,,,,0,14.963791944836931,1,6.0,28.722000122070312,0.0,0.0,0.0,66.7128,C,27506057000000,
Raw,1732148622000,20600000000,,694603.1873657075,-1416183819400000000,0.0,87.89707970751581,2096.4280128198843,0.0,0,15,0.0,16431,347039924526913,487,21.288000106811523,383.50488767633533,0.14999,16,0.0,0.0,1575420030,,,,0,4.368020278565953,1,6.0,21.288000106811523,0.0,0.0,0.0,66.7128,C,27506057000000,
Raw,1732148622000,20600000000,,694603.1873657075,-1416183819400000000,0.0,87.89707970751581,2096.4280128198843,0.0,0,21,0.0,16431,347039920287717,396,19.0,533.1739275877192,0.14999,16,0.0,0.0,1575420030,,,,0,2.652288025642919,6,6.0,19.0,0.0,0.0,14.88911731326997,66.7128,C,27506057000000,
Raw,1732148622000,20600000000,,694603.1873657075,-1416183819400000000,0.0,87.89707970751581,2096.4280128198843,0.0,0,27,0.0,16431,347039917669669,487,19.399999618530273,917.7087054346098,0.14999,16,0.0,0.0,1575420030,,,,0,3.2315619443492505,6,6.0,19.399999618530273,0.0,0.0,14.88911731326997,66.7128,C,27506057000000,
Raw,1732148622000,20600000000,,694603.1873657075,-1416183819400000000,0.0,87.89707970751581,2096.4280128198843,0.0,0,15,0.0,16431,347039910018814,235,25.600000381469727,347.4256765437691,0.14999,16,0.0,0.0,1575420030,,,,0,11.785889915185274,6,6.0,25.600000381469727,0.0,0.0,14.88911731326997,66.7128,C,27506057000000,
Raw,1732148622000,20600000000,,694603.1873657075,-1416183819400000000,0.0,87.89707970751581,2096.4280128198843,0.0,0,29,0.0,16431,347039917870969,487,15.095999717712402,1063.5795839871173,0.14999,16,0.0,0.0,1575420030,,,,0,0.0,6,6.0,15.095999717712402,0.0,0.0,14.88911731326997,66.7128,C,27506057000000,
Raw,1732148622000,20600000000,,694603.1873657075,-1416183819400000000,0.0,87.89707970751581,2096.4280128198843,0.0,0,21,0.0,16431,347039919189520,235,28.52199935913086,852.8718043553446,0.14999,16,0.0,0.0,1575420030,,,,0,14.718411512454146,1,6.0,28.52199935913086,0.0,0.0,0.0,66.7128,C,27506057000000,
Raw,1732148622000,20600000000,,694603.1873657075,-1416183819400000000,0.0,87.89707970751581,2096.4280128198843,0.0,0,16,0.0,17,267051,487,5.0,1125.4483117079328,0.14999,16,0.0,0.0,1601437440,,,,0,1.6319113922121953,3,6.0,19.0,0.0,0.0,47.89595063612938,66.7128,C,27506057000000,
Raw,1732148622000,20600000000,,694603.1873657075,-1416183819400000000,0.0,87.89707970751581,2096.4280128198843,0.0,0,9,0.0,17,8068,316,5.0,845.4259383718424,0.14999,16,0.0,0.0,1600875010,,,,0,0.0,3,6.0,25.0,0.0,0.0,47.89595063612938,66.7128,C,27506057000000,
Raw,1732148622000,20600000000,,694603.1873657075,-1416183819400000000,0.0,87.89707970751581,2096.4280128198843,0.0,0,8,0.0,17,951364,487,5.0,797.826140162195,0.14999,16,0.0,0.0,1605374980,,,,0,2.0406605879917223,3,6.0,19.0,0.0,0.0,47.89595063612938,66.7128,C,27506057000000,
Raw,1732148622000,20600000000,,694603.1873657075,-1416183819400000000,0.0,87.89707970751581,2096.4280128198843,0.0,0,18,0.0,17,805780,797,5.0,1202.1404614748365,0.14999,16,0.0,0.0,1600312450,,,,0,0.0,3,6.0,17.0,0.0,0.0,47.89595063612938,66.7128,C,27506057000000,
Raw,1732148622000,20600000000,,694603.1873657075,-1416183819400000000,0.0,87.89707970751581,2096.4280128198843,0.0,0,19,0.0,16431,347039925035730,396,25.400999069213867,0.7705592912679882,0.14999,16,0.0,0.0,1575420030,,,,0,10.591097650241139,1,6.0,25.400999069213867,0.0,0.0,0.0,66.7128,C,27506057000000,
Raw,1732148622000,20600000000,,694603.1873657075,-1416183819400000000,0.0,87.89707970751581,2096.4280128198843,0.0,0,13,0.0,16431,347039930805773,316,26.211000442504883,591.9459147227797,0.14999,16,0.0,0.0,1575420030,,,,0,11.680605115338132,1,6.0,26.211000442504883,0.0,0.0,0.0,66.7128,C,27506057000000,
Fix,FLP,37.4243597000,-122.1707820000,2.0,0.028418543,2.583,,1732148622209,2.3,,27506057000000,1.018388,0,,,
Status,1732148622000,29,0,1,14,1575420030,37.20,12.0,69.0,1,0,0,32.2
Status,1732148622000,29,1,1,22,1575420030,31.80,307.0,68.0,1,0,0,26.8
Status,1732148622000,29,2,1,17,1575420030,30.70,168.0,63.0,1,0,0,25.7
Status,1732148622000,29,3,1,30,1575420030,30.00,107.0,58.0,1,0,0,25.0
Status,1732148622000,29,4,1,13,1575420030,31.80,277.0,56.0,1,0,0,26.8
Status,1732148622000,29,5,1,19,1575420030,25.50,194.0,34.0,1,0,0,20.5
Status,1732148622000,29,6,1,15,1575420030,19.00,303.0,27.0,1,0,0,14.0
Status,1732148622000,29,7,1,7,1575420030,30.60,117.0,25.0,1,0,0,25.6
Status,1732148622000,29,8,2,131,1575420030,31.00,3.0,23.0,0,0,0,26.0
Status,1732148622000,29,9,1,2,1575420030,0.00,71.0,21.0,0,0,0,0.0
Status,1732148622000,29,10,1,21,1575420030,33.00,53.0,14.0,1,0,0,28.0
Status,1732148622000,29,11,3,9,1602000000,27.80,46.0,47.0,1,0,0,22.8
Status,1732148622000,29,12,3,8,1602000000,23.00,277.0,39.0,1,0,0,18.0
Status,1732148622000,29,13,3,19,1602000000,0.00,62.0,36.0,0,0,0,0.0
Status,1732148622000,29,14,3,20,1602000000,0.00,140.0,28.0,0,0,0,0.0
Status,1732148622000,29,15,3,18,1602000000,25.30,25.0,11.0,1,0,0,20.3
Status,1732148622000,29,16,3,11,1602000000,0.00,287.0,11.0,0,0,0,0.0
Status,1732148622000,29,17,3,16,1602000000,22.70,83.0,4.0,0,0,0,17.7
Status,1732148622000,29,18,3,17,1602000000,25.70,0.0,0.0,0,0,0,20.7
Status,1732148622000,29,19,6,21,1575420030,24.00,294.0,64.0,1,0,0,19.0
Status,1732148622000,29,20,6,19,1575420030,0.00,275.0,54.0,0,0,0,0.0
Status,1732148622000,29,21,6,27,1575420030,23.50,47.0,48.0,1,0,0,18.5
Status,1732148622000,29,22,6,29,1575420030,28.70,196.0,46.0,1,0,0,23.7
Status,1732148622000,29,23,6,15,1575420030,39.00,83.0,18.0,1,0,0,34.0
Status,1732148622000,29,24,6,4,1575420030,0.00,323.0,11.0,0,0,0,0.0
Status,1732148622000,29,25,6,13,1575420030,0.00,134.0,11.0,0,0,0,0.0
Status,1732148622000,29,26,6,34,1575420030,0.00,35.0,5.0,0,0,0,0.0
Status,1732148622000,29,27,6,7,1575420030,0.00,162.0,4.0,0,0,0,0.0
Status,1732148622000,29,28,6,30,1575420030,0.00,67.0,2.0,0,0,0,0.0
Fix,GPS,37.4243550000,-122.1707883333,2.1000000000000014,0.56413555,2.5,354.21,1732148623000,2.1,179.9,27507057000000,32.2,0,,,
Raw,1732148623000,21600000000,,693548.2387952534,-1416183819400000000,0.0,83.5425721231239,2098.8065852101668,0.0,0,17,0.0,16431,347040931577339,316,25.71500015258789,361.22470886820696,0.14999,16,0.0,0.0,1575420030,,,,0,11.020599913279625,1,6.0,25.71500015258789,0.0,0.0,0.0,66.7128,C,27507057000000,
Raw,1732148623000,21600000000,,693548.2387952534,-1416183819400000000,0.0,83.5425721231239,2098.8065852101668,0.0,0,7,0.0,16431,347040923232086,316,25.611000061035156,1111.5661104236526,0.14999,16,0.0,0.0,1575420030,,,,0,10.866863339953804,1,6.0,25.611000061035156,0.0,0.0,0.0,66.7128,C,27507057000000,
Raw,1732148623000,21600000000,,693548.2387952534,-1416183819400000000,0.0,83.5425721231239,2098.8065852101668,0.0,0,30,0.0,16431,347040930260963,316,24.96299934387207,886.31563859916,0.14999,16,0.0,0.0,1575420030,,,,0,9.968930362203023,1,6.0,24.96299934387207,0.0,0.0,0.0,66.7128,C,27507057000000,
Raw,1732148623000,21600000000,,693548.2387952534,-1416183819400000000,0.0,83.5425721231239,2098.8065852101668,0.0,0,14,0.0,16431,347040932017401,74,32.17599868774414,741.5923758438852,0.14999,16,0.0,0.0,1575420030,,,,0,19.130462844529294,1,6.0,32.17599868774414,0.0,0.0,0.0,66.7128,C,27507057000000,
Raw,1732148623000,21600000000,,693548.2387952534,-1416183819400000000,0.0,83.5425721231239,2098.8065852101668,0.0,0,22,0.0,16431,347040930843398,396,26.791000366210938,602.2604729145947,0.14999,16,0.0,0.0,1575420030,,,,0,12.456948573318709,1,6.0,26.791000366210938,0.0,0.0,0.0,66.7128,C,27507057000000,
Raw,1732148623000,21600000000,,693548.2387952534,-1416183819400000000,0.0,83.5425721231239,2098.8065852101668,0.0,0,21,0.0,16431,347040920285937,396,19.049999237060547,534.5235445786353,0.14999,16,0.0,0.0,1575420030,,,,0,4.202569759246154,6,6.0,19.049999237060547,0.0,0.0,17.00174760619749,66.7128,C,27507057000000,
Raw,1732148623000,21600000000,,693548.2387952534,-1416183819400000000,0.0,83.5425721231239,2098.8065852101668,0.0,0,27,0.0,16431,347040917666608,235,18.5,918.1882492067349,0.14999,16,0.0,0.0,1575420030,,,,0,1.7037950270801567,6,6.0,18.5,0.0,0.0,17.00174760619749,66.7128,C,27507057000000,
Raw,1732148623000,21600000000,,693548.2387952534,-1416183819400000000,0.0,83.5425721231239,2098.8065852101668,0.0,0,15,0.0,16431,347040910017656,58,34.0,347.8374607158512,0.14999,16,0.0,0.0,1575420030,,,,0,21.374701713353915,6,6.0,34.0,0.0,0.0,17.00174760619749,66.7128,C,27507057000000,
Raw,1732148623000,21600000000,,693548.2387952534,-1416183819400000000,0.0,83.5425721231239,2098.8065852101668,0.0,0,29,0.0,16431,347040917867419,316,23.700000762939453,1064.4414805246552,0.14999,16,0.0,0.0,1575420030,,,,0,9.436974992327128,6,6.0,23.700000762939453,0.0,0.0,17.00174760619749,66.7128,C,27507057000000,
Raw,1732148623000,21600000000,,693548.2387952534,-1416183819400000000,0.0,83.5425721231239,2098.8065852101668,0.0,0,21,0.0,16431,347040919186676,235,28.016000747680664,853.4393403677725,0.14999,16,0.0,0.0,1575420030,,,,0,14.07280317740279,1,6.0,28.016000747680664,0.0,0.0,0.0,66.7128,C,27507057000000,
Raw,1732148623000,21600000000,,693548.2387952534,-1416183819400000000,0.0,83.5425721231239,2098.8065852101668,0.0,0,16,0.0,17,263298,487,5.0,1124.8633051552263,0.14999,16,0.0,0.0,1601437440,,,,0,0.31833587933264074,3,6.0,20.0,0.0,0.0,40.61981272172675,66.7128,C,27507057000000,
Raw,1732148623000,21600000000,,693548.2387952534,-1416183819400000000,0.0,83.5425721231239,2098.8065852101668,0.0,0,9,0.0,17,5247,396,5.0,845.8318378314465,0.14999,16,0.0,0.0,1600875010,,,,0,8.238179090696267,3,6.0,23.0,0.0,0.0,40.61981272172675,66.7128,C,27507057000000,
Raw,1732148623000,21600000000,,693548.2387952534,-1416183819400000000,0.0,83.5425721231239,2098.8065852101668,0.0,0,8,0.0,17,948711,396,5.0,798.940762125093,0.14999,16,0.0,0.0,1605374980,,,,0,4.030307531458008,3,6.0,21.0,0.0,0.0,40.61981272172675,66.7128,C,27507057000000,
Raw,1732148623000,21600000000,,693548.2387952534,-1416183819400000000,0.0,83.5425721231239,2098.8065852101668,0.0,0,18,0.0,17,801777,487,5.0,1201.4104271775502,0.14999,16,0.0,0.0,1600312450,,,,0,4.676264778134494,3,6.0,20.0,0.0,0.0,40.61981272172675,66.7128,C,27507057000000,
Raw,1732148623000,21600000000,,693548.2387952534,-1416183819400000000,0.0,83.5425721231239,2098.8065852101668,0.0,0,19,0.0,16431,347040925035719,487,20.5049991607666,1.7827952636631967,0.14999,16,0.0,0.0,1575420030,,,,0,3.0427308196924203,1,6.0,20.5049991607666,0.0,0.0,0.0,66.7128,C,27507057000000,
Raw,1732148623000,21600000000,,693548.2387952534,-1416183819400000000,0.0,83.5425721231239,2098.8065852101668,0.0,0,13,0.0,16431,347040930803790,316,26.812999725341797,593.6754686414655,0.14999,16,0.0,0.0,1575420030,,,,0,12.489178256450295,1,6.0,26.812999725341797,0.0,0.0,0.0,66.7128,C,27507057000000,
Raw,1732148623000,21600000000,,693548.2387952534,-1416183819400000000,0.0,83.5425721231239,2098.8065852101668,0.0,0,15,0.0,16431,347040924525537,797,14.0,383.4899048371074,0.14999,16,0.0,0.0,1575420030,,,,0,0.0,1,6.0,14.0,0.0,0.0,0.0,66.7128,C,27507057000000,
Fix,FLP,37.4243575000,-122.1707850000,2.0,0.020252774,2.583,,1732148623209,2.1,,27507057000000,1.0283787,0,,,
Status,1732148623000,29,0,1,14,1575420030,33.20,12.0,69.0,1,0,0,28.2
Status,1732148623000,29,1,1,22,1575420030,27.80,307.0,68.0,1,0,0,22.8
Status,1732148623000,29,2,1,17,1575420030,30.70,168.0,63.0,1,0,0,25.7
Status,1732148623000,29,3,1,30,1575420030,33.10,107.0,58.0,1,0,0,28.099998
Status,1732148623000,29,4,1,13,1575420030,30.40,277.0,56.0,1,0,0,25.4
Status,1732148623000,29,5,1,19,1575420030,29.20,194.0,34.0,1,0,0,24.2
Status,1732148623000,29,6,1,15,1575420030,23.30,303.0,27.0,1,0,0,18.3
Status,1732148623000,29,7,1,7,1575420030,30.10,117.0,25.0,1,0,0,25.1
Status,1732148623000,29,8,2,131,1575420030,27.00,3.0,23.0,0,0,0,22.0
Status,1732148623000,29,9,1,2,1575420030,0.00,71.0,21.0,0,0,0,0.0
Status,1732148623000,29,10,1,21,1575420030,32.60,53.0,14.0,1,0,0,27.599998
Status,1732148623000,29,11,3,9,1602000000,27.80,46.0,47.0,1,0,0,22.8
Status,1732148623000,29,12,3,8,1602000000,23.10,277.0,39.0,1,0,0,18.1
Status,1732148623000,29,13,3,19,1602000000,0.00,62.0,36.0,0,0,0,0.0
Status,1732148623000,29,14,3,20,1602000000,0.00,140.0,28.0,0,0,0,0.0
Status,1732148623000,29,15,3,18,1602000000,23.10,25.0,11.0,1,0,0,18.1
Status,1732148623000,29,16,3,11,1602000000,0.00,287.0,11.0,0,0,0,0.0
Status,1732148623000,29,17,3,16,1602000000,25.10,83.0,4.0,0,0,0,20.1
Status,1732148623000,29,18,3,17,1602000000,29.00,0.0,0.0,0,0,0,24.0
Status,1732148623000,29,19,6,21,1575420030,24.10,294.0,64.0,1,0,0,19.1
Status,1732148623000,29,20,6,19,1575420030,0.00,275.0,54.0,0,0,0,0.0
Status,1732148623000,29,21,6,27,1575420030,23.60,47.0,48.0,1,0,0,18.6
Status,1732148623000,29,22,6,29,1575420030,23.80,196.0,46.0,1,0,0,18.8
Status,1732148623000,29,23,6,15,1575420030,32.50,83.0,18.0,1,0,0,27.5
Status,1732148623000,29,24,6,4,1575420030,0.00,323.0,11.0,0,0,0,0.0
Status,1732148623000,29,25,6,13,1575420030,0.00,134.0,11.0,0,0,0,0.0
Status,1732148623000,29,26,6,34,1575420030,0.00,35.0,5.0,0,0,0,0.0
Status,1732148623000,29,27,6,7,1575420030,0.00,162.0,4.0,0,0,0,0.0
Status,1732148623000,29,28,6,30,1575420030,0.00,67.0,2.0,0,0,0,0.0
Fix,GPS,37.4243600000,-122.1707900000,2.1000000000000014,0.61663723,2.5,3.84,1732148624000,2.4,98.5,27508057000000,32.6,0,,,
Raw,1732148624000,22600000000,,692639.6414715677,-1416183819400000000,0.0,84.22738349616398,2102.078624194193,0.0,0,17,0.0,16431,347041931576131,487,25.71500015258789,362.61871687581225,0.14999,16,0.0,0.0,1575420030,,,,0,11.020599913279625,1,6.0,25.71500015258789,0.0,0.0,0.0,66.7128,C,27508057000000,
Raw,1732148624000,22600000000,,692639.6414715677,-1416183819400000000,0.0,84.22738349616398,2102.078624194193,0.0,0,7,0.0,16431,347041923228377,316,25.131000518798828,1112.5985093486831,0.14999,16,0.0,0.0,1575420030,,,,0,10.223169672525778,1,6.0,25.131000518798828,0.0,0.0,0.0,66.7128,C,27508057000000,
Raw,1732148624000,22600000000,,692639.6414715677,-1416183819400000000,0.0,84.22738349616398,2102.078624194193,0.0,0,30,0.0,16431,347041930258012,235,28.113000869750977,885.9981417827771,0.14999,16,0.0,0.0,1575420030,,,,0,14.17937984750413,1,6.0,28.113000869750977,0.0,0.0,0.0,66.7128,C,27508057000000,
Raw,1732148624000,22600000000,,692639.6414715677,-1416183819400000000,0.0,84.22738349616398,2102.078624194193,0.0,0,14,0.0,16431,347041932014926,235,28.17099952697754,741.5252898908772,0.14999,16,0.0,0.0,1575420030,,,,0,14.258462848784923,1,6.0,28.17099952697754,0.0,0.0,0.0,66.7128,C,27508057000000,
Raw,1732148624000,22600000000,,692639.6414715677,-1416183819400000000,0.0,84.22738349616398,2102.078624194193,0.0,0,22,0.0,16431,347041930841379,396,22.812999725341797,603.7443082699431,0.14999,16,0.0,0.0,1575420030,,,,0,6.784463686835309,1,6.0,22.812999725341797,0.0,0.0,0.0,66.7128,C,27508057000000,
Raw,1732148624000,22600000000,,692639.6414715677,-1416183819400000000,0.0,84.22738349616398,2102.078624194193,0.0,0,21,0.0,16431,347041920284148,487,19.091999053955078,535.3592385694305,0.14999,16,0.0,0.0,1575420030,,,,0,4.0339064085089,6,6.0,19.091999053955078,0.0,0.0,19.138400682887244,66.7128,C,27508057000000,
Raw,1732148624000,22600000000,,692639.6414715677,-1416183819400000000,0.0,84.22738349616398,2102.078624194193,0.0,0,27,0.0,16431,347041917663542,316,18.600000381469727,919.5396316174671,0.14999,16,0.0,0.0,1575420030,,,,0,2.0316033508435427,6,6.0,18.600000381469727,0.0,0.0,19.138400682887244,66.7128,C,27508057000000,
Raw,1732148624000,22600000000,,692639.6414715677,-1416183819400000000,0.0,84.22738349616398,2102.078624194193,0.0,0,15,0.0,16431,347041910016491,74,27.5,349.1507007668745,0.14999,16,0.0,0.0,1575420030,,,,0,14.07280317740279,6,6.0,27.5,0.0,0.0,19.138400682887244,66.7128,C,27508057000000,
Raw,1732148624000,22600000000,,692639.6414715677,-1416183819400000000,0.0,84.22738349616398,2102.078624194193,0.0,0,29,0.0,16431,347041917863866,396,18.799999237060547,1065.3816130350917,0.14999,16,0.0,0.0,1575420030,,,,0,2.347488694508181,6,6.0,18.799999237060547,0.0,0.0,19.138400682887244,66.7128,C,27508057000000,
Raw,1732148624000,22600000000,,692639.6414715677,-1416183819400000000,0.0,84.22738349616398,2102.078624194193,0.0,0,21,0.0,16431,347041919183827,316,27.621000289916992,853.9883859305487,0.14999,16,0.0,0.0,1575420030,,,,0,13.547899760206265,1,6.0,27.621000289916992,0.0,0.0,0.0,66.7128,C,27508057000000,
Raw,1732148624000,22600000000,,692639.6414715677,-1416183819400000000,0.0,84.22738349616398,2102.078624194193,0.0,0,16,0.0,17,259551,487,5.0,1123.289363306624,0.14999,16,0.0,0.0,1601437440,,,,0,4.356306332571975,3,6.0,20.0,0.0,0.0,44.908803217819745,66.7128,C,27508057000000,
Raw,1732148624000,22600000000,,692639.6414715677,-1416183819400000000,0.0,84.22738349616398,2102.078624194193,0.0,0,9,0.0,17,2425,316,5.0,846.8962837898268,0.14999,16,0.0,0.0,1600875010,,,,0,9.321091180014019,3,6.0,24.0,0.0,0.0,44.908803217819745,66.7128,C,27508057000000,
Raw,1732148624000,22600000000,,692639.6414715677,-1416183819400000000,0.0,84.22738349616398,2102.078624194193,0.0,0,8,0.0,17,946043,797,5.0,800.3278391293147,0.14999,16,0.0,0.0,1605374980,,,,0,4.030307531458008,3,6.0,17.0,0.0,0.0,44.908803217819745,66.7128,C,27508057000000,
Raw,1732148624000,22600000000,,692639.6414715677,-1416183819400000000,0.0,84.22738349616398,2102.078624194193,0.0,0,18,0.0,17,797777,487,5.0,1198.2019717193853,0.14999,16,0.0,0.0,1600312450,,,,0,1.0437898250216495,3,6.0,19.0,0.0,0.0,44.908803217819745,66.7128,C,27508057000000,
Raw,1732148624000,22600000000,,692639.6414715677,-1416183819400000000,0.0,84.22738349616398,2102.078624194193,0.0,0,19,0.0,16431,347041925035707,316,24.229999542236328,1.6392852159888438,0.14999,16,0.0,0.0,1575420030,,,,0,8.918963592868412,1,6.0,24.229999542236328,0.0,0.0,0.0,66.7128,C,27508057000000,
Raw,1732148624000,22600000000,,692639.6414715677,-1416183819400000000,0.0,84.22738349616398,2102.078624194193,0.0,0,13,0.0,16431,347041930801808,316,25.375,594.4209403879798,0.14999,16,0.0,0.0,1575420030,,,,0,10.550977996289166,1,6.0,25.375,0.0,0.0,0.0,66.7128,C,27508057000000,
Raw,1732148624000,22600000000,,692639.6414715677,-1416183819400000000,0.0,84.22738349616398,2102.078624194193,0.0,0,15,0.0,16431,347041924524183,487,18.30500030517578,385.11929441044344,0.14999,16,0.0,0.0,1575420030,,,,0,0.0,1,6.0,18.30500030517578,0.0,0.0,0.0,66.7128,C,27508057000000,
Fix,FLP,37.4243589000,-122.1707873000,2.0,0.02821363,2.566,,1732148624209,2.4,,27508057000000,1.0383966,0,,,
Status,1732148624000,29,0,1,14,1575420030,31.70,12.0,69.0,1,0,0,26.7
Status,1732148624000,29,1,1,22,1575420030,0.00,307.0,68.0,0,0,0,0.0
Status,1732148624000,29,2,1,17,1575420030,30.70,168.0,63.0,1,0,0,25.7
Status,1732148624000,29,3,1,30,1575420030,32.40,107.0,58.0,1,0,0,27.400002
Status,1732148624000,29,4,1,13,1575420030,28.00,277.0,56.0,1,0,0,23.0
Status,1732148624000,29,5,1,19,1575420030,27.00,194.0,34.0,1,0,0,22.0
Status,1732148624000,29,6,1,15,1575420030,27.60,303.0,27.0,1,0,0,22.6
Status,1732148624000,29,7,1,7,1575420030,33.10,117.0,25.0,1,0,0,28.099998
Status,1732148624000,29,8,2,131,1575420030,31.00,3.0,23.0,0,0,0,26.0
Status,1732148624000,29,9,1,2,1575420030,0.00,71.0,21.0,0,0,0,0.0
Status,1732148624000,29,10,1,21,1575420030,31.30,53.0,14.0,1,0,0,26.3
Status,1732148624000,29,11,3,9,1602000000,25.30,46.0,47.0,1,0,0,20.3
Status,1732148624000,29,12,3,8,1602000000,23.20,277.0,39.0,1,0,0,18.2
Status,1732148624000,29,13,3,19,1602000000,0.00,62.0,36.0,0,0,0,0.0
Status,1732148624000,29,14,3,20,1602000000,0.00,140.0,28.0,0,0,0,0.0
Status,1732148624000,29,15,3,18,1602000000,23.90,25.0,11.0,1,0,0,18.9
Status,1732148624000,29,16,3,11,1602000000,0.00,287.0,11.0,0,0,0,0.0
Status,1732148624000,29,17,3,16,1602000000,23.40,83.0,4.0,0,0,0,18.4
Status,1732148624000,29,18,3,17,1602000000,26.70,0.0,0.0,0,0,0,21.7
Status,1732148624000,29,19,6,21,1575420030,24.10,294.0,64.0,1,0,0,19.1
Status,1732148624000,29,20,6,19,1575420030,0.00,275.0,54.0,0,0,0,0.0
Status,1732148624000,29,21,6,27,1575420030,24.50,47.0,48.0,1,0,0,19.5
Status,1732148624000,29,22,6,29,1575420030,25.20,196.0,46.0,1,0,0,20.2
Status,1732148624000,29,23,6,15,1575420030,33.30,83.0,18.0,1,0,0,28.3
Status,1732148624000,29,24,6,4,1575420030,0.00,323.0,11.0,0,0,0,0.0
Status,1732148624000,29,25,6,13,1575420030,0.00,134.0,11.0,0,0,0,0.0
Status,1732148624000,29,26,6,34,1575420030,0.00,35.0,5.0,0,0,0,0.0
Status,1732148624000,29,27,6,7,1575420030,0.00,162.0,4.0,0,0,0,0.0
Status,1732148624000,29,28,6,30,1575420030,0.00,67.0,2.0,0,0,0,0.0
Fix,GPS,37.4243766667,-122.1707850000,2.1000000000000014,0.0,2.5,3.84,1732148625000,2.6,79.7,27509057000000,32.3,0,,,
Raw,1732148625000,23600000000,,691964.4868951306,-1416183819400000000,0.0,83.05781471678554,2105.872716730018,0.0,0,17,0.0,16431,347042931574918,316,25.69499969482422,362.8511251029055,0.14999,16,0.0,0.0,1575420030,,,,0,10.470178440254365,1,6.0,25.69499969482422,0.0,0.0,0.0,66.7128,C,27509057000000,
Raw,1732148625000,23600000000,,691964.4868951306,-1416183819400000000,0.0,83.05781471678554,2105.872716730018,0.0,0,7,0.0,16431,347042923224663,235,28.113000869750977,1113.419987064118,0.14999,16,0.0,0.0,1575420030,,,,0,14.17937984750413,1,6.0,28.113000869750977,0.0,0.0,0.0,66.7128,C,27509057000000,
Raw,1732148625000,23600000000,,691964.4868951306,-1416183819400000000,0.0,83.05781471678554,2105.872716730018,0.0,0,30,0.0,16431,347042930255050,235,27.437000274658203,887.1676859524613,0.14999,16,0.0,0.0,1575420030,,,,0,13.317031959614795,1,6.0,27.437000274658203,0.0,0.0,0.0,66.7128,C,27509057000000,
Raw,1732148625000,23600000000,,691964.4868951306,-1416183819400000000,0.0,83.05781471678554,2105.872716730018,0.0,0,14,0.0,16431,347042932012451,316,26.67799949645996,743.6271150986581,0.14999,16,0.0,0.0,1575420030,,,,0,12.326820452006704,1,6.0,26.67799949645996,0.0,0.0,0.0,66.7128,C,27509057000000,
Raw,1732148625000,23600000000,,691964.4868951306,-1416183819400000000,0.0,83.05781471678554,2105.872716730018,0.0,0,21,0.0,16431,347042920282359,487,19.062000274658203,537.2159027148684,0.14999,16,0.0,0.0,1575420030,,,,0,1.7037950270801567,6,6.0,19.062000274658203,0.0,0.0,19.190467065342716,66.7128,C,27509057000000,
Raw,1732148625000,23600000000,,691964.4868951306,-1416183819400000000,0.0,83.05781471678554,2105.872716730018,0.0,0,27,0.0,16431,347042917660477,396,19.5,920.1946023692033,0.14999,16,0.0,0.0,1575420030,,,,0,3.416375079047504,6,6.0,19.5,0.0,0.0,19.190467065342716,66.7128,C,27509057000000,
Raw,1732148625000,23600000000,,691964.4868951306,-1416183819400000000,0.0,83.05781471678554,2105.872716730018,0.0,0,15,0.0,16431,347042910015328,235,28.299999237060547,349.7064131123768,0.14999,16,0.0,0.0,1575420030,,,,0,15.012047011383707,6,6.0,28.299999237060547,0.0,0.0,19.190467065342716,66.7128,C,27509057000000,
Raw,1732148625000,23600000000,,691964.4868951306,-1416183819400000000,0.0,83.05781471678554,2105.872716730018,0.0,0,29,0.0,16431,347042917860307,396,20.200000762939453,1066.0353758680064,0.14999,16,0.0,0.0,1575420030,,,,0,4.530378083009541,6,6.0,20.200000762939453,0.0,0.0,19.190467065342716,66.7128,C,27509057000000,
Raw,1732148625000,23600000000,,691964.4868951306,-1416183819400000000,0.0,83.05781471678554,2105.872716730018,0.0,0,21,0.0,16431,347042919180973,316,26.283000946044922,854.7902581943425,0.14999,16,0.0,0.0,1575420030,,,,0,11.785889915185274,1,6.0,26.283000946044922,0.0,0.0,0.0,66.7128,C,27509057000000,
Raw,1732148625000,23600000000,,691964.4868951306,-1416183819400000000,0.0,83.05781471678554,2105.872716730018,0.0,0,16,0.0,17,255804,487,5.0,1125.4668673845265,0.14999,16,0.0,0.0,1601437440,,,,0,1.6319113922121953,3,6.0,19.0,0.0,0.0,36.91785042945826,66.7128,C,27509057000000,
Raw,1732148625000,23600000000,,691964.4868951306,-1416183819400000000,0.0,83.05781471678554,2105.872716730018,0.0,0,9,0.0,17,999597,487,5.0,848.0323267918814,0.14999,16,0.0,0.0,1600875010,,,,0,4.734355759835892,3,6.0,20.0,0.0,0.0,36.91785042945826,66.7128,C,27509057000000,
Raw,1732148625000,23600000000,,691964.4868951306,-1416183819400000000,0.0,83.05781471678554,2105.872716730018,0.0,0,8,0.0,17,943361,487,5.0,801.3652290239394,0.14999,16,0.0,0.0,1605374980,,,,0,4.030307531458008,3,6.0,20.0,0.0,0.0,36.91785042945826,66.7128,C,27509057000000,
Raw,1732148625000,23600000000,,691964.4868951306,-1416183819400000000,0.0,83.05781471678554,2105.872716730018,0.0,0,18,0.0,17,793834,797,5.0,1201.4209464037358,0.14999,16,0.0,0.0,1600312450,,,,0,2.430319652541007,3,6.0,16.0,0.0,0.0,36.91785042945826,66.7128,C,27509057000000,
Raw,1732148625000,23600000000,,691964.4868951306,-1416183819400000000,0.0,83.05781471678554,2105.872716730018,0.0,0,19,0.0,16431,347042925035650,396,22.025999069213867,3.460687423522998,0.14999,16,0.0,0.0,1575420030,,,,0,5.589099586765513,1,6.0,22.025999069213867,0.0,0.0,0.0,66.7128,C,27509057000000,
Raw,1732148625000,23600000000,,691964.4868951306,-1416183819400000000,0.0,83.05781471678554,2105.872716730018,0.0,0,13,0.0,16431,347042930799820,487,22.993000030517578,595.9933719430417,0.14999,16,0.0,0.0,1575420030,,,,0,7.089263017970046,1,6.0,22.993000030517578,0.0,0.0,0.0,66.7128,C,27509057000000,
Raw,1732148625000,23600000000,,691964.4868951306,-1416183819400000000,0.0,83.05781471678554,2105.872716730018,0.0,0,15,0.0,16431,347042924523109,396,22.62299919128418,386.74459564315293,0.14999,16,0.0,0.0,1575420030,,,,0,6.532681140674898,1,6.0,22.62299919128418,0.0,0.0,0.0,66.7128,C,27509057000000,
Fix,FLP,37.4243677000,-122.1707862000,2.0,0.044369686,2.55,,1732148625209,2.6,,27509057000000,1.0483931,0,,,
Status,1732148625000,29,0,1,14,1575420030,31.30,12.0,69.0,1,0,0,26.3
Status,1732148625000,29,1,1,22,1575420030,28.00,307.0,68.0,1,0,0,23.0
Status,1732148625000,29,2,1,17,1575420030,30.30,168.0,63.0,1,0,0,25.3
Status,1732148625000,29,3,1,30,1575420030,40.90,107.0,58.0,1,0,0,35.9
Status,1732148625000,29,4,1,13,1575420030,30.00,277.0,56.0,1,0,0,25.0
Status,1732148625000,29,5,1,19,1575420030,29.80,194.0,34.0,1,0,0,24.8
Status,1732148625000,29,6,1,15,1575420030,26.40,303.0,27.0,1,0,0,21.4
Status,1732148625000,29,7,1,7,1575420030,30.40,117.0,25.0,1,0,0,25.4
Status,1732148625000,29,8,2,131,1575420030,30.00,3.0,23.0,0,0,0,25.0
Status,1732148625000,29,9,1,2,1575420030,0.00,71.0,21.0,0,0,0,0.0
Status,1732148625000,29,10,1,21,1575420030,29.60,53.0,14.0,1,0,0,24.6
Status,1732148625000,29,11,3,9,1602000000,29.90,46.0,47.0,1,0,0,24.9
Status,1732148625000,29,12,3,8,1602000000,28.50,277.0,39.0,1,0,0,23.5
Status,1732148625000,29,13,3,19,1602000000,0.00,62.0,36.0,0,0,0,0.0
Status,1732148625000,29,14,3,20,1602000000,0.00,140.0,28.0,0,0,0,0.0
Status,1732148625000,29,15,3,18,1602000000,23.90,25.0,11.0,1,0,0,18.9
Status,1732148625000,29,16,3,11,1602000000,0.00,287.0,11.0,0,0,0,0.0
Status,1732148625000,29,17,3,16,1602000000,27.40,83.0,4.0,0,0,0,22.4
Status,1732148625000,29,18,3,17,1602000000,27.10,0.0,0.0,0,0,0,22.1
Status,1732148625000,29,19,6,21,1575420030,20.70,294.0,64.0,1,0,0,15.700001
Status,1732148625000,29,20,6,19,1575420030,0.00,275.0,54.0,0,0,0,0.0
Status,1732148625000,29,21,6,27,1575420030,28.00,47.0,48.0,1,0,0,23.0
Status,1732148625000,29,22,6,29,1575420030,23.30,196.0,46.0,1,0,0,18.3
Status,1732148625000,29,23,6,15,1575420030,31.30,83.0,18.0,1,0,0,26.3
Status,1732148625000,29,24,6,4,1575420030,0.00,323.0,11.0,0,0,0,0.0
Status,1732148625000,29,25,6,13,1575420030,0.00,134.0,11.0,0,0,0,0.0
Status,1732148625000,29,26,6,34,1575420030,0.00,35.0,5.0,0,0,0,0.0
Status,1732148625000,29,27,6,7,1575420030,0.00,162.0,4.0,0,0,0,0.0
Status,1732148625000,29,28,6,30,1575420030,0.00,67.0,2.0,0,0,0,0.0
