# 
# Header Description:
# 
# Version: v3.1.0.3 Platform: 13 Manufacturer: samsung Model: SM-S135DL GNSS Hardware Model Name: MediaTek,MT6631,MTK_MNLD_default,MNL_VER_default
# 
# Raw,utcTimeMillis,TimeNanos,LeapSecond,TimeUncertaintyNanos,FullBiasNanos,BiasNanos,BiasUncertaintyNanos,DriftNanosPerSecond,DriftUncertaintyNanosPerSecond,HardwareClockDiscontinuityCount,Svid,TimeOffsetNanos,State,ReceivedSvTimeNanos,ReceivedSvTimeUncertaintyNanos,Cn0DbHz,PseudorangeRateMetersPerSecond,PseudorangeRateUncertaintyMetersPerSecond,AccumulatedDeltaRangeState,AccumulatedDeltaRangeMeters,AccumulatedDeltaRangeUncertaintyMeters,CarrierFrequencyHz,CarrierCycles,CarrierPhase,CarrierPhaseUncertainty,MultipathIndicator,SnrInDb,ConstellationType,AgcDb,BasebandCn0DbHz,FullInterSignalBiasNanos,FullInterSignalBiasUncertaintyNanos,SatelliteInterSignalBiasNanos,SatelliteInterSignalBiasUncertaintyNanos,CodeType,ChipsetElapsedRealtimeNanos,IsFullTracking
# 
# UncalAccel,utcTimeMillis,elapsedRealtimeNanos,UncalAccelXMps2,UncalAccelYMps2,UncalAccelZMps2,BiasXMps2,BiasYMps2,BiasZMps2
# 
# Accel,utcTimeMillis,elapsedRealtimeNanos,AccelXMps2,AccelYMps2,AccelZMps2
# 
# UncalGyro,utcTimeMillis,elapsedRealtimeNanos,UncalGyroXRadPerSec,UncalGyroYRadPerSec,UncalGyroZRadPerSec,DriftXRadPerSec,DriftYRadPerSec,DriftZRadPerSec
# 
# Gyro,utcTimeMillis,elapsedRealtimeNanos,GyroXRadPerSec,GyroYRadPerSec,GyroZRadPerSec
# 
# UncalMag,utcTimeMillis,elapsedRealtimeNanos,UncalMagXMicroT,UncalMagYMicroT,UncalMagZMicroT,BiasXMicroT,BiasYMicroT,BiasZMicroT
# 
# Mag,utcTimeMillis,elapsedRealtimeNanos,MagXMicroT,MagYMicroT,MagZMicroT
# 
# Pressure,utcTimeMillis,elapsedRealtimeNanos,PressureHpa
# 
# OrientationDeg,utcTimeMillis,elapsedRealtimeNanos,yawDeg,rollDeg,pitchDeg
# 
# Fix,Provider,LatitudeDegrees,LongitudeDegrees,AltitudeMeters,SpeedMps,AccuracyMeters,BearingDegrees,UnixTimeMillis,SpeedAccuracyMps,BearingAccuracyDegrees,elapsedRealtimeNanos,VerticalAccuracyMeters,MockLocation,NumberOfUsedSignals,VerticalSpeedAccuracyMps,SolutionType
# 
# Nav,Svid,Type,Status,MessageId,Sub-messageId,Data(Bytes)
# 
# Status,UnixTimeMillis,SignalCount,SignalIndex,ConstellationType,Svid,CarrierFrequencyHz,Cn0DbHz,AzimuthDegrees,ElevationDegrees,UsedInFix,HasAlmanacData,HasEphemerisData,BasebandCn0DbHz
# 
# Agc,utcTimeMillis,TimeNanos,LeapSecond,TimeUncertaintyNanos,FullBiasNanos,BiasNanos,BiasUncertaintyNanos,DriftNanosPerSecond,DriftUncertaintyNanosPerSecond,HardwareClockDiscontinuityCount,AgcDb,CarrierFrequencyHz,ConstellationType
# 
Fix,FLP,37.4244300000,-122.1708030000,2.0,0.018893981,2.45,,1732148899209,1.2,,27783057000000,0.82422894,0,,,
Status,,28,0,1,22,1575420030,0.00,312.0,68.0,0,0,0,0.0
Status,,28,1,1,14,1575420030,30.10,17.0,67.0,1,0,0,25.1
Status,,28,2,1,17,1575420030,27.90,166.0,66.0,1,0,0,22.9
Status,,28,3,1,30,1575420030,26.20,110.0,57.0,1,0,0,21.2
Status,,28,4,1,13,1575420030,32.90,273.0,56.0,1,0,0,27.900002
Status,,28,5,2,133,1575420030,28.00,191.0,45.0,0,0,0,23.0
Status,,28,6,1,19,1575420030,24.50,194.0,36.0,1,0,0,19.5
Status,,28,7,1,15,1575420030,30.50,300.0,28.0,1,0,0,25.5
Status,,28,8,1,7,1575420030,43.00,119.0,23.0,1,0,0,38.0
Status,,28,9,1,2,1575420030,30.30,69.0,21.0,1,0,0,25.3
Status,,28,10,1,21,1575420030,35.60,51.0,13.0,1,0,0,30.599998
Status,,28,11,3,9,1602000000,24.00,49.0,46.0,1,0,0,19.0
Status,,28,12,3,8,1602000000,26.80,274.0,38.0,1,0,0,21.8
Status,,28,13,3,19,1602000000,25.40,59.0,35.0,1,0,0,20.4
Status,,28,14,3,20,1602000000,0.00,139.0,30.0,0,0,0,0.0
Status,,28,15,3,11,1602000000,0.00,289.0,13.0,0,0,0,0.0
Status,,28,16,3,18,1602000000,24.00,24.0,10.0,1,0,0,19.0
Status,,28,17,3,16,1602000000,0.00,84.0,3.0,0,0,0,0.0
Status,,28,18,3,17,1602000000,23.10,0.0,0.0,0,0,0,18.1
Status,,28,19,6,21,1575420030,21.00,298.0,64.0,1,0,0,16.0
Status,,28,20,6,19,1575420030,20.50,272.0,54.0,1,0,0,15.5
Status,,28,21,6,27,1575420030,28.60,49.0,47.0,1,0,0,23.6
Status,,28,22,6,29,1575420030,17.60,196.0,44.0,1,0,0,12.6
Status,,28,23,6,15,1575420030,0.00,81.0,19.0,0,0,0,0.0
Status,,28,24,6,13,1575420030,0.00,133.0,13.0,0,0,0,0.0
Status,,28,25,6,4,1575420030,0.00,322.0,12.0,0,0,0,0.0
Status,,28,26,6,34,1575420030,0.00,34.0,5.0,0,0,0,0.0
Status,,28,27,6,7,1575420030,0.00,162.0,2.0,0,0,0,0.0
Fix,GPS,37.4244183333,-122.1707950000,3.0,0.15184306,2.5,87.79,1732148900000,1.1,179.9,27784057000000,37.8,0,,,
Fix,FLP,37.4244244000,-122.1707991000,2.0,0.0032743847,2.45,,1732148900209,1.1,,27784057000000,0.8341642,0,,,
Raw,1732148900001,15498000000,,699869.3305186484,-1416184102503000064,0.0,91.95938914508449,2069.0333627680743,0.0,0,7,0.0,16431,347317923308876,51,38.00400161743164,1117.9942827242076,0.14999,16,0.0,0.0,1575420030,,,,0,25.655986409330033,1,6.0,38.00400161743164,0.0,0.0,0.0,66.7128,C,27784057000000,
Raw,1732148900001,15498000000,,699869.3305186484,-1416184102503000064,0.0,91.95938914508449,2069.0333627680743,0.0,0,14,0.0,16431,347317932436255,396,25.075000762939453,747.1409974087422,0.14999,16,0.0,0.0,1575420030,,,,0,10.113765937682711,1,6.0,25.075000762939453,0.0,0.0,0.0,66.7128,C,27784057000000,
Raw,1732148900001,15498000000,,699869.3305186484,-1416184102503000064,0.0,91.95938914508449,2069.0333627680743,0.0,0,19,0.0,16431,347317926138390,487,19.52899932861328,7.054478209489188,0.14999,16,0.0,0.0,1575420030,,,,0,1.4406547189112686,1,6.0,19.52899932861328,0.0,0.0,0.0,66.7128,C,27784057000000,
Raw,1732148900001,15498000000,,699869.3305186484,-1416184102503000064,0.0,91.95938914508449,2069.0333627680743,0.0,0,30,0.0,16431,347317930543194,235,21.238000869750977,898.5827046490554,0.14999,16,0.0,0.0,1575420030,,,,0,4.298515769165824,1,6.0,21.238000869750977,0.0,0.0,0.0,66.7128,C,27784057000000,
Raw,1732148900001,15498000000,,699869.3305186484,-1416184102503000064,0.0,91.95938914508449,2069.0333627680743,0.0,0,13,0.0,16431,347317931349413,316,27.858999252319336,620.7642096734252,0.14999,16,0.0,0.0,1575420030,,,,0,13.867957649378248,1,6.0,27.858999252319336,0.0,0.0,0.0,66.7128,C,27784057000000,
Raw,1732148900001,15498000000,,699869.3305186484,-1416184102503000064,0.0,91.95938914508449,2069.0333627680743,0.0,0,17,0.0,16431,347317932340198,396,22.857999801635742,382.99266040840604,0.14999,16,0.0,0.0,1575420030,,,,0,6.878090057366624,1,6.0,22.857999801635742,0.0,0.0,0.0,66.7128,C,27784057000000,
Raw,1732148900001,15498000000,,699869.3305186484,-1416184102503000064,0.0,91.95938914508449,2069.0333627680743,0.0,0,15,0.0,16431,347317925265265,396,25.472999572753906,410.26159040763827,0.14999,16,0.0,0.0,1575420030,,,,0,10.676937476424843,1,6.0,25.472999572753906,0.0,0.0,0.0,66.7128,C,27784057000000,
Raw,1732148900001,15498000000,,699869.3305186484,-1416184102503000064,0.0,91.95938914508449,2069.0333627680743,0.0,0,27,0.0,16431,347317917927094,316,23.600000381469727,912.9884374307867,0.14999,16,0.0,0.0,1575420030,,,,0,9.240076298926514,6,6.0,23.600000381469727,0.0,0.0,23.76892116729828,66.7128,C,27784057000000,
Raw,1732148900001,15498000000,,699869.3305186484,-1416184102503000064,0.0,91.95938914508449,2069.0333627680743,0.0,0,21,0.0,16431,347317919494862,74,30.5939998626709,875.0234559550265,0.14999,16,0.0,0.0,1575420030,,,,0,17.262979269871494,1,6.0,30.5939998626709,0.0,0.0,0.0,66.7128,C,27784057000000,
Raw,1732148900001,15498000000,,699869.3305186484,-1416184102503000064,0.0,91.95938914508449,2069.0333627680743,0.0,0,19,0.0,16431,347317920930848,797,15.449999809265137,644.2045712803712,0.14999,16,0.0,0.0,1575420030,,,,0,0.0,6,6.0,15.449999809265137,0.0,0.0,23.76892116729828,66.7128,C,27784057000000,
Raw,1732148900001,15498000000,,699869.3305186484,-1416184102503000064,0.0,91.95938914508449,2069.0333627680743,0.0,0,21,0.0,16431,347317920898278,487,16.0,535.2486675388494,0.14999,16,0.0,0.0,1575420030,,,,0,0.0,6,6.0,16.0,0.0,0.0,23.76892116729828,66.7128,C,27784057000000,
Raw,1732148900001,15498000000,,699869.3305186484,-1416184102503000064,0.0,91.95938914508449,2069.0333627680743,0.0,0,29,0.0,16431,347317917987126,797,12.600000381469727,1070.2942188820264,0.14999,16,0.0,0.0,1575420030,,,,0,0.0,6,6.0,12.600000381469727,0.0,0.0,23.76892116729828,66.7128,C,27784057000000,
Raw,1732148900001,15498000000,,699869.3305186484,-1416184102503000064,0.0,91.95938914508449,2069.0333627680743,0.0,0,19,0.0,17,312808,797,17.0,727.7399866466801,0.14999,16,0.0,0.0,1603687550,,,,0,4.780092313970736,3,6.0,17.0,0.0,0.0,51.10338398694628,66.7128,C,27784057000000,
Raw,1732148900001,15498000000,,699869.3305186484,-1416184102503000064,0.0,91.95938914508449,2069.0333627680743,0.0,0,8,0.0,17,300946,487,5.0,834.4936830746759,0.14999,16,0.0,0.0,1605374980,,,,0,6.814994086064758,3,6.0,20.0,0.0,0.0,51.10338398694628,66.7128,C,27784057000000,
Raw,1732148900001,15498000000,,699869.3305186484,-1416184102503000064,0.0,91.95938914508449,2069.0333627680743,0.0,0,18,0.0,17,789566,487,5.0,1221.0586037332944,0.14999,16,0.0,0.0,1600312450,,,,0,2.6739126583180353,3,6.0,18.0,0.0,0.0,51.10338398694628,66.7128,C,27784057000000,
Raw,1732148900001,15498000000,,699869.3305186484,-1416184102503000064,0.0,91.95938914508449,2069.0333627680743,0.0,0,9,0.0,17,329459,487,5.0,847.1978509035403,0.14999,16,0.0,0.0,1600875010,,,,0,2.6380137584401098,3,6.0,19.0,0.0,0.0,51.10338398694628,66.7128,C,27784057000000,
Raw,1732148900001,15498000000,,699869.3305186484,-1416184102503000064,0.0,91.95938914508449,2069.0333627680743,0.0,0,2,0.0,16431,347317921113214,316,25.31800079345703,640.6411178401905,0.14999,16,0.0,0.0,1575420030,,,,0,10.479970087553728,1,6.0,25.31800079345703,0.0,0.0,0.0,66.7128,C,27784057000000,
Status,1732148900000,28,0,1,22,1575420030,0.00,312.0,68.0,0,0,0,0.0
Status,1732148900000,28,1,1,14,1575420030,28.10,17.0,67.0,1,0,0,23.1
Status,1732148900000,28,2,1,17,1575420030,30.70,166.0,66.0,1,0,0,25.7
Status,1732148900000,28,3,1,30,1575420030,31.40,110.0,57.0,1,0,0,26.4
Status,1732148900000,28,4,1,13,1575420030,31.10,273.0,56.0,1,0,0,26.1
Status,1732148900000,28,5,2,133,1575420030,30.00,191.0,45.0,0,0,0,25.0
Status,1732148900000,28,6,1,19,1575420030,25.50,194.0,36.0,1,0,0,20.5
Status,1732148900000,28,7,1,15,1575420030,30.40,300.0,28.0,1,0,0,25.4
Status,1732148900000,28,8,1,7,1575420030,36.70,119.0,23.0,1,0,0,31.7
Status,1732148900000,28,9,1,2,1575420030,34.80,69.0,21.0,1,0,0,29.8
Status,1732148900000,28,10,1,21,1575420030,27.50,51.0,13.0,1,0,0,22.5
Status,1732148900000,28,11,3,9,1602000000,31.70,49.0,46.0,1,0,0,26.7
Status,1732148900000,28,12,3,8,1602000000,24.90,274.0,38.0,1,0,0,19.9
Status,1732148900000,28,13,3,19,1602000000,0.00,59.0,35.0,0,0,0,0.0
Status,1732148900000,28,14,3,20,1602000000,0.00,139.0,30.0,0,0,0,0.0
Status,1732148900000,28,15,3,11,1602000000,0.00,289.0,13.0,0,0,0,0.0
Status,1732148900000,28,16,3,18,1602000000,23.00,24.0,10.0,1,0,0,18.0
Status,1732148900000,28,17,3,16,1602000000,0.00,84.0,3.0,0,0,0,0.0
Status,1732148900000,28,18,3,17,1602000000,25.70,0.0,0.0,0,0,0,20.7
Status,1732148900000,28,19,6,21,1575420030,20.40,298.0,64.0,1,0,0,15.4
Status,1732148900000,28,20,6,19,1575420030,20.40,272.0,54.0,1,0,0,15.4
Status,1732148900000,28,21,6,27,1575420030,24.30,49.0,47.0,1,0,0,19.3
Status,1732148900000,28,22,6,29,1575420030,18.90,196.0,44.0,1,0,0,13.9
Status,1732148900000,28,23,6,15,1575420030,0.00,81.0,19.0,0,0,0,0.0
Status,1732148900000,28,24,6,13,1575420030,0.00,133.0,13.0,0,0,0,0.0
Status,1732148900000,28,25,6,4,1575420030,0.00,322.0,12.0,0,0,0,0.0
Status,1732148900000,28,26,6,34,1575420030,0.00,34.0,5.0,0,0,0,0.0
Status,1732148900000,28,27,6,7,1575420030,0.00,162.0,2.0,0,0,0,0.0
Fix,GPS,37.4244133333,-122.1707866667,3.0,0.0,2.4,87.79,1732148901000,1.1,179.9,27785057000000,38.7,0,,,
Fix,FLP,37.4244191000,-122.1707931000,2.0,0.004988905,2.45,,1732148901209,1.1,,27785057000000,0.8442041,0,,,
Raw,1732148901001,16498000000,,699430.3288977336,-1416184102503000064,0.0,94.30179689016896,2068.056204413843,0.0,0,7,0.0,16431,347318923305143,74,31.67099952697754,1117.6438933491477,0.14999,16,0.0,0.0,1575420030,,,,0,18.53387219249733,1,6.0,31.67099952697754,0.0,0.0,0.0,66.7128,C,27785057000000,
Raw,1732148901001,16498000000,,699430.3288977336,-1416184102503000064,0.0,94.30179689016896,2068.056204413843,0.0,0,14,0.0,16431,347318932433762,487,23.106000900268555,746.5805230755783,0.14999,16,0.0,0.0,1575420030,,,,0,7.232665396575255,1,6.0,23.106000900268555,0.0,0.0,0.0,66.7128,C,27785057000000,
Raw,1732148901001,16498000000,,699430.3288977336,-1416184102503000064,0.0,94.30179689016896,2068.056204413843,0.0,0,19,0.0,16431,347318926138367,487,20.464000701904297,6.830502184938183,0.14999,16,0.0,0.0,1575420030,,,,0,2.986596762372736,1,6.0,20.464000701904297,0.0,0.0,0.0,66.7128,C,27785057000000,
Raw,1732148901001,16498000000,,699430.3288977336,-1416184102503000064,0.0,94.30179689016896,2068.056204413843,0.0,0,30,0.0,16431,347318930540193,316,26.424999237060547,898.2613053257109,0.14999,16,0.0,0.0,1575420030,,,,0,11.976835497086668,1,6.0,26.424999237060547,0.0,0.0,0.0,66.7128,C,27785057000000,
Raw,1732148901001,16498000000,,699430.3288977336,-1416184102503000064,0.0,94.30179689016896,2068.056204413843,0.0,0,13,0.0,16431,347318931347333,316,26.143999099731445,620.592731659192,0.14999,16,0.0,0.0,1575420030,,,,0,11.599873831985956,1,6.0,26.143999099731445,0.0,0.0,0.0,66.7128,C,27785057000000,
Raw,1732148901001,16498000000,,699430.3288977336,-1416184102503000064,0.0,94.30179689016896,2068.056204413843,0.0,0,2,0.0,16431,347318921111077,74,29.773000717163086,641.1019388705828,0.14999,16,0.0,0.0,1575420030,,,,0,16.258157347316285,1,6.0,29.773000717163086,0.0,0.0,0.0,66.7128,C,27785057000000,
Raw,1732148901001,16498000000,,699430.3288977336,-1416184102503000064,0.0,94.30179689016896,2068.056204413843,0.0,0,17,0.0,16431,347318932338883,487,25.679000854492188,383.1281796084922,0.14999,16,0.0,0.0,1575420030,,,,0,10.983079813304517,1,6.0,25.679000854492188,0.0,0.0,0.0,66.7128,C,27785057000000,
Raw,1732148901001,16498000000,,699430.3288977336,-1416184102503000064,0.0,94.30179689016896,2068.056204413843,0.0,0,15,0.0,16431,347318925263892,487,25.39699935913086,409.8730586728695,0.14999,16,0.0,0.0,1575420030,,,,0,8.521825181113625,1,6.0,25.39699935913086,0.0,0.0,0.0,66.7128,C,27785057000000,
Raw,1732148901001,16498000000,,699430.3288977336,-1416184102503000064,0.0,94.30179689016896,2068.056204413843,0.0,0,27,0.0,16431,347318917924045,396,19.299999237060547,913.1284630972452,0.14999,16,0.0,0.0,1575420030,,,,0,3.1733972874556033,6,6.0,19.299999237060547,0.0,0.0,19.4485926279338,66.7128,C,27785057000000,
Raw,1732148901001,16498000000,,699430.3288977336,-1416184102503000064,0.0,94.30179689016896,2068.056204413843,0.0,0,21,0.0,16431,347318919491944,396,22.482999801635742,875.1686849641006,0.14999,16,0.0,0.0,1575420030,,,,0,6.317515585361752,1,6.0,22.482999801635742,0.0,0.0,0.0,66.7128,C,27785057000000,
Raw,1732148901001,16498000000,,699430.3288977336,-1416184102503000064,0.0,94.30179689016896,2068.056204413843,0.0,0,19,0.0,16431,347318920928699,797,15.42199993133545,644.6607464691425,0.14999,16,0.0,0.0,1575420030,,,,0,0.0,6,6.0,15.42199993133545,0.0,0.0,19.4485926279338,66.7128,C,27785057000000,
Raw,1732148901001,16498000000,,699430.3288977336,-1416184102503000064,0.0,94.30179689016896,2068.056204413843,0.0,0,21,0.0,16431,347318920896490,487,15.399999618530273,534.9416703245302,0.14999,16,0.0,0.0,1575420030,,,,0,0.0,6,6.0,15.399999618530273,0.0,0.0,19.4485926279338,66.7128,C,27785057000000,
Raw,1732148901001,16498000000,,699430.3288977336,-1416184102503000064,0.0,94.30179689016896,2068.056204413843,0.0,0,29,0.0,16431,347318917983556,797,13.899999618530273,1069.8340947278773,0.14999,16,0.0,0.0,1575420030,,,,0,0.0,6,6.0,13.899999618530273,0.0,0.0,19.4485926279338,66.7128,C,27785057000000,
Raw,1732148901001,16498000000,,699430.3288977336,-1416184102503000064,0.0,94.30179689016896,2068.056204413843,0.0,0,8,0.0,17,298165,396,5.0,834.1705302411916,0.14999,16,0.0,0.0,1605374980,,,,0,4.030307531458008,3,6.0,22.0,0.0,0.0,54.46204689029846,66.7128,C,27785057000000,
Raw,1732148901001,16498000000,,699430.3288977336,-1416184102503000064,0.0,94.30179689016896,2068.056204413843,0.0,0,18,0.0,17,785486,797,5.0,1220.2260298485808,0.14999,16,0.0,0.0,1600312450,,,,0,0.854582733302343,3,6.0,17.0,0.0,0.0,54.46204689029846,66.7128,C,27785057000000,
Raw,1732148901001,16498000000,,699430.3288977336,-1416184102503000064,0.0,94.30179689016896,2068.056204413843,0.0,0,9,0.0,17,326616,316,5.0,848.2480323168207,0.14999,16,0.0,0.0,1600875010,,,,0,13.165616840205129,3,6.0,26.0,0.0,0.0,54.46204689029846,66.7128,C,27785057000000,
Status,1732148901000,28,0,1,22,1575420030,0.00,312.0,68.0,0,0,0,0.0
Status,1732148901000,28,1,1,14,1575420030,25.90,17.0,67.0,1,0,0,20.9
Status,1732148901000,28,2,1,17,1575420030,27.50,166.0,66.0,1,0,0,22.5
Status,1732148901000,28,3,1,30,1575420030,27.70,110.0,57.0,1,0,0,22.7
Status,1732148901000,28,4,1,13,1575420030,30.90,273.0,56.0,1,0,0,25.9
Status,1732148901000,28,5,2,133,1575420030,30.00,191.0,45.0,0,0,0,25.0
Status,1732148901000,28,6,1,19,1575420030,24.50,194.0,36.0,1,0,0,19.5
Status,1732148901000,28,7,1,15,1575420030,0.00,300.0,28.0,0,0,0,0.0
Status,1732148901000,28,8,1,7,1575420030,31.00,119.0,23.0,1,0,0,26.0
Status,1732148901000,28,9,1,2,1575420030,33.80,69.0,21.0,1,0,0,28.8
Status,1732148901000,28,10,1,21,1575420030,34.50,51.0,13.0,1,0,0,29.5
Status,1732148901000,28,11,3,9,1602000000,25.80,49.0,46.0,1,0,0,20.8
Status,1732148901000,28,12,3,8,1602000000,25.20,274.0,38.0,1,0,0,20.2
Status,1732148901000,28,13,3,19,1602000000,0.00,59.0,35.0,0,0,0,0.0
Status,1732148901000,28,14,3,20,1602000000,0.00,139.0,30.0,0,0,0,0.0
Status,1732148901000,28,15,3,11,1602000000,0.00,289.0,13.0,0,0,0,0.0
Status,1732148901000,28,16,3,18,1602000000,24.40,24.0,10.0,1,0,0,19.4
Status,1732148901000,28,17,3,16,1602000000,0.00,84.0,3.0,0,0,0,0.0
Status,1732148901000,28,18,3,17,1602000000,25.80,0.0,0.0,0,0,0,20.8
Status,1732148901000,28,19,6,21,1575420030,21.60,298.0,64.0,1,0,0,16.6
Status,1732148901000,28,20,6,19,1575420030,20.40,272.0,54.0,1,0,0,15.4
Status,1732148901000,28,21,6,27,1575420030,22.10,49.0,47.0,1,0,0,17.1
Status,1732148901000,28,22,6,29,1575420030,18.90,196.0,44.0,1,0,0,13.9
Status,1732148901000,28,23,6,15,1575420030,0.00,81.0,19.0,0,0,0,0.0
Status,1732148901000,28,24,6,13,1575420030,0.00,133.0,13.0,0,0,0,0.0
Status,1732148901000,28,25,6,4,1575420030,0.00,322.0,12.0,0,0,0,0.0
Status,1732148901000,28,26,6,34,1575420030,0.00,34.0,5.0,0,0,0,0.0
Status,1732148901000,28,27,6,7,1575420030,0.00,162.0,2.0,0,0,0,0.0
Fix,GPS,37.4244050000,-122.1707800000,3.0,0.0,2.5,87.79,1732148902000,1.1,170.6,27786057000000,36.1,0,,,
Raw,1732148902001,17498000000,,699102.5500548116,-1416184102503000064,0.0,88.87794473888596,2067.908347270647,0.0,0,7,0.0,16431,347319923301413,316,25.975000381469727,1117.4031458363447,0.14999,16,0.0,0.0,1575420030,,,,0,11.387147535070257,1,6.0,25.975000381469727,0.0,0.0,0.0,66.7128,C,27786057000000,
Raw,1732148902001,17498000000,,699102.5500548116,-1416184102503000064,0.0,88.87794473888596,2067.908347270647,0.0,0,14,0.0,16431,347319932431272,487,20.90999984741211,746.703823712201,0.14999,16,0.0,0.0,1575420030,,,,0,3.7972676911144823,1,6.0,20.90999984741211,0.0,0.0,0.0,66.7128,C,27786057000000,
Raw,1732148902001,17498000000,,699102.5500548116,-1416184102503000064,0.0,88.87794473888596,2067.908347270647,0.0,0,19,0.0,16431,347319926138340,487,19.47100067138672,7.447841619543816,0.14999,16,0.0,0.0,1575420030,,,,0,1.3271120610774574,1,6.0,19.47100067138672,0.0,0.0,0.0,66.7128,C,27786057000000,
Raw,1732148902001,17498000000,,699102.5500548116,-1416184102503000064,0.0,88.87794473888596,2067.908347270647,0.0,0,30,0.0,16431,347319930537192,396,22.673999786376953,898.6070488591497,0.14999,16,0.0,0.0,1575420030,,,,0,6.571136220543532,1,6.0,22.673999786376953,0.0,0.0,0.0,66.7128,C,27786057000000,
Raw,1732148902001,17498000000,,699102.5500548116,-1416184102503000064,0.0,88.87794473888596,2067.908347270647,0.0,0,13,0.0,16431,347319931345264,316,25.902999877929688,620.3805560723586,0.14999,16,0.0,0.0,1575420030,,,,0,11.278798234424384,1,6.0,25.902999877929688,0.0,0.0,0.0,66.7128,C,27786057000000,
Raw,1732148902001,17498000000,,699102.5500548116,-1416184102503000064,0.0,88.87794473888596,2067.908347270647,0.0,0,2,0.0,16431,347319921108931,235,28.775999069213867,641.2294672230807,0.14999,16,0.0,0.0,1575420030,,,,0,15.027796588931983,1,6.0,28.775999069213867,0.0,0.0,0.0,66.7128,C,27786057000000,
Raw,1732148902001,17498000000,,699102.5500548116,-1416184102503000064,0.0,88.87794473888596,2067.908347270647,0.0,0,17,0.0,16431,347319932337612,396,22.482999801635742,382.709542820019,0.14999,16,0.0,0.0,1575420030,,,,0,6.317515585361752,1,6.0,22.482999801635742,0.0,0.0,0.0,66.7128,C,27786057000000,
Raw,1732148902001,17498000000,,699102.5500548116,-1416184102503000064,0.0,88.87794473888596,2067.908347270647,0.0,0,27,0.0,16431,347319917920999,487,17.100000381469727,912.9764511594043,0.14999,16,0.0,0.0,1575420030,,,,0,0.0,6,6.0,17.100000381469727,0.0,0.0,16.18432377271511,66.7128,C,27786057000000,
Raw,1732148902001,17498000000,,699102.5500548116,-1416184102503000064,0.0,88.87794473888596,2067.908347270647,0.0,0,21,0.0,16431,347319919489030,74,29.45800018310547,875.225921732872,0.14999,16,0.0,0.0,1575420030,,,,0,15.881360887005513,1,6.0,29.45800018310547,0.0,0.0,0.0,66.7128,C,27786057000000,
Raw,1732148902001,17498000000,,699102.5500548116,-1416184102503000064,0.0,88.87794473888596,2067.908347270647,0.0,0,19,0.0,16431,347319920926599,797,15.354999542236328,645.0152241848289,0.14999,16,0.0,0.0,1575420030,,,,0,0.0,6,6.0,15.354999542236328,0.0,0.0,16.18432377271511,66.7128,C,27786057000000,
Raw,1732148902001,17498000000,,699102.5500548116,-1416184102503000064,0.0,88.87794473888596,2067.908347270647,0.0,0,21,0.0,16431,347319920894706,487,16.600000381469727,534.4458196483151,0.14999,16,0.0,0.0,1575420030,,,,0,0.0,6,6.0,16.600000381469727,0.0,0.0,16.18432377271511,66.7128,C,27786057000000,
Raw,1732148902001,17498000000,,699102.5500548116,-1416184102503000064,0.0,88.87794473888596,2067.908347270647,0.0,0,29,0.0,16431,347319917979986,487,13.899999618530273,1071.1967200753322,0.14999,16,0.0,0.0,1575420030,,,,0,0.0,6,6.0,13.899999618530273,0.0,0.0,16.18432377271511,66.7128,C,27786057000000,
Raw,1732148902001,17498000000,,699102.5500548116,-1416184102503000064,0.0,88.87794473888596,2067.908347270647,0.0,0,8,0.0,17,295386,797,5.0,830.9779370812645,0.14999,16,0.0,0.0,1605374980,,,,0,4.560908482238992,3,6.0,17.0,0.0,0.0,53.24032572162243,66.7128,C,27786057000000,
Raw,1732148902001,17498000000,,699102.5500548116,-1416184102503000064,0.0,88.87794473888596,2067.908347270647,0.0,0,18,0.0,17,781415,797,5.0,1221.7623857008825,0.14999,16,0.0,0.0,1600312450,,,,0,3.2045136090990205,3,6.0,17.0,0.0,0.0,53.24032572162243,66.7128,C,27786057000000,
Raw,1732148902001,17498000000,,699102.5500548116,-1416184102503000064,0.0,88.87794473888596,2067.908347270647,0.0,0,9,0.0,17,323785,396,5.0,848.3081994365367,0.14999,16,0.0,0.0,1600875010,,,,0,5.458599212924787,3,6.0,23.0,0.0,0.0,53.24032572162243,66.7128,C,27786057000000,
Fix,FLP,37.4244124000,-122.1707867000,2.0,0.012526911,2.466,,1732148902209,1.1,,27786057000000,0.86272216,0,,,
Status,1732148902000,28,0,1,22,1575420030,0.00,312.0,68.0,0,0,0,0.0
Status,1732148902000,28,1,1,14,1575420030,25.90,17.0,67.0,1,0,0,20.9
Status,1732148902000,28,2,1,17,1575420030,26.20,166.0,66.0,1,0,0,21.2
Status,1732148902000,28,3,1,30,1575420030,27.80,110.0,57.0,1,0,0,22.8
Status,1732148902000,28,4,1,13,1575420030,34.40,273.0,56.0,1,0,0,29.400002
Status,1732148902000,28,5,2,135,1575420030,0.00,197.0,45.0,0,0,0,0.0
Status,1732148902000,28,6,1,19,1575420030,30.30,194.0,36.0,1,0,0,25.3
Status,1732148902000,28,7,1,15,1575420030,0.00,300.0,28.0,0,0,0,0.0
Status,1732148902000,28,8,1,7,1575420030,31.40,119.0,23.0,1,0,0,26.4
Status,1732148902000,28,9,1,2,1575420030,34.60,69.0,21.0,1,0,0,29.599998
Status,1732148902000,28,10,1,21,1575420030,36.50,51.0,13.0,1,0,0,31.5
Status,1732148902000,28,11,3,9,1602000000,30.20,49.0,46.0,1,0,0,25.2
Status,1732148902000,28,12,3,8,1602000000,25.10,274.0,38.0,1,0,0,20.1
Status,1732148902000,28,13,3,19,1602000000,0.00,59.0,35.0,0,0,0,0.0
Status,1732148902000,28,14,3,20,1602000000,0.00,139.0,30.0,0,0,0,0.0
Status,1732148902000,28,15,3,11,1602000000,0.00,289.0,13.0,0,0,0,0.0
Status,1732148902000,28,16,3,18,1602000000,0.00,24.0,10.0,0,0,0,0.0
Status,1732148902000,28,17,3,16,1602000000,0.00,84.0,3.0,0,0,0,0.0
Status,1732148902000,28,18,3,17,1602000000,26.40,0.0,0.0,0,0,0,21.4
Status,1732148902000,28,19,6,21,1575420030,29.40,298.0,64.0,1,0,0,24.4
Status,1732148902000,28,20,6,19,1575420030,20.30,272.0,54.0,1,0,0,15.299999
Status,1732148902000,28,21,6,27,1575420030,22.10,49.0,47.0,1,0,0,17.1
Status,1732148902000,28,22,6,29,1575420030,22.40,196.0,44.0,1,0,0,17.4
Status,1732148902000,28,23,6,15,1575420030,0.00,81.0,19.0,0,0,0,0.0
Status,1732148902000,28,24,6,13,1575420030,0.00,133.0,13.0,0,0,0,0.0
Status,1732148902000,28,25,6,4,1575420030,0.00,322.0,12.0,0,0,0,0.0
Status,1732148902000,28,26,6,34,1575420030,0.00,34.0,5.0,0,0,0,0.0
Status,1732148902000,28,27,6,7,1575420030,0.00,162.0,2.0,0,0,0,0.0
Fix,GPS,37.4244016667,-122.1707733333,3.0,0.0,2.4,87.79,1732148903000,1.1,179.9,27787057000000,33.9,0,,,
Raw,1732148903001,18498000000,,698608.4582387994,-1416184102503000064,0.0,85.29426587996407,2069.294514662584,0.0,0,7,0.0,16431,347320923297685,316,26.3799991607666,1119.6671573751166,0.14999,16,0.0,0.0,1575420030,,,,0,11.90950268208752,1,6.0,26.3799991607666,0.0,0.0,0.0,66.7128,C,27787057000000,
Raw,1732148903001,18498000000,,698608.4582387994,-1416184102503000064,0.0,85.29426587996407,2069.294514662584,0.0,0,14,0.0,16431,347320932428779,396,20.90999984741211,746.9875452599988,0.14999,16,0.0,0.0,1575420030,,,,0,3.7972676911144823,1,6.0,20.90999984741211,0.0,0.0,0.0,66.7128,C,27787057000000,
Raw,1732148903001,18498000000,,698608.4582387994,-1416184102503000064,0.0,85.29426587996407,2069.294514662584,0.0,0,19,0.0,16431,347320926138310,316,25.291000366210938,7.083468261204564,0.14999,16,0.0,0.0,1575420030,,,,0,10.44003489243222,1,6.0,25.291000366210938,0.0,0.0,0.0,66.7128,C,27787057000000,
Raw,1732148903001,18498000000,,698608.4582387994,-1416184102503000064,0.0,85.29426587996407,2069.294514662584,0.0,0,30,0.0,16431,347320930534194,316,22.77400016784668,900.2185984006608,0.14999,16,0.0,0.0,1575420030,,,,0,9.555961642591152,1,6.0,22.77400016784668,0.0,0.0,0.0,66.7128,C,27787057000000,
Raw,1732148903001,18498000000,,698608.4582387994,-1416184102503000064,0.0,85.29426587996407,2069.294514662584,0.0,0,13,0.0,16431,347320931343193,235,29.393999099731445,620.8768713327357,0.14999,16,0.0,0.0,1575420030,,,,0,15.795361277151033,1,6.0,29.393999099731445,0.0,0.0,0.0,66.7128,C,27787057000000,
Raw,1732148903001,18498000000,,698608.4582387994,-1416184102503000064,0.0,85.29426587996407,2069.294514662584,0.0,0,2,0.0,16431,347320921106789,235,29.615999221801758,642.8655932667673,0.14999,16,0.0,0.0,1575420030,,,,0,16.071802149703487,1,6.0,29.615999221801758,0.0,0.0,0.0,66.7128,C,27787057000000,
Raw,1732148903001,18498000000,,698608.4582387994,-1416184102503000064,0.0,85.29426587996407,2069.294514662584,0.0,0,17,0.0,16431,347320932336342,487,21.191999435424805,383.92870457821596,0.14999,16,0.0,0.0,1575420030,,,,0,4.216957520757036,1,6.0,21.191999435424805,0.0,0.0,0.0,66.7128,C,27787057000000,
Raw,1732148903001,18498000000,,698608.4582387994,-1416184102503000064,0.0,85.29426587996407,2069.294514662584,0.0,0,27,0.0,16431,347320917917953,487,17.084999084472656,913.7975572075094,0.14999,16,0.0,0.0,1575420030,,,,0,0.0,6,6.0,17.084999084472656,0.0,0.0,14.56380327714407,66.7128,C,27787057000000,
Raw,1732148903001,18498000000,,698608.4582387994,-1416184102503000064,0.0,85.29426587996407,2069.294514662584,0.0,0,21,0.0,16431,347320919486114,74,31.534000396728516,876.7874820185407,0.14999,16,0.0,0.0,1575420030,,,,0,18.37478551759302,1,6.0,31.534000396728516,0.0,0.0,0.0,66.7128,C,27787057000000,
Raw,1732148903001,18498000000,,698608.4582387994,-1416184102503000064,0.0,85.29426587996407,2069.294514662584,0.0,0,19,0.0,16431,347320920924448,797,15.291999816894531,644.7079482200124,0.14999,16,0.0,0.0,1575420030,,,,0,0.0,6,6.0,15.291999816894531,0.0,0.0,14.56380327714407,66.7128,C,27787057000000,
Raw,1732148903001,18498000000,,698608.4582387994,-1416184102503000064,0.0,85.29426587996407,2069.294514662584,0.0,0,21,0.0,16431,347320920892924,316,24.399999618530273,535.3989605152905,0.14999,16,0.0,0.0,1575420030,,,,0,10.319115682445448,6,6.0,24.399999618530273,0.0,0.0,14.56380327714407,66.7128,C,27787057000000,
Raw,1732148903001,18498000000,,698608.4582387994,-1416184102503000064,0.0,85.29426587996407,2069.294514662584,0.0,0,29,0.0,16431,347320917976393,487,17.399999618530273,1072.0233082165503,0.14999,16,0.0,0.0,1575420030,,,,0,0.0,6,6.0,17.399999618530273,0.0,0.0,14.56380327714407,66.7128,C,27787057000000,
Raw,1732148903001,18498000000,,698608.4582387994,-1416184102503000064,0.0,85.29426587996407,2069.294514662584,0.0,0,8,0.0,17,292605,487,5.0,834.2359085091398,0.14999,16,0.0,0.0,1605374980,,,,0,4.431265931680586,3,6.0,20.0,0.0,0.0,53.064847894908645,66.7128,C,27787057000000,
Raw,1732148903001,18498000000,,698608.4582387994,-1416184102503000064,0.0,85.29426587996407,2069.294514662584,0.0,0,9,0.0,17,320954,316,5.0,848.4676697356017,0.14999,16,0.0,0.0,1600875010,,,,0,11.303720640054308,3,6.0,25.0,0.0,0.0,53.064847894908645,66.7128,C,27787057000000,
Fix,FLP,37.4244073000,-122.1707802000,2.0,0.019858712,2.466,,1732148903209,1.1,,27787057000000,0.86432034,0,,,
Status,1732148903000,28,0,1,22,1575420030,0.00,313.0,68.0,0,0,0,0.0
Status,1732148903000,28,1,1,14,1575420030,32.00,17.0,67.0,1,0,0,27.0
Status,1732148903000,28,2,1,17,1575420030,29.50,166.0,66.0,1,0,0,24.5
Status,1732148903000,28,3,1,30,1575420030,30.30,110.0,57.0,1,0,0,25.3
Status,1732148903000,28,4,1,13,1575420030,33.30,273.0,56.0,1,0,0,28.3
Status,1732148903000,28,5,2,135,1575420030,0.00,197.0,45.0,0,0,0,0.0
Status,1732148903000,28,6,1,19,1575420030,28.60,194.0,36.0,1,0,0,23.6
Status,1732148903000,28,7,1,15,1575420030,26.70,300.0,28.0,1,0,0,21.7
Status,1732148903000,28,8,1,7,1575420030,30.30,119.0,23.0,1,0,0,25.3
Status,1732148903000,28,9,1,2,1575420030,31.90,69.0,21.0,1,0,0,26.9
Status,1732148903000,28,10,1,21,1575420030,29.60,51.0,13.0,1,0,0,24.6
Status,1732148903000,28,11,3,9,1602000000,31.70,49.0,46.0,1,0,0,26.7
Status,1732148903000,28,12,3,8,1602000000,24.00,274.0,38.0,1,0,0,19.0
Status,1732148903000,28,13,3,19,1602000000,0.00,59.0,35.0,0,0,0,0.0
Status,1732148903000,28,14,3,20,1602000000,0.00,139.0,30.0,0,0,0,0.0
Status,1732148903000,28,15,3,11,1602000000,0.00,289.0,13.0,0,0,0,0.0
Status,1732148903000,28,16,3,18,1602000000,0.00,24.0,10.0,0,0,0,0.0
Status,1732148903000,28,17,3,16,1602000000,0.00,84.0,3.0,0,0,0,0.0
Status,1732148903000,28,18,3,17,1602000000,29.90,0.0,0.0,0,0,0,24.9
Status,1732148903000,28,19,6,21,1575420030,29.30,298.0,64.0,1,0,0,24.3
Status,1732148903000,28,20,6,19,1575420030,20.20,272.0,54.0,1,0,0,15.200001
Status,1732148903000,28,21,6,27,1575420030,28.00,49.0,47.0,1,0,0,23.0
Status,1732148903000,28,22,6,29,1575420030,22.40,196.0,44.0,1,0,0,17.4
Status,1732148903000,28,23,6,15,1575420030,0.00,81.0,19.0,0,0,0,0.0
Status,1732148903000,28,24,6,13,1575420030,0.00,133.0,13.0,0,0,0,0.0
Status,1732148903000,28,25,6,4,1575420030,0.00,322.0,12.0,0,0,0,0.0
Status,1732148903000,28,26,6,34,1575420030,0.00,34.0,5.0,0,0,0,0.0
Status,1732148903000,28,27,6,7,1575420030,0.00,162.0,2.0,0,0,0,0.0
Fix,GPS,37.4244000000,-122.1707716667,3.0,0.0,2.5,87.79,1732148904000,1.2,179.9,27788057000000,36.4,0,,,
Fix,FLP,37.4244038000,-122.1707759000,2.0,0.023882307,2.466,,1732148904209,1.2,,27788057000000,0.87445545,0,,,
Raw,1732148904001,19498000000,,698320.3943709618,-1416184102503000064,0.0,94.82361428747659,2071.8378462841692,0.0,0,7,0.0,16431,347321923293947,316,25.3439998626709,1119.584740144759,0.14999,16,0.0,0.0,1575420030,,,,0,10.519722512263996,1,6.0,25.3439998626709,0.0,0.0,0.0,66.7128,C,27788057000000,
Raw,1732148904001,19498000000,,698320.3943709618,-1416184102503000064,0.0,94.82361428747659,2071.8378462841692,0.0,0,14,0.0,16431,347321932426291,316,27.023000717163086,748.1439416978952,0.14999,16,0.0,0.0,1575420030,,,,0,12.777207016402382,1,6.0,27.023000717163086,0.0,0.0,0.0,66.7128,C,27788057000000,
Raw,1732148904001,19498000000,,698320.3943709618,-1416184102503000064,0.0,94.82361428747659,2071.8378462841692,0.0,0,19,0.0,16431,347321926138282,396,23.648000717163086,8.611160361455696,0.14999,16,0.0,0.0,1575420030,,,,0,8.060519099739755,1,6.0,23.648000717163086,0.0,0.0,0.0,66.7128,C,27788057000000,
Raw,1732148904001,19498000000,,698320.3943709618,-1416184102503000064,0.0,94.82361428747659,2071.8378462841692,0.0,0,30,0.0,16431,347321930531194,396,25.264999389648438,900.4175333388744,0.14999,16,0.0,0.0,1575420030,,,,0,10.399915238480249,1,6.0,25.264999389648438,0.0,0.0,0.0,66.7128,C,27788057000000,
Raw,1732148904001,19498000000,,698320.3943709618,-1416184102503000064,0.0,94.82361428747659,2071.8378462841692,0.0,0,13,0.0,16431,347321931341117,316,28.256999969482422,622.2297868712028,0.14999,16,0.0,0.0,1575420030,,,,0,14.365927795311585,1,6.0,28.256999969482422,0.0,0.0,0.0,66.7128,C,27788057000000,
Raw,1732148904001,19498000000,,698320.3943709618,-1416184102503000064,0.0,94.82361428747659,2071.8378462841692,0.0,0,2,0.0,16431,347321921104643,316,26.91699981689453,642.827357990226,0.14999,16,0.0,0.0,1575420030,,,,0,12.622924280933582,1,6.0,26.91699981689453,0.0,0.0,0.0,66.7128,C,27788057000000,
Raw,1732148904001,19498000000,,698320.3943709618,-1416184102503000064,0.0,94.82361428747659,2071.8378462841692,0.0,0,17,0.0,16431,347321932335065,396,24.48200035095215,384.6888339550447,0.14999,16,0.0,0.0,1575420030,,,,0,9.28591223451821,1,6.0,24.48200035095215,0.0,0.0,0.0,66.7128,C,27788057000000,
Raw,1732148904001,19498000000,,698320.3943709618,-1416184102503000064,0.0,94.82361428747659,2071.8378462841692,0.0,0,15,0.0,16431,347321925259849,396,21.722000122070312,411.55104374956176,0.14999,16,0.0,0.0,1575420030,,,,0,5.074557450384863,1,6.0,21.722000122070312,0.0,0.0,0.0,66.7128,C,27788057000000,
Raw,1732148904001,19498000000,,698320.3943709618,-1416184102503000064,0.0,94.82361428747659,2071.8378462841692,0.0,0,27,0.0,16431,347321917914904,396,23.0,914.1325223883873,0.14999,16,0.0,0.0,1575420030,,,,0,8.571601189187518,6,6.0,23.0,0.0,0.0,10.268425890035013,66.7128,C,27788057000000,
Raw,1732148904001,19498000000,,698320.3943709618,-1416184102503000064,0.0,94.82361428747659,2071.8378462841692,0.0,0,21,0.0,16431,347321919483192,316,24.569000244140625,876.9512014772666,0.14999,16,0.0,0.0,1575420030,,,,0,9.421986395617104,1,6.0,24.569000244140625,0.0,0.0,0.0,66.7128,C,27788057000000,
Raw,1732148904001,19498000000,,698320.3943709618,-1416184102503000064,0.0,94.82361428747659,2071.8378462841692,0.0,0,19,0.0,16431,347321920922297,487,15.232000350952148,645.4759058399726,0.14999,16,0.0,0.0,1575420030,,,,0,0.0,6,6.0,15.232000350952148,0.0,0.0,10.268425890035013,66.7128,C,27788057000000,
Raw,1732148904001,19498000000,,698320.3943709618,-1416184102503000064,0.0,94.82361428747659,2071.8378462841692,0.0,0,21,0.0,16431,347321920891137,316,24.309999465942383,535.753020105231,0.14999,16,0.0,0.0,1575420030,,,,0,8.007717176415587,6,6.0,24.309999465942383,0.0,0.0,10.268425890035013,66.7128,C,27788057000000,
Raw,1732148904001,19498000000,,698320.3943709618,-1416184102503000064,0.0,94.82361428747659,2071.8378462841692,0.0,0,29,0.0,16431,347321917972817,396,17.399999618530273,1072.0181048739346,0.14999,16,0.0,0.0,1575420030,,,,0,0.0,6,6.0,17.399999618530273,0.0,0.0,10.268425890035013,66.7128,C,27788057000000,
Raw,1732148904001,19498000000,,698320.3943709618,-1416184102503000064,0.0,94.82361428747659,2071.8378462841692,0.0,0,8,0.0,17,289818,487,5.0,835.472259883071,0.14999,16,0.0,0.0,1605374980,,,,0,2.7027630711513426,3,6.0,19.0,0.0,0.0,54.64811707733444,66.7128,C,27788057000000,
Raw,1732148904001,19498000000,,698320.3943709618,-1416184102503000064,0.0,94.82361428747659,2071.8378462841692,0.0,0,9,0.0,17,318117,316,5.0,849.3848982734003,0.14999,16,0.0,0.0,1600875010,,,,0,13.165616840205129,3,6.0,25.0,0.0,0.0,54.64811707733444,66.7128,C,27788057000000,
Status,1732148904000,28,0,1,22,1575420030,0.00,313.0,68.0,0,0,0,0.0
Status,1732148904000,28,1,1,14,1575420030,35.50,17.0,67.0,1,0,0,30.5
Status,1732148904000,28,2,1,17,1575420030,29.50,166.0,66.0,1,0,0,24.5
Status,1732148904000,28,3,1,30,1575420030,30.20,110.0,57.0,1,0,0,25.2
Status,1732148904000,28,4,1,13,1575420030,28.70,273.0,56.0,1,0,0,23.7
Status,1732148904000,28,5,2,135,1575420030,0.00,197.0,45.0,0,0,0,0.0
Status,1732148904000,28,6,1,19,1575420030,28.80,194.0,36.0,1,0,0,23.8
Status,1732148904000,28,7,1,15,1575420030,28.30,300.0,28.0,1,0,0,23.3
Status,1732148904000,28,8,1,7,1575420030,32.10,119.0,23.0,1,0,0,27.099998
Status,1732148904000,28,9,1,2,1575420030,36.40,69.0,21.0,1,0,0,31.400002
Status,1732148904000,28,10,1,21,1575420030,30.50,51.0,13.0,1,0,0,25.5
Status,1732148904000,28,11,3,9,1602000000,32.00,49.0,46.0,1,0,0,27.0
Status,1732148904000,28,12,3,8,1602000000,25.10,274.0,38.0,1,0,0,20.1
Status,1732148904000,28,13,3,19,1602000000,0.00,59.0,35.0,0,0,0,0.0
Status,1732148904000,28,14,3,20,1602000000,0.00,139.0,30.0,0,0,0,0.0
Status,1732148904000,28,15,3,11,1602000000,0.00,289.0,13.0,0,0,0,0.0
Status,1732148904000,28,16,3,18,1602000000,0.00,24.0,10.0,0,0,0,0.0
Status,1732148904000,28,17,3,16,1602000000,0.00,84.0,3.0,0,0,0,0.0
Status,1732148904000,28,18,3,17,1602000000,31.40,0.0,0.0,0,0,0,26.4
Status,1732148904000,28,19,6,21,1575420030,23.40,298.0,64.0,1,0,0,18.4
Status,1732148904000,28,20,6,19,1575420030,20.20,272.0,54.0,1,0,0,15.200001
Status,1732148904000,28,21,6,27,1575420030,28.00,49.0,47.0,1,0,0,23.0
Status,1732148904000,28,22,6,29,1575420030,22.40,196.0,44.0,1,0,0,17.4
Status,1732148904000,28,23,6,15,1575420030,0.00,81.0,19.0,0,0,0,0.0
Status,1732148904000,28,24,6,13,1575420030,0.00,133.0,13.0,0,0,0,0.0
Status,1732148904000,28,25,6,4,1575420030,0.00,322.0,12.0,0,0,0,0.0
Status,1732148904000,28,26,6,34,1575420030,0.00,34.0,5.0,0,0,0,0.0
Status,1732148904000,28,27,6,7,1575420030,0.00,162.0,2.0,0,0,0,0.0
Fix,GPS,37.4244016667,-122.1707733333,3.0,0.0,2.5,87.79,1732148905000,1.2,179.9,27789057000000,36.0,0,,,
Raw,1732148905001,20498000000,,697884.5199134396,-1416184102503000064,0.0,93.87961201793921,2073.35137235663,0.0,0,7,0.0,16431,347322923290213,316,27.066999435424805,1119.6727323850619,0.14999,16,0.0,0.0,1575420030,,,,0,12.83816087804249,1,6.0,27.066999435424805,0.0,0.0,0.0,66.7128,C,27789057000000,
Raw,1732148905001,20498000000,,697884.5199134396,-1416184102503000064,0.0,93.87961201793921,2073.35137235663,0.0,0,14,0.0,16431,347322932423798,74,30.4950008392334,748.7930586891889,0.14999,16,0.0,0.0,1575420030,,,,0,17.134297069763296,1,6.0,30.4950008392334,0.0,0.0,0.0,66.7128,C,27789057000000,
Raw,1732148905001,20498000000,,697884.5199134396,-1416184102503000064,0.0,93.87961201793921,2073.35137235663,0.0,0,19,0.0,16431,347322926138247,396,23.809999465942383,7.970220051415108,0.14999,16,0.0,0.0,1575420030,,,,0,8.319818643027109,1,6.0,23.809999465942383,0.0,0.0,0.0,66.7128,C,27789057000000,
Raw,1732148905001,20498000000,,697884.5199134396,-1416184102503000064,0.0,93.87961201793921,2073.35137235663,0.0,0,30,0.0,16431,347322930528183,316,25.238000869750977,900.6563295981965,0.14999,16,0.0,0.0,1575420030,,,,0,10.359609413773736,1,6.0,25.238000869750977,0.0,0.0,0.0,66.7128,C,27789057000000,
Raw,1732148905001,20498000000,,697884.5199134396,-1416184102503000064,0.0,93.87961201793921,2073.35137235663,0.0,0,13,0.0,16431,347322931339040,396,23.714000701904297,623.7545520912327,0.14999,16,0.0,0.0,1575420030,,,,0,8.165169638413296,1,6.0,23.714000701904297,0.0,0.0,0.0,66.7128,C,27789057000000,
Raw,1732148905001,20498000000,,697884.5199134396,-1416184102503000064,0.0,93.87961201793921,2073.35137235663,0.0,0,2,0.0,16431,347322921102495,74,31.408000946044922,643.4485534733772,0.14999,16,0.0,0.0,1575420030,,,,0,18.229072861362596,1,6.0,31.408000946044922,0.0,0.0,0.0,66.7128,C,27789057000000,
Raw,1732148905001,20498000000,,697884.5199134396,-1416184102503000064,0.0,93.87961201793921,2073.35137235663,0.0,0,17,0.0,16431,347322932333788,396,24.45599937438965,385.7761002696199,0.14999,16,0.0,0.0,1575420030,,,,0,8.521825181113625,1,6.0,24.45599937438965,0.0,0.0,0.0,66.7128,C,27789057000000,
Raw,1732148905001,20498000000,,697884.5199134396,-1416184102503000064,0.0,93.87961201793921,2073.35137235663,0.0,0,15,0.0,16431,347322925258462,487,23.349000930786133,409.04126718903603,0.14999,16,0.0,0.0,1575420030,,,,0,7.628833263646305,1,6.0,23.349000930786133,0.0,0.0,0.0,66.7128,C,27789057000000,
Raw,1732148905001,20498000000,,697884.5199134396,-1416184102503000064,0.0,93.87961201793921,2073.35137235663,0.0,0,27,0.0,16431,347322917911856,316,23.03499984741211,914.362584465462,0.14999,16,0.0,0.0,1575420030,,,,0,9.376864789532622,6,6.0,23.03499984741211,0.0,0.0,7.36358818632504,66.7128,C,27789057000000,
Raw,1732148905001,20498000000,,697884.5199134396,-1416184102503000064,0.0,93.87961201793921,2073.35137235663,0.0,0,21,0.0,16431,347322919480266,316,25.52400016784668,876.4326326355246,0.14999,16,0.0,0.0,1575420030,,,,0,10.75449057768888,1,6.0,25.52400016784668,0.0,0.0,0.0,66.7128,C,27789057000000,
Raw,1732148905001,20498000000,,697884.5199134396,-1416184102503000064,0.0,93.87961201793921,2073.35137235663,0.0,0,19,0.0,16431,347322920920143,487,15.175000190734863,645.8661565361411,0.14999,16,0.0,0.0,1575420030,,,,0,0.0,6,6.0,15.175000190734863,0.0,0.0,7.36358818632504,66.7128,C,27789057000000,
Raw,1732148905001,20498000000,,697884.5199134396,-1416184102503000064,0.0,93.87961201793921,2073.35137235663,0.0,0,21,0.0,16431,347322920889350,396,18.399999618530273,536.4666213782249,0.14999,16,0.0,0.0,1575420030,,,,0,1.6633820412704585,6,6.0,18.399999618530273,0.0,0.0,7.36358818632504,66.7128,C,27789057000000,
Raw,1732148905001,20498000000,,697884.5199134396,-1416184102503000064,0.0,93.87961201793921,2073.35137235663,0.0,0,29,0.0,16431,347322917969226,487,17.40999984741211,1075.0994128706823,0.14999,16,0.0,0.0,1575420030,,,,0,0.232336269478159,6,6.0,17.40999984741211,0.0,0.0,7.36358818632504,66.7128,C,27789057000000,
Raw,1732148905001,20498000000,,697884.5199134396,-1416184102503000064,0.0,93.87961201793921,2073.35137235663,0.0,0,8,0.0,17,287029,396,5.0,836.5682804977663,0.14999,16,0.0,0.0,1605374980,,,,0,4.431265931680586,3,6.0,21.0,0.0,0.0,57.800234311229964,66.7128,C,27789057000000,
Raw,1732148905001,20498000000,,697884.5199134396,-1416184102503000064,0.0,93.87961201793921,2073.35137235663,0.0,0,9,0.0,17,315278,235,5.0,848.9094134367386,0.14999,16,0.0,0.0,1600875010,,,,0,13.56503845881753,3,6.0,27.0,0.0,0.0,57.800234311229964,66.7128,C,27789057000000,
Fix,FLP,37.4244028000,-122.1707745000,2.0,0.023903966,2.466,,1732148905209,1.2,,27789057000000,0.88445985,0,,,
Status,1732148905000,28,0,1,22,1575420030,33.90,313.0,68.0,1,0,0,28.900002
Status,1732148905000,28,1,1,14,1575420030,31.00,17.0,67.0,1,0,0,26.0
Status,1732148905000,28,2,1,17,1575420030,29.40,166.0,66.0,1,0,0,24.4
Status,1732148905000,28,3,1,30,1575420030,34.60,110.0,57.0,1,0,0,29.599998
Status,1732148905000,28,4,1,13,1575420030,30.70,273.0,56.0,1,0,0,25.7
Status,1732148905000,28,5,2,135,1575420030,0.00,197.0,45.0,0,0,0,0.0
Status,1732148905000,28,6,1,19,1575420030,28.80,194.0,36.0,1,0,0,23.8
Status,1732148905000,28,7,1,15,1575420030,26.00,300.0,28.0,1,0,0,21.0
Status,1732148905000,28,8,1,7,1575420030,33.30,119.0,23.0,1,0,0,28.3
Status,1732148905000,28,9,1,2,1575420030,33.50,69.0,21.0,1,0,0,28.5
Status,1732148905000,28,10,1,21,1575420030,33.30,51.0,13.0,1,0,0,28.3
Status,1732148905000,28,11,3,9,1602000000,29.00,49.0,46.0,1,0,0,24.0
Status,1732148905000,28,12,3,8,1602000000,21.90,274.0,38.0,1,0,0,16.9
Status,1732148905000,28,13,3,19,1602000000,0.00,59.0,35.0,0,0,0,0.0
Status,1732148905000,28,14,3,20,1602000000,0.00,139.0,30.0,0,0,0,0.0
Status,1732148905000,28,15,3,11,1602000000,0.00,289.0,13.0,0,0,0,0.0
Status,1732148905000,28,16,3,18,1602000000,0.00,24.0,10.0,0,0,0,0.0
Status,1732148905000,28,17,3,16,1602000000,0.00,84.0,3.0,0,0,0,0.0
Status,1732148905000,28,18,3,17,1602000000,29.20,0.0,0.0,0,0,0,24.2
Status,1732148905000,28,19,6,21,1575420030,26.80,298.0,64.0,1,0,0,21.8
Status,1732148905000,28,20,6,19,1575420030,20.20,272.0,54.0,1,0,0,15.200001
Status,1732148905000,28,21,6,27,1575420030,26.20,49.0,47.0,1,0,0,21.2
Status,1732148905000,28,22,6,29,1575420030,25.40,196.0,44.0,1,0,0,20.4
Status,1732148905000,28,23,6,15,1575420030,0.00,81.0,19.0,0,0,0,0.0
Status,1732148905000,28,24,6,13,1575420030,0.00,133.0,13.0,0,0,0,0.0
Status,1732148905000,28,25,6,4,1575420030,0.00,322.0,12.0,0,0,0,0.0
Status,1732148905000,28,26,6,34,1575420030,0.00,34.0,5.0,0,0,0,0.0
Status,1732148905000,28,27,6,7,1575420030,0.00,162.0,2.0,0,0,0,0.0
Fix,GPS,37.4244050000,-122.1707783333,3.0,0.15801972,2.4,211.25,1732148906000,2.5,179.9,27790057000000,37.1,0,,,
Raw,1732148906001,21498000000,,697545.4311629147,-1416184102503000064,0.0,95.83721935550386,2076.198831383397,0.0,0,7,0.0,16431,347323923286478,235,28.329999923706055,1120.6742829217287,0.14999,16,0.0,0.0,1575420030,,,,0,14.467222116927111,1,6.0,28.329999923706055,0.0,0.0,0.0,66.7128,C,27790057000000,
Raw,1732148906001,21498000000,,697545.4311629147,-1416184102503000064,0.0,95.83721935550386,2076.198831383397,0.0,0,14,0.0,16431,347323932421302,316,25.975000381469727,748.9534331419477,0.14999,16,0.0,0.0,1575420030,,,,0,11.387147535070257,1,6.0,25.975000381469727,0.0,0.0,0.0,66.7128,C,27790057000000,
Raw,1732148906001,21498000000,,697545.4311629147,-1416184102503000064,0.0,95.83721935550386,2076.198831383397,0.0,0,19,0.0,16431,347323926138220,487,23.809999465942383,9.119229601134142,0.14999,16,0.0,0.0,1575420030,,,,0,8.319818643027109,1,6.0,23.809999465942383,0.0,0.0,0.0,66.7128,C,27790057000000,
Raw,1732148906001,21498000000,,697545.4311629147,-1416184102503000064,0.0,95.83721935550386,2076.198831383397,0.0,0,30,0.0,16431,347323930525179,235,29.60099983215332,901.3755987979681,0.14999,16,0.0,0.0,1575420030,,,,0,16.05084703787961,1,6.0,29.60099983215332,0.0,0.0,0.0,66.7128,C,27790057000000,
Raw,1732148906001,21498000000,,697545.4311629147,-1416184102503000064,0.0,95.83721935550386,2076.198831383397,0.0,0,13,0.0,16431,347323931336957,316,25.679000854492188,623.8750652228828,0.14999,16,0.0,0.0,1575420030,,,,0,10.983079813304517,1,6.0,25.679000854492188,0.0,0.0,0.0,66.7128,C,27790057000000,
Raw,1732148906001,21498000000,,697545.4311629147,-1416184102503000064,0.0,95.83721935550386,2076.198831383397,0.0,0,2,0.0,16431,347323921100350,235,28.474000930786133,643.9118832582449,0.14999,16,0.0,0.0,1575420030,,,,0,14.64169348502425,1,6.0,28.474000930786133,0.0,0.0,0.0,66.7128,C,27790057000000,
Raw,1732148906001,21498000000,,697545.4311629147,-1416184102503000064,0.0,95.83721935550386,2076.198831383397,0.0,0,22,0.0,16431,347323931377971,235,28.895999908447266,611.533108206056,0.14999,16,0.0,0.0,1575420030,,,,0,15.168272259471234,1,6.0,28.895999908447266,0.0,0.0,0.0,66.7128,C,27790057000000,
Raw,1732148906001,21498000000,,697545.4311629147,-1416184102503000064,0.0,95.83721935550386,2076.198831383397,0.0,0,17,0.0,16431,347323932332502,396,24.374000549316406,385.85254759349436,0.14999,16,0.0,0.0,1575420030,,,,0,6.817560964762867,1,6.0,24.374000549316406,0.0,0.0,0.0,66.7128,C,27790057000000,
Raw,1732148906001,21498000000,,697545.4311629147,-1416184102503000064,0.0,95.83721935550386,2076.198831383397,0.0,0,15,0.0,16431,347323925257053,487,21.003000259399414,413.18061915656256,0.14999,16,0.0,0.0,1575420030,,,,0,3.8828436506999813,1,6.0,21.003000259399414,0.0,0.0,0.0,66.7128,C,27790057000000,
Raw,1732148906001,21498000000,,697545.4311629147,-1416184102503000064,0.0,95.83721935550386,2076.198831383397,0.0,0,27,0.0,16431,347323917908807,316,21.200000762939453,914.6053761485782,0.14999,16,0.0,0.0,1575420030,,,,0,5.989707261598365,6,6.0,21.200000762939453,0.0,0.0,15.771972397447707,66.7128,C,27790057000000,
Raw,1732148906001,21498000000,,697545.4311629147,-1416184102503000064,0.0,95.83721935550386,2076.198831383397,0.0,0,21,0.0,16431,347323919477342,235,28.274999618530273,877.1105538448687,0.14999,16,0.0,0.0,1575420030,,,,0,14.39136233658433,1,6.0,28.274999618530273,0.0,0.0,0.0,66.7128,C,27790057000000,
Raw,1732148906001,21498000000,,697545.4311629147,-1416184102503000064,0.0,95.83721935550386,2076.198831383397,0.0,0,19,0.0,16431,347323920917915,487,15.215999603271484,647.3545448162781,0.14999,16,0.0,0.0,1575420030,,,,0,0.0,6,6.0,15.215999603271484,0.0,0.0,15.771972397447707,66.7128,C,27790057000000,
Raw,1732148906001,21498000000,,697545.4311629147,-1416184102503000064,0.0,95.83721935550386,2076.198831383397,0.0,0,21,0.0,16431,347323920887559,316,21.799999237060547,537.0009396230623,0.14999,16,0.0,0.0,1575420030,,,,0,6.817560964762867,6,6.0,21.799999237060547,0.0,0.0,15.771972397447707,66.7128,C,27790057000000,
Raw,1732148906001,21498000000,,697545.4311629147,-1416184102503000064,0.0,95.83721935550386,2076.198831383397,0.0,0,29,0.0,16431,347323917965633,396,20.399999618530273,1073.4164102850393,0.14999,16,0.0,0.0,1575420030,,,,0,4.848937242191082,6,6.0,20.399999618530273,0.0,0.0,15.771972397447707,66.7128,C,27790057000000,
Raw,1732148906001,21498000000,,697545.4311629147,-1416184102503000064,0.0,95.83721935550386,2076.198831383397,0.0,0,8,0.0,17,284236,487,5.0,836.6043889972187,0.14999,16,0.0,0.0,1605374980,,,,0,0.0,3,6.0,20.0,0.0,0.0,59.55919417787894,66.7128,C,27790057000000,
Raw,1732148906001,21498000000,,697545.4311629147,-1416184102503000064,0.0,95.83721935550386,2076.198831383397,0.0,0,9,0.0,17,312449,396,5.0,850.2199227980914,0.14999,16,0.0,0.0,1600875010,,,,0,9.815795094329856,3,6.0,23.0,0.0,0.0,59.55919417787894,66.7128,C,27790057000000,
Fix,FLP,37.4244038000,-122.1707763000,2.0,0.015620341,2.45,,1732148906210,2.5,,27790057000000,0.89877635,0,,,
Status,1732148906000,28,0,1,22,1575420030,31.70,313.0,68.0,1,0,0,26.7
Status,1732148906000,28,1,1,14,1575420030,32.80,17.0,67.0,1,0,0,27.8
Status,1732148906000,28,2,1,17,1575420030,35.20,166.0,66.0,1,0,0,30.2
Status,1732148906000,28,3,1,30,1575420030,37.30,110.0,57.0,1,0,0,32.3
Status,1732148906000,28,4,1,13,1575420030,31.10,273.0,56.0,1,0,0,26.1
Status,1732148906000,28,5,2,135,1575420030,0.00,197.0,45.0,0,0,0,0.0
Status,1732148906000,28,6,1,19,1575420030,27.70,194.0,36.0,1,0,0,22.7
Status,1732148906000,28,7,1,15,1575420030,0.00,300.0,28.0,0,0,0,0.0
Status,1732148906000,28,8,1,7,1575420030,34.60,119.0,23.0,1,0,0,29.599998
Status,1732148906000,28,9,1,2,1575420030,31.90,69.0,21.0,1,0,0,26.9
Status,1732148906000,28,10,1,21,1575420030,27.40,51.0,13.0,1,0,0,22.4
Status,1732148906000,28,11,3,9,1602000000,28.10,49.0,46.0,1,0,0,23.1
Status,1732148906000,28,12,3,8,1602000000,24.60,274.0,38.0,1,0,0,19.6
Status,1732148906000,28,13,3,19,1602000000,0.00,59.0,35.0,0,0,0,0.0
Status,1732148906000,28,14,3,20,1602000000,0.00,139.0,30.0,0,0,0,0.0
Status,1732148906000,28,15,3,11,1602000000,0.00,289.0,13.0,0,0,0,0.0
Status,1732148906000,28,16,3,18,1602000000,0.00,24.0,10.0,0,0,0,0.0
Status,1732148906000,28,17,3,16,1602000000,0.00,84.0,3.0,0,0,0,0.0
Status,1732148906000,28,18,3,17,1602000000,32.30,0.0,0.0,0,0,0,27.3
Status,1732148906000,28,19,6,21,1575420030,23.90,298.0,64.0,1,0,0,18.9
Status,1732148906000,28,20,6,19,1575420030,20.30,272.0,54.0,1,0,0,15.299999
Status,1732148906000,28,21,6,27,1575420030,25.40,49.0,47.0,1,0,0,20.4
Status,1732148906000,28,22,6,29,1575420030,22.60,196.0,44.0,1,0,0,17.6
Status,1732148906000,28,23,6,15,1575420030,0.00,81.0,19.0,0,0,0,0.0
Status,1732148906000,28,24,6,13,1575420030,0.00,133.0,13.0,0,0,0,0.0
Status,1732148906000,28,25,6,4,1575420030,0.00,322.0,12.0,0,0,0,0.0
Status,1732148906000,28,26,6,34,1575420030,0.00,34.0,5.0,0,0,0,0.0
Status,1732148906000,28,27,6,7,1575420030,0.00,162.0,2.0,0,0,0,0.0
Fix,GPS,37.4244150000,-122.1707733333,3.0,0.0,2.5,211.25,1732148907000,2.8,179.9,27791057000000,37.6,0,,,
Raw,1732148907001,22498000000,,697125.9221938131,-1416184102503000064,0.0,96.80029559120877,2078.6095885132977,0.0,0,7,0.0,16431,347324923282737,235,29.615999221801758,1122.0395099404916,0.14999,16,0.0,0.0,1575420030,,,,0,16.071802149703487,1,6.0,29.615999221801758,0.0,0.0,0.0,66.7128,C,27791057000000,
Raw,1732148907001,22498000000,,697125.9221938131,-1416184102503000064,0.0,96.80029559120877,2078.6095885132977,0.0,0,14,0.0,16431,347324932418802,316,27.781999588012695,749.8827872998233,0.14999,16,0.0,0.0,1575420030,,,,0,13.759382615150283,1,6.0,27.781999588012695,0.0,0.0,0.0,66.7128,C,27791057000000,
Raw,1732148907001,22498000000,,697125.9221938131,-1416184102503000064,0.0,96.80029559120877,2078.6095885132977,0.0,0,19,0.0,16431,347324926138182,396,22.673999786376953,10.081662151351653,0.14999,16,0.0,0.0,1575420030,,,,0,6.571136220543532,1,6.0,22.673999786376953,0.0,0.0,0.0,66.7128,C,27791057000000,
Raw,1732148907001,22498000000,,697125.9221938131,-1416184102503000064,0.0,96.80029559120877,2078.6095885132977,0.0,0,30,0.0,16431,347324930522172,74,32.33599853515625,901.1511117308387,0.14999,16,0.0,0.0,1575420030,,,,0,19.317186458264658,1,6.0,32.33599853515625,0.0,0.0,0.0,66.7128,C,27791057000000,
Raw,1732148907001,22498000000,,697125.9221938131,-1416184102503000064,0.0,96.80029559120877,2078.6095885132977,0.0,0,13,0.0,16431,347324931334879,316,26.143999099731445,624.4817656801762,0.14999,16,0.0,0.0,1575420030,,,,0,11.599873831985956,1,6.0,26.143999099731445,0.0,0.0,0.0,66.7128,C,27791057000000,
Raw,1732148907001,22498000000,,697125.9221938131,-1416184102503000064,0.0,96.80029559120877,2078.6095885132977,0.0,0,2,0.0,16431,347324921098198,316,26.91699981689453,643.9331612128692,0.14999,16,0.0,0.0,1575420030,,,,0,12.622924280933582,1,6.0,26.91699981689453,0.0,0.0,0.0,66.7128,C,27791057000000,
Raw,1732148907001,22498000000,,697125.9221938131,-1416184102503000064,0.0,96.80029559120877,2078.6095885132977,0.0,0,22,0.0,16431,347324931375899,396,26.674999237060547,611.6795915923678,0.14999,16,0.0,0.0,1575420030,,,,0,12.30588581550979,1,6.0,26.674999237060547,0.0,0.0,0.0,66.7128,C,27791057000000,
Raw,1732148907001,22498000000,,697125.9221938131,-1416184102503000064,0.0,96.80029559120877,2078.6095885132977,0.0,0,17,0.0,16431,347324932331221,74,30.179000854492188,386.19550362196054,0.14999,16,0.0,0.0,1575420030,,,,0,16.755767035528095,1,6.0,30.179000854492188,0.0,0.0,0.0,66.7128,C,27791057000000,
Raw,1732148907001,22498000000,,697125.9221938131,-1416184102503000064,0.0,96.80029559120877,2078.6095885132977,0.0,0,27,0.0,16431,347324917905752,396,20.399999618530273,916.2173902742514,0.14999,16,0.0,0.0,1575420030,,,,0,4.772409085130025,6,6.0,20.399999618530273,0.0,0.0,18.557647421434005,66.7128,C,27791057000000,
Raw,1732148907001,22498000000,,697125.9221938131,-1416184102503000064,0.0,96.80029559120877,2078.6095885132977,0.0,0,21,0.0,16431,347324919474414,396,22.445999145507812,877.9947504221877,0.14999,16,0.0,0.0,1575420030,,,,0,6.252936182757782,1,6.0,22.445999145507812,0.0,0.0,0.0,66.7128,C,27791057000000,
Raw,1732148907001,22498000000,,697125.9221938131,-1416184102503000064,0.0,96.80029559120877,2078.6095885132977,0.0,0,19,0.0,16431,347324920915753,487,15.255000114440918,648.9756183331125,0.14999,16,0.0,0.0,1575420030,,,,0,0.0,6,6.0,15.255000114440918,0.0,0.0,18.557647421434005,66.7128,C,27791057000000,
Raw,1732148907001,22498000000,,697125.9221938131,-1416184102503000064,0.0,96.80029559120877,2078.6095885132977,0.0,0,21,0.0,16431,347324920885762,487,18.899999618530273,535.6679082867333,0.14999,16,0.0,0.0,1575420030,,,,0,2.4008092403329857,6,6.0,18.899999618530273,0.0,0.0,18.557647421434005,66.7128,C,27791057000000,
Raw,1732148907001,22498000000,,697125.9221938131,-1416184102503000064,0.0,96.80029559120877,2078.6095885132977,0.0,0,29,0.0,16431,347324917962046,487,17.600000381469727,1075.3123782505916,0.14999,16,0.0,0.0,1575420030,,,,0,0.10171892629900459,6,6.0,17.600000381469727,0.0,0.0,18.557647421434005,66.7128,C,27791057000000,
Raw,1732148907001,22498000000,,697125.9221938131,-1416184102503000064,0.0,96.80029559120877,2078.6095885132977,0.0,0,8,0.0,17,281489,487,5.0,837.3716946105849,0.14999,16,0.0,0.0,1605374980,,,,0,3.6099405186678717,3,6.0,19.0,0.0,0.0,56.988040887602814,66.7128,C,27791057000000,
Raw,1732148907001,22498000000,,697125.9221938131,-1416184102503000064,0.0,96.80029559120877,2078.6095885132977,0.0,0,9,0.0,17,309611,487,5.0,850.7160729372694,0.14999,16,0.0,0.0,1600875010,,,,0,8.591312668819661,3,6.0,19.0,0.0,0.0,56.988040887602814,66.7128,C,27791057000000,
Fix,FLP,37.4244092000,-122.1707747000,2.0,0.016879776,2.466,,1732148907209,2.8,,27791057000000,0.9045499,0,,,
Status,1732148907000,28,0,1,22,1575420030,28.10,313.0,68.0,1,0,0,23.1
Status,1732148907000,28,1,1,14,1575420030,31.20,17.0,67.0,1,0,0,26.2
Status,1732148907000,28,2,1,17,1575420030,33.70,166.0,66.0,1,0,0,28.7
Status,1732148907000,28,3,1,30,1575420030,32.60,110.0,57.0,1,0,0,27.599998
Status,1732148907000,28,4,1,13,1575420030,29.50,273.0,56.0,1,0,0,24.5
Status,1732148907000,28,5,2,135,1575420030,0.00,197.0,45.0,0,0,0,0.0
Status,1732148907000,28,6,1,19,1575420030,28.70,194.0,36.0,1,0,0,23.7
Status,1732148907000,28,7,1,15,1575420030,28.90,300.0,28.0,1,0,0,23.9
Status,1732148907000,28,8,1,7,1575420030,36.50,119.0,23.0,1,0,0,31.5
Status,1732148907000,28,9,1,2,1575420030,33.80,69.0,21.0,1,0,0,28.8
Status,1732148907000,28,10,1,21,1575420030,24.90,51.0,13.0,1,0,0,19.9
Status,1732148907000,28,11,3,9,1602000000,28.00,49.0,46.0,1,0,0,23.0
Status,1732148907000,28,12,3,8,1602000000,26.30,274.0,38.0,1,0,0,21.3
Status,1732148907000,28,13,3,19,1602000000,0.00,59.0,35.0,0,0,0,0.0
Status,1732148907000,28,14,3,20,1602000000,0.00,139.0,30.0,0,0,0,0.0
Status,1732148907000,28,15,3,11,1602000000,0.00,289.0,13.0,0,0,0,0.0
Status,1732148907000,28,16,3,18,1602000000,0.00,24.0,10.0,0,0,0,0.0
Status,1732148907000,28,17,3,16,1602000000,0.00,84.0,3.0,0,0,0,0.0
Status,1732148907000,28,18,3,17,1602000000,29.00,0.0,0.0,0,0,0,24.0
Status,1732148907000,28,19,6,21,1575420030,26.50,298.0,64.0,1,0,0,21.5
Status,1732148907000,28,20,6,19,1575420030,20.30,272.0,54.0,1,0,0,15.299999
Status,1732148907000,28,21,6,27,1575420030,27.60,49.0,47.0,1,0,0,22.6
Status,1732148907000,28,22,6,29,1575420030,23.00,196.0,44.0,1,0,0,18.0
Status,1732148907000,28,23,6,15,1575420030,0.00,81.0,19.0,0,0,0,0.0
Status,1732148907000,28,24,6,13,1575420030,0.00,133.0,13.0,0,0,0,0.0
Status,1732148907000,28,25,6,4,1575420030,0.00,322.0,12.0,0,0,0,0.0
Status,1732148907000,28,26,6,34,1575420030,0.00,34.0,5.0,0,0,0,0.0
Status,1732148907000,28,27,6,7,1575420030,0.00,162.0,2.0,0,0,0,0.0
Fix,GPS,37.4244216667,-122.1707716667,3.0,0.23574278,2.5,29.15,1732148908000,2.4,179.9,27792057000000,34.3,0,,,
Fix,FLP,37.4244152000,-122.1707731000,2.0,0.024894811,2.466,,1732148908209,2.4,,27792057000000,0.9145583,0,,,
Raw,1732148908001,23498000000,,696620.7810671475,-1416184102503000064,0.0,87.31010671063459,2079.3233930342553,0.0,0,7,0.0,16431,347325923278993,74,31.496000289916992,1121.225186821153,0.14999,16,0.0,0.0,1575420030,,,,0,18.326485728789415,1,6.0,31.496000289916992,0.0,0.0,0.0,66.7128,C,27792057000000,
Raw,1732148908001,23498000000,,696620.7810671475,-1416184102503000064,0.0,87.31010671063459,2079.3233930342553,0.0,0,14,0.0,16431,347325932416300,316,26.167999267578125,750.324699754818,0.14999,16,0.0,0.0,1575420030,,,,0,11.634827157376357,1,6.0,26.167999267578125,0.0,0.0,0.0,66.7128,C,27792057000000,
Raw,1732148908001,23498000000,,696620.7810671475,-1416184102503000064,0.0,87.31010671063459,2079.3233930342553,0.0,0,19,0.0,16431,347325926138152,396,23.746000289916992,10.825693686963424,0.14999,16,0.0,0.0,1575420030,,,,0,8.217025849978889,1,6.0,23.746000289916992,0.0,0.0,0.0,66.7128,C,27792057000000,
Raw,1732148908001,23498000000,,696620.7810671475,-1416184102503000064,0.0,87.31010671063459,2079.3233930342553,0.0,0,30,0.0,16431,347325930519164,316,27.562999725341797,904.0983407384028,0.14999,16,0.0,0.0,1575420030,,,,0,13.481854545470517,1,6.0,27.562999725341797,0.0,0.0,0.0,66.7128,C,27792057000000,
Raw,1732148908001,23498000000,,696620.7810671475,-1416184102503000064,0.0,87.31010671063459,2079.3233930342553,0.0,0,13,0.0,16431,347325931332797,487,24.540000915527344,625.805040749101,0.14999,16,0.0,0.0,1575420030,,,,0,9.376864789532622,1,6.0,24.540000915527344,0.0,0.0,0.0,66.7128,C,27792057000000,
