# 
# Header Description:
# 
# Version: v3.1.0.3 Platform: 13 Manufacturer: samsung Model: SM-S135DL GNSS Hardware Model Name: MediaTek,MT6631,MTK_MNLD_default,MNL_VER_default
# 
# Raw,utcTimeMillis,TimeNanos,LeapSecond,TimeUncertaintyNanos,FullBiasNanos,BiasNanos,BiasUncertaintyNanos,DriftNanosPerSecond,DriftUncertaintyNanosPerSecond,HardwareClockDiscontinuityCount,Svid,TimeOffsetNanos,State,ReceivedSvTimeNanos,ReceivedSvTimeUncertaintyNanos,Cn0DbHz,PseudorangeRateMetersPerSecond,PseudorangeRateUncertaintyMetersPerSecond,AccumulatedDeltaRangeState,AccumulatedDeltaRangeMeters,AccumulatedDeltaRangeUncertaintyMeters,CarrierFrequencyHz,CarrierCycles,CarrierPhase,CarrierPhaseUncertainty,MultipathIndicator,SnrInDb,ConstellationType,AgcDb,BasebandCn0DbHz,FullInterSignalBiasNanos,FullInterSignalBiasUncertaintyNanos,SatelliteInterSignalBiasNanos,SatelliteInterSignalBiasUncertaintyNanos,CodeType,ChipsetElapsedRealtimeNanos,IsFullTracking
# 
# UncalAccel,utcTimeMillis,elapsedRealtimeNanos,UncalAccelXMps2,UncalAccelYMps2,UncalAccelZMps2,BiasXMps2,BiasYMps2,BiasZMps2
# 
# Accel,utcTimeMillis,elapsedRealtimeNanos,AccelXMps2,AccelYMps2,AccelZMps2
# 
# UncalGyro,utcTimeMillis,elapsedRealtimeNanos,UncalGyroXRadPerSec,UncalGyroYRadPerSec,UncalGyroZRadPerSec,DriftXRadPerSec,DriftYRadPerSec,DriftZRadPerSec
# 
# Gyro,utcTimeMillis,elapsedRealtimeNanos,GyroXRadPerSec,GyroYRadPerSec,GyroZRadPerSec
# 
# UncalMag,utcTimeMillis,elapsedRealtimeNanos,UncalMagXMicroT,UncalMagYMicroT,UncalMagZMicroT,BiasXMicroT,BiasYMicroT,BiasZMicroT
# 
# Mag,utcTimeMillis,elapsedRealtimeNanos,MagXMicroT,MagYMicroT,MagZMicroT
# 
# Pressure,utcTimeMillis,elapsedRealtimeNanos,PressureHpa
# 
# OrientationDeg,utcTimeMillis,elapsedRealtimeNanos,yawDeg,rollDeg,pitchDeg
# 
# Fix,Provider,LatitudeDegrees,LongitudeDegrees,AltitudeMeters,SpeedMps,AccuracyMeters,BearingDegrees,UnixTimeMillis,SpeedAccuracyMps,BearingAccuracyDegrees,elapsedRealtimeNanos,VerticalAccuracyMeters,MockLocation,NumberOfUsedSignals,VerticalSpeedAccuracyMps,SolutionType
# 
# Nav,Svid,Type,Status,MessageId,Sub-messageId,Data(Bytes)
# 
# Status,UnixTimeMillis,SignalCount,SignalIndex,ConstellationType,Svid,CarrierFrequencyHz,Cn0DbHz,AzimuthDegrees,ElevationDegrees,UsedInFix,HasAlmanacData,HasEphemerisData,BasebandCn0DbHz
# 
# Agc,utcTimeMillis,TimeNanos,LeapSecond,TimeUncertaintyNanos,FullBiasNanos,BiasNanos,BiasUncertaintyNanos,DriftNanosPerSecond,DriftUncertaintyNanosPerSecond,HardwareClockDiscontinuityCount,AgcDb,CarrierFrequencyHz,ConstellationType
# 
Fix,FLP,37.4243883000,-122.1708370000,2.0,0.07524629,2.533,,1732148041207,2.6,,26925055000000,1.1130655,0,,,
Status,,27,0,1,14,1575420030,25.90,1.0,71.0,1,0,0,20.9
Status,,27,1,1,22,1575420030,29.60,296.0,66.0,1,0,0,24.6
Status,,27,2,1,30,1575420030,31.60,101.0,62.0,1,0,0,26.6
Status,,27,3,1,17,1575420030,27.30,171.0,58.0,1,0,0,22.3
Status,,27,4,1,13,1575420030,0.00,285.0,55.0,0,0,0,0.0
Status,,27,5,1,19,1575420030,24.90,193.0,30.0,1,0,0,19.9
Status,,27,6,1,7,1575420030,34.80,114.0,28.0,1,0,0,29.8
Status,,27,7,1,15,1575420030,27.10,306.0,25.0,1,0,0,22.1
Status,,27,8,2,131,1575420030,28.00,3.0,23.0,0,0,0,23.0
Status,,27,9,1,2,1575420030,29.40,75.0,20.0,1,0,0,24.4
Status,,27,10,1,21,1575420030,32.40,57.0,14.0,1,0,0,27.400002
Status,,27,11,3,9,1602000000,27.40,39.0,49.0,1,0,0,22.4
Status,,27,12,3,8,1602000000,24.80,284.0,40.0,1,0,0,19.8
Status,,27,13,3,20,1602000000,0.00,143.0,23.0,0,0,0,0.0
Status,,27,14,3,11,1602000000,0.00,283.0,9.0,0,0,0,0.0
Status,,27,15,3,16,1602000000,28.00,79.0,7.0,1,0,0,23.0
Status,,27,16,3,17,1602000000,29.60,0.0,0.0,0,0,0,24.6
Status,,27,17,6,21,1575420030,21.30,287.0,62.0,1,0,0,16.3
Status,,27,18,6,19,1575420030,0.00,282.0,54.0,0,0,0,0.0
Status,,27,19,6,27,1575420030,22.90,44.0,51.0,1,0,0,17.9
Status,,27,20,6,29,1575420030,21.90,198.0,50.0,1,0,0,16.9
Status,,27,21,6,15,1575420030,0.00,86.0,16.0,0,0,0,0.0
Status,,27,22,6,13,1575420030,0.00,136.0,9.0,0,0,0,0.0
Status,,27,23,6,4,1575420030,0.00,324.0,8.0,0,0,0,0.0
Status,,27,24,6,7,1575420030,0.00,162.0,7.0,0,0,0,0.0
Status,,27,25,6,34,1575420030,0.00,38.0,6.0,0,0,0,0.0
Status,,27,26,6,30,1575420030,0.00,64.0,4.0,0,0,0,0.0
Fix,GPS,37.4243816667,-122.1708366667,-6.699999999999999,0.0,2.6,113.89,1732148042000,2.6,179.9,26926055000000,36.3,0,,,
Fix,FLP,37.4243848000,-122.1708369000,2.0,0.07326291,2.55,,1732148042207,2.6,,26926055000000,0.9107951,0,,,
Raw,1732148041999,13574000000,,699211.7401765991,-1416183246425999872,0.0,89.54524089215978,2252.7800784046076,0.0,0,7,0.0,16431,346459924057582,74,29.80500030517578,1123.219739545904,0.14999,16,0.0,0.0,1575420030,,,,0,16.29247598411775,1,6.0,29.80500030517578,0.0,0.0,0.0,66.7128,C,26926055000000,
Raw,1732148041999,13574000000,,699211.7401765991,-1416183246425999872,0.0,89.54524089215978,2252.7800784046076,0.0,0,2,0.0,16431,346459920437519,396,24.399999618530273,605.395951424644,0.14999,16,0.0,0.0,1575420030,,,,0,9.16921104398006,1,6.0,24.399999618530273,0.0,0.0,0.0,66.7128,C,26926055000000,
Raw,1732148041999,13574000000,,699211.7401765991,-1416183246425999872,0.0,89.54524089215978,2252.7800784046076,0.0,0,17,0.0,16431,346459930919299,487,22.253000259399414,343.5816607280929,0.14999,16,0.0,0.0,1575420030,,,,0,5.953839806757497,1,6.0,22.253000259399414,0.0,0.0,0.0,66.7128,C,26926055000000,
Raw,1732148041999,13574000000,,699211.7401765991,-1416183246425999872,0.0,89.54524089215978,2252.7800784046076,0.0,0,19,0.0,16431,346459923716763,487,19.947999954223633,21.641352356025372,0.14999,16,0.0,0.0,1575420030,,,,0,2.07743928643524,1,6.0,19.947999954223633,0.0,0.0,0.0,66.7128,C,26926055000000,
Raw,1732148041999,13574000000,,699211.7401765991,-1416183246425999872,0.0,89.54524089215978,2252.7800784046076,0.0,0,15,0.0,16431,346459923906338,487,22.086000442504883,360.0694971199238,0.14999,16,0.0,0.0,1575420030,,,,0,5.671346952925369,1,6.0,22.086000442504883,0.0,0.0,0.0,66.7128,C,26926055000000,
Raw,1732148041999,13574000000,,699211.7401765991,-1416183246425999872,0.0,89.54524089215978,2252.7800784046076,0.0,0,30,0.0,16431,346459930636324,316,26.611000061035156,884.4210643860943,0.14999,16,0.0,0.0,1575420030,,,,0,12.214302013222259,1,6.0,26.611000061035156,0.0,0.0,0.0,66.7128,C,26926055000000,
Raw,1732148041999,13574000000,,699211.7401765991,-1416183246425999872,0.0,89.54524089215978,2252.7800784046076,0.0,0,22,0.0,16431,346459930684362,396,24.642000198364258,614.8439207788839,0.14999,16,0.0,0.0,1575420030,,,,0,9.498796531869965,1,6.0,24.642000198364258,0.0,0.0,0.0,66.7128,C,26926055000000,
Raw,1732148041999,13574000000,,699211.7401765991,-1416183246425999872,0.0,89.54524089215978,2252.7800784046076,0.0,0,29,0.0,16431,346459918601280,487,16.899999618530273,1075.464947689427,0.14999,16,0.0,0.0,1575420030,,,,0,0.0,6,6.0,16.899999618530273,0.0,0.0,23.66702153273464,66.7128,C,26926055000000,
Raw,1732148041999,13574000000,,699211.7401765991,-1416183246425999872,0.0,89.54524089215978,2252.7800784046076,0.0,0,27,0.0,16431,346459918142673,487,17.899999618530273,954.8628017138311,0.14999,16,0.0,0.0,1575420030,,,,0,0.6658178007210935,6,6.0,17.899999618530273,0.0,0.0,23.66702153273464,66.7128,C,26926055000000,
Raw,1732148041999,13574000000,,699211.7401765991,-1416183246425999872,0.0,89.54524089215978,2252.7800784046076,0.0,0,21,0.0,16431,346459920007488,487,16.299999237060547,560.1946534983466,0.14999,16,0.0,0.0,1575420030,,,,0,0.0,6,6.0,16.299999237060547,0.0,0.0,23.66702153273464,66.7128,C,26926055000000,
Raw,1732148041999,13574000000,,699211.7401765991,-1416183246425999872,0.0,89.54524089215978,2252.7800784046076,0.0,0,16,0.0,17,142007,316,5.0,1165.291188460025,0.14999,16,0.0,0.0,1601437440,,,,0,8.451777304392213,3,6.0,25.0,0.0,0.0,49.53449201856651,66.7128,C,26926055000000,
Raw,1732148041999,13574000000,,699211.7401765991,-1416183246425999872,0.0,89.54524089215978,2252.7800784046076,0.0,0,8,0.0,17,110104,487,5.0,749.2064559732305,0.14999,16,0.0,0.0,1605374980,,,,0,5.1815931570383675,3,6.0,20.0,0.0,0.0,49.53449201856651,66.7128,C,26926055000000,
Raw,1732148041999,13574000000,,699211.7401765991,-1416183246425999872,0.0,89.54524089215978,2252.7800784046076,0.0,0,9,0.0,17,326188,396,5.0,869.4991870156689,0.14999,16,0.0,0.0,1600875010,,,,0,7.641488601426147,3,6.0,22.0,0.0,0.0,49.53449201856651,66.7128,C,26926055000000,
Raw,1732148041999,13574000000,,699211.7401765991,-1416183246425999872,0.0,89.54524089215978,2252.7800784046076,0.0,0,21,0.0,16431,346459919483139,316,27.40999984741211,834.8895168600612,0.14999,16,0.0,0.0,1575420030,,,,0,13.293499326314514,1,6.0,27.40999984741211,0.0,0.0,0.0,66.7128,C,26926055000000,
Raw,1732148041999,13574000000,,699211.7401765991,-1416183246425999872,0.0,89.54524089215978,2252.7800784046076,0.0,0,14,0.0,16431,346459932129360,487,20.906999588012695,756.4990697276147,0.14999,16,0.0,0.0,1575420030,,,,0,3.7510742319212653,1,6.0,20.906999588012695,0.0,0.0,0.0,66.7128,C,26926055000000,
Status,1732148042000,27,0,1,14,1575420030,0.00,1.0,71.0,0,0,0,0.0
Status,1732148042000,27,1,1,22,1575420030,26.10,296.0,66.0,1,0,0,21.1
Status,1732148042000,27,2,1,30,1575420030,30.10,101.0,62.0,1,0,0,25.1
Status,1732148042000,27,3,1,17,1575420030,26.20,171.0,58.0,1,0,0,21.2
Status,1732148042000,27,4,1,13,1575420030,32.20,285.0,55.0,1,0,0,27.2
Status,1732148042000,27,5,1,19,1575420030,24.90,193.0,30.0,1,0,0,19.9
Status,1732148042000,27,6,1,7,1575420030,33.60,114.0,28.0,1,0,0,28.599998
Status,1732148042000,27,7,1,15,1575420030,27.10,306.0,25.0,1,0,0,22.1
Status,1732148042000,27,8,2,131,1575420030,31.00,3.0,23.0,0,0,0,26.0
Status,1732148042000,27,9,1,2,1575420030,33.70,75.0,20.0,1,0,0,28.7
Status,1732148042000,27,10,1,21,1575420030,0.00,57.0,14.0,0,0,0,0.0
Status,1732148042000,27,11,3,9,1602000000,30.00,39.0,49.0,1,0,0,25.0
Status,1732148042000,27,12,3,8,1602000000,24.90,284.0,40.0,1,0,0,19.9
Status,1732148042000,27,13,3,20,1602000000,0.00,143.0,23.0,0,0,0,0.0
Status,1732148042000,27,14,3,11,1602000000,0.00,283.0,9.0,0,0,0,0.0
Status,1732148042000,27,15,3,16,1602000000,26.60,79.0,7.0,1,0,0,21.6
Status,1732148042000,27,16,3,17,1602000000,28.00,0.0,0.0,0,0,0,23.0
Status,1732148042000,27,17,6,21,1575420030,25.80,287.0,62.0,1,0,0,20.8
Status,1732148042000,27,18,6,19,1575420030,0.00,282.0,54.0,0,0,0,0.0
Status,1732148042000,27,19,6,27,1575420030,26.40,44.0,51.0,1,0,0,21.4
Status,1732148042000,27,20,6,29,1575420030,21.90,198.0,50.0,1,0,0,16.9
Status,1732148042000,27,21,6,15,1575420030,0.00,86.0,16.0,0,0,0,0.0
Status,1732148042000,27,22,6,13,1575420030,0.00,136.0,9.0,0,0,0,0.0
Status,1732148042000,27,23,6,4,1575420030,0.00,324.0,8.0,0,0,0,0.0
Status,1732148042000,27,24,6,7,1575420030,0.00,162.0,7.0,0,0,0,0.0
Status,1732148042000,27,25,6,34,1575420030,0.00,38.0,6.0,0,0,0,0.0
Status,1732148042000,27,26,6,30,1575420030,0.00,64.0,4.0,0,0,0,0.0
Fix,GPS,37.4243833333,-122.1708400000,-6.599999999999998,0.0,2.7,113.89,1732148043000,2.5,179.9,26927055000000,37.4,0,,,
Raw,1732148042999,14574000000,,699032.3452366503,-1416183246425999872,0.0,94.59545834994033,2252.5828754034123,0.0,0,7,0.0,16431,346460924053834,316,28.554000854492188,1123.6658332583577,0.14999,16,0.0,0.0,1575420030,,,,0,14.746808398026971,1,6.0,28.554000854492188,0.0,0.0,0.0,66.7128,C,26927055000000,
Raw,1732148042999,14574000000,,699032.3452366503,-1416183246425999872,0.0,94.59545834994033,2252.5828754034123,0.0,0,2,0.0,16431,346460920435496,235,28.68400001525879,605.8220215597108,0.14999,16,0.0,0.0,1575420030,,,,0,14.921781875912849,1,6.0,28.68400001525879,0.0,0.0,0.0,66.7128,C,26927055000000,
Raw,1732148042999,14574000000,,699032.3452366503,-1416183246425999872,0.0,94.59545834994033,2252.5828754034123,0.0,0,17,0.0,16431,346460930918149,487,21.150999069213867,343.58946574201633,0.14999,16,0.0,0.0,1575420030,,,,0,4.187642981834719,1,6.0,21.150999069213867,0.0,0.0,0.0,66.7128,C,26927055000000,
Raw,1732148042999,14574000000,,699032.3452366503,-1416183246425999872,0.0,94.59545834994033,2252.5828754034123,0.0,0,19,0.0,16431,346460923716647,487,19.854000091552734,21.60511479138115,0.14999,16,0.0,0.0,1575420030,,,,0,0.0,1,6.0,19.854000091552734,0.0,0.0,0.0,66.7128,C,26927055000000,
Raw,1732148042999,14574000000,,699032.3452366503,-1416183246425999872,0.0,94.59545834994033,2252.5828754034123,0.0,0,15,0.0,16431,346460923905137,797,22.086000442504883,359.7824305661589,0.14999,16,0.0,0.0,1575420030,,,,0,5.671346952925369,1,6.0,22.086000442504883,0.0,0.0,0.0,66.7128,C,26927055000000,
Raw,1732148042999,14574000000,,699032.3452366503,-1416183246425999872,0.0,94.59545834994033,2252.5828754034123,0.0,0,30,0.0,16431,346460930633373,316,25.131999969482422,884.9088777563048,0.14999,16,0.0,0.0,1575420030,,,,0,10.208242895114342,1,6.0,25.131999969482422,0.0,0.0,0.0,66.7128,C,26927055000000,
Raw,1732148042999,14574000000,,699032.3452366503,-1416183246425999872,0.0,94.59545834994033,2252.5828754034123,0.0,0,13,0.0,16431,346460930583683,316,27.218000411987305,564.4606975668793,0.14999,16,0.0,0.0,1575420030,,,,0,13.02062171298359,1,6.0,27.218000411987305,0.0,0.0,0.0,66.7128,C,26927055000000,
Raw,1732148042999,14574000000,,699032.3452366503,-1416183246425999872,0.0,94.59545834994033,2252.5828754034123,0.0,0,22,0.0,16431,346460930682311,487,21.052000045776367,615.0313340298771,0.14999,16,0.0,0.0,1575420030,,,,0,4.015639546596368,1,6.0,21.052000045776367,0.0,0.0,0.0,66.7128,C,26927055000000,
Raw,1732148042999,14574000000,,699032.3452366503,-1416183246425999872,0.0,94.59545834994033,2252.5828754034123,0.0,0,29,0.0,16431,346460918597693,487,16.899999618530273,1075.4916148203317,0.14999,16,0.0,0.0,1575420030,,,,0,0.0,6,6.0,16.899999618530273,0.0,0.0,28.062064973031926,66.7128,C,26927055000000,
Raw,1732148042999,14574000000,,699032.3452366503,-1416183246425999872,0.0,94.59545834994033,2252.5828754034123,0.0,0,27,0.0,16431,346460918139486,396,21.399999618530273,955.6685764845867,0.14999,16,0.0,0.0,1575420030,,,,0,6.361065459711654,6,6.0,21.399999618530273,0.0,0.0,28.062064973031926,66.7128,C,26927055000000,
Raw,1732148042999,14574000000,,699032.3452366503,-1416183246425999872,0.0,94.59545834994033,2252.5828754034123,0.0,0,21,0.0,16431,346460920005619,396,20.799999237060547,560.2531911027719,0.14999,16,0.0,0.0,1575420030,,,,0,5.453279692718875,6,6.0,20.799999237060547,0.0,0.0,28.062064973031926,66.7128,C,26927055000000,
Raw,1732148042999,14574000000,,699032.3452366503,-1416183246425999872,0.0,94.59545834994033,2252.5828754034123,0.0,0,16,0.0,17,138114,396,5.0,1168.1807552013,0.14999,16,0.0,0.0,1601437440,,,,0,6.574899767393031,3,6.0,23.0,0.0,0.0,50.762708547048106,66.7128,C,26927055000000,
Raw,1732148042999,14574000000,,699032.3452366503,-1416183246425999872,0.0,94.59545834994033,2252.5828754034123,0.0,0,8,0.0,17,107598,487,5.0,749.5279219197453,0.14999,16,0.0,0.0,1605374980,,,,0,4.814529117420772,3,6.0,20.0,0.0,0.0,50.762708547048106,66.7128,C,26927055000000,
Raw,1732148042999,14574000000,,699032.3452366503,-1416183246425999872,0.0,94.59545834994033,2252.5828754034123,0.0,0,9,0.0,17,323284,316,5.0,870.3751763878262,0.14999,16,0.0,0.0,1600875010,,,,0,11.046722909325297,3,6.0,25.0,0.0,0.0,50.762708547048106,66.7128,C,26927055000000,
Fix,FLP,37.4243838000,-122.1708385000,2.0,0.06590601,2.583,,1732148043207,2.5,,26927055000000,0.92090994,0,,,
Status,1732148043000,27,0,1,14,1575420030,0.00,1.0,71.0,0,0,0,0.0
Status,1732148043000,27,1,1,22,1575420030,26.10,296.0,66.0,1,0,0,21.1
Status,1732148043000,27,2,1,30,1575420030,32.10,101.0,62.0,1,0,0,27.099998
Status,1732148043000,27,3,1,17,1575420030,26.10,171.0,58.0,1,0,0,21.1
Status,1732148043000,27,4,1,13,1575420030,30.00,285.0,55.0,1,0,0,25.0
Status,1732148043000,27,5,1,19,1575420030,24.80,193.0,30.0,1,0,0,19.8
Status,1732148043000,27,6,1,7,1575420030,41.90,114.0,28.0,1,0,0,36.9
Status,1732148043000,27,7,1,15,1575420030,27.10,306.0,25.0,1,0,0,22.1
Status,1732148043000,27,8,2,131,1575420030,30.00,3.0,23.0,0,0,0,25.0
Status,1732148043000,27,9,1,2,1575420030,37.40,75.0,20.0,1,0,0,32.4
Status,1732148043000,27,10,1,21,1575420030,0.00,57.0,14.0,0,0,0,0.0
Status,1732148043000,27,11,3,9,1602000000,28.30,39.0,49.0,1,0,0,23.3
Status,1732148043000,27,12,3,8,1602000000,24.90,284.0,40.0,1,0,0,19.9
Status,1732148043000,27,13,3,20,1602000000,0.00,143.0,23.0,0,0,0,0.0
Status,1732148043000,27,14,3,11,1602000000,0.00,283.0,9.0,0,0,0,0.0
Status,1732148043000,27,15,3,16,1602000000,28.90,79.0,7.0,1,0,0,23.9
Status,1732148043000,27,16,3,17,1602000000,30.50,0.0,0.0,0,0,0,25.5
Status,1732148043000,27,17,6,21,1575420030,29.80,287.0,62.0,1,0,0,24.8
Status,1732148043000,27,18,6,19,1575420030,0.00,282.0,54.0,0,0,0,0.0
Status,1732148043000,27,19,6,27,1575420030,24.50,44.0,51.0,1,0,0,19.5
Status,1732148043000,27,20,6,29,1575420030,24.20,198.0,50.0,1,0,0,19.2
Status,1732148043000,27,21,6,15,1575420030,0.00,86.0,16.0,0,0,0,0.0
Status,1732148043000,27,22,6,13,1575420030,0.00,136.0,9.0,0,0,0,0.0
Status,1732148043000,27,23,6,4,1575420030,0.00,324.0,8.0,0,0,0,0.0
Status,1732148043000,27,24,6,7,1575420030,0.00,162.0,7.0,0,0,0,0.0
Status,1732148043000,27,25,6,34,1575420030,0.00,38.0,6.0,0,0,0,0.0
Status,1732148043000,27,26,6,30,1575420030,0.00,64.0,4.0,0,0,0,0.0
Fix,GPS,37.4243900000,-122.1708366667,-6.599999999999998,0.0,2.6,113.89,1732148044000,2.6,179.9,26928055000000,36.7,0,,,
Fix,FLP,37.4243866000,-122.1708377000,2.0,0.052139837,2.6,,1732148044207,2.6,,26928055000000,0.93082047,0,,,
Raw,1732148043999,15574000000,,698501.248653827,-1416183246425999872,0.0,93.42920429250094,2254.410263649602,0.0,0,7,0.0,16431,346461924050082,51,36.88100051879883,1124.6600433652632,0.14999,16,0.0,0.0,1575420030,,,,0,24.431149310467525,1,6.0,36.88100051879883,0.0,0.0,0.0,66.7128,C,26928055000000,
Raw,1732148043999,15574000000,,698501.248653827,-1416183246425999872,0.0,93.42920429250094,2254.410263649602,0.0,0,2,0.0,16431,346461920433472,74,32.41400146484375,607.2422088848507,0.14999,16,0.0,0.0,1575420030,,,,0,19.40318606811914,1,6.0,32.41400146484375,0.0,0.0,0.0,66.7128,C,26928055000000,
Raw,1732148043999,15574000000,,698501.248653827,-1416183246425999872,0.0,93.42920429250094,2254.410263649602,0.0,0,17,0.0,16431,346461930917002,487,21.101999282836914,344.1785120011497,0.14999,16,0.0,0.0,1575420030,,,,0,4.102067022249219,1,6.0,21.101999282836914,0.0,0.0,0.0,66.7128,C,26928055000000,
Raw,1732148043999,15574000000,,698501.248653827,-1416183246425999872,0.0,93.42920429250094,2254.410263649602,0.0,0,19,0.0,16431,346461923716586,487,19.775999069213867,22.02082469963305,0.14999,16,0.0,0.0,1575420030,,,,0,1.8575316004059754,1,6.0,19.775999069213867,0.0,0.0,0.0,66.7128,C,26928055000000,
Raw,1732148043999,15574000000,,698501.248653827,-1416183246425999872,0.0,93.42920429250094,2254.410263649602,0.0,0,15,0.0,16431,346461923903935,797,22.086000442504883,361.2991120217681,0.14999,16,0.0,0.0,1575420030,,,,0,5.671346952925369,1,6.0,22.086000442504883,0.0,0.0,0.0,66.7128,C,26928055000000,
Raw,1732148043999,15574000000,,698501.248653827,-1416183246425999872,0.0,93.42920429250094,2254.410263649602,0.0,0,30,0.0,16431,346461930630405,316,27.06399917602539,885.0979635102817,0.14999,16,0.0,0.0,1575420030,,,,0,12.833821187900723,1,6.0,27.06399917602539,0.0,0.0,0.0,66.7128,C,26928055000000,
Raw,1732148043999,15574000000,,698501.248653827,-1416183246425999872,0.0,93.42920429250094,2254.410263649602,0.0,0,13,0.0,16431,346461930581798,316,25.017000198364258,565.0439829824026,0.14999,16,0.0,0.0,1575420030,,,,0,10.036239459875992,1,6.0,25.017000198364258,0.0,0.0,0.0,66.7128,C,26928055000000,
Raw,1732148043999,15574000000,,698501.248653827,-1416183246425999872,0.0,93.42920429250094,2254.410263649602,0.0,0,22,0.0,16431,346461930680259,396,21.052000045776367,616.124035979149,0.14999,16,0.0,0.0,1575420030,,,,0,4.015639546596368,1,6.0,21.052000045776367,0.0,0.0,0.0,66.7128,C,26928055000000,
Raw,1732148043999,15574000000,,698501.248653827,-1416183246425999872,0.0,93.42920429250094,2254.410263649602,0.0,0,29,0.0,16431,346461918594097,487,19.200000762939453,1075.3330987042214,0.14999,16,0.0,0.0,1575420030,,,,0,3.003439679494623,6,6.0,19.200000762939453,0.0,0.0,30.16148472218943,66.7128,C,26928055000000,
Raw,1732148043999,15574000000,,698501.248653827,-1416183246425999872,0.0,93.42920429250094,2254.410263649602,0.0,0,27,0.0,16431,346461918136297,316,19.5,956.1601065280942,0.14999,16,0.0,0.0,1575420030,,,,0,3.4781966185903412,6,6.0,19.5,0.0,0.0,30.16148472218943,66.7128,C,26928055000000,
Raw,1732148043999,15574000000,,698501.248653827,-1416183246425999872,0.0,93.42920429250094,2254.410263649602,0.0,0,21,0.0,16431,346461920003750,316,24.799999237060547,560.9186614565716,0.14999,16,0.0,0.0,1575420030,,,,0,10.824521843398735,6,6.0,24.799999237060547,0.0,0.0,30.16148472218943,66.7128,C,26928055000000,
Raw,1732148043999,15574000000,,698501.248653827,-1416183246425999872,0.0,93.42920429250094,2254.410263649602,0.0,0,16,0.0,17,134215,396,5.0,1167.5067179638534,0.14999,16,0.0,0.0,1601437440,,,,0,9.633566949684703,3,6.0,22.0,0.0,0.0,51.302167913114914,66.7128,C,26928055000000,
Raw,1732148043999,15574000000,,698501.248653827,-1416183246425999872,0.0,93.42920429250094,2254.410263649602,0.0,0,8,0.0,17,105097,487,5.0,750.761811350532,0.14999,16,0.0,0.0,1605374980,,,,0,4.814529117420772,3,6.0,19.0,0.0,0.0,51.302167913114914,66.7128,C,26928055000000,
Raw,1732148043999,15574000000,,698501.248653827,-1416183246425999872,0.0,93.42920429250094,2254.410263649602,0.0,0,9,0.0,17,320382,396,5.0,867.9935459925016,0.14999,16,0.0,0.0,1600875010,,,,0,8.930648385964517,3,6.0,23.0,0.0,0.0,51.302167913114914,66.7128,C,26928055000000,
Status,1732148044000,27,0,1,14,1575420030,22.10,1.0,71.0,1,0,0,17.1
Status,1732148044000,27,1,1,22,1575420030,32.80,296.0,66.0,1,0,0,27.8
Status,1732148044000,27,2,1,30,1575420030,33.40,101.0,62.0,1,0,0,28.400002
Status,1732148044000,27,3,1,17,1575420030,26.90,171.0,58.0,1,0,0,21.9
Status,1732148044000,27,4,1,13,1575420030,28.90,285.0,55.0,1,0,0,23.9
Status,1732148044000,27,5,1,19,1575420030,24.80,193.0,30.0,1,0,0,19.8
Status,1732148044000,27,6,1,7,1575420030,35.90,114.0,28.0,1,0,0,30.900002
Status,1732148044000,27,7,1,15,1575420030,0.00,306.0,25.0,0,0,0,0.0
Status,1732148044000,27,8,2,131,1575420030,30.00,3.0,23.0,0,0,0,25.0
Status,1732148044000,27,9,1,2,1575420030,34.00,75.0,20.0,1,0,0,29.0
Status,1732148044000,27,10,1,21,1575420030,0.00,57.0,14.0,0,0,0,0.0
Status,1732148044000,27,11,3,9,1602000000,29.40,39.0,49.0,1,0,0,24.4
Status,1732148044000,27,12,3,8,1602000000,24.90,284.0,40.0,1,0,0,19.9
Status,1732148044000,27,13,3,20,1602000000,0.00,143.0,23.0,0,0,0,0.0
Status,1732148044000,27,14,3,11,1602000000,0.00,283.0,9.0,0,0,0,0.0
Status,1732148044000,27,15,3,16,1602000000,29.70,79.0,7.0,1,0,0,24.7
Status,1732148044000,27,16,3,17,1602000000,28.10,0.0,0.0,0,0,0,23.1
Status,1732148044000,27,17,6,21,1575420030,28.50,287.0,62.0,1,0,0,23.5
Status,1732148044000,27,18,6,19,1575420030,0.00,282.0,54.0,0,0,0,0.0
Status,1732148044000,27,19,6,27,1575420030,25.70,44.0,51.0,1,0,0,20.7
Status,1732148044000,27,20,6,29,1575420030,24.10,198.0,50.0,1,0,0,19.1
Status,1732148044000,27,21,6,15,1575420030,0.00,86.0,16.0,0,0,0,0.0
Status,1732148044000,27,22,6,13,1575420030,0.00,136.0,9.0,0,0,0,0.0
Status,1732148044000,27,23,6,4,1575420030,0.00,324.0,8.0,0,0,0,0.0
Status,1732148044000,27,24,6,7,1575420030,0.00,162.0,7.0,0,0,0,0.0
Status,1732148044000,27,25,6,34,1575420030,0.00,38.0,6.0,0,0,0,0.0
Status,1732148044000,27,26,6,30,1575420030,0.00,64.0,4.0,0,0,0,0.0
Fix,GPS,37.4243900000,-122.1708250000,-6.599999999999998,0.0,2.6,113.89,1732148045000,2.8,179.9,26929055000000,35.9,0,,,
Raw,1732148044999,16574000000,,698044.8391566942,-1416183246425999872,0.0,92.29861053538477,2255.7599823099836,0.0,0,7,0.0,16431,346462924046338,74,30.89299964904785,1125.0568911565335,0.14999,16,0.0,0.0,1575420030,,,,0,17.622349814887635,1,6.0,30.89299964904785,0.0,0.0,0.0,66.7128,C,26929055000000,
Raw,1732148044999,16574000000,,698044.8391566942,-1416183246425999872,0.0,92.29861053538477,2255.7599823099836,0.0,0,2,0.0,16431,346462920431448,235,28.986000061035156,606.4554820647414,0.14999,16,0.0,0.0,1575420030,,,,0,15.285261254484581,1,6.0,28.986000061035156,0.0,0.0,0.0,66.7128,C,26929055000000,
Raw,1732148044999,16574000000,,698044.8391566942,-1416183246425999872,0.0,92.29861053538477,2255.7599823099836,0.0,0,17,0.0,16431,346462930915853,316,21.875999450683594,344.70909034348216,0.14999,16,0.0,0.0,1575420030,,,,0,5.304799331134738,1,6.0,21.875999450683594,0.0,0.0,0.0,66.7128,C,26929055000000,
Raw,1732148044999,16574000000,,698044.8391566942,-1416183246425999872,0.0,92.29861053538477,2255.7599823099836,0.0,0,19,0.0,16431,346462923716512,487,19.775999069213867,22.62069576974352,0.14999,16,0.0,0.0,1575420030,,,,0,1.8575316004059754,1,6.0,19.775999069213867,0.0,0.0,0.0,66.7128,C,26929055000000,
Raw,1732148044999,16574000000,,698044.8391566942,-1416183246425999872,0.0,92.29861053538477,2255.7599823099836,0.0,0,30,0.0,16431,346462930627450,235,28.368999481201172,885.8931457621413,0.14999,16,0.0,0.0,1575420030,,,,0,14.516535687333272,1,6.0,28.368999481201172,0.0,0.0,0.0,66.7128,C,26929055000000,
Raw,1732148044999,16574000000,,698044.8391566942,-1416183246425999872,0.0,92.29861053538477,2255.7599823099836,0.0,0,13,0.0,16431,346462930579918,396,23.89299964904785,565.3946511079597,0.14999,16,0.0,0.0,1575420030,,,,0,8.41780130739747,1,6.0,23.89299964904785,0.0,0.0,0.0,66.7128,C,26929055000000,
Raw,1732148044999,16574000000,,698044.8391566942,-1416183246425999872,0.0,92.29861053538477,2255.7599823099836,0.0,0,22,0.0,16431,346462930678197,235,27.783000946044922,617.0756901768057,0.14999,16,0.0,0.0,1575420030,,,,0,13.758407056140097,1,6.0,27.783000946044922,0.0,0.0,0.0,66.7128,C,26929055000000,
Raw,1732148044999,16574000000,,698044.8391566942,-1416183246425999872,0.0,92.29861053538477,2255.7599823099836,0.0,0,29,0.0,16431,346462918590518,487,19.094999313354492,1076.339666749839,0.14999,16,0.0,0.0,1575420030,,,,0,0.0,6,6.0,19.094999313354492,0.0,0.0,28.651338269856826,66.7128,C,26929055000000,
Raw,1732148044999,16574000000,,698044.8391566942,-1416183246425999872,0.0,92.29861053538477,2255.7599823099836,0.0,0,27,0.0,16431,346462918133106,396,20.700000762939453,956.9106887003917,0.14999,16,0.0,0.0,1575420030,,,,0,5.229596353668601,6,6.0,20.700000762939453,0.0,0.0,28.651338269856826,66.7128,C,26929055000000,
Raw,1732148044999,16574000000,,698044.8391566942,-1416183246425999872,0.0,92.29861053538477,2255.7599823099836,0.0,0,21,0.0,16431,346462920001879,396,23.5,561.6343068998788,0.14999,16,0.0,0.0,1575420030,,,,0,9.12108964866249,6,6.0,23.5,0.0,0.0,28.651338269856826,66.7128,C,26929055000000,
Raw,1732148044999,16574000000,,698044.8391566942,-1416183246425999872,0.0,92.29861053538477,2255.7599823099836,0.0,0,16,0.0,17,130316,316,5.0,1168.6897109021545,0.14999,16,0.0,0.0,1601437440,,,,0,10.67365190034252,3,6.0,24.0,0.0,0.0,48.95030187785986,66.7128,C,26929055000000,
Raw,1732148044999,16574000000,,698044.8391566942,-1416183246425999872,0.0,92.29861053538477,2255.7599823099836,0.0,0,8,0.0,17,102589,487,5.0,750.8081323548802,0.14999,16,0.0,0.0,1605374980,,,,0,2.8606926880720183,3,6.0,20.0,0.0,0.0,48.95030187785986,66.7128,C,26929055000000,
Raw,1732148044999,16574000000,,698044.8391566942,-1416183246425999872,0.0,92.29861053538477,2255.7599823099836,0.0,0,9,0.0,17,317527,396,5.0,869.8735398851483,0.14999,16,0.0,0.0,1600875010,,,,0,10.321048242168196,3,6.0,23.0,0.0,0.0,48.95030187785986,66.7128,C,26929055000000,
Raw,1732148044999,16574000000,,698044.8391566942,-1416183246425999872,0.0,92.29861053538477,2255.7599823099836,0.0,0,14,0.0,16431,346462932121833,487,17.062000274658203,757.9703148521701,0.14999,16,0.0,0.0,1575420030,,,,0,0.0,1,6.0,17.062000274658203,0.0,0.0,0.0,66.7128,C,26929055000000,
Fix,FLP,37.4243880000,-122.1708316000,2.0,0.042654127,2.616,,1732148045208,2.8,,26929055000000,0.9408183,0,,,
Status,1732148045000,27,0,1,14,1575420030,41.20,1.0,71.0,1,0,0,36.2
Status,1732148045000,27,1,1,22,1575420030,29.60,296.0,66.0,1,0,0,24.6
Status,1732148045000,27,2,1,30,1575420030,37.00,101.0,62.0,1,0,0,32.0
Status,1732148045000,27,3,1,17,1575420030,29.80,171.0,58.0,1,0,0,24.8
Status,1732148045000,27,4,1,13,1575420030,30.90,285.0,55.0,1,0,0,25.9
Status,1732148045000,27,5,1,19,1575420030,28.10,193.0,30.0,1,0,0,23.1
Status,1732148045000,27,6,1,7,1575420030,32.30,114.0,28.0,1,0,0,27.3
Status,1732148045000,27,7,1,15,1575420030,0.00,306.0,25.0,0,0,0,0.0
Status,1732148045000,27,8,2,131,1575420030,30.00,3.0,23.0,0,0,0,25.0
Status,1732148045000,27,9,1,2,1575420030,31.80,75.0,20.0,1,0,0,26.8
Status,1732148045000,27,10,1,21,1575420030,0.00,57.0,14.0,0,0,0,0.0
Status,1732148045000,27,11,3,9,1602000000,28.00,39.0,49.0,1,0,0,23.0
Status,1732148045000,27,12,3,8,1602000000,24.80,284.0,40.0,1,0,0,19.8
Status,1732148045000,27,13,3,20,1602000000,0.00,143.0,23.0,0,0,0,0.0
Status,1732148045000,27,14,3,11,1602000000,0.00,283.0,9.0,0,0,0,0.0
Status,1732148045000,27,15,3,16,1602000000,29.20,79.0,7.0,1,0,0,24.2
Status,1732148045000,27,16,3,17,1602000000,31.60,0.0,0.0,0,0,0,26.6
Status,1732148045000,27,17,6,21,1575420030,23.70,287.0,62.0,1,0,0,18.7
Status,1732148045000,27,18,6,19,1575420030,0.00,282.0,54.0,0,0,0,0.0
Status,1732148045000,27,19,6,27,1575420030,27.40,44.0,51.0,1,0,0,22.4
Status,1732148045000,27,20,6,29,1575420030,0.00,198.0,50.0,0,0,0,0.0
Status,1732148045000,27,21,6,15,1575420030,0.00,86.0,16.0,0,0,0,0.0
Status,1732148045000,27,22,6,13,1575420030,0.00,136.0,9.0,0,0,0,0.0
Status,1732148045000,27,23,6,4,1575420030,0.00,324.0,8.0,0,0,0,0.0
Status,1732148045000,27,24,6,7,1575420030,0.00,162.0,7.0,0,0,0,0.0
Status,1732148045000,27,25,6,34,1575420030,0.00,38.0,6.0,0,0,0,0.0
Status,1732148045000,27,26,6,30,1575420030,0.00,64.0,4.0,0,0,0,0.0
Fix,GPS,37.4243900000,-122.1708250000,-6.5,0.0,2.6,113.89,1732148046000,2.7,179.9,26930055000000,35.4,0,,,
Raw,1732148045999,17574000000,,697683.5996654725,-1416183246425999872,0.0,91.95478925264315,2256.9088939631874,0.0,0,7,0.0,16431,346463924042589,235,27.26099967956543,1125.013963579955,0.14999,16,0.0,0.0,1575420030,,,,0,13.08200634753712,1,6.0,27.26099967956543,0.0,0.0,0.0,66.7128,C,26930055000000,
Raw,1732148045999,17574000000,,697683.5996654725,-1416183246425999872,0.0,91.95478925264315,2256.9088939631874,0.0,0,2,0.0,16431,346463920429422,316,26.773000717163086,607.930072195264,0.14999,16,0.0,0.0,1575420030,,,,0,12.447718083992989,1,6.0,26.773000717163086,0.0,0.0,0.0,66.7128,C,26930055000000,
Raw,1732148045999,17574000000,,697683.5996654725,-1416183246425999872,0.0,91.95478925264315,2256.9088939631874,0.0,0,17,0.0,16431,346463930914702,487,24.847999572753906,344.4971238195216,0.14999,16,0.0,0.0,1575420030,,,,0,9.816331773846727,1,6.0,24.847999572753906,0.0,0.0,0.0,66.7128,C,26930055000000,
Raw,1732148045999,17574000000,,697683.5996654725,-1416183246425999872,0.0,91.95478925264315,2256.9088939631874,0.0,0,19,0.0,16431,346463923716395,396,23.135000228881836,22.80290567812125,0.14999,16,0.0,0.0,1575420030,,,,0,7.3026966622851095,1,6.0,23.135000228881836,0.0,0.0,0.0,66.7128,C,26930055000000,
Raw,1732148045999,17574000000,,697683.5996654725,-1416183246425999872,0.0,91.95478925264315,2256.9088939631874,0.0,0,14,0.0,16431,346463932119366,51,36.22999954223633,757.4543012233196,0.14999,16,0.0,0.0,1575420030,,,,0,23.715182074906235,1,6.0,36.22999954223633,0.0,0.0,0.0,66.7128,C,26930055000000,
Raw,1732148045999,17574000000,,697683.5996654725,-1416183246425999872,0.0,91.95478925264315,2256.9088939631874,0.0,0,30,0.0,16431,346463930624488,74,32.00600051879883,885.4611754082158,0.14999,16,0.0,0.0,1575420030,,,,0,18.932743450070944,1,6.0,32.00600051879883,0.0,0.0,0.0,66.7128,C,26930055000000,
Raw,1732148045999,17574000000,,697683.5996654725,-1416183246425999872,0.0,91.95478925264315,2256.9088939631874,0.0,0,13,0.0,16431,346463930578036,316,25.8799991607666,565.3895871405928,0.14999,16,0.0,0.0,1575420030,,,,0,11.250196266948224,1,6.0,25.8799991607666,0.0,0.0,0.0,66.7128,C,26930055000000,
Raw,1732148045999,17574000000,,697683.5996654725,-1416183246425999872,0.0,91.95478925264315,2256.9088939631874,0.0,0,22,0.0,16431,346463930676136,396,24.611000061035156,616.7008172164028,0.14999,16,0.0,0.0,1575420030,,,,0,9.452471677326347,1,6.0,24.611000061035156,0.0,0.0,0.0,66.7128,C,26930055000000,
Raw,1732148045999,17574000000,,697683.5996654725,-1416183246425999872,0.0,91.95478925264315,2256.9088939631874,0.0,0,27,0.0,16431,346463918129915,316,22.399999618530273,956.4173003202358,0.14999,16,0.0,0.0,1575420030,,,,0,7.652511305491819,6,6.0,22.399999618530273,0.0,0.0,29.95938338652265,66.7128,C,26930055000000,
Raw,1732148045999,17574000000,,697683.5996654725,-1416183246425999872,0.0,91.95478925264315,2256.9088939631874,0.0,0,21,0.0,16431,346463920000004,396,18.700000762939453,561.7082686984859,0.14999,16,0.0,0.0,1575420030,,,,0,2.1853399241693627,6,6.0,18.700000762939453,0.0,0.0,29.95938338652265,66.7128,C,26930055000000,
Raw,1732148045999,17574000000,,697683.5996654725,-1416183246425999872,0.0,91.95478925264315,2256.9088939631874,0.0,0,16,0.0,17,126418,316,5.0,1168.680935803864,0.14999,16,0.0,0.0,1601437440,,,,0,10.052967225543146,3,6.0,24.0,0.0,0.0,46.62559278596555,66.7128,C,26930055000000,
Raw,1732148045999,17574000000,,697683.5996654725,-1416183246425999872,0.0,91.95478925264315,2256.9088939631874,0.0,0,8,0.0,17,100086,487,5.0,751.2589870910999,0.14999,16,0.0,0.0,1605374980,,,,0,3.6099405186678717,3,6.0,20.0,0.0,0.0,46.62559278596555,66.7128,C,26930055000000,
Raw,1732148045999,17574000000,,697683.5996654725,-1416183246425999872,0.0,91.95478925264315,2256.9088939631874,0.0,0,9,0.0,17,314626,316,5.0,870.7290468335724,0.14999,16,0.0,0.0,1600875010,,,,0,8.451777304392213,3,6.0,24.0,0.0,0.0,46.62559278596555,66.7128,C,26930055000000,
Fix,FLP,37.4243888000,-122.1708284000,2.0,0.0366626,2.616,,1732148046207,2.7,,26930055000000,0.950822,0,,,
Status,1732148046000,26,0,1,14,1575420030,38.60,1.0,71.0,1,0,0,33.6
Status,1732148046000,26,1,1,22,1575420030,33.20,296.0,66.0,1,0,0,28.2
Status,1732148046000,26,2,1,30,1575420030,38.70,101.0,62.0,1,0,0,33.7
Status,1732148046000,26,3,1,17,1575420030,29.80,171.0,58.0,1,0,0,24.8
Status,1732148046000,26,4,1,13,1575420030,29.10,285.0,55.0,1,0,0,24.1
Status,1732148046000,26,5,1,19,1575420030,28.70,193.0,30.0,1,0,0,23.7
Status,1732148046000,26,6,1,7,1575420030,33.90,114.0,28.0,1,0,0,28.900002
Status,1732148046000,26,7,1,15,1575420030,28.10,306.0,25.0,1,0,0,23.1
Status,1732148046000,26,8,2,131,1575420030,31.00,3.0,23.0,0,0,0,26.0
Status,1732148046000,26,9,1,2,1575420030,32.30,75.0,20.0,1,0,0,27.3
Status,1732148046000,26,10,1,21,1575420030,0.00,57.0,14.0,0,0,0,0.0
Status,1732148046000,26,11,3,9,1602000000,30.00,39.0,49.0,1,0,0,25.0
Status,1732148046000,26,12,3,8,1602000000,24.80,284.0,40.0,1,0,0,19.8
Status,1732148046000,26,13,3,20,1602000000,0.00,143.0,23.0,0,0,0,0.0
Status,1732148046000,26,14,3,11,1602000000,0.00,283.0,9.0,0,0,0,0.0
Status,1732148046000,26,15,3,16,1602000000,29.30,79.0,7.0,1,0,0,24.3
Status,1732148046000,26,16,6,21,1575420030,22.10,287.0,62.0,1,0,0,17.1
Status,1732148046000,26,17,6,19,1575420030,0.00,282.0,54.0,0,0,0,0.0
Status,1732148046000,26,18,6,27,1575420030,31.50,44.0,51.0,1,0,0,26.5
Status,1732148046000,26,19,6,29,1575420030,0.00,198.0,50.0,0,0,0,0.0
Status,1732148046000,26,20,6,15,1575420030,0.00,86.0,16.0,0,0,0,0.0
Status,1732148046000,26,21,6,13,1575420030,0.00,136.0,9.0,0,0,0,0.0
Status,1732148046000,26,22,6,4,1575420030,0.00,324.0,8.0,0,0,0,0.0
Status,1732148046000,26,23,6,7,1575420030,0.00,162.0,7.0,0,0,0,0.0
Status,1732148046000,26,24,6,34,1575420030,0.00,38.0,6.0,0,0,0,0.0
Status,1732148046000,26,25,6,30,1575420030,0.00,64.0,4.0,0,0,0,0.0
Fix,GPS,37.4243916667,-122.1708166667,-6.399999999999999,0.0,2.6,113.89,1732148047000,2.6,179.9,26931055000000,34.7,0,,,
Fix,FLP,37.4243901000,-122.1708227000,2.0,0.032986652,2.616,,1732148047208,2.6,,26931055000000,0.96082217,0,,,
Raw,1732148046999,18574000000,,697416.748389314,-1416183246425999872,0.0,90.21686336197595,2257.6837583482766,0.0,0,7,0.0,16431,346464924038834,235,28.881000518798828,1126.1174438817877,0.14999,16,0.0,0.0,1575420030,,,,0,15.165783584709526,1,6.0,28.881000518798828,0.0,0.0,0.0,66.7128,C,26931055000000,
Raw,1732148046999,18574000000,,697416.748389314,-1416183246425999872,0.0,90.21686336197595,2257.6837583482766,0.0,0,2,0.0,16431,346464920427390,316,27.326000213623047,607.1434847504033,0.14999,16,0.0,0.0,1575420030,,,,0,13.173277481276214,1,6.0,27.326000213623047,0.0,0.0,0.0,66.7128,C,26931055000000,
Raw,1732148046999,18574000000,,697416.748389314,-1416183246425999872,0.0,90.21686336197595,2257.6837583482766,0.0,0,17,0.0,16431,346464930913548,396,24.757999420166016,345.50378478197155,0.14999,16,0.0,0.0,1575420030,,,,0,7.182889388501362,1,6.0,24.757999420166016,0.0,0.0,0.0,66.7128,C,26931055000000,
Raw,1732148046999,18574000000,,697416.748389314,-1416183246425999872,0.0,90.21686336197595,2257.6837583482766,0.0,0,19,0.0,16431,346464923716340,396,23.72800064086914,23.15134379970029,0.14999,16,0.0,0.0,1575420030,,,,0,8.205939837448987,1,6.0,23.72800064086914,0.0,0.0,0.0,66.7128,C,26931055000000,
Raw,1732148046999,18574000000,,697416.748389314,-1416183246425999872,0.0,90.21686336197595,2257.6837583482766,0.0,0,14,0.0,16431,346464932116839,58,33.57400131225586,758.3187065153329,0.14999,16,0.0,0.0,1575420030,,,,0,20.7421218607314,1,6.0,33.57400131225586,0.0,0.0,0.0,66.7128,C,26931055000000,
Raw,1732148046999,18574000000,,697416.748389314,-1416183246425999872,0.0,90.21686336197595,2257.6837583482766,0.0,0,30,0.0,16431,346464930621529,58,33.715999603271484,887.0009931550978,0.14999,16,0.0,0.0,1575420030,,,,0,20.905183061509995,1,6.0,33.715999603271484,0.0,0.0,0.0,66.7128,C,26931055000000,
Raw,1732148046999,18574000000,,697416.748389314,-1416183246425999872,0.0,90.21686336197595,2257.6837583482766,0.0,0,13,0.0,16431,346464930576146,235,24.05299949645996,566.609259941368,0.14999,16,0.0,0.0,1575420030,,,,0,8.675561754439444,1,6.0,24.05299949645996,0.0,0.0,0.0,66.7128,C,26931055000000,
Raw,1732148046999,18574000000,,697416.748389314,-1416183246425999872,0.0,90.21686336197595,2257.6837583482766,0.0,0,22,0.0,16431,346464930674083,235,28.197999954223633,617.602064032471,0.14999,16,0.0,0.0,1575420030,,,,0,14.30659459980209,1,6.0,28.197999954223633,0.0,0.0,0.0,66.7128,C,26931055000000,
Raw,1732148046999,18574000000,,697416.748389314,-1416183246425999872,0.0,90.21686336197595,2257.6837583482766,0.0,0,27,0.0,16431,346464918126726,316,26.5,957.0233968181184,0.14999,16,0.0,0.0,1575420030,,,,0,12.958800173440752,6,6.0,26.5,0.0,0.0,29.59558828137104,66.7128,C,26931055000000,
Raw,1732148046999,18574000000,,697416.748389314,-1416183246425999872,0.0,90.21686336197595,2257.6837583482766,0.0,0,21,0.0,16431,346464919998129,396,17.100000381469727,562.1720166090995,0.14999,16,0.0,0.0,1575420030,,,,0,0.0,6,6.0,17.100000381469727,0.0,0.0,29.59558828137104,66.7128,C,26931055000000,
Raw,1732148046999,18574000000,,697416.748389314,-1416183246425999872,0.0,90.21686336197595,2257.6837583482766,0.0,0,16,0.0,17,122575,316,5.0,1168.047666210559,0.14999,16,0.0,0.0,1601437440,,,,0,10.264828695491628,3,6.0,24.0,0.0,0.0,39.93532666708498,66.7128,C,26931055000000,
Raw,1732148046999,18574000000,,697416.748389314,-1416183246425999872,0.0,90.21686336197595,2257.6837583482766,0.0,0,8,0.0,17,97577,487,5.0,752.1507576078819,0.14999,16,0.0,0.0,1605374980,,,,0,3.4651723401894854,3,6.0,18.0,0.0,0.0,39.93532666708498,66.7128,C,26931055000000,
Raw,1732148046999,18574000000,,697416.748389314,-1416183246425999872,0.0,90.21686336197595,2257.6837583482766,0.0,0,9,0.0,17,311715,396,5.0,869.7767055693743,0.14999,16,0.0,0.0,1600875010,,,,0,11.098734379935802,3,6.0,22.0,0.0,0.0,39.93532666708498,66.7128,C,26931055000000,
Raw,1732148046999,18574000000,,697416.748389314,-1416183246425999872,0.0,90.21686336197595,2257.6837583482766,0.0,0,15,0.0,16431,346464923900401,396,23.06100082397461,362.4813393390777,0.14999,16,0.0,0.0,1575420030,,,,0,7.182889388501362,1,6.0,23.06100082397461,0.0,0.0,0.0,66.7128,C,26931055000000,
Status,1732148047000,27,0,1,14,1575420030,31.80,1.0,71.0,1,0,0,26.8
Status,1732148047000,27,1,1,22,1575420030,31.90,296.0,66.0,1,0,0,26.9
Status,1732148047000,27,2,1,30,1575420030,38.30,101.0,62.0,1,0,0,33.3
Status,1732148047000,27,3,1,17,1575420030,25.80,171.0,58.0,1,0,0,20.8
Status,1732148047000,27,4,1,13,1575420030,0.00,285.0,55.0,0,0,0,0.0
Status,1732148047000,27,5,1,19,1575420030,30.00,193.0,30.0,1,0,0,25.0
Status,1732148047000,27,6,1,7,1575420030,34.70,114.0,28.0,1,0,0,29.7
Status,1732148047000,27,7,1,15,1575420030,28.20,306.0,25.0,1,0,0,23.2
Status,1732148047000,27,8,2,131,1575420030,32.00,3.0,23.0,0,0,0,27.0
Status,1732148047000,27,9,1,2,1575420030,39.40,75.0,20.0,1,0,0,34.4
Status,1732148047000,27,10,1,21,1575420030,0.00,57.0,14.0,0,0,0,0.0
Status,1732148047000,27,11,3,9,1602000000,30.20,39.0,49.0,1,0,0,25.2
Status,1732148047000,27,12,3,8,1602000000,21.90,284.0,40.0,1,0,0,16.9
Status,1732148047000,27,13,3,20,1602000000,0.00,143.0,23.0,0,0,0,0.0
Status,1732148047000,27,14,3,11,1602000000,0.00,283.0,9.0,0,0,0,0.0
Status,1732148047000,27,15,3,16,1602000000,28.60,79.0,7.0,1,0,0,23.6
Status,1732148047000,27,16,3,17,1602000000,25.90,0.0,0.0,0,0,0,20.9
Status,1732148047000,27,17,6,21,1575420030,25.60,287.0,62.0,1,0,0,20.6
Status,1732148047000,27,18,6,19,1575420030,0.00,282.0,54.0,0,0,0,0.0
Status,1732148047000,27,19,6,27,1575420030,28.20,44.0,51.0,1,0,0,23.2
Status,1732148047000,27,20,6,29,1575420030,23.20,198.0,50.0,1,0,0,18.2
Status,1732148047000,27,21,6,15,1575420030,0.00,86.0,16.0,0,0,0,0.0
Status,1732148047000,27,22,6,13,1575420030,0.00,136.0,9.0,0,0,0,0.0
Status,1732148047000,27,23,6,4,1575420030,0.00,324.0,8.0,0,0,0,0.0
Status,1732148047000,27,24,6,7,1575420030,0.00,162.0,7.0,0,0,0,0.0
Status,1732148047000,27,25,6,34,1575420030,0.00,38.0,6.0,0,0,0,0.0
Status,1732148047000,27,26,6,30,1575420030,0.00,64.0,4.0,0,0,0,0.0
Fix,GPS,37.4243933333,-122.1708133333,-6.300000000000001,0.10037083,2.6,279.39,1732148048000,2.5,179.9,26932055000000,34.0,0,,,
Fix,FLP,37.4243916000,-122.1708180000,2.0,0.0241231,2.616,,1732148048208,2.5,,26932055000000,0.9708265,0,,,
Raw,1732148047999,19574000000,,696791.0551138681,-1416183246425999872,0.0,87.44351631589372,2260.1402825197447,0.0,0,7,0.0,16431,346465924035078,235,29.65999984741211,1126.1190234679389,0.14999,16,0.0,0.0,1575420030,,,,0,16.121740469418558,1,6.0,29.65999984741211,0.0,0.0,0.0,66.7128,C,26932055000000,
Raw,1732148047999,19574000000,,696791.0551138681,-1416183246425999872,0.0,87.44351631589372,2260.1402825197447,0.0,0,2,0.0,16431,346465920425362,58,34.4119987487793,608.8429336153848,0.14999,16,0.0,0.0,1575420030,,,,0,21.68886824966872,1,6.0,34.4119987487793,0.0,0.0,0.0,66.7128,C,26932055000000,
Raw,1732148047999,19574000000,,696791.0551138681,-1416183246425999872,0.0,87.44351631589372,2260.1402825197447,0.0,0,17,0.0,16431,346465930912386,487,20.80900001525879,346.964901971793,0.14999,16,0.0,0.0,1575420030,,,,0,3.5701116523733227,1,6.0,20.80900001525879,0.0,0.0,0.0,66.7128,C,26932055000000,
Raw,1732148047999,19574000000,,696791.0551138681,-1416183246425999872,0.0,87.44351631589372,2260.1402825197447,0.0,0,19,0.0,16431,346465923716263,316,24.98900032043457,23.503637969824798,0.14999,16,0.0,0.0,1575420030,,,,0,9.9927010747905,1,6.0,24.98900032043457,0.0,0.0,0.0,66.7128,C,26932055000000,
Raw,1732148047999,19574000000,,696791.0551138681,-1416183246425999872,0.0,87.44351631589372,2260.1402825197447,0.0,0,14,0.0,16431,346465932114299,235,26.75,759.4264609914569,0.14999,16,0.0,0.0,1575420030,,,,0,12.414754516391525,1,6.0,26.75,0.0,0.0,0.0,66.7128,C,26932055000000,
Raw,1732148047999,19574000000,,696791.0551138681,-1416183246425999872,0.0,87.44351631589372,2260.1402825197447,0.0,0,30,0.0,16431,346465930618569,58,33.31399917602539,887.5371232781674,0.14999,16,0.0,0.0,1575420030,,,,0,20.44591011469183,1,6.0,33.31399917602539,0.0,0.0,0.0,66.7128,C,26932055000000,
Raw,1732148047999,19574000000,,696791.0551138681,-1416183246425999872,0.0,87.44351631589372,2260.1402825197447,0.0,0,22,0.0,16431,346465930672024,316,26.86400032043457,618.0429079438928,0.14999,16,0.0,0.0,1575420030,,,,0,12.578335427172144,1,6.0,26.86400032043457,0.0,0.0,0.0,66.7128,C,26932055000000,
Raw,1732148047999,19574000000,,696791.0551138681,-1416183246425999872,0.0,87.44351631589372,2260.1402825197447,0.0,0,29,0.0,16431,346465918579740,487,18.200000762939453,1077.5059588303882,0.14999,16,0.0,0.0,1575420030,,,,0,1.2820967490054858,6,6.0,18.200000762939453,0.0,0.0,28.50102806113269,66.7128,C,26932055000000,
Raw,1732148047999,19574000000,,696791.0551138681,-1416183246425999872,0.0,87.44351631589372,2260.1402825197447,0.0,0,27,0.0,16431,346465918123535,316,23.200000762939453,957.5336031449425,0.14999,16,0.0,0.0,1575420030,,,,0,8.726208484747346,6,6.0,23.200000762939453,0.0,0.0,28.50102806113269,66.7128,C,26932055000000,
Raw,1732148047999,19574000000,,696791.0551138681,-1416183246425999872,0.0,87.44351631589372,2260.1402825197447,0.0,0,21,0.0,16431,346465919996252,396,20.600000381469727,562.9819261788979,0.14999,16,0.0,0.0,1575420030,,,,0,5.077208416264762,6,6.0,20.600000381469727,0.0,0.0,28.50102806113269,66.7128,C,26932055000000,
Raw,1732148047999,19574000000,,696791.0551138681,-1416183246425999872,0.0,87.44351631589372,2260.1402825197447,0.0,0,16,0.0,17,118675,396,5.0,1168.901592962963,0.14999,16,0.0,0.0,1601437440,,,,0,9.311996006787098,3,6.0,23.0,0.0,0.0,35.118985563365555,66.7128,C,26932055000000,
Raw,1732148047999,19574000000,,696791.0551138681,-1416183246425999872,0.0,87.44351631589372,2260.1402825197447,0.0,0,8,0.0,17,95065,797,5.0,753.318858446863,0.14999,16,0.0,0.0,1605374980,,,,0,0.0,3,6.0,17.0,0.0,0.0,35.118985563365555,66.7128,C,26932055000000,
Raw,1732148047999,19574000000,,696791.0551138681,-1416183246425999872,0.0,87.44351631589372,2260.1402825197447,0.0,0,9,0.0,17,308810,316,5.0,871.0146120537444,0.14999,16,0.0,0.0,1600875010,,,,0,11.354220140664381,3,6.0,25.0,0.0,0.0,35.118985563365555,66.7128,C,26932055000000,
Raw,1732148047999,19574000000,,696791.0551138681,-1416183246425999872,0.0,87.44351631589372,2260.1402825197447,0.0,0,15,0.0,16431,346465923899151,487,23.172000885009766,363.12485809121796,0.14999,16,0.0,0.0,1575420030,,,,0,7.36198624155989,1,6.0,23.172000885009766,0.0,0.0,0.0,66.7128,C,26932055000000,
Status,1732148048000,27,0,1,14,1575420030,31.80,1.0,71.0,1,0,0,26.8
Status,1732148048000,27,1,1,22,1575420030,32.30,296.0,66.0,1,0,0,27.3
Status,1732148048000,27,2,1,30,1575420030,36.80,101.0,62.0,1,0,0,31.8
Status,1732148048000,27,3,1,17,1575420030,31.10,171.0,58.0,1,0,0,26.1
Status,1732148048000,27,4,1,13,1575420030,30.50,285.0,55.0,1,0,0,25.5
Status,1732148048000,27,5,1,19,1575420030,28.30,193.0,30.0,1,0,0,23.3
Status,1732148048000,27,6,1,7,1575420030,40.60,114.0,28.0,1,0,0,35.6
Status,1732148048000,27,7,1,15,1575420030,0.00,306.0,25.0,0,0,0,0.0
Status,1732148048000,27,8,2,131,1575420030,32.00,3.0,23.0,0,0,0,27.0
Status,1732148048000,27,9,1,2,1575420030,34.50,75.0,20.0,1,0,0,29.5
Status,1732148048000,27,10,1,21,1575420030,0.00,57.0,14.0,0,0,0,0.0
Status,1732148048000,27,11,3,9,1602000000,28.20,39.0,49.0,1,0,0,23.2
Status,1732148048000,27,12,3,8,1602000000,21.90,284.0,40.0,1,0,0,16.9
Status,1732148048000,27,13,3,20,1602000000,0.00,143.0,23.0,0,0,0,0.0
Status,1732148048000,27,14,3,11,1602000000,0.00,283.0,9.0,0,0,0,0.0
Status,1732148048000,27,15,3,16,1602000000,28.50,79.0,7.0,1,0,0,23.5
Status,1732148048000,27,16,3,17,1602000000,28.30,0.0,0.0,0,0,0,23.3
Status,1732148048000,27,17,6,21,1575420030,25.20,287.0,62.0,1,0,0,20.2
Status,1732148048000,27,18,6,19,1575420030,0.00,282.0,54.0,0,0,0,0.0
Status,1732148048000,27,19,6,27,1575420030,25.70,44.0,51.0,1,0,0,20.7
Status,1732148048000,27,20,6,29,1575420030,23.20,198.0,50.0,1,0,0,18.2
Status,1732148048000,27,21,6,15,1575420030,0.00,86.0,16.0,0,0,0,0.0
Status,1732148048000,27,22,6,13,1575420030,0.00,136.0,9.0,0,0,0,0.0
Status,1732148048000,27,23,6,4,1575420030,0.00,324.0,8.0,0,0,0,0.0
Status,1732148048000,27,24,6,7,1575420030,0.00,162.0,7.0,0,0,0,0.0
Status,1732148048000,27,25,6,34,1575420030,0.00,38.0,6.0,0,0,0,0.0
Status,1732148048000,27,26,6,30,1575420030,0.00,64.0,4.0,0,0,0,0.0
Fix,GPS,37.4244016667,-122.1708150000,-6.300000000000001,0.14721055,2.5,322.51,1732148049000,2.4,179.9,26933055000000,34.0,0,,,
Fix,FLP,37.4243965000,-122.1708165000,2.0,0.016924318,2.583,,1732148049207,2.4,,26933055000000,0.9754564,0,,,
Raw,1732148048999,20574000000,,696226.8627184744,-1416183246425999872,0.0,87.1090411493296,2263.686833790306,0.0,0,7,0.0,16431,346466924031318,51,35.63800048828125,1127.6947071121356,0.14999,16,0.0,0.0,1575420030,,,,0,23.06179973983887,1,6.0,35.63800048828125,0.0,0.0,0.0,66.7128,C,26933055000000,
Raw,1732148048999,20574000000,,696226.8627184744,-1416183246425999872,0.0,87.1090411493296,2263.686833790306,0.0,0,2,0.0,16431,346466920423324,235,29.46299934387207,610.0946162649292,0.14999,16,0.0,0.0,1575420030,,,,0,15.881360887005513,1,6.0,29.46299934387207,0.0,0.0,0.0,66.7128,C,26933055000000,
Raw,1732148048999,20574000000,,696226.8627184744,-1416183246425999872,0.0,87.1090411493296,2263.686833790306,0.0,0,17,0.0,16431,346466930911222,316,26.05500030517578,348.1966307315749,0.14999,16,0.0,0.0,1575420030,,,,0,11.4738796059985,1,6.0,26.05500030517578,0.0,0.0,0.0,66.7128,C,26933055000000,
Raw,1732148048999,20574000000,,696226.8627184744,-1416183246425999872,0.0,87.1090411493296,2263.686833790306,0.0,0,19,0.0,16431,346466923716187,396,23.280000686645508,24.57826759519076,0.14999,16,0.0,0.0,1575420030,,,,0,7.537464727709992,1,6.0,23.280000686645508,0.0,0.0,0.0,66.7128,C,26933055000000,
Raw,1732148048999,20574000000,,696226.8627184744,-1416183246425999872,0.0,87.1090411493296,2263.686833790306,0.0,0,14,0.0,16431,346466932111770,235,26.819000244140625,760.6046928849723,0.14999,16,0.0,0.0,1575420030,,,,0,12.513272279217707,1,6.0,26.819000244140625,0.0,0.0,0.0,66.7128,C,26933055000000,
Raw,1732148048999,20574000000,,696226.8627184744,-1416183246425999872,0.0,87.1090411493296,2263.686833790306,0.0,0,30,0.0,16431,346466930615604,74,31.757999420166016,888.3113063258999,0.14999,16,0.0,0.0,1575420030,,,,0,18.647414850331142,1,6.0,31.757999420166016,0.0,0.0,0.0,66.7128,C,26933055000000,
Raw,1732148048999,20574000000,,696226.8627184744,-1416183246425999872,0.0,87.1090411493296,2263.686833790306,0.0,0,22,0.0,16431,346466930669961,396,27.326000213623047,619.9071912695894,0.14999,16,0.0,0.0,1575420030,,,,0,13.173277481276214,1,6.0,27.326000213623047,0.0,0.0,0.0,66.7128,C,26933055000000,
Raw,1732148048999,20574000000,,696226.8627184744,-1416183246425999872,0.0,87.1090411493296,2263.686833790306,0.0,0,13,0.0,16431,346466930572419,316,25.540000915527344,568.2770241664939,0.14999,16,0.0,0.0,1575420030,,,,0,10.784769418688464,1,6.0,25.540000915527344,0.0,0.0,0.0,66.7128,C,26933055000000,
Raw,1732148048999,20574000000,,696226.8627184744,-1416183246425999872,0.0,87.1090411493296,2263.686833790306,0.0,0,29,0.0,16431,346466918576145,396,18.200000762939453,1078.9539747468382,0.14999,16,0.0,0.0,1575420030,,,,0,1.2820967490054858,6,6.0,18.200000762939453,0.0,0.0,28.119819163350986,66.7128,C,26933055000000,
Raw,1732148048999,20574000000,,696226.8627184744,-1416183246425999872,0.0,87.1090411493296,2263.686833790306,0.0,0,27,0.0,16431,346466918120339,396,20.700000762939453,958.6603126548805,0.14999,16,0.0,0.0,1575420030,,,,0,5.229596353668601,6,6.0,20.700000762939453,0.0,0.0,28.119819163350986,66.7128,C,26933055000000,
Raw,1732148048999,20574000000,,696226.8627184744,-1416183246425999872,0.0,87.1090411493296,2263.686833790306,0.0,0,21,0.0,16431,346466919994373,396,20.200000762939453,564.3065020834765,0.14999,16,0.0,0.0,1575420030,,,,0,4.603315100300561,6,6.0,20.200000762939453,0.0,0.0,28.119819163350986,66.7128,C,26933055000000,
Raw,1732148048999,20574000000,,696226.8627184744,-1416183246425999872,0.0,87.1090411493296,2263.686833790306,0.0,0,16,0.0,17,114769,396,5.0,1169.8002178722845,0.14999,16,0.0,0.0,1601437440,,,,0,9.12108964866249,3,6.0,23.0,0.0,0.0,32.47888808939402,66.7128,C,26933055000000,
Raw,1732148048999,20574000000,,696226.8627184744,-1416183246425999872,0.0,87.1090411493296,2263.686833790306,0.0,0,8,0.0,17,92549,487,5.0,754.3616737347135,0.14999,16,0.0,0.0,1605374980,,,,0,0.0,3,6.0,18.0,0.0,0.0,32.47888808939402,66.7128,C,26933055000000,
Raw,1732148048999,20574000000,,696226.8627184744,-1416183246425999872,0.0,87.1090411493296,2263.686833790306,0.0,0,9,0.0,17,305906,316,5.0,872.4671267903539,0.14999,16,0.0,0.0,1600875010,,,,0,8.728641847878002,3,6.0,24.0,0.0,0.0,32.47888808939402,66.7128,C,26933055000000,
Status,1732148049000,27,0,1,14,1575420030,31.20,1.0,71.0,1,0,0,26.2
Status,1732148049000,27,1,1,22,1575420030,30.50,296.0,66.0,1,0,0,25.5
Status,1732148049000,27,2,1,30,1575420030,34.20,101.0,62.0,1,0,0,29.2
Status,1732148049000,27,3,1,17,1575420030,34.30,171.0,58.0,1,0,0,29.3
Status,1732148049000,27,4,1,13,1575420030,38.30,285.0,55.0,1,0,0,33.3
Status,1732148049000,27,5,1,19,1575420030,31.70,193.0,30.0,1,0,0,26.7
Status,1732148049000,27,6,1,7,1575420030,38.40,114.0,28.0,1,0,0,33.4
Status,1732148049000,27,7,1,15,1575420030,29.40,306.0,25.0,1,0,0,24.4
Status,1732148049000,27,8,2,131,1575420030,33.00,3.0,23.0,0,0,0,28.0
Status,1732148049000,27,9,1,2,1575420030,31.10,75.0,20.0,1,0,0,26.1
Status,1732148049000,27,10,1,21,1575420030,0.00,57.0,14.0,0,0,0,0.0
Status,1732148049000,27,11,3,9,1602000000,30.60,39.0,49.0,1,0,0,25.6
Status,1732148049000,27,12,3,8,1602000000,26.30,284.0,40.0,1,0,0,21.3
Status,1732148049000,27,13,3,20,1602000000,0.00,143.0,23.0,0,0,0,0.0
Status,1732148049000,27,14,3,11,1602000000,0.00,283.0,9.0,0,0,0,0.0
Status,1732148049000,27,15,3,16,1602000000,29.40,79.0,7.0,1,0,0,24.4
Status,1732148049000,27,16,3,17,1602000000,31.30,0.0,0.0,0,0,0,26.3
Status,1732148049000,27,17,6,21,1575420030,28.10,287.0,62.0,1,0,0,23.1
Status,1732148049000,27,18,6,19,1575420030,0.00,282.0,54.0,0,0,0,0.0
Status,1732148049000,27,19,6,27,1575420030,30.90,44.0,51.0,1,0,0,25.9
Status,1732148049000,27,20,6,29,1575420030,23.50,198.0,50.0,1,0,0,18.5
Status,1732148049000,27,21,6,15,1575420030,0.00,86.0,16.0,0,0,0,0.0
Status,1732148049000,27,22,6,13,1575420030,0.00,136.0,9.0,0,0,0,0.0
Status,1732148049000,27,23,6,4,1575420030,0.00,324.0,8.0,0,0,0,0.0
Status,1732148049000,27,24,6,7,1575420030,0.00,162.0,7.0,0,0,0,0.0
Status,1732148049000,27,25,6,34,1575420030,0.00,38.0,6.0,0,0,0,0.0
Status,1732148049000,27,26,6,30,1575420030,0.00,64.0,4.0,0,0,0,0.0
Fix,GPS,37.4244150000,-122.1708150000,-6.300000000000001,0.287215,2.5,358.22,1732148050000,2.8,113.5,26934055000000,35.5,0,,,
Fix,FLP,37.4244055000,-122.1708158000,2.0,0.01819896,2.566,,1732148050207,2.8,,26934055000000,0.9854593,0,,,
Raw,1732148049999,21574000000,,695819.8624029427,-1416183246425999872,0.0,89.41846709300897,2266.5680025492566,0.0,0,7,0.0,16431,346467924027557,58,33.35599899291992,1127.8616786599962,0.14999,16,0.0,0.0,1575420030,,,,0,20.49815622492735,1,6.0,33.35599899291992,0.0,0.0,0.0,66.7128,C,26934055000000,
Raw,1732148049999,21574000000,,695819.8624029427,-1416183246425999872,0.0,89.41846709300897,2266.5680025492566,0.0,0,2,0.0,16431,346467920421289,316,26.05500030517578,610.053547024999,0.14999,16,0.0,0.0,1575420030,,,,0,11.4738796059985,1,6.0,26.05500030517578,0.0,0.0,0.0,66.7128,C,26934055000000,
Raw,1732148049999,21574000000,,695819.8624029427,-1416183246425999872,0.0,89.41846709300897,2266.5680025492566,0.0,0,17,0.0,16431,346467930910062,235,29.26300048828125,348.5204226633542,0.14999,16,0.0,0.0,1575420030,,,,0,15.634139060108755,1,6.0,29.26300048828125,0.0,0.0,0.0,66.7128,C,26934055000000,
Raw,1732148049999,21574000000,,695819.8624029427,-1416183246425999872,0.0,89.41846709300897,2266.5680025492566,0.0,0,19,0.0,16431,346467923716110,396,26.658000946044922,25.63993532243398,0.14999,16,0.0,0.0,1575420030,,,,0,12.281634828221403,1,6.0,26.658000946044922,0.0,0.0,0.0,66.7128,C,26934055000000,
Raw,1732148049999,21574000000,,695819.8624029427,-1416183246425999872,0.0,89.41846709300897,2266.5680025492566,0.0,0,14,0.0,16431,346467932109245,316,26.204999923706055,760.3681730880445,0.14999,16,0.0,0.0,1575420030,,,,0,11.691946866204994,1,6.0,26.204999923706055,0.0,0.0,0.0,66.7128,C,26934055000000,
Raw,1732148049999,21574000000,,695819.8624029427,-1416183246425999872,0.0,89.41846709300897,2266.5680025492566,0.0,0,30,0.0,16431,346467930612644,235,29.17799949645996,889.0610522467056,0.14999,16,0.0,0.0,1575420030,,,,0,15.519396445149589,1,6.0,29.17799949645996,0.0,0.0,0.0,66.7128,C,26934055000000,
Raw,1732148049999,21574000000,,695819.8624029427,-1416183246425999872,0.0,89.41846709300897,2266.5680025492566,0.0,0,15,0.0,16431,346467923896651,316,24.399999618530273,364.8984778176796,0.14999,16,0.0,0.0,1575420030,,,,0,9.16921104398006,1,6.0,24.399999618530273,0.0,0.0,0.0,66.7128,C,26934055000000,
Raw,1732148049999,21574000000,,695819.8624029427,-1416183246425999872,0.0,89.41846709300897,2266.5680025492566,0.0,0,13,0.0,16431,346467930570501,58,33.34600067138672,568.338395734308,0.14999,16,0.0,0.0,1575420030,,,,0,20.48512413000239,1,6.0,33.34600067138672,0.0,0.0,0.0,66.7128,C,26934055000000,
Raw,1732148049999,21574000000,,695819.8624029427,-1416183246425999872,0.0,89.41846709300897,2266.5680025492566,0.0,0,29,0.0,16431,346467918572544,487,18.5,1078.9541605805032,0.14999,16,0.0,0.0,1575420030,,,,0,1.8575316004059754,6,6.0,18.5,0.0,0.0,28.842518064074614,66.7128,C,26934055000000,
Raw,1732148049999,21574000000,,695819.8624029427,-1416183246425999872,0.0,89.41846709300897,2266.5680025492566,0.0,0,27,0.0,16431,346467918117141,316,25.899999618530273,959.5125458418466,0.14999,16,0.0,0.0,1575420030,,,,0,12.24803366586097,6,6.0,25.899999618530273,0.0,0.0,28.842518064074614,66.7128,C,26934055000000,
Raw,1732148049999,21574000000,,695819.8624029427,-1416183246425999872,0.0,89.41846709300897,2266.5680025492566,0.0,0,21,0.0,16431,346467919992490,316,23.100000381469727,564.2056873202996,0.14999,16,0.0,0.0,1575420030,,,,0,8.675561754439444,6,6.0,23.100000381469727,0.0,0.0,28.842518064074614,66.7128,C,26934055000000,
Raw,1732148049999,21574000000,,695819.8624029427,-1416183246425999872,0.0,89.41846709300897,2266.5680025492566,0.0,0,16,0.0,17,110860,487,5.0,1170.868494681891,0.14999,16,0.0,0.0,1601437440,,,,0,10.321048242168196,3,6.0,20.0,0.0,0.0,34.68818638925407,66.7128,C,26934055000000,
Raw,1732148049999,21574000000,,695819.8624029427,-1416183246425999872,0.0,89.41846709300897,2266.5680025492566,0.0,0,8,0.0,17,90033,396,5.0,755.3607211444397,0.14999,16,0.0,0.0,1605374980,,,,0,6.090750632975865,3,6.0,23.0,0.0,0.0,34.68818638925407,66.7128,C,26934055000000,
Raw,1732148049999,21574000000,,695819.8624029427,-1416183246425999872,0.0,89.41846709300897,2266.5680025492566,0.0,0,9,0.0,17,302983,316,5.0,872.5662470909194,0.14999,16,0.0,0.0,1600875010,,,,0,11.795970739921149,3,6.0,26.0,0.0,0.0,34.68818638925407,66.7128,C,26934055000000,
Raw,1732148049999,21574000000,,695819.8624029427,-1416183246425999872,0.0,89.41846709300897,2266.5680025492566,0.0,0,22,0.0,16431,346467930667966,316,25.540000915527344,620.1681946518602,0.14999,16,0.0,0.0,1575420030,,,,0,10.784769418688464,1,6.0,25.540000915527344,0.0,0.0,0.0,66.7128,C,26934055000000,
Status,1732148050000,27,0,1,14,1575420030,29.10,1.0,71.0,1,0,0,24.1
Status,1732148050000,27,1,1,22,1575420030,28.80,296.0,66.0,1,0,0,23.8
Status,1732148050000,27,2,1,30,1575420030,32.80,101.0,62.0,1,0,0,27.8
Status,1732148050000,27,3,1,17,1575420030,35.70,171.0,58.0,1,0,0,30.7
Status,1732148050000,27,4,1,13,1575420030,37.80,285.0,55.0,1,0,0,32.8
Status,1732148050000,27,5,1,19,1575420030,31.40,193.0,30.0,1,0,0,26.4
Status,1732148050000,27,6,1,7,1575420030,30.80,114.0,28.0,1,0,0,25.8
Status,1732148050000,27,7,1,15,1575420030,0.00,306.0,25.0,0,0,0,0.0
Status,1732148050000,27,8,2,131,1575420030,32.00,3.0,23.0,0,0,0,27.0
Status,1732148050000,27,9,1,2,1575420030,31.20,75.0,20.0,1,0,0,26.2
Status,1732148050000,27,10,1,21,1575420030,0.00,57.0,14.0,0,0,0,0.0
Status,1732148050000,27,11,3,9,1602000000,27.50,39.0,49.0,1,0,0,22.5
Status,1732148050000,27,12,3,8,1602000000,32.00,284.0,40.0,1,0,0,27.0
Status,1732148050000,27,13,3,20,1602000000,0.00,143.0,23.0,0,0,0,0.0
Status,1732148050000,27,14,3,11,1602000000,0.00,283.0,9.0,0,0,0,0.0
Status,1732148050000,27,15,3,16,1602000000,25.20,79.0,7.0,1,0,0,20.2
Status,1732148050000,27,16,3,17,1602000000,34.00,0.0,0.0,0,0,0,29.0
