# 
# Header Description:
# 
# Version: v3.1.0.3 Platform: 13 Manufacturer: samsung Model: SM-S135DL GNSS Hardware Model Name: MediaTek,MT6631,MTK_MNLD_default,MNL_VER_default
# 
# Raw,utcTimeMillis,TimeNanos,LeapSecond,TimeUncertaintyNanos,FullBiasNanos,BiasNanos,BiasUncertaintyNanos,DriftNanosPerSecond,DriftUncertaintyNanosPerSecond,HardwareClockDiscontinuityCount,Svid,TimeOffsetNanos,State,ReceivedSvTimeNanos,ReceivedSvTimeUncertaintyNanos,Cn0DbHz,PseudorangeRateMetersPerSecond,PseudorangeRateUncertaintyMetersPerSecond,AccumulatedDeltaRangeState,AccumulatedDeltaRangeMeters,AccumulatedDeltaRangeUncertaintyMeters,CarrierFrequencyHz,CarrierCycles,CarrierPhase,CarrierPhaseUncertainty,MultipathIndicator,SnrInDb,ConstellationType,AgcDb,BasebandCn0DbHz,FullInterSignalBiasNanos,FullInterSignalBiasUncertaintyNanos,SatelliteInterSignalBiasNanos,SatelliteInterSignalBiasUncertaintyNanos,CodeType,ChipsetElapsedRealtimeNanos,IsFullTracking
# 
# UncalAccel,utcTimeMillis,elapsedRealtimeNanos,UncalAccelXMps2,UncalAccelYMps2,UncalAccelZMps2,BiasXMps2,BiasYMps2,BiasZMps2
# 
# Accel,utcTimeMillis,elapsedRealtimeNanos,AccelXMps2,AccelYMps2,AccelZMps2
# 
# UncalGyro,utcTimeMillis,elapsedRealtimeNanos,UncalGyroXRadPerSec,UncalGyroYRadPerSec,UncalGyroZRadPerSec,DriftXRadPerSec,DriftYRadPerSec,DriftZRadPerSec
# 
# Gyro,utcTimeMillis,elapsedRealtimeNanos,GyroXRadPerSec,GyroYRadPerSec,GyroZRadPerSec
# 
# UncalMag,utcTimeMillis,elapsedRealtimeNanos,UncalMagXMicroT,UncalMagYMicroT,UncalMagZMicroT,BiasXMicroT,BiasYMicroT,BiasZMicroT
# 
# Mag,utcTimeMillis,elapsedRealtimeNanos,MagXMicroT,MagYMicroT,MagZMicroT
# 
# Pressure,utcTimeMillis,elapsedRealtimeNanos,PressureHpa
# 
# OrientationDeg,utcTimeMillis,elapsedRealtimeNanos,yawDeg,rollDeg,pitchDeg
# 
# Fix,Provider,LatitudeDegrees,LongitudeDegrees,AltitudeMeters,SpeedMps,AccuracyMeters,BearingDegrees,UnixTimeMillis,SpeedAccuracyMps,BearingAccuracyDegrees,elapsedRealtimeNanos,VerticalAccuracyMeters,MockLocation,NumberOfUsedSignals,VerticalSpeedAccuracyMps,SolutionType
# 
# Nav,Svid,Type,Status,MessageId,Sub-messageId,Data(Bytes)
# 
# Status,UnixTimeMillis,SignalCount,SignalIndex,ConstellationType,Svid,CarrierFrequencyHz,Cn0DbHz,AzimuthDegrees,ElevationDegrees,UsedInFix,HasAlmanacData,HasEphemerisData,BasebandCn0DbHz
# 
# Agc,utcTimeMillis,TimeNanos,LeapSecond,TimeUncertaintyNanos,FullBiasNanos,BiasNanos,BiasUncertaintyNanos,DriftNanosPerSecond,DriftUncertaintyNanosPerSecond,HardwareClockDiscontinuityCount,AgcDb,CarrierFrequencyHz,ConstellationType
# 
Fix,FLP,37.4243918000,-122.1707940000,2.0,0.12386185,2.389,350.91284,1732148359209,1.2,178.9,27243057000000,0.9095452,0,,,
Status,,29,0,1,14,1575420030,0.00,8.0,70.0,0,0,0,0.0
Status,,29,1,1,22,1575420030,28.60,302.0,67.0,1,0,0,23.6
Status,,29,2,1,17,1575420030,28.40,170.0,61.0,1,0,0,23.4
Status,,29,3,1,30,1575420030,32.30,104.0,60.0,1,0,0,27.3
Status,,29,4,1,13,1575420030,30.60,281.0,55.0,1,0,0,25.6
Status,,29,5,1,19,1575420030,26.20,194.0,32.0,1,0,0,21.2
Status,,29,6,1,7,1575420030,43.10,116.0,26.0,1,0,0,38.1
Status,,29,7,1,15,1575420030,33.90,304.0,26.0,1,0,0,28.900002
Status,,29,8,2,131,1575420030,31.00,3.0,23.0,0,0,0,26.0
Status,,29,9,1,2,1575420030,30.20,73.0,20.0,1,0,0,25.2
Status,,29,10,1,21,1575420030,27.20,54.0,14.0,1,0,0,22.2
Status,,29,11,3,9,1602000000,22.10,43.0,48.0,1,0,0,17.1
Status,,29,12,3,8,1602000000,28.50,280.0,39.0,1,0,0,23.5
Status,,29,13,3,19,1602000000,0.00,65.0,36.0,0,0,0,0.0
Status,,29,14,3,20,1602000000,0.00,141.0,26.0,0,0,0,0.0
Status,,29,15,3,18,1602000000,0.00,27.0,13.0,0,0,0,0.0
Status,,29,16,3,11,1602000000,0.00,285.0,10.0,0,0,0,0.0
Status,,29,17,3,16,1602000000,26.80,81.0,5.0,1,0,0,21.8
Status,,29,18,3,17,1602000000,36.20,0.0,0.0,0,0,0,31.2
Status,,29,19,6,21,1575420030,23.60,291.0,63.0,1,0,0,18.6
Status,,29,20,6,19,1575420030,0.00,278.0,54.0,0,0,0,0.0
Status,,29,21,6,27,1575420030,23.10,46.0,49.0,1,0,0,18.1
Status,,29,22,6,29,1575420030,25.60,197.0,48.0,1,0,0,20.6
Status,,29,23,6,15,1575420030,0.00,84.0,17.0,0,0,0,0.0
Status,,29,24,6,13,1575420030,0.00,135.0,10.0,0,0,0,0.0
Status,,29,25,6,4,1575420030,0.00,323.0,9.0,0,0,0,0.0
Status,,29,26,6,34,1575420030,0.00,37.0,6.0,0,0,0,0.0
Status,,29,27,6,7,1575420030,0.00,162.0,5.0,0,0,0,0.0
Status,,29,28,6,30,1575420030,0.00,66.0,3.0,0,0,0,0.0
Fix,GPS,37.4243866667,-122.1707816667,-1.3999999999999986,0.0,2.4,39.21,1732148360000,2.1,179.9,27244057000000,29.9,0,,,
Fix,FLP,37.4243899000,-122.1707881000,2.0,0.11273647,2.404,353.58646,1732148360209,2.1,179.9,27244057000000,0.91846865,0,,,
Raw,1732148360000,17500000000,,692582.4665008751,-1416183560500999936,0.0,76.52909130512263,2183.4152232806255,0.0,0,7,0.0,16431,346777923965745,51,38.112998962402344,1121.8096336970818,0.14999,16,0.0,0.0,1575420030,,,,0,25.774336037625922,1,6.0,38.112998962402344,0.0,0.0,0.0,66.7128,C,27244057000000,
Raw,1732148360000,17500000000,,692582.4665008751,-1416183560500999936,0.0,76.52909130512263,2183.4152232806255,0.0,0,30,0.0,16431,346777930793947,235,27.32200050354004,889.7779056088341,0.14999,16,0.0,0.0,1575420030,,,,0,13.17518583888865,1,6.0,27.32200050354004,0.0,0.0,0.0,66.7128,C,27244057000000,
Raw,1732148360000,17500000000,,692582.4665008751,-1416183560500999936,0.0,76.52909130512263,2183.4152232806255,0.0,0,21,0.0,16431,346777919688226,396,22.222000122070312,849.7826913446735,0.14999,16,0.0,0.0,1575420030,,,,0,5.926879576180542,1,6.0,22.222000122070312,0.0,0.0,0.0,66.7128,C,27244057000000,
Raw,1732148360000,17500000000,,692582.4665008751,-1416183560500999936,0.0,76.52909130512263,2183.4152232806255,0.0,0,22,0.0,16431,346777931131277,396,23.611000061035156,613.2297695660649,0.14999,16,0.0,0.0,1575420030,,,,0,8.039151586779237,1,6.0,23.611000061035156,0.0,0.0,0.0,66.7128,C,27244057000000,
Raw,1732148360000,17500000000,,692582.4665008751,-1416183560500999936,0.0,76.52909130512263,2183.4152232806255,0.0,0,13,0.0,16431,346777931074961,316,25.597999572753906,584.2588587181677,0.14999,16,0.0,0.0,1575420030,,,,0,10.882569250395665,1,6.0,25.597999572753906,0.0,0.0,0.0,66.7128,C,27244057000000,
Raw,1732148360000,17500000000,,692582.4665008751,-1416183560500999936,0.0,76.52909130512263,2183.4152232806255,0.0,0,29,0.0,16431,346777918560035,396,20.600000381469727,1074.7366655569106,0.14999,16,0.0,0.0,1575420030,,,,0,5.116590873214478,6,6.0,20.600000381469727,0.0,0.0,22.6301312750517,66.7128,C,27244057000000,
Raw,1732148360000,17500000000,,692582.4665008751,-1416183560500999936,0.0,76.52909130512263,2183.4152232806255,0.0,0,27,0.0,16431,346777918236116,396,18.100000381469727,940.4001109138258,0.14999,16,0.0,0.0,1575420030,,,,0,1.0573227640948248,6,6.0,18.100000381469727,0.0,0.0,22.6301312750517,66.7128,C,27244057000000,
Raw,1732148360000,17500000000,,692582.4665008751,-1416183560500999936,0.0,76.52909130512263,2183.4152232806255,0.0,0,17,0.0,16431,346777931646644,396,23.402999877929688,357.10424224687,0.14999,16,0.0,0.0,1575420030,,,,0,7.701793081033328,1,6.0,23.402999877929688,0.0,0.0,0.0,66.7128,C,27244057000000,
Raw,1732148360000,17500000000,,692582.4665008751,-1416183560500999936,0.0,76.52909130512263,2183.4152232806255,0.0,0,2,0.0,16431,346777920887111,396,25.160999298095703,618.0805392610234,0.14999,16,0.0,0.0,1575420030,,,,0,10.264828695491628,1,6.0,25.160999298095703,0.0,0.0,0.0,66.7128,C,27244057000000,
Raw,1732148360000,17500000000,,692582.4665008751,-1416183560500999936,0.0,76.52909130512263,2183.4152232806255,0.0,0,21,0.0,16431,346777920516631,487,18.600000381469727,550.8655247727733,0.14999,16,0.0,0.0,1575420030,,,,0,1.8795744743930562,6,6.0,18.600000381469727,0.0,0.0,22.6301312750517,66.7128,C,27244057000000,
Raw,1732148360000,17500000000,,692582.4665008751,-1416183560500999936,0.0,76.52909130512263,2183.4152232806255,0.0,0,16,0.0,17,13640,487,5.0,1147.6493103831465,0.14999,16,0.0,0.0,1601437440,,,,0,6.917245148337253,3,6.0,18.0,0.0,0.0,43.772022157909745,66.7128,C,27244057000000,
Raw,1732148360000,17500000000,,692582.4665008751,-1416183560500999936,0.0,76.52909130512263,2183.4152232806255,0.0,0,8,0.0,17,396365,396,5.0,781.6928443701919,0.14999,16,0.0,0.0,1605374980,,,,0,12.097102159453787,3,6.0,22.0,0.0,0.0,43.772022157909745,66.7128,C,27244057000000,
Raw,1732148360000,17500000000,,692582.4665008751,-1416183560500999936,0.0,76.52909130512263,2183.4152232806255,0.0,0,9,0.0,17,508001,487,5.0,860.6838810227463,0.14999,16,0.0,0.0,1600875010,,,,0,0.0,3,6.0,20.0,0.0,0.0,43.772022157909745,66.7128,C,27244057000000,
Raw,1732148360000,17500000000,,692582.4665008751,-1416183560500999936,0.0,76.52909130512263,2183.4152232806255,0.0,0,15,0.0,16431,346777924614125,235,28.926000595092773,377.95285141788685,0.14999,16,0.0,0.0,1575420030,,,,0,15.231645805375809,1,6.0,28.926000595092773,0.0,0.0,0.0,66.7128,C,27244057000000,
Raw,1732148360000,17500000000,,692582.4665008751,-1416183560500999936,0.0,76.52909130512263,2183.4152232806255,0.0,0,19,0.0,16431,346777924796922,487,21.249000549316406,14.236484771476304,0.14999,16,0.0,0.0,1575420030,,,,0,4.392347420125583,1,6.0,21.249000549316406,0.0,0.0,0.0,66.7128,C,27244057000000,
Status,1732148360000,29,0,1,14,1575420030,27.60,8.0,70.0,1,0,0,22.6
Status,1732148360000,29,1,1,22,1575420030,28.60,302.0,67.0,1,0,0,23.6
Status,1732148360000,29,2,1,17,1575420030,29.50,170.0,61.0,1,0,0,24.5
Status,1732148360000,29,3,1,30,1575420030,31.10,104.0,60.0,1,0,0,26.1
Status,1732148360000,29,4,1,13,1575420030,31.20,281.0,55.0,1,0,0,26.2
Status,1732148360000,29,5,1,19,1575420030,26.10,194.0,32.0,1,0,0,21.1
Status,1732148360000,29,6,1,7,1575420030,36.40,116.0,26.0,1,0,0,31.400002
Status,1732148360000,29,7,1,15,1575420030,29.80,304.0,26.0,1,0,0,24.8
Status,1732148360000,29,8,2,131,1575420030,29.00,3.0,23.0,0,0,0,24.0
Status,1732148360000,29,9,1,2,1575420030,0.00,73.0,20.0,0,0,0,0.0
Status,1732148360000,29,10,1,21,1575420030,28.20,54.0,14.0,1,0,0,23.2
Status,1732148360000,29,11,3,9,1602000000,25.60,43.0,48.0,1,0,0,20.6
Status,1732148360000,29,12,3,8,1602000000,24.70,280.0,39.0,1,0,0,19.7
Status,1732148360000,29,13,3,19,1602000000,0.00,65.0,36.0,0,0,0,0.0
Status,1732148360000,29,14,3,20,1602000000,0.00,141.0,26.0,0,0,0,0.0
Status,1732148360000,29,15,3,18,1602000000,0.00,27.0,13.0,0,0,0,0.0
Status,1732148360000,29,16,3,11,1602000000,0.00,285.0,10.0,0,0,0,0.0
Status,1732148360000,29,17,3,16,1602000000,24.20,81.0,5.0,1,0,0,19.2
Status,1732148360000,29,18,3,17,1602000000,29.60,0.0,0.0,0,0,0,24.6
Status,1732148360000,29,19,6,21,1575420030,23.60,291.0,63.0,1,0,0,18.6
Status,1732148360000,29,20,6,19,1575420030,23.10,278.0,54.0,1,0,0,18.1
Status,1732148360000,29,21,6,27,1575420030,22.30,46.0,49.0,1,0,0,17.3
Status,1732148360000,29,22,6,29,1575420030,22.70,197.0,48.0,1,0,0,17.7
Status,1732148360000,29,23,6,15,1575420030,0.00,84.0,17.0,0,0,0,0.0
Status,1732148360000,29,24,6,13,1575420030,0.00,135.0,10.0,0,0,0,0.0
Status,1732148360000,29,25,6,4,1575420030,0.00,323.0,9.0,0,0,0,0.0
Status,1732148360000,29,26,6,34,1575420030,0.00,37.0,6.0,0,0,0,0.0
Status,1732148360000,29,27,6,7,1575420030,0.00,162.0,5.0,0,0,0,0.0
Status,1732148360000,29,28,6,30,1575420030,0.00,66.0,3.0,0,0,0,0.0
Fix,GPS,37.4243866667,-122.1707816667,-1.5,0.0,2.4,39.21,1732148361000,2.5,179.9,27245057000000,30.0,0,,,
Raw,1732148361000,18500000000,,692303.2108099264,-1416183560500999936,0.0,76.30399560031705,2183.3448844500094,0.0,0,7,0.0,16431,346778923962001,74,31.356000900268555,1121.360845396488,0.14999,16,0.0,0.0,1575420030,,,,0,18.16796362280725,1,6.0,31.356000900268555,0.0,0.0,0.0,66.7128,C,27245057000000,
Raw,1732148361000,18500000000,,692303.2108099264,-1416183560500999936,0.0,76.30399560031705,2183.3448844500094,0.0,0,30,0.0,16431,346778930790972,316,26.089000701904297,888.791500515852,0.14999,16,0.0,0.0,1575420030,,,,0,11.53335865356515,1,6.0,26.089000701904297,0.0,0.0,0.0,66.7128,C,27245057000000,
Raw,1732148361000,18500000000,,692303.2108099264,-1416183560500999936,0.0,76.30399560031705,2183.3448844500094,0.0,0,21,0.0,16431,346778919685388,487,23.152000427246094,849.8353751886563,0.14999,16,0.0,0.0,1575420030,,,,0,7.350800290705372,1,6.0,23.152000427246094,0.0,0.0,0.0,66.7128,C,27245057000000,
Raw,1732148361000,18500000000,,692303.2108099264,-1416183560500999936,0.0,76.30399560031705,2183.3448844500094,0.0,0,22,0.0,16431,346778931129231,316,23.611000061035156,613.1090706007499,0.14999,16,0.0,0.0,1575420030,,,,0,8.039151586779237,1,6.0,23.611000061035156,0.0,0.0,0.0,66.7128,C,27245057000000,
Raw,1732148361000,18500000000,,692303.2108099264,-1416183560500999936,0.0,76.30399560031705,2183.3448844500094,0.0,0,13,0.0,16431,346778931073000,396,26.165000915527344,583.9253802066085,0.14999,16,0.0,0.0,1575420030,,,,0,11.643308091789507,1,6.0,26.165000915527344,0.0,0.0,0.0,66.7128,C,27245057000000,
Raw,1732148361000,18500000000,,692303.2108099264,-1416183560500999936,0.0,76.30399560031705,2183.3448844500094,0.0,0,29,0.0,16431,346778918556450,487,17.700000762939453,1074.2126146220555,0.14999,16,0.0,0.0,1575420030,,,,0,0.2847347169722063,6,6.0,17.700000762939453,0.0,0.0,21.386420807105342,66.7128,C,27245057000000,
Raw,1732148361000,18500000000,,692303.2108099264,-1416183560500999936,0.0,76.30399560031705,2183.3448844500094,0.0,0,27,0.0,16431,346778918232977,487,17.299999237060547,940.2801552831701,0.14999,16,0.0,0.0,1575420030,,,,0,0.0,6,6.0,17.299999237060547,0.0,0.0,21.386420807105342,66.7128,C,27245057000000,
Raw,1732148361000,18500000000,,692303.2108099264,-1416183560500999936,0.0,76.30399560031705,2183.3448844500094,0.0,0,17,0.0,16431,346778931645448,396,24.545000076293945,356.9719286775024,0.14999,16,0.0,0.0,1575420030,,,,0,9.413467834168435,1,6.0,24.545000076293945,0.0,0.0,0.0,66.7128,C,27245057000000,
Raw,1732148361000,18500000000,,692303.2108099264,-1416183560500999936,0.0,76.30399560031705,2183.3448844500094,0.0,0,19,0.0,16431,346778920715619,487,18.100000381469727,628.8421667920325,0.14999,16,0.0,0.0,1575420030,,,,0,1.0573227640948248,6,6.0,18.100000381469727,0.0,0.0,21.386420807105342,66.7128,C,27245057000000,
Raw,1732148361000,18500000000,,692303.2108099264,-1416183560500999936,0.0,76.30399560031705,2183.3448844500094,0.0,0,21,0.0,16431,346778920514794,396,18.600000381469727,550.6806667346715,0.14999,16,0.0,0.0,1575420030,,,,0,1.9909335591719017,6,6.0,18.600000381469727,0.0,0.0,21.386420807105342,66.7128,C,27245057000000,
Raw,1732148361000,18500000000,,692303.2108099264,-1416183560500999936,0.0,76.30399560031705,2183.3448844500094,0.0,0,16,0.0,17,9811,487,5.0,1147.633314110221,0.14999,16,0.0,0.0,1601437440,,,,0,2.9432641523141836,3,6.0,19.0,0.0,0.0,43.89550200925361,66.7128,C,27245057000000,
Raw,1732148361000,18500000000,,692303.2108099264,-1416183560500999936,0.0,76.30399560031705,2183.3448844500094,0.0,0,8,0.0,17,393756,487,5.0,781.8937206941664,0.14999,16,0.0,0.0,1605374980,,,,0,3.701183861339709,3,6.0,20.0,0.0,0.0,43.89550200925361,66.7128,C,27245057000000,
Raw,1732148361000,18500000000,,692303.2108099264,-1416183560500999936,0.0,76.30399560031705,2183.3448844500094,0.0,0,9,0.0,17,505128,487,5.0,860.5200216328814,0.14999,16,0.0,0.0,1600875010,,,,0,5.159378593425507,3,6.0,20.0,0.0,0.0,43.89550200925361,66.7128,C,27245057000000,
Raw,1732148361000,18500000000,,692303.2108099264,-1416183560500999936,0.0,76.30399560031705,2183.3448844500094,0.0,0,14,0.0,16431,346778932424907,487,22.62299919128418,752.2270325233909,0.14999,16,0.0,0.0,1575420030,,,,0,6.537857989723385,1,6.0,22.62299919128418,0.0,0.0,0.0,66.7128,C,27245057000000,
Raw,1732148361000,18500000000,,692303.2108099264,-1416183560500999936,0.0,76.30399560031705,2183.3448844500094,0.0,0,15,0.0,16431,346778924612869,316,24.816999435424805,376.65770691997756,0.14999,16,0.0,0.0,1575420030,,,,0,9.78215510115724,1,6.0,24.816999435424805,0.0,0.0,0.0,66.7128,C,27245057000000,
Raw,1732148361000,18500000000,,692303.2108099264,-1416183560500999936,0.0,76.30399560031705,2183.3448844500094,0.0,0,19,0.0,16431,346778924796832,487,21.10300064086914,14.480159164500577,0.14999,16,0.0,0.0,1575420030,,,,0,4.136861659397004,1,6.0,21.10300064086914,0.0,0.0,0.0,66.7128,C,27245057000000,
Fix,FLP,37.4243888000,-122.1707851000,2.0,0.10524025,2.418,355.30466,1732148361209,2.5,179.9,27245057000000,0.93367326,0,,,
Status,1732148361000,29,0,1,14,1575420030,0.00,8.0,70.0,0,0,0,0.0
Status,1732148361000,29,1,1,22,1575420030,32.60,302.0,67.0,1,0,0,27.599998
Status,1732148361000,29,2,1,17,1575420030,27.50,170.0,61.0,1,0,0,22.5
Status,1732148361000,29,3,1,30,1575420030,32.60,104.0,60.0,1,0,0,27.599998
Status,1732148361000,29,4,1,13,1575420030,32.40,281.0,55.0,1,0,0,27.400002
Status,1732148361000,29,5,1,19,1575420030,24.00,194.0,32.0,1,0,0,19.0
Status,1732148361000,29,6,1,7,1575420030,38.40,116.0,26.0,1,0,0,33.4
Status,1732148361000,29,7,1,15,1575420030,0.00,304.0,26.0,0,0,0,0.0
Status,1732148361000,29,8,2,131,1575420030,32.00,3.0,23.0,0,0,0,27.0
Status,1732148361000,29,9,1,2,1575420030,28.10,73.0,20.0,1,0,0,23.1
Status,1732148361000,29,10,1,21,1575420030,32.10,54.0,14.0,1,0,0,27.099998
Status,1732148361000,29,11,3,9,1602000000,25.10,43.0,48.0,1,0,0,20.1
Status,1732148361000,29,12,3,8,1602000000,27.90,280.0,39.0,1,0,0,22.9
Status,1732148361000,29,13,3,19,1602000000,0.00,65.0,36.0,0,0,0,0.0
Status,1732148361000,29,14,3,20,1602000000,0.00,141.0,26.0,0,0,0,0.0
Status,1732148361000,29,15,3,18,1602000000,0.00,27.0,13.0,0,0,0,0.0
Status,1732148361000,29,16,3,11,1602000000,0.00,285.0,10.0,0,0,0,0.0
Status,1732148361000,29,17,3,16,1602000000,24.20,81.0,5.0,1,0,0,19.2
Status,1732148361000,29,18,3,17,1602000000,28.80,0.0,0.0,0,0,0,23.8
Status,1732148361000,29,19,6,21,1575420030,23.70,291.0,63.0,1,0,0,18.7
Status,1732148361000,29,20,6,19,1575420030,21.80,278.0,54.0,1,0,0,16.8
Status,1732148361000,29,21,6,27,1575420030,22.70,46.0,49.0,1,0,0,17.7
Status,1732148361000,29,22,6,29,1575420030,19.10,197.0,48.0,1,0,0,14.1
Status,1732148361000,29,23,6,15,1575420030,0.00,84.0,17.0,0,0,0,0.0
Status,1732148361000,29,24,6,13,1575420030,0.00,135.0,10.0,0,0,0,0.0
Status,1732148361000,29,25,6,4,1575420030,0.00,323.0,9.0,0,0,0,0.0
Status,1732148361000,29,26,6,34,1575420030,0.00,37.0,6.0,0,0,0,0.0
Status,1732148361000,29,27,6,7,1575420030,0.00,162.0,5.0,0,0,0,0.0
Status,1732148361000,29,28,6,30,1575420030,0.00,66.0,3.0,0,0,0,0.0
Fix,GPS,37.4243866667,-122.1707833333,-1.5,0.0,2.4,39.21,1732148362000,2.5,179.9,27246057000000,30.2,0,,,
Raw,1732148362000,19500000000,,692021.2970300941,-1416183560500999936,0.0,76.50702709075672,2178.2968166877063,0.0,0,7,0.0,16431,346779923958264,58,33.36199951171875,1119.686205325763,0.14999,16,0.0,0.0,1575420030,,,,0,20.50413739473725,1,6.0,33.36199951171875,0.0,0.0,0.0,66.7128,C,27246057000000,
Raw,1732148362000,19500000000,,692021.2970300941,-1416183560500999936,0.0,76.50702709075672,2178.2968166877063,0.0,0,30,0.0,16431,346779930788007,235,27.576000213623047,887.2244581370705,0.14999,16,0.0,0.0,1575420030,,,,0,13.504690128612335,1,6.0,27.576000213623047,0.0,0.0,0.0,66.7128,C,27246057000000,
Raw,1732148362000,19500000000,,692021.2970300941,-1416183560500999936,0.0,76.50702709075672,2178.2968166877063,0.0,0,21,0.0,16431,346779919682551,235,27.079999923706055,849.1074647234695,0.14999,16,0.0,0.0,1575420030,,,,0,12.864387399989065,1,6.0,27.079999923706055,0.0,0.0,0.0,66.7128,C,27246057000000,
Raw,1732148362000,19500000000,,692021.2970300941,-1416183560500999936,0.0,76.50702709075672,2178.2968166877063,0.0,0,22,0.0,16431,346779931127192,316,27.576000213623047,611.1962846885297,0.14999,16,0.0,0.0,1575420030,,,,0,13.504690128612335,1,6.0,27.576000213623047,0.0,0.0,0.0,66.7128,C,27246057000000,
Raw,1732148362000,19500000000,,692021.2970300941,-1416183560500999936,0.0,76.50702709075672,2178.2968166877063,0.0,0,13,0.0,16431,346779931071050,316,27.448999404907227,583.0375598728251,0.14999,16,0.0,0.0,1575420030,,,,0,13.356463158793842,1,6.0,27.448999404907227,0.0,0.0,0.0,66.7128,C,27246057000000,
Raw,1732148362000,19500000000,,692021.2970300941,-1416183560500999936,0.0,76.50702709075672,2178.2968166877063,0.0,0,29,0.0,16431,346779918552865,487,14.100000381469727,1072.43548728517,0.14999,16,0.0,0.0,1575420030,,,,0,0.0,6,6.0,14.100000381469727,0.0,0.0,21.738183453893942,66.7128,C,27246057000000,
Raw,1732148362000,19500000000,,692021.2970300941,-1416183560500999936,0.0,76.50702709075672,2178.2968166877063,0.0,0,27,0.0,16431,346779918229842,396,17.700000762939453,938.8912344721399,0.14999,16,0.0,0.0,1575420030,,,,0,0.2847347169722063,6,6.0,17.700000762939453,0.0,0.0,21.738183453893942,66.7128,C,27246057000000,
Raw,1732148362000,19500000000,,692021.2970300941,-1416183560500999936,0.0,76.50702709075672,2178.2968166877063,0.0,0,17,0.0,16431,346779931644258,396,22.464000701904297,355.15682158536475,0.14999,16,0.0,0.0,1575420030,,,,0,6.271602977613117,1,6.0,22.464000701904297,0.0,0.0,0.0,66.7128,C,27246057000000,
Raw,1732148362000,19500000000,,692021.2970300941,-1416183560500999936,0.0,76.50702709075672,2178.2968166877063,0.0,0,19,0.0,16431,346779920713513,797,16.799999237060547,627.1536356548605,0.14999,16,0.0,0.0,1575420030,,,,0,0.0,6,6.0,16.799999237060547,0.0,0.0,21.738183453893942,66.7128,C,27246057000000,
Raw,1732148362000,19500000000,,692021.2970300941,-1416183560500999936,0.0,76.50702709075672,2178.2968166877063,0.0,0,21,0.0,16431,346779920512957,396,18.700000762939453,549.2121626566726,0.14999,16,0.0,0.0,1575420030,,,,0,5.193457654849682,6,6.0,18.700000762939453,0.0,0.0,21.738183453893942,66.7128,C,27246057000000,
Raw,1732148362000,19500000000,,692021.2970300941,-1416183560500999936,0.0,76.50702709075672,2178.2968166877063,0.0,0,16,0.0,17,5985,487,5.0,1146.7680528558583,0.14999,16,0.0,0.0,1601437440,,,,0,1.34636819801137,3,6.0,18.0,0.0,0.0,44.04524554626819,66.7128,C,27246057000000,
Raw,1732148362000,19500000000,,692021.2970300941,-1416183560500999936,0.0,76.50702709075672,2178.2968166877063,0.0,0,8,0.0,17,391151,487,5.0,780.1169272084799,0.14999,16,0.0,0.0,1605374980,,,,0,8.439882218292723,3,6.0,19.0,0.0,0.0,44.04524554626819,66.7128,C,27246057000000,
Raw,1732148362000,19500000000,,692021.2970300941,-1416183560500999936,0.0,76.50702709075672,2178.2968166877063,0.0,0,9,0.0,17,502262,487,5.0,857.3980979226313,0.14999,16,0.0,0.0,1600875010,,,,0,4.339994797941493,3,6.0,20.0,0.0,0.0,44.04524554626819,66.7128,C,27246057000000,
Raw,1732148362000,19500000000,,692021.2970300941,-1416183560500999936,0.0,76.50702709075672,2178.2968166877063,0.0,0,19,0.0,16431,346779924796728,487,19.0,13.117812567542751,0.14999,16,0.0,0.0,1575420030,,,,0,0.5499733303289425,1,6.0,19.0,0.0,0.0,0.0,66.7128,C,27246057000000,
Raw,1732148362000,19500000000,,692021.2970300941,-1416183560500999936,0.0,76.50702709075672,2178.2968166877063,0.0,0,2,0.0,16431,346779920883003,396,23.114999771118164,616.4150514982919,0.14999,16,0.0,0.0,1575420030,,,,0,7.290897366118185,1,6.0,23.114999771118164,0.0,0.0,0.0,66.7128,C,27246057000000,
Fix,FLP,37.4243882000,-122.1707843000,2.0,0.0989908,2.4,,1732148362209,2.5,,27246057000000,0.9436519,0,,,
Status,1732148362000,29,0,1,14,1575420030,0.00,8.0,70.0,0,0,0,0.0
Status,1732148362000,29,1,1,22,1575420030,32.60,302.0,67.0,1,0,0,27.599998
Status,1732148362000,29,2,1,17,1575420030,27.50,170.0,61.0,1,0,0,22.5
Status,1732148362000,29,3,1,30,1575420030,33.70,104.0,60.0,1,0,0,28.7
Status,1732148362000,29,4,1,13,1575420030,31.40,281.0,55.0,1,0,0,26.4
Status,1732148362000,29,5,1,19,1575420030,24.00,194.0,32.0,1,0,0,19.0
Status,1732148362000,29,6,1,7,1575420030,34.90,116.0,26.0,1,0,0,29.900002
Status,1732148362000,29,7,1,15,1575420030,0.00,304.0,26.0,0,0,0,0.0
Status,1732148362000,29,8,2,131,1575420030,32.00,3.0,23.0,0,0,0,27.0
Status,1732148362000,29,9,1,2,1575420030,39.00,73.0,20.0,1,0,0,34.0
Status,1732148362000,29,10,1,21,1575420030,28.50,54.0,14.0,1,0,0,23.5
Status,1732148362000,29,11,3,9,1602000000,27.40,43.0,48.0,1,0,0,22.4
Status,1732148362000,29,12,3,8,1602000000,27.90,280.0,39.0,1,0,0,22.9
Status,1732148362000,29,13,3,19,1602000000,0.00,65.0,36.0,0,0,0,0.0
Status,1732148362000,29,14,3,20,1602000000,0.00,141.0,26.0,0,0,0,0.0
Status,1732148362000,29,15,3,18,1602000000,0.00,27.0,13.0,0,0,0,0.0
Status,1732148362000,29,16,3,11,1602000000,0.00,285.0,10.0,0,0,0,0.0
Status,1732148362000,29,17,3,16,1602000000,32.60,81.0,5.0,1,0,0,27.599998
Status,1732148362000,29,18,3,17,1602000000,32.60,0.0,0.0,0,0,0,27.599998
Status,1732148362000,29,19,6,21,1575420030,22.80,291.0,63.0,1,0,0,17.8
Status,1732148362000,29,20,6,19,1575420030,0.00,278.0,54.0,0,0,0,0.0
Status,1732148362000,29,21,6,27,1575420030,22.80,46.0,49.0,1,0,0,17.8
Status,1732148362000,29,22,6,29,1575420030,19.20,197.0,48.0,1,0,0,14.200001
Status,1732148362000,29,23,6,15,1575420030,0.00,84.0,17.0,0,0,0,0.0
Status,1732148362000,29,24,6,13,1575420030,0.00,135.0,10.0,0,0,0,0.0
Status,1732148362000,29,25,6,4,1575420030,0.00,323.0,9.0,0,0,0,0.0
Status,1732148362000,29,26,6,34,1575420030,0.00,37.0,6.0,0,0,0,0.0
Status,1732148362000,29,27,6,7,1575420030,0.00,162.0,5.0,0,0,0,0.0
Status,1732148362000,29,28,6,30,1575420030,0.00,66.0,3.0,0,0,0,0.0
Fix,GPS,37.4243816667,-122.1707883333,-1.3999999999999986,0.0,2.5,39.21,1732148363000,2.5,179.9,27247057000000,30.3,0,,,
Raw,1732148363000,20500000000,,691688.4104869643,-1416183560500999936,0.0,76.84174402206881,2174.221620887582,0.0,0,7,0.0,16431,346780923954528,74,29.868999481201172,1119.216882405204,0.14999,16,0.0,0.0,1575420030,,,,0,16.380937215232624,1,6.0,29.868999481201172,0.0,0.0,0.0,66.7128,C,27247057000000,
Raw,1732148363000,20500000000,,691688.4104869643,-1416183560500999936,0.0,76.84174402206881,2174.221620887582,0.0,0,30,0.0,16431,346780930785053,235,28.655000686645508,887.3680146431611,0.14999,16,0.0,0.0,1575420030,,,,0,14.887605203223362,1,6.0,28.655000686645508,0.0,0.0,0.0,66.7128,C,27247057000000,
Raw,1732148363000,20500000000,,691688.4104869643,-1416183560500999936,0.0,76.84174402206881,2174.221620887582,0.0,0,21,0.0,16431,346780919679716,396,23.472000122070312,847.8042132319315,0.14999,16,0.0,0.0,1575420030,,,,0,7.815708020530957,1,6.0,23.472000122070312,0.0,0.0,0.0,66.7128,C,27247057000000,
Raw,1732148363000,20500000000,,691688.4104869643,-1416183560500999936,0.0,76.84174402206881,2174.221620887582,0.0,0,22,0.0,16431,346780931125154,487,27.576000213623047,610.9510307093542,0.14999,16,0.0,0.0,1575420030,,,,0,13.504690128612335,1,6.0,27.576000213623047,0.0,0.0,0.0,66.7128,C,27247057000000,
Raw,1732148363000,20500000000,,691688.4104869643,-1416183560500999936,0.0,76.84174402206881,2174.221620887582,0.0,0,13,0.0,16431,346780931069096,316,26.409000396728516,582.7377172546023,0.14999,16,0.0,0.0,1575420030,,,,0,11.965044489658602,1,6.0,26.409000396728516,0.0,0.0,0.0,66.7128,C,27247057000000,
Raw,1732148363000,20500000000,,691688.4104869643,-1416183560500999936,0.0,76.84174402206881,2174.221620887582,0.0,0,29,0.0,16431,346780918549287,487,14.164999961853027,1071.9655139467843,0.14999,16,0.0,0.0,1575420030,,,,0,0.0,6,6.0,14.164999961853027,0.0,0.0,21.08506256319048,66.7128,C,27247057000000,
Raw,1732148363000,20500000000,,691688.4104869643,-1416183560500999936,0.0,76.84174402206881,2174.221620887582,0.0,0,27,0.0,16431,346780918226711,396,17.809999465942383,937.829659661729,0.14999,16,0.0,0.0,1575420030,,,,0,4.05000203918136,6,6.0,17.809999465942383,0.0,0.0,21.08506256319048,66.7128,C,27247057000000,
Raw,1732148363000,20500000000,,691688.4104869643,-1416183560500999936,0.0,76.84174402206881,2174.221620887582,0.0,0,17,0.0,16431,346780931643073,396,22.464000701904297,354.8664332548408,0.14999,16,0.0,0.0,1575420030,,,,0,6.271602977613117,1,6.0,22.464000701904297,0.0,0.0,0.0,66.7128,C,27247057000000,
Raw,1732148363000,20500000000,,691688.4104869643,-1416183560500999936,0.0,76.84174402206881,2174.221620887582,0.0,0,21,0.0,16431,346780920511125,487,17.799999237060547,548.05265350489,0.14999,16,0.0,0.0,1575420030,,,,0,0.5499733303289425,6,6.0,17.799999237060547,0.0,0.0,21.08506256319048,66.7128,C,27247057000000,
Raw,1732148363000,20500000000,,691688.4104869643,-1416183560500999936,0.0,76.84174402206881,2174.221620887582,0.0,0,16,0.0,17,2162,235,5.0,1145.3492291509972,0.14999,16,0.0,0.0,1601437440,,,,0,14.204548507490163,3,6.0,28.0,0.0,0.0,31.300363951739616,66.7128,C,27247057000000,
Raw,1732148363000,20500000000,,691688.4104869643,-1416183560500999936,0.0,76.84174402206881,2174.221620887582,0.0,0,8,0.0,17,388551,797,5.0,779.0543707839338,0.14999,16,0.0,0.0,1605374980,,,,0,8.439882218292723,3,6.0,17.0,0.0,0.0,31.300363951739616,66.7128,C,27247057000000,
Raw,1732148363000,20500000000,,691688.4104869643,-1416183560500999936,0.0,76.84174402206881,2174.221620887582,0.0,0,9,0.0,17,499437,396,5.0,857.8952538951178,0.14999,16,0.0,0.0,1600875010,,,,0,7.708083405729299,3,6.0,23.0,0.0,0.0,31.300363951739616,66.7128,C,27247057000000,
Raw,1732148363000,20500000000,,691688.4104869643,-1416183560500999936,0.0,76.84174402206881,2174.221620887582,0.0,0,19,0.0,16431,346780924796685,487,19.0,12.791024067917826,0.14999,16,0.0,0.0,1575420030,,,,0,0.5499733303289425,1,6.0,19.0,0.0,0.0,0.0,66.7128,C,27247057000000,
Raw,1732148363000,20500000000,,691688.4104869643,-1416183560500999936,0.0,76.84174402206881,2174.221620887582,0.0,0,2,0.0,16431,346780920880899,58,34.03300094604492,616.3589297315095,0.14999,16,0.0,0.0,1575420030,,,,0,21.27029745283856,1,6.0,34.03300094604492,0.0,0.0,0.0,66.7128,C,27247057000000,
Fix,FLP,37.4243855000,-122.1707863000,2.0,0.08837955,2.416,,1732148363209,2.5,,27247057000000,0.9536422,0,,,
Status,1732148363000,29,0,1,14,1575420030,30.50,8.0,70.0,1,0,0,25.5
Status,1732148363000,29,1,1,22,1575420030,33.20,302.0,67.0,1,0,0,28.2
Status,1732148363000,29,2,1,17,1575420030,29.80,170.0,61.0,1,0,0,24.8
Status,1732148363000,29,3,1,30,1575420030,29.50,104.0,60.0,1,0,0,24.5
Status,1732148363000,29,4,1,13,1575420030,31.00,281.0,55.0,1,0,0,26.0
Status,1732148363000,29,5,1,19,1575420030,0.00,194.0,32.0,0,0,0,0.0
Status,1732148363000,29,6,1,7,1575420030,28.60,116.0,26.0,1,0,0,23.6
Status,1732148363000,29,7,1,15,1575420030,0.00,304.0,26.0,0,0,0,0.0
Status,1732148363000,29,8,2,131,1575420030,30.00,3.0,23.0,0,0,0,25.0
Status,1732148363000,29,9,1,2,1575420030,32.80,73.0,20.0,1,0,0,27.8
Status,1732148363000,29,10,1,21,1575420030,29.30,54.0,14.0,1,0,0,24.3
Status,1732148363000,29,11,3,9,1602000000,28.80,43.0,48.0,1,0,0,23.8
Status,1732148363000,29,12,3,8,1602000000,27.90,280.0,39.0,1,0,0,22.9
Status,1732148363000,29,13,3,19,1602000000,0.00,65.0,36.0,0,0,0,0.0
Status,1732148363000,29,14,3,20,1602000000,0.00,141.0,26.0,0,0,0,0.0
Status,1732148363000,29,15,3,18,1602000000,0.00,27.0,13.0,0,0,0,0.0
Status,1732148363000,29,16,3,11,1602000000,0.00,285.0,10.0,0,0,0,0.0
Status,1732148363000,29,17,3,16,1602000000,29.80,81.0,5.0,1,0,0,24.8
Status,1732148363000,29,18,3,17,1602000000,24.70,0.0,0.0,0,0,0,19.7
Status,1732148363000,29,19,6,21,1575420030,27.70,291.0,63.0,1,0,0,22.7
Status,1732148363000,29,20,6,19,1575420030,0.00,278.0,54.0,0,0,0,0.0
Status,1732148363000,29,21,6,27,1575420030,22.90,46.0,49.0,1,0,0,17.9
Status,1732148363000,29,22,6,29,1575420030,23.50,197.0,48.0,1,0,0,18.5
Status,1732148363000,29,23,6,15,1575420030,0.00,84.0,17.0,0,0,0,0.0
Status,1732148363000,29,24,6,13,1575420030,0.00,135.0,10.0,0,0,0,0.0
Status,1732148363000,29,25,6,4,1575420030,0.00,323.0,9.0,0,0,0,0.0
Status,1732148363000,29,26,6,34,1575420030,0.00,37.0,6.0,0,0,0,0.0
Status,1732148363000,29,27,6,7,1575420030,0.00,162.0,5.0,0,0,0,0.0
Status,1732148363000,29,28,6,30,1575420030,0.00,66.0,3.0,0,0,0,0.0
Fix,GPS,37.4243766667,-122.1707933333,-1.3999999999999986,0.0,2.5,39.21,1732148364000,2.5,179.9,27248057000000,33.3,0,,,
Raw,1732148364000,21500000000,,691475.7112568856,-1416183560500999936,0.0,79.91370870525546,2171.744776304094,0.0,0,7,0.0,16431,346781923950793,396,23.576000213623047,1119.5367021423974,0.14999,16,0.0,0.0,1575420030,,,,0,7.983827261916197,1,6.0,23.576000213623047,0.0,0.0,0.0,66.7128,C,27248057000000,
Raw,1732148364000,21500000000,,691475.7112568856,-1416183560500999936,0.0,79.91370870525546,2171.744776304094,0.0,0,30,0.0,16431,346781930782089,396,24.483999252319336,887.0225498602196,0.14999,16,0.0,0.0,1575420030,,,,0,9.318797800116723,1,6.0,24.483999252319336,0.0,0.0,0.0,66.7128,C,27248057000000,
Raw,1732148364000,21500000000,,691475.7112568856,-1416183560500999936,0.0,79.91370870525546,2171.744776304094,0.0,0,21,0.0,16431,346781919676886,396,24.332000732421875,847.2927989862859,0.14999,16,0.0,0.0,1575420030,,,,0,9.07750757208911,1,6.0,24.332000732421875,0.0,0.0,0.0,66.7128,C,27248057000000,
Raw,1732148364000,21500000000,,691475.7112568856,-1416183560500999936,0.0,79.91370870525546,2171.744776304094,0.0,0,22,0.0,16431,346781931123106,316,28.16200065612793,611.6007981184748,0.14999,16,0.0,0.0,1575420030,,,,0,14.264134803692581,1,6.0,28.16200065612793,0.0,0.0,0.0,66.7128,C,27248057000000,
Raw,1732148364000,21500000000,,691475.7112568856,-1416183560500999936,0.0,79.91370870525546,2171.744776304094,0.0,0,13,0.0,16431,346781931067148,316,25.98699951171875,582.5434281580099,0.14999,16,0.0,0.0,1575420030,,,,0,11.421999568786307,1,6.0,25.98699951171875,0.0,0.0,0.0,66.7128,C,27248057000000,
Raw,1732148364000,21500000000,,691475.7112568856,-1416183560500999936,0.0,79.91370870525546,2171.744776304094,0.0,0,14,0.0,16431,346781932417382,316,25.489999771118164,750.5323224168628,0.14999,16,0.0,0.0,1575420030,,,,0,10.722086354681712,1,6.0,25.489999771118164,0.0,0.0,0.0,66.7128,C,27248057000000,
Raw,1732148364000,21500000000,,691475.7112568856,-1416183560500999936,0.0,79.91370870525546,2171.744776304094,0.0,0,29,0.0,16431,346781918545712,396,18.5,1071.7164039190634,0.14999,16,0.0,0.0,1575420030,,,,0,1.7667691273392028,6,6.0,18.5,0.0,0.0,18.27350379960807,66.7128,C,27248057000000,
Raw,1732148364000,21500000000,,691475.7112568856,-1416183560500999936,0.0,79.91370870525546,2171.744776304094,0.0,0,27,0.0,16431,346781918223584,396,17.874000549316406,937.6917710824162,0.14999,16,0.0,0.0,1575420030,,,,0,2.732862718830304,6,6.0,17.874000549316406,0.0,0.0,18.27350379960807,66.7128,C,27248057000000,
Raw,1732148364000,21500000000,,691475.7112568856,-1416183560500999936,0.0,79.91370870525546,2171.744776304094,0.0,0,17,0.0,16431,346781931641888,396,24.78700065612793,354.49327925583776,0.14999,16,0.0,0.0,1575420030,,,,0,9.736915990359682,1,6.0,24.78700065612793,0.0,0.0,0.0,66.7128,C,27248057000000,
Raw,1732148364000,21500000000,,691475.7112568856,-1416183560500999936,0.0,79.91370870525546,2171.744776304094,0.0,0,21,0.0,16431,346781920509296,316,22.700000762939453,548.3897093144974,0.14999,16,0.0,0.0,1575420030,,,,0,8.094125755342258,6,6.0,22.700000762939453,0.0,0.0,18.27350379960807,66.7128,C,27248057000000,
Raw,1732148364000,21500000000,,691475.7112568856,-1416183560500999936,0.0,79.91370870525546,2171.744776304094,0.0,0,16,0.0,17,998345,396,5.0,1144.1302217467949,0.14999,16,0.0,0.0,1601437440,,,,0,10.88879329240462,3,6.0,21.0,0.0,0.0,28.403860248186295,66.7128,C,27248057000000,
Raw,1732148364000,21500000000,,691475.7112568856,-1416183560500999936,0.0,79.91370870525546,2171.744776304094,0.0,0,8,0.0,17,385953,487,5.0,778.6863558753722,0.14999,16,0.0,0.0,1605374980,,,,0,8.439882218292723,3,6.0,18.0,0.0,0.0,28.403860248186295,66.7128,C,27248057000000,
Raw,1732148364000,21500000000,,691475.7112568856,-1416183560500999936,0.0,79.91370870525546,2171.744776304094,0.0,0,9,0.0,17,496567,396,5.0,857.8616956383764,0.14999,16,0.0,0.0,1600875010,,,,0,9.584018957407567,3,6.0,23.0,0.0,0.0,28.403860248186295,66.7128,C,27248057000000,
Raw,1732148364000,21500000000,,691475.7112568856,-1416183560500999936,0.0,79.91370870525546,2171.744776304094,0.0,0,2,0.0,16431,346781920878846,235,27.804000854492188,616.3483836710298,0.14999,16,0.0,0.0,1575420030,,,,0,13.793764715838313,1,6.0,27.804000854492188,0.0,0.0,0.0,66.7128,C,27248057000000,
Fix,FLP,37.4243816000,-122.1707897000,2.0,0.07584485,2.433,,1732148364209,2.5,,27248057000000,0.9636665,0,,,
Status,1732148364000,29,0,1,14,1575420030,34.80,8.0,70.0,1,0,0,29.8
Status,1732148364000,29,1,1,22,1575420030,30.50,302.0,67.0,1,0,0,25.5
Status,1732148364000,29,2,1,17,1575420030,28.20,170.0,61.0,1,0,0,23.2
Status,1732148364000,29,3,1,30,1575420030,32.90,104.0,60.0,1,0,0,27.900002
Status,1732148364000,29,4,1,13,1575420030,31.20,281.0,55.0,1,0,0,26.2
Status,1732148364000,29,5,1,19,1575420030,0.00,194.0,32.0,0,0,0,0.0
Status,1732148364000,29,6,1,7,1575420030,29.50,116.0,26.0,1,0,0,24.5
Status,1732148364000,29,7,1,15,1575420030,0.00,304.0,26.0,0,0,0,0.0
Status,1732148364000,29,8,2,131,1575420030,30.00,3.0,23.0,0,0,0,25.0
Status,1732148364000,29,9,1,2,1575420030,0.00,73.0,20.0,0,0,0,0.0
Status,1732148364000,29,10,1,21,1575420030,31.70,54.0,14.0,1,0,0,26.7
Status,1732148364000,29,11,3,9,1602000000,28.50,43.0,48.0,1,0,0,23.5
Status,1732148364000,29,12,3,8,1602000000,25.00,280.0,39.0,1,0,0,20.0
Status,1732148364000,29,13,3,19,1602000000,0.00,65.0,36.0,0,0,0,0.0
Status,1732148364000,29,14,3,20,1602000000,0.00,141.0,26.0,0,0,0,0.0
Status,1732148364000,29,15,3,18,1602000000,0.00,27.0,13.0,0,0,0,0.0
Status,1732148364000,29,16,3,11,1602000000,0.00,285.0,10.0,0,0,0,0.0
Status,1732148364000,29,17,3,16,1602000000,27.60,81.0,5.0,1,0,0,22.6
Status,1732148364000,29,18,3,17,1602000000,29.80,0.0,0.0,0,0,0,24.8
Status,1732148364000,29,19,6,21,1575420030,26.50,291.0,63.0,1,0,0,21.5
Status,1732148364000,29,20,6,19,1575420030,20.50,278.0,54.0,1,0,0,15.5
Status,1732148364000,29,21,6,27,1575420030,23.00,46.0,49.0,1,0,0,18.0
Status,1732148364000,29,22,6,29,1575420030,23.50,197.0,48.0,1,0,0,18.5
Status,1732148364000,29,23,6,15,1575420030,0.00,84.0,17.0,0,0,0,0.0
Status,1732148364000,29,24,6,13,1575420030,0.00,135.0,10.0,0,0,0,0.0
Status,1732148364000,29,25,6,4,1575420030,0.00,323.0,9.0,0,0,0,0.0
Status,1732148364000,29,26,6,34,1575420030,0.00,37.0,6.0,0,0,0,0.0
Status,1732148364000,29,27,6,7,1575420030,0.00,162.0,5.0,0,0,0,0.0
Status,1732148364000,29,28,6,30,1575420030,0.00,66.0,3.0,0,0,0,0.0
Fix,GPS,37.4243750000,-122.1707966667,-1.3999999999999986,0.0,2.6,39.21,1732148365000,2.6,179.9,27249057000000,32.9,0,,,
Fix,FLP,37.4243787000,-122.1707932000,2.0,0.0665902,2.466,,1732148365209,2.6,,27249057000000,0.9736588,0,,,
Raw,1732148365000,22500000000,,691328.3697417098,-1416183560500999936,0.0,79.34581603677196,2173.101455421731,0.0,0,7,0.0,16431,346782923947056,316,24.545000076293945,1120.1378740481618,0.14999,16,0.0,0.0,1575420030,,,,0,9.413467834168435,1,6.0,24.545000076293945,0.0,0.0,0.0,66.7128,C,27249057000000,
Raw,1732148365000,22500000000,,691328.3697417098,-1416183560500999936,0.0,79.34581603677196,2173.101455421731,0.0,0,30,0.0,16431,346782930779124,235,27.885000228881836,888.2286103450451,0.14999,16,0.0,0.0,1575420030,,,,0,13.906753491389587,1,6.0,27.885000228881836,0.0,0.0,0.0,66.7128,C,27249057000000,
Raw,1732148365000,22500000000,,691328.3697417098,-1416183560500999936,0.0,79.34581603677196,2173.101455421731,0.0,0,21,0.0,16431,346782919674052,316,26.67099952697754,849.1769665141205,0.14999,16,0.0,0.0,1575420030,,,,0,12.309085091811049,1,6.0,26.67099952697754,0.0,0.0,0.0,66.7128,C,27249057000000,
Raw,1732148365000,22500000000,,691328.3697417098,-1416183560500999936,0.0,79.34581603677196,2173.101455421731,0.0,0,22,0.0,16431,346782931121064,316,25.516000747680664,611.9090032516156,0.14999,16,0.0,0.0,1575420030,,,,0,10.762485914201859,1,6.0,25.516000747680664,0.0,0.0,0.0,66.7128,C,27249057000000,
Raw,1732148365000,22500000000,,691328.3697417098,-1416183560500999936,0.0,79.34581603677196,2173.101455421731,0.0,0,13,0.0,16431,346782931065207,316,26.23900032043457,582.9890108278851,0.14999,16,0.0,0.0,1575420030,,,,0,11.751883126017471,1,6.0,26.23900032043457,0.0,0.0,0.0,66.7128,C,27249057000000,
Raw,1732148365000,22500000000,,691328.3697417098,-1416183560500999936,0.0,79.34581603677196,2173.101455421731,0.0,0,14,0.0,16431,346782932414914,235,29.788999557495117,750.9776263362409,0.14999,16,0.0,0.0,1575420030,,,,0,16.29609268578676,1,6.0,29.788999557495117,0.0,0.0,0.0,66.7128,C,27249057000000,
Raw,1732148365000,22500000000,,691328.3697417098,-1416183560500999936,0.0,79.34581603677196,2173.101455421731,0.0,0,29,0.0,16431,346782918542136,396,18.459999084472656,1072.403709728482,0.14999,16,0.0,0.0,1575420030,,,,0,0.2847347169722063,6,6.0,18.459999084472656,0.0,0.0,16.891993782112866,66.7128,C,27249057000000,
Raw,1732148365000,22500000000,,691328.3697417098,-1416183560500999936,0.0,79.34581603677196,2173.101455421731,0.0,0,27,0.0,16431,346782918220455,487,18.0,937.864968058049,0.14999,16,0.0,0.0,1575420030,,,,0,0.9332365160691296,6,6.0,18.0,0.0,0.0,16.891993782112866,66.7128,C,27249057000000,
Raw,1732148365000,22500000000,,691328.3697417098,-1416183560500999936,0.0,79.34581603677196,2173.101455421731,0.0,0,17,0.0,16431,346782931640706,396,23.225000381469727,354.31125518112486,0.14999,16,0.0,0.0,1575420030,,,,0,7.469380830550487,1,6.0,23.225000381469727,0.0,0.0,0.0,66.7128,C,27249057000000,
Raw,1732148365000,22500000000,,691328.3697417098,-1416183560500999936,0.0,79.34581603677196,2173.101455421731,0.0,0,19,0.0,16431,346782920707240,396,15.5,627.4647676682225,0.14999,16,0.0,0.0,1575420030,,,,0,0.0,6,6.0,15.5,0.0,0.0,16.891993782112866,66.7128,C,27249057000000,
Raw,1732148365000,22500000000,,691328.3697417098,-1416183560500999936,0.0,79.34581603677196,2173.101455421731,0.0,0,21,0.0,16431,346782920507466,396,21.5,548.7509235005343,0.14999,16,0.0,0.0,1575420030,,,,0,6.405750657752846,6,6.0,21.5,0.0,0.0,16.891993782112866,66.7128,C,27249057000000,
Raw,1732148365000,22500000000,,691328.3697417098,-1416183560500999936,0.0,79.34581603677196,2173.101455421731,0.0,0,16,0.0,17,994526,487,5.0,1145.2677852699876,0.14999,16,0.0,0.0,1601437440,,,,0,8.025353506612984,3,6.0,20.0,0.0,0.0,25.334803683744287,66.7128,C,27249057000000,
Raw,1732148365000,22500000000,,691328.3697417098,-1416183560500999936,0.0,79.34581603677196,2173.101455421731,0.0,0,8,0.0,17,383375,487,5.0,779.3076773785781,0.14999,16,0.0,0.0,1605374980,,,,0,4.16602731832385,3,6.0,20.0,0.0,0.0,25.334803683744287,66.7128,C,27249057000000,
Raw,1732148365000,22500000000,,691328.3697417098,-1416183560500999936,0.0,79.34581603677196,2173.101455421731,0.0,0,9,0.0,17,493701,396,5.0,858.248850022689,0.14999,16,0.0,0.0,1600875010,,,,0,9.135201576442665,3,6.0,23.0,0.0,0.0,25.334803683744287,66.7128,C,27249057000000,
Status,1732148365000,29,0,1,14,1575420030,31.00,8.0,70.0,1,0,0,26.0
Status,1732148365000,29,1,1,22,1575420030,33.40,302.0,67.0,1,0,0,28.400002
Status,1732148365000,29,2,1,17,1575420030,31.20,170.0,61.0,1,0,0,26.2
Status,1732148365000,29,3,1,30,1575420030,34.30,104.0,60.0,1,0,0,29.3
Status,1732148365000,29,4,1,13,1575420030,30.80,281.0,55.0,1,0,0,25.8
Status,1732148365000,29,5,1,19,1575420030,0.00,194.0,32.0,0,0,0,0.0
Status,1732148365000,29,6,1,7,1575420030,32.90,116.0,26.0,1,0,0,27.900002
Status,1732148365000,29,7,1,15,1575420030,0.00,304.0,26.0,0,0,0,0.0
Status,1732148365000,29,8,2,131,1575420030,29.00,3.0,23.0,0,0,0,24.0
Status,1732148365000,29,9,1,2,1575420030,34.10,73.0,20.0,1,0,0,29.099998
Status,1732148365000,29,10,1,21,1575420030,28.30,54.0,14.0,1,0,0,23.3
Status,1732148365000,29,11,3,9,1602000000,29.00,43.0,48.0,1,0,0,24.0
Status,1732148365000,29,12,3,8,1602000000,25.00,280.0,39.0,1,0,0,20.0
Status,1732148365000,29,13,3,19,1602000000,0.00,65.0,36.0,0,0,0,0.0
Status,1732148365000,29,14,3,20,1602000000,0.00,141.0,26.0,0,0,0,0.0
Status,1732148365000,29,15,3,18,1602000000,0.00,27.0,13.0,0,0,0,0.0
Status,1732148365000,29,16,3,11,1602000000,0.00,285.0,10.0,0,0,0,0.0
Status,1732148365000,29,17,3,16,1602000000,24.90,81.0,5.0,1,0,0,19.9
Status,1732148365000,29,18,3,17,1602000000,28.20,0.0,0.0,0,0,0,23.2
Status,1732148365000,29,19,6,21,1575420030,25.10,291.0,63.0,1,0,0,20.1
Status,1732148365000,29,20,6,19,1575420030,20.50,278.0,54.0,1,0,0,15.5
Status,1732148365000,29,21,6,27,1575420030,28.40,46.0,49.0,1,0,0,23.4
Status,1732148365000,29,22,6,29,1575420030,23.50,197.0,48.0,1,0,0,18.5
Status,1732148365000,29,23,6,15,1575420030,0.00,84.0,17.0,0,0,0,0.0
Status,1732148365000,29,24,6,13,1575420030,0.00,135.0,10.0,0,0,0,0.0
Status,1732148365000,29,25,6,4,1575420030,0.00,323.0,9.0,0,0,0,0.0
Status,1732148365000,29,26,6,34,1575420030,0.00,37.0,6.0,0,0,0,0.0
Status,1732148365000,29,27,6,7,1575420030,0.00,162.0,5.0,0,0,0,0.0
Status,1732148365000,29,28,6,30,1575420030,0.00,66.0,3.0,0,0,0,0.0
Fix,GPS,37.4243750000,-122.1708016667,-1.3999999999999986,0.0,2.6,39.21,1732148366000,2.6,179.9,27250057000000,32.9,0,,,
Raw,1732148366000,23500000000,,691088.2035931671,-1416183560500999936,0.0,81.54315857085383,2173.4850238209956,0.0,0,7,0.0,16431,346783923943321,235,27.864999771118164,1119.3959331412796,0.14999,16,0.0,0.0,1575420030,,,,0,13.87864379165206,1,6.0,27.864999771118164,0.0,0.0,0.0,66.7128,C,27250057000000,
Raw,1732148366000,23500000000,,691088.2035931671,-1416183560500999936,0.0,81.54315857085383,2173.4850238209956,0.0,0,30,0.0,16431,346783930776157,235,29.292999267578125,888.0907217657323,0.14999,16,0.0,0.0,1575420030,,,,0,15.677776028896835,1,6.0,29.292999267578125,0.0,0.0,0.0,66.7128,C,27250057000000,
Raw,1732148366000,23500000000,,691088.2035931671,-1416183560500999936,0.0,81.54315857085383,2173.4850238209956,0.0,0,21,0.0,16431,346783919671222,396,23.261999130249023,849.0906467768013,0.14999,16,0.0,0.0,1575420030,,,,0,7.528069497331475,1,6.0,23.261999130249023,0.0,0.0,0.0,66.7128,C,27250057000000,
Raw,1732148366000,23500000000,,691088.2035931671,-1416183560500999936,0.0,81.54315857085383,2173.4850238209956,0.0,0,22,0.0,16431,346783931119020,316,28.448999404907227,611.264113976197,0.14999,16,0.0,0.0,1575420030,,,,0,14.633241795466764,1,6.0,28.448999404907227,0.0,0.0,0.0,66.7128,C,27250057000000,
Raw,1732148366000,23500000000,,691088.2035931671,-1416183560500999936,0.0,81.54315857085383,2173.4850238209956,0.0,0,13,0.0,16431,346783931063265,316,25.757999420166016,583.0544242779096,0.14999,16,0.0,0.0,1575420030,,,,0,11.079090973625956,1,6.0,25.757999420166016,0.0,0.0,0.0,66.7128,C,27250057000000,
Raw,1732148366000,23500000000,,691088.2035931671,-1416183560500999936,0.0,81.54315857085383,2173.4850238209956,0.0,0,14,0.0,16431,346783932412408,316,26.011999130249023,750.9132349713731,0.14999,16,0.0,0.0,1575420030,,,,0,11.45927812230947,1,6.0,26.011999130249023,0.0,0.0,0.0,66.7128,C,27250057000000,
Raw,1732148366000,23500000000,,691088.2035931671,-1416183560500999936,0.0,81.54315857085383,2173.4850238209956,0.0,0,29,0.0,16431,346783918538559,487,18.466999053955078,1072.3665429955136,0.14999,16,0.0,0.0,1575420030,,,,0,1.8795744743930562,6,6.0,18.466999053955078,0.0,0.0,15.819707189261454,66.7128,C,27250057000000,
Raw,1732148366000,23500000000,,691088.2035931671,-1416183560500999936,0.0,81.54315857085383,2173.4850238209956,0.0,0,27,0.0,16431,346783918217327,316,23.399999618530273,937.7669407998449,0.14999,16,0.0,0.0,1575420030,,,,0,9.028434618743677,6,6.0,23.399999618530273,0.0,0.0,15.819707189261454,66.7128,C,27250057000000,
Raw,1732148366000,23500000000,,691088.2035931671,-1416183560500999936,0.0,81.54315857085383,2173.4850238209956,0.0,0,17,0.0,16431,346783931639522,396,26.165000915527344,354.9968187999357,0.14999,16,0.0,0.0,1575420030,,,,0,11.643308091789507,1,6.0,26.165000915527344,0.0,0.0,0.0,66.7128,C,27250057000000,
Raw,1732148366000,23500000000,,691088.2035931671,-1416183560500999936,0.0,81.54315857085383,2173.4850238209956,0.0,0,19,0.0,16431,346783920705148,487,15.5,626.9024349984102,0.14999,16,0.0,0.0,1575420030,,,,0,0.0,6,6.0,15.5,0.0,0.0,15.819707189261454,66.7128,C,27250057000000,
Raw,1732148366000,23500000000,,691088.2035931671,-1416183560500999936,0.0,81.54315857085383,2173.4850238209956,0.0,0,21,0.0,16431,346783920505636,396,20.100000381469727,548.5927790517537,0.14999,16,0.0,0.0,1575420030,,,,0,4.308017732102313,6,6.0,20.100000381469727,0.0,0.0,15.819707189261454,66.7128,C,27250057000000,
Raw,1732148366000,23500000000,,691088.2035931671,-1416183560500999936,0.0,81.54315857085383,2173.4850238209956,0.0,0,16,0.0,17,990703,396,5.0,1145.6834141442307,0.14999,16,0.0,0.0,1601437440,,,,0,4.130686124378194,3,6.0,22.0,0.0,0.0,23.27338864507654,66.7128,C,27250057000000,
Raw,1732148366000,23500000000,,691088.2035931671,-1416183560500999936,0.0,81.54315857085383,2173.4850238209956,0.0,0,8,0.0,17,380773,797,5.0,780.2089309356203,0.14999,16,0.0,0.0,1605374980,,,,0,4.16602731832385,3,6.0,17.0,0.0,0.0,23.27338864507654,66.7128,C,27250057000000,
Raw,1732148366000,23500000000,,691088.2035931671,-1416183560500999936,0.0,81.54315857085383,2173.4850238209956,0.0,0,9,0.0,17,490833,396,5.0,857.6121575385207,0.14999,16,0.0,0.0,1600875010,,,,0,9.769489839986797,3,6.0,22.0,0.0,0.0,23.27338864507654,66.7128,C,27250057000000,
Raw,1732148366000,23500000000,,691088.2035931671,-1416183560500999936,0.0,81.54315857085383,2173.4850238209956,0.0,0,2,0.0,16431,346783920874744,235,29.101999282836914,617.0637968222558,0.14999,16,0.0,0.0,1575420030,,,,0,15.445829278883743,1,6.0,29.101999282836914,0.0,0.0,0.0,66.7128,C,27250057000000,
Fix,FLP,37.4243772000,-122.1707974000,2.0,0.06178026,2.5,,1732148366209,2.6,,27250057000000,0.98368454,0,,,
Status,1732148366000,29,0,1,14,1575420030,30.60,8.0,70.0,1,0,0,25.6
Status,1732148366000,29,1,1,22,1575420030,29.90,302.0,67.0,1,0,0,24.9
Status,1732148366000,29,2,1,17,1575420030,30.10,170.0,61.0,1,0,0,25.1
Status,1732148366000,29,3,1,30,1575420030,32.40,104.0,60.0,1,0,0,27.400002
Status,1732148366000,29,4,1,13,1575420030,30.00,281.0,55.0,1,0,0,25.0
Status,1732148366000,29,5,1,19,1575420030,30.20,194.0,32.0,1,0,0,25.2
Status,1732148366000,29,6,1,7,1575420030,32.10,116.0,26.0,1,0,0,27.099998
Status,1732148366000,29,7,1,15,1575420030,27.70,304.0,26.0,1,0,0,22.7
Status,1732148366000,29,8,2,131,1575420030,30.00,3.0,23.0,0,0,0,25.0
Status,1732148366000,29,9,1,2,1575420030,34.60,73.0,20.0,1,0,0,29.599998
Status,1732148366000,29,10,1,21,1575420030,31.60,54.0,14.0,1,0,0,26.6
Status,1732148366000,29,11,3,9,1602000000,30.20,43.0,48.0,1,0,0,25.2
Status,1732148366000,29,12,3,8,1602000000,22.20,280.0,39.0,1,0,0,17.2
Status,1732148366000,29,13,3,19,1602000000,0.00,65.0,36.0,0,0,0,0.0
Status,1732148366000,29,14,3,20,1602000000,0.00,141.0,26.0,0,0,0,0.0
Status,1732148366000,29,15,3,18,1602000000,0.00,27.0,13.0,0,0,0,0.0
Status,1732148366000,29,16,3,11,1602000000,0.00,285.0,10.0,0,0,0,0.0
Status,1732148366000,29,17,3,16,1602000000,29.20,81.0,5.0,1,0,0,24.2
Status,1732148366000,29,18,3,17,1602000000,29.10,0.0,0.0,0,0,0,24.1
Status,1732148366000,29,19,6,21,1575420030,23.80,291.0,63.0,1,0,0,18.8
Status,1732148366000,29,20,6,19,1575420030,21.80,278.0,54.0,1,0,0,16.8
Status,1732148366000,29,21,6,27,1575420030,28.90,46.0,49.0,1,0,0,23.9
Status,1732148366000,29,22,6,29,1575420030,23.40,197.0,48.0,1,0,0,18.4
Status,1732148366000,29,23,6,15,1575420030,0.00,84.0,17.0,0,0,0,0.0
Status,1732148366000,29,24,6,13,1575420030,0.00,135.0,10.0,0,0,0,0.0
Status,1732148366000,29,25,6,4,1575420030,0.00,323.0,9.0,0,0,0,0.0
Status,1732148366000,29,26,6,34,1575420030,0.00,37.0,6.0,0,0,0,0.0
Status,1732148366000,29,27,6,7,1575420030,0.00,162.0,5.0,0,0,0,0.0
Status,1732148366000,29,28,6,30,1575420030,0.00,66.0,3.0,0,0,0,0.0
Fix,GPS,37.4243700000,-122.1708066667,-1.3999999999999986,0.0,2.6,39.21,1732148367000,2.5,179.9,27251057000000,31.8,0,,,
Fix,FLP,37.4243739000,-122.1708021000,2.0,0.054597545,2.533,,1732148367209,2.5,,27251057000000,0.9894812,0,,,
Raw,1732148367000,24500000000,,690900.7301477877,-1416183560500999936,0.0,78.57690870482517,2173.909718961162,0.0,0,7,0.0,16431,346784923939587,316,27.125,1119.7966834395115,0.14999,16,0.0,0.0,1575420030,,,,0,12.927443137081193,1,6.0,27.125,0.0,0.0,0.0,66.7128,C,27251057000000,
Raw,1732148367000,24500000000,,690900.7301477877,-1416183560500999936,0.0,78.57690870482517,2173.909718961162,0.0,0,30,0.0,16431,346784930773201,316,27.364999771118164,888.3766268590919,0.14999,16,0.0,0.0,1575420030,,,,0,13.236032950335026,1,6.0,27.364999771118164,0.0,0.0,0.0,66.7128,C,27251057000000,
Raw,1732148367000,24500000000,,690900.7301477877,-1416183560500999936,0.0,78.57690870482517,2173.909718961162,0.0,0,21,0.0,16431,346784919668390,316,26.62299919128418,848.5694762637515,0.14999,16,0.0,0.0,1575420030,,,,0,12.275287813223553,1,6.0,26.62299919128418,0.0,0.0,0.0,66.7128,C,27251057000000,
Raw,1732148367000,24500000000,,690900.7301477877,-1416183560500999936,0.0,78.57690870482517,2173.909718961162,0.0,0,22,0.0,16431,346784931116979,396,24.875,611.4697389263449,0.14999,16,0.0,0.0,1575420030,,,,0,9.871932537501383,1,6.0,24.875,0.0,0.0,0.0,66.7128,C,27251057000000,
Raw,1732148367000,24500000000,,690900.7301477877,-1416183560500999936,0.0,78.57690870482517,2173.909718961162,0.0,0,13,0.0,16431,346784931061315,316,25.04599952697754,583.3552889812889,0.14999,16,0.0,0.0,1575420030,,,,0,10.092398424722191,1,6.0,25.04599952697754,0.0,0.0,0.0,66.7128,C,27251057000000,
Raw,1732148367000,24500000000,,690900.7301477877,-1416183560500999936,0.0,78.57690870482517,2173.909718961162,0.0,0,14,0.0,16431,346784932409906,316,25.597999572753906,751.0605546091766,0.14999,16,0.0,0.0,1575420030,,,,0,10.882569250395665,1,6.0,25.597999572753906,0.0,0.0,0.0,66.7128,C,27251057000000,
Raw,1732148367000,24500000000,,690900.7301477877,-1416183560500999936,0.0,78.57690870482517,2173.909718961162,0.0,0,29,0.0,16431,346784918534982,487,18.368000030517578,1072.0827749892997,0.14999,16,0.0,0.0,1575420030,,,,0,0.0,6,6.0,18.368000030517578,0.0,0.0,14.392925940558019,66.7128,C,27251057000000,
Raw,1732148367000,24500000000,,690900.7301477877,-1416183560500999936,0.0,78.57690870482517,2173.909718961162,0.0,0,27,0.0,16431,346784918214200,396,23.899999618530273,937.1132708837625,0.14999,16,0.0,0.0,1575420030,,,,0,9.645724710348674,6,6.0,23.899999618530273,0.0,0.0,14.392925940558019,66.7128,C,27251057000000,
Raw,1732148367000,24500000000,,690900.7301477877,-1416183560500999936,0.0,78.57690870482517,2173.909718961162,0.0,0,17,0.0,16431,346784931638330,396,25.104000091552734,355.35206307948954,0.14999,16,0.0,0.0,1575420030,,,,0,10.179041433809417,1,6.0,25.104000091552734,0.0,0.0,0.0,66.7128,C,27251057000000,
Raw,1732148367000,24500000000,,690900.7301477877,-1416183560500999936,0.0,78.57690870482517,2173.909718961162,0.0,0,19,0.0,16431,346784920703057,487,16.799999237060547,627.9110936727571,0.14999,16,0.0,0.0,1575420030,,,,0,0.0,6,6.0,16.799999237060547,0.0,0.0,14.392925940558019,66.7128,C,27251057000000,
Raw,1732148367000,24500000000,,690900.7301477877,-1416183560500999936,0.0,78.57690870482517,2173.909718961162,0.0,0,19,0.0,16431,346784924796549,316,25.160999298095703,12.210386782118517,0.14999,16,0.0,0.0,1575420030,,,,0,10.264828695491628,1,6.0,25.160999298095703,0.0,0.0,0.0,66.7128,C,27251057000000,
Raw,1732148367000,24500000000,,690900.7301477877,-1416183560500999936,0.0,78.57690870482517,2173.909718961162,0.0,0,21,0.0,16431,346784920503804,487,18.799999237060547,549.0258644076683,0.14999,16,0.0,0.0,1575420030,,,,0,2.209458031624222,6,6.0,18.799999237060547,0.0,0.0,14.392925940558019,66.7128,C,27251057000000,
Raw,1732148367000,24500000000,,690900.7301477877,-1416183560500999936,0.0,78.57690870482517,2173.909718961162,0.0,0,16,0.0,17,986876,396,5.0,1145.558186179042,0.14999,16,0.0,0.0,1601437440,,,,0,10.052967225543146,3,6.0,22.0,0.0,0.0,21.81048462493239,66.7128,C,27251057000000,
Raw,1732148367000,24500000000,,690900.7301477877,-1416183560500999936,0.0,78.57690870482517,2173.909718961162,0.0,0,8,0.0,17,378153,797,5.0,780.3050379013348,0.14999,16,0.0,0.0,1605374980,,,,0,0.0,3,6.0,17.0,0.0,0.0,21.81048462493239,66.7128,C,27251057000000,
Raw,1732148367000,24500000000,,690900.7301477877,-1416183560500999936,0.0,78.57690870482517,2173.909718961162,0.0,0,9,0.0,17,487964,316,5.0,858.0599362395077,0.14999,16,0.0,0.0,1600875010,,,,0,11.383645160168744,3,6.0,25.0,0.0,0.0,21.81048462493239,66.7128,C,27251057000000,
Raw,1732148367000,24500000000,,690900.7301477877,-1416183560500999936,0.0,78.57690870482517,2173.909718961162,0.0,0,15,0.0,16431,346784924605095,396,22.740999221801758,376.33347363324424,0.14999,16,0.0,0.0,1575420030,,,,0,6.732326328475342,1,6.0,22.740999221801758,0.0,0.0,0.0,66.7128,C,27251057000000,
Raw,1732148367000,24500000000,,690900.7301477877,-1416183560500999936,0.0,78.57690870482517,2173.909718961162,0.0,0,2,0.0,16431,346784920872662,235,29.559999465942383,616.7335239414151,0.14999,16,0.0,0.0,1575420030,,,,0,16.014480575175632,1,6.0,29.559999465942383,0.0,0.0,0.0,66.7128,C,27251057000000,
Status,1732148367000,29,0,1,14,1575420030,33.20,8.0,70.0,1,0,0,28.2
Status,1732148367000,29,1,1,22,1575420030,31.00,302.0,67.0,1,0,0,26.0
Status,1732148367000,29,2,1,17,1575420030,31.20,170.0,61.0,1,0,0,26.2
Status,1732148367000,29,3,1,30,1575420030,31.70,104.0,60.0,1,0,0,26.7
Status,1732148367000,29,4,1,13,1575420030,33.40,281.0,55.0,1,0,0,28.400002
Status,1732148367000,29,5,1,19,1575420030,29.80,194.0,32.0,1,0,0,24.8
Status,1732148367000,29,6,1,7,1575420030,35.70,116.0,26.0,1,0,0,30.7
Status,1732148367000,29,7,1,15,1575420030,0.00,304.0,26.0,0,0,0,0.0
Status,1732148367000,29,8,2,131,1575420030,31.00,3.0,23.0,0,0,0,26.0
Status,1732148367000,29,9,1,2,1575420030,29.40,73.0,20.0,1,0,0,24.4
Status,1732148367000,29,10,1,21,1575420030,26.80,54.0,14.0,1,0,0,21.8
Status,1732148367000,29,11,3,9,1602000000,29.10,43.0,48.0,1,0,0,24.1
Status,1732148367000,29,12,3,8,1602000000,22.20,280.0,39.0,1,0,0,17.2
Status,1732148367000,29,13,3,19,1602000000,0.00,65.0,36.0,0,0,0,0.0
Status,1732148367000,29,14,3,20,1602000000,0.00,141.0,26.0,0,0,0,0.0
Status,1732148367000,29,15,3,18,1602000000,0.00,27.0,13.0,0,0,0,0.0
Status,1732148367000,29,16,3,11,1602000000,0.00,285.0,10.0,0,0,0,0.0
Status,1732148367000,29,17,3,16,1602000000,24.60,81.0,5.0,1,0,0,19.6
Status,1732148367000,29,18,3,17,1602000000,26.60,0.0,0.0,0,0,0,21.6
Status,1732148367000,29,19,6,21,1575420030,22.10,291.0,63.0,1,0,0,17.1
Status,1732148367000,29,20,6,19,1575420030,21.80,278.0,54.0,1,0,0,16.8
Status,1732148367000,29,21,6,27,1575420030,24.80,46.0,49.0,1,0,0,19.8
Status,1732148367000,29,22,6,29,1575420030,23.40,197.0,48.0,1,0,0,18.4
Status,1732148367000,29,23,6,15,1575420030,0.00,84.0,17.0,0,0,0,0.0
Status,1732148367000,29,24,6,13,1575420030,0.00,135.0,10.0,0,0,0,0.0
Status,1732148367000,29,25,6,4,1575420030,0.00,323.0,9.0,0,0,0,0.0
Status,1732148367000,29,26,6,34,1575420030,0.00,37.0,6.0,0,0,0,0.0
Status,1732148367000,29,27,6,7,1575420030,0.00,162.0,5.0,0,0,0,0.0
Status,1732148367000,29,28,6,30,1575420030,0.00,66.0,3.0,0,0,0,0.0
Fix,GPS,37.4243716667,-122.1708050000,-1.3999999999999986,0.0,2.6,39.21,1732148368000,2.4,179.9,27252057000000,30.8,0,,,
Raw,1732148368000,25500000000,,690306.9339389452,-1416183560500999936,0.0,75.68153408332827,2174.6087444097984,0.0,0,7,0.0,16431,346785923935847,74,30.68899917602539,1119.5848330615916,0.14999,16,0.0,0.0,1575420030,,,,0,17.376974531505468,1,6.0,30.68899917602539,0.0,0.0,0.0,66.7128,C,27252057000000,
Raw,1732148368000,25500000000,,690306.9339389452,-1416183560500999936,0.0,75.68153408332827,2174.6087444097984,0.0,0,30,0.0,16431,346785930770238,316,26.716999053955078,888.5208337830094,0.14999,16,0.0,0.0,1575420030,,,,0,12.376287667956383,1,6.0,26.716999053955078,0.0,0.0,0.0,66.7128,C,27252057000000,
Raw,1732148368000,25500000000,,690306.9339389452,-1416183560500999936,0.0,75.68153408332827,2174.6087444097984,0.0,0,21,0.0,16431,346785919665559,396,21.84000015258789,848.8483196778471,0.14999,16,0.0,0.0,1575420030,,,,0,5.345180108830114,1,6.0,21.84000015258789,0.0,0.0,0.0,66.7128,C,27252057000000,
Raw,1732148368000,25500000000,,690306.9339389452,-1416183560500999936,0.0,75.68153408332827,2174.6087444097984,0.0,0,22,0.0,16431,346785931114935,316,25.96299934387207,611.9824075492281,0.14999,16,0.0,0.0,1575420030,,,,0,11.38456033134629,1,6.0,25.96299934387207,0.0,0.0,0.0,66.7128,C,27252057000000,
Raw,1732148368000,25500000000,,690306.9339389452,-1416183560500999936,0.0,75.68153408332827,2174.6087444097984,0.0,0,13,0.0,16431,346785931059369,235,28.448999404907227,583.8152737601895,0.14999,16,0.0,0.0,1575420030,,,,0,14.633241795466764,1,6.0,28.448999404907227,0.0,0.0,0.0,66.7128,C,27252057000000,
Raw,1732148368000,25500000000,,690306.9339389452,-1416183560500999936,0.0,75.68153408332827,2174.6087444097984,0.0,0,14,0.0,16431,346785932407394,235,28.16200065612793,751.8504406015883,0.14999,16,0.0,0.0,1575420030,,,,0,14.264134803692581,1,6.0,28.16200065612793,0.0,0.0,0.0,66.7128,C,27252057000000,
