# 
# Header Description:
# 
# Version: v3.1.0.3 Platform: 13 Manufacturer: samsung Model: SM-S135DL GNSS Hardware Model Name: MediaTek,MT6631,MTK_MNLD_default,MNL_VER_default
# 
# Raw,utcTimeMillis,TimeNanos,LeapSecond,TimeUncertaintyNanos,FullBiasNanos,BiasNanos,BiasUncertaintyNanos,DriftNanosPerSecond,DriftUncertaintyNanosPerSecond,HardwareClockDiscontinuityCount,Svid,TimeOffsetNanos,State,ReceivedSvTimeNanos,ReceivedSvTimeUncertaintyNanos,Cn0DbHz,PseudorangeRateMetersPerSecond,PseudorangeRateUncertaintyMetersPerSecond,AccumulatedDeltaRangeState,AccumulatedDeltaRangeMeters,AccumulatedDeltaRangeUncertaintyMeters,CarrierFrequencyHz,CarrierCycles,CarrierPhase,CarrierPhaseUncertainty,MultipathIndicator,SnrInDb,ConstellationType,AgcDb,BasebandCn0DbHz,FullInterSignalBiasNanos,FullInterSignalBiasUncertaintyNanos,SatelliteInterSignalBiasNanos,SatelliteInterSignalBiasUncertaintyNanos,CodeType,ChipsetElapsedRealtimeNanos,IsFullTracking
# 
# UncalAccel,utcTimeMillis,elapsedRealtimeNanos,UncalAccelXMps2,UncalAccelYMps2,UncalAccelZMps2,BiasXMps2,BiasYMps2,BiasZMps2
# 
# Accel,utcTimeMillis,elapsedRealtimeNanos,AccelXMps2,AccelYMps2,AccelZMps2
# 
# UncalGyro,utcTimeMillis,elapsedRealtimeNanos,UncalGyroXRadPerSec,UncalGyroYRadPerSec,UncalGyroZRadPerSec,DriftXRadPerSec,DriftYRadPerSec,DriftZRadPerSec
# 
# Gyro,utcTimeMillis,elapsedRealtimeNanos,GyroXRadPerSec,GyroYRadPerSec,GyroZRadPerSec
# 
# UncalMag,utcTimeMillis,elapsedRealtimeNanos,UncalMagXMicroT,UncalMagYMicroT,UncalMagZMicroT,BiasXMicroT,BiasYMicroT,BiasZMicroT
# 
# Mag,utcTimeMillis,elapsedRealtimeNanos,MagXMicroT,MagYMicroT,MagZMicroT
# 
# Pressure,utcTimeMillis,elapsedRealtimeNanos,PressureHpa
# 
# OrientationDeg,utcTimeMillis,elapsedRealtimeNanos,yawDeg,rollDeg,pitchDeg
# 
# Fix,Provider,LatitudeDegrees,LongitudeDegrees,AltitudeMeters,SpeedMps,AccuracyMeters,BearingDegrees,UnixTimeMillis,SpeedAccuracyMps,BearingAccuracyDegrees,elapsedRealtimeNanos,VerticalAccuracyMeters,MockLocation,NumberOfUsedSignals,VerticalSpeedAccuracyMps,SolutionType
# 
# Nav,Svid,Type,Status,MessageId,Sub-messageId,Data(Bytes)
# 
# Status,UnixTimeMillis,SignalCount,SignalIndex,ConstellationType,Svid,CarrierFrequencyHz,Cn0DbHz,AzimuthDegrees,ElevationDegrees,UsedInFix,HasAlmanacData,HasEphemerisData,BasebandCn0DbHz
# 
# Agc,utcTimeMillis,TimeNanos,LeapSecond,TimeUncertaintyNanos,FullBiasNanos,BiasNanos,BiasUncertaintyNanos,DriftNanosPerSecond,DriftUncertaintyNanosPerSecond,HardwareClockDiscontinuityCount,AgcDb,CarrierFrequencyHz,ConstellationType
# 
Fix,FLP,37.4243998000,-122.1707779000,2.0,0.15297525,2.383,222.86766,1732148827209,3.0,179.9,27711056000000,0.9322387,0,,,
Status,,28,0,1,14,1575420030,26.10,16.0,68.0,1,0,0,21.1
Status,,28,1,1,22,1575420030,31.40,311.0,68.0,1,0,0,26.4
Status,,28,2,1,17,1575420030,0.00,167.0,65.0,0,0,0,0.0
Status,,28,3,1,30,1575420030,0.00,109.0,57.0,0,0,0,0.0
Status,,28,4,1,13,1575420030,29.70,274.0,56.0,1,0,0,24.7
Status,,28,5,2,133,1575420030,29.00,191.0,45.0,0,0,0,24.0
Status,,28,6,1,19,1575420030,30.40,194.0,36.0,1,0,0,25.4
Status,,28,7,1,15,1575420030,0.00,301.0,27.0,0,0,0,0.0
Status,,28,8,1,7,1575420030,43.00,118.0,23.0,1,0,0,38.0
Status,,28,9,1,2,1575420030,31.10,69.0,21.0,1,0,0,26.1
Status,,28,10,1,21,1575420030,34.50,51.0,13.0,1,0,0,29.5
Status,,28,11,3,9,1602000000,28.80,48.0,46.0,1,0,0,23.8
Status,,28,12,3,8,1602000000,24.30,275.0,38.0,1,0,0,19.3
Status,,28,13,3,19,1602000000,0.00,60.0,35.0,0,0,0,0.0
Status,,28,14,3,20,1602000000,0.00,139.0,29.0,0,0,0,0.0
Status,,28,15,3,11,1602000000,0.00,288.0,12.0,0,0,0,0.0
Status,,28,16,3,18,1602000000,22.70,24.0,10.0,1,0,0,17.7
Status,,28,17,3,16,1602000000,20.50,84.0,3.0,0,0,0,15.5
Status,,28,18,6,21,1575420030,23.20,297.0,64.0,1,0,0,18.2
Status,,28,19,6,19,1575420030,22.30,273.0,54.0,1,0,0,17.3
Status,,28,20,6,27,1575420030,28.50,48.0,47.0,1,0,0,23.5
Status,,28,21,6,29,1575420030,18.40,196.0,45.0,1,0,0,13.4
Status,,28,22,6,15,1575420030,0.00,82.0,19.0,0,0,0,0.0
Status,,28,23,6,13,1575420030,0.00,133.0,13.0,0,0,0,0.0
Status,,28,24,6,4,1575420030,0.00,322.0,11.0,0,0,0,0.0
Status,,28,25,6,34,1575420030,0.00,34.0,5.0,0,0,0,0.0
Status,,28,26,6,7,1575420030,0.00,162.0,3.0,0,0,0,0.0
Status,,28,27,6,30,1575420030,0.00,68.0,1.0,0,0,0,0.0
Fix,GPS,37.4243933333,-122.1707816667,3.6000000000000014,0.0,2.5,213.43,1732148828000,2.8,179.9,27712056000000,40.2,0,,,
Raw,1732148828000,17292000000,,692053.1419773075,-1416184028708000000,0.0,108.34884408694232,2061.387821366774,0.0,0,2,0.0,16431,347245920510153,316,26.113000869750977,631.8127179245344,0.14999,16,0.0,0.0,1575420030,,,,0,11.574028445236792,1,6.0,26.113000869750977,0.0,0.0,0.0,66.7128,C,27712056000000,
Raw,1732148828000,17292000000,,692053.1419773075,-1416184028708000000,0.0,108.34884408694232,2061.387821366774,0.0,0,13,0.0,16431,347245930741258,487,24.679000854492188,609.7420898027236,0.14999,16,0.0,0.0,1575420030,,,,0,9.573049153426023,1,6.0,24.679000854492188,0.0,0.0,0.0,66.7128,C,27712056000000,
Raw,1732148828000,17292000000,,692053.1419773075,-1416184028708000000,0.0,108.34884408694232,2061.387821366774,0.0,0,7,0.0,16431,347245922820751,51,37.97100067138672,1112.6601132085784,0.14999,16,0.0,0.0,1575420030,,,,0,25.617531329461393,1,6.0,37.97100067138672,0.0,0.0,0.0,66.7128,C,27712056000000,
Raw,1732148828000,17292000000,,692053.1419773075,-1416184028708000000,0.0,108.34884408694232,2061.387821366774,0.0,0,19,0.0,16431,347245925383513,396,25.375,1.8223778342745753,0.14999,16,0.0,0.0,1575420030,,,,0,10.550977996289166,1,6.0,25.375,0.0,0.0,0.0,66.7128,C,27712056000000,
Raw,1732148828000,17292000000,,692053.1419773075,-1416184028708000000,0.0,108.34884408694232,2061.387821366774,0.0,0,29,0.0,16431,347245917487856,316,13.399999618530273,1066.4784962418225,0.14999,16,0.0,0.0,1575420030,,,,0,0.0,6,6.0,13.399999618530273,0.0,0.0,13.829615871828347,66.7128,C,27712056000000,
Raw,1732148828000,17292000000,,692053.1419773075,-1416184028708000000,0.0,108.34884408694232,2061.387821366774,0.0,0,22,0.0,16431,347245930779814,487,26.37700080871582,603.8905129057576,0.14999,16,0.0,0.0,1575420030,,,,0,11.924313396786907,1,6.0,26.37700080871582,0.0,0.0,0.0,66.7128,C,27712056000000,
Raw,1732148828000,17292000000,,692053.1419773075,-1416184028708000000,0.0,108.34884408694232,2061.387821366774,0.0,0,21,0.0,16431,347245918947881,235,29.533000946044922,865.7797177984481,0.14999,16,0.0,0.0,1575420030,,,,0,15.968003896092737,1,6.0,29.533000946044922,0.0,0.0,0.0,66.7128,C,27712056000000,
Raw,1732148828000,17292000000,,692053.1419773075,-1416184028708000000,0.0,108.34884408694232,2061.387821366774,0.0,0,27,0.0,16431,347245917390175,316,23.5,911.4277133966099,0.14999,16,0.0,0.0,1575420030,,,,0,9.158259433461277,6,6.0,23.5,0.0,0.0,13.829615871828347,66.7128,C,27712056000000,
Raw,1732148828000,17292000000,,692053.1419773075,-1416184028708000000,0.0,108.34884408694232,2061.387821366774,0.0,0,14,0.0,16431,347245931859124,487,21.051000595092773,742.0234170294865,0.14999,16,0.0,0.0,1575420030,,,,0,4.0339064085089,1,6.0,21.051000595092773,0.0,0.0,0.0,66.7128,C,27712056000000,
Raw,1732148828000,17292000000,,692053.1419773075,-1416184028708000000,0.0,108.34884408694232,2061.387821366774,0.0,0,19,0.0,16431,347245920328659,487,17.299999237060547,635.8094425542945,0.14999,16,0.0,0.0,1575420030,,,,0,0.0,6,6.0,17.299999237060547,0.0,0.0,13.829615871828347,66.7128,C,27712056000000,
Raw,1732148828000,17292000000,,692053.1419773075,-1416184028708000000,0.0,108.34884408694232,2061.387821366774,0.0,0,21,0.0,16431,347245920270391,487,18.200000762939453,532.3740530358224,0.14999,16,0.0,0.0,1575420030,,,,0,1.2465373678900722,6,6.0,18.200000762939453,0.0,0.0,13.829615871828347,66.7128,C,27712056000000,
Raw,1732148828000,17292000000,,692053.1419773075,-1416184028708000000,0.0,108.34884408694232,2061.387821366774,0.0,0,16,0.0,17,847344,797,5.0,1111.4691230946403,0.14999,16,0.0,0.0,1601437440,,,,0,0.0,3,6.0,17.0,0.0,0.0,38.17192286107887,66.7128,C,27712056000000,
Raw,1732148828000,17292000000,,692053.1419773075,-1416184028708000000,0.0,108.34884408694232,2061.387821366774,0.0,0,9,0.0,17,776655,316,5.0,843.936482121,0.14999,16,0.0,0.0,1600875010,,,,0,9.498796531869965,3,6.0,25.0,0.0,0.0,38.17192286107887,66.7128,C,27712056000000,
Raw,1732148828000,17292000000,,692053.1419773075,-1416184028708000000,0.0,108.34884408694232,2061.387821366774,0.0,0,8,0.0,17,743737,487,5.0,820.6405113667885,0.14999,16,0.0,0.0,1605374980,,,,0,4.755310871659767,3,6.0,19.0,0.0,0.0,38.17192286107887,66.7128,C,27712056000000,
Raw,1732148828000,17292000000,,692053.1419773075,-1416184028708000000,0.0,108.34884408694232,2061.387821366774,0.0,0,18,0.0,17,325777,797,5.0,1212.8164698664507,0.14999,16,0.0,0.0,1600312450,,,,0,0.3332729245237962,3,6.0,16.0,0.0,0.0,38.17192286107887,66.7128,C,27712056000000,
Fix,FLP,37.4243962000,-122.1707803000,2.0,0.15393421,2.416,221.25848,1732148828208,2.8,179.9,27712056000000,0.9422349,0,,,
Status,1732148828000,28,0,1,14,1575420030,27.90,16.0,68.0,1,0,0,22.9
Status,1732148828000,28,1,1,22,1575420030,0.00,311.0,68.0,0,0,0,0.0
Status,1732148828000,28,2,1,17,1575420030,0.00,167.0,65.0,0,0,0,0.0
Status,1732148828000,28,3,1,30,1575420030,33.40,109.0,57.0,1,0,0,28.400002
Status,1732148828000,28,4,1,13,1575420030,31.00,274.0,56.0,1,0,0,26.0
Status,1732148828000,28,5,2,133,1575420030,26.00,191.0,45.0,0,0,0,21.0
Status,1732148828000,28,6,1,19,1575420030,28.00,194.0,36.0,1,0,0,23.0
Status,1732148828000,28,7,1,15,1575420030,0.00,301.0,27.0,0,0,0,0.0
Status,1732148828000,28,8,1,7,1575420030,38.10,118.0,23.0,1,0,0,33.1
Status,1732148828000,28,9,1,2,1575420030,29.90,69.0,21.0,1,0,0,24.9
Status,1732148828000,28,10,1,21,1575420030,32.20,51.0,13.0,1,0,0,27.2
Status,1732148828000,28,11,3,9,1602000000,29.40,48.0,46.0,1,0,0,24.4
Status,1732148828000,28,12,3,8,1602000000,29.30,275.0,38.0,1,0,0,24.3
Status,1732148828000,28,13,3,19,1602000000,0.00,60.0,35.0,0,0,0,0.0
Status,1732148828000,28,14,3,20,1602000000,0.00,139.0,29.0,0,0,0,0.0
Status,1732148828000,28,15,3,11,1602000000,0.00,288.0,12.0,0,0,0,0.0
Status,1732148828000,28,16,3,18,1602000000,0.00,24.0,10.0,0,0,0,0.0
Status,1732148828000,28,17,3,16,1602000000,20.50,84.0,3.0,0,0,0,15.5
Status,1732148828000,28,18,6,21,1575420030,23.10,297.0,64.0,1,0,0,18.1
Status,1732148828000,28,19,6,19,1575420030,22.30,273.0,54.0,1,0,0,17.3
Status,1732148828000,28,20,6,27,1575420030,26.80,48.0,47.0,1,0,0,21.8
Status,1732148828000,28,21,6,29,1575420030,29.40,196.0,45.0,1,0,0,24.4
Status,1732148828000,28,22,6,15,1575420030,0.00,82.0,19.0,0,0,0,0.0
Status,1732148828000,28,23,6,13,1575420030,0.00,133.0,13.0,0,0,0,0.0
Status,1732148828000,28,24,6,4,1575420030,0.00,322.0,11.0,0,0,0,0.0
Status,1732148828000,28,25,6,34,1575420030,0.00,34.0,5.0,0,0,0,0.0
Status,1732148828000,28,26,6,7,1575420030,0.00,162.0,3.0,0,0,0,0.0
Status,1732148828000,28,27,6,30,1575420030,0.00,68.0,1.0,0,0,0,0.0
Fix,GPS,37.4243950000,-122.1707833333,3.5,0.0,2.5,213.43,1732148829000,2.4,179.9,27713056000000,43.4,0,,,
Raw,1732148829000,18292000000,,691793.0141024429,-1416184028708000000,0.0,113.33893210701461,2062.3133101634844,0.0,0,2,0.0,16431,347246920508042,316,24.93600082397461,632.0713054691622,0.14999,16,0.0,0.0,1575420030,,,,0,9.925824121680325,1,6.0,24.93600082397461,0.0,0.0,0.0,66.7128,C,27713056000000,
Raw,1732148829000,18292000000,,691793.0141024429,-1416184028708000000,0.0,113.33893210701461,2062.3133101634844,0.0,0,13,0.0,16431,347246930739229,316,26.038999557495117,610.0675774666946,0.14999,16,0.0,0.0,1575420030,,,,0,11.46612780750267,1,6.0,26.038999557495117,0.0,0.0,0.0,66.7128,C,27713056000000,
Raw,1732148829000,18292000000,,691793.0141024429,-1416184028708000000,0.0,113.33893210701461,2062.3133101634844,0.0,0,7,0.0,16431,347246922817041,58,33.11600112915039,1112.7361191774987,0.14999,16,0.0,0.0,1575420030,,,,0,20.213210364466164,1,6.0,33.11600112915039,0.0,0.0,0.0,66.7128,C,27713056000000,
Raw,1732148829000,18292000000,,691793.0141024429,-1416184028708000000,0.0,113.33893210701461,2062.3133101634844,0.0,0,19,0.0,16431,347246925383501,487,22.993000030517578,1.8096017698166773,0.14999,16,0.0,0.0,1575420030,,,,0,7.089263017970046,1,6.0,22.993000030517578,0.0,0.0,0.0,66.7128,C,27713056000000,
Raw,1732148829000,18292000000,,691793.0141024429,-1416184028708000000,0.0,113.33893210701461,2062.3133101634844,0.0,0,30,0.0,16431,347246929999279,316,28.357999801635742,892.3002259417367,0.14999,16,0.0,0.0,1575420030,,,,0,14.491481314115651,1,6.0,28.357999801635742,0.0,0.0,0.0,66.7128,C,27713056000000,
Raw,1732148829000,18292000000,,691793.0141024429,-1416184028708000000,0.0,113.33893210701461,2062.3133101634844,0.0,0,29,0.0,16431,347246917484260,487,24.399999618530273,1066.0491275592046,0.14999,16,0.0,0.0,1575420030,,,,0,10.388620191845577,6,6.0,24.399999618530273,0.0,0.0,16.541890498942998,66.7128,C,27713056000000,
Raw,1732148829000,18292000000,,691793.0141024429,-1416184028708000000,0.0,113.33893210701461,2062.3133101634844,0.0,0,21,0.0,16431,347246918944993,235,27.184999465942383,866.0926616900423,0.14999,16,0.0,0.0,1575420030,,,,0,12.989223635851408,1,6.0,27.184999465942383,0.0,0.0,0.0,66.7128,C,27713056000000,
Raw,1732148829000,18292000000,,691793.0141024429,-1416184028708000000,0.0,113.33893210701461,2062.3133101634844,0.0,0,27,0.0,16431,347246917387132,396,21.799999237060547,911.1975584027028,0.14999,16,0.0,0.0,1575420030,,,,0,6.907669860931678,6,6.0,21.799999237060547,0.0,0.0,16.541890498942998,66.7128,C,27713056000000,
Raw,1732148829000,18292000000,,691793.0141024429,-1416184028708000000,0.0,113.33893210701461,2062.3133101634844,0.0,0,19,0.0,16431,347246920326536,487,17.299999237060547,636.4838329240067,0.14999,16,0.0,0.0,1575420030,,,,0,0.0,6,6.0,17.299999237060547,0.0,0.0,16.541890498942998,66.7128,C,27713056000000,
Raw,1732148829000,18292000000,,691793.0141024429,-1416184028708000000,0.0,113.33893210701461,2062.3133101634844,0.0,0,21,0.0,16431,347246920268617,487,18.100000381469727,531.2712231518166,0.14999,16,0.0,0.0,1575420030,,,,0,1.0085529018959165,6,6.0,18.100000381469727,0.0,0.0,16.541890498942998,66.7128,C,27713056000000,
Raw,1732148829000,18292000000,,691793.0141024429,-1416184028708000000,0.0,113.33893210701461,2062.3133101634844,0.0,0,16,0.0,17,843630,487,5.0,1114.958595774261,0.14999,16,0.0,0.0,1601437440,,,,0,0.0,3,6.0,19.0,0.0,0.0,41.117547272133706,66.7128,C,27713056000000,
Raw,1732148829000,18292000000,,691793.0141024429,-1416184028708000000,0.0,113.33893210701461,2062.3133101634844,0.0,0,9,0.0,17,773835,487,5.0,844.3971537762118,0.14999,16,0.0,0.0,1600875010,,,,0,10.301908323363492,3,6.0,19.0,0.0,0.0,41.117547272133706,66.7128,C,27713056000000,
Raw,1732148829000,18292000000,,691793.0141024429,-1416184028708000000,0.0,113.33893210701461,2062.3133101634844,0.0,0,8,0.0,17,740998,316,5.0,821.0750899233307,0.14999,16,0.0,0.0,1605374980,,,,0,10.264828695491628,3,6.0,24.0,0.0,0.0,41.117547272133706,66.7128,C,27713056000000,
Raw,1732148829000,18292000000,,691793.0141024429,-1416184028708000000,0.0,113.33893210701461,2062.3133101634844,0.0,0,14,0.0,16431,347246931856413,396,22.922000885009766,742.4397773555654,0.14999,16,0.0,0.0,1575420030,,,,0,6.968623722571784,1,6.0,22.922000885009766,0.0,0.0,0.0,66.7128,C,27713056000000,
Fix,FLP,37.4243951000,-122.1707823000,2.0,0.14840008,2.45,220.76852,1732148829208,2.4,179.9,27713056000000,0.95224273,0,,,
Status,1732148829000,28,0,1,14,1575420030,25.90,16.0,68.0,1,0,0,20.9
Status,1732148829000,28,1,1,22,1575420030,0.00,311.0,68.0,0,0,0,0.0
Status,1732148829000,28,2,1,17,1575420030,26.80,167.0,65.0,1,0,0,21.8
Status,1732148829000,28,3,1,30,1575420030,32.90,109.0,57.0,1,0,0,27.900002
Status,1732148829000,28,4,1,13,1575420030,30.40,274.0,56.0,1,0,0,25.4
Status,1732148829000,28,5,2,135,1575420030,0.00,197.0,45.0,0,0,0,0.0
Status,1732148829000,28,6,1,19,1575420030,30.10,194.0,36.0,1,0,0,25.1
Status,1732148829000,28,7,1,15,1575420030,0.00,301.0,27.0,0,0,0,0.0
Status,1732148829000,28,8,1,7,1575420030,38.40,118.0,23.0,1,0,0,33.4
Status,1732148829000,28,9,1,2,1575420030,37.70,69.0,21.0,1,0,0,32.7
Status,1732148829000,28,10,1,21,1575420030,30.90,51.0,13.0,1,0,0,25.9
Status,1732148829000,28,11,3,9,1602000000,24.80,48.0,46.0,1,0,0,19.8
Status,1732148829000,28,12,3,8,1602000000,29.30,275.0,38.0,1,0,0,24.3
Status,1732148829000,28,13,3,19,1602000000,0.00,60.0,35.0,0,0,0,0.0
Status,1732148829000,28,14,3,20,1602000000,0.00,139.0,29.0,0,0,0,0.0
Status,1732148829000,28,15,3,11,1602000000,0.00,288.0,12.0,0,0,0,0.0
Status,1732148829000,28,16,3,18,1602000000,21.20,24.0,10.0,1,0,0,16.2
Status,1732148829000,28,17,3,16,1602000000,27.10,84.0,3.0,0,0,0,22.1
Status,1732148829000,28,18,6,21,1575420030,22.40,297.0,64.0,1,0,0,17.4
Status,1732148829000,28,19,6,19,1575420030,20.50,273.0,54.0,1,0,0,15.5
Status,1732148829000,28,20,6,27,1575420030,24.20,48.0,47.0,1,0,0,19.2
Status,1732148829000,28,21,6,29,1575420030,22.20,196.0,45.0,1,0,0,17.2
Status,1732148829000,28,22,6,15,1575420030,0.00,82.0,19.0,0,0,0,0.0
Status,1732148829000,28,23,6,13,1575420030,0.00,133.0,13.0,0,0,0,0.0
Status,1732148829000,28,24,6,4,1575420030,0.00,322.0,11.0,0,0,0,0.0
Status,1732148829000,28,25,6,34,1575420030,0.00,34.0,5.0,0,0,0,0.0
Status,1732148829000,28,26,6,7,1575420030,0.00,162.0,3.0,0,0,0,0.0
Status,1732148829000,28,27,6,30,1575420030,0.00,68.0,1.0,0,0,0,0.0
Fix,GPS,37.4243950000,-122.1707766667,3.400000000000002,0.0,2.4,213.43,1732148830000,2.1,179.9,27714056000000,46.1,0,,,
Raw,1732148830000,19292000000,,691209.6417715752,-1416184028708000000,0.0,115.38896992506021,2061.800414810929,0.0,0,2,0.0,16431,347247920505925,58,32.73699951171875,632.4227633877949,0.14999,16,0.0,0.0,1575420030,,,,0,19.779503320152052,1,6.0,32.73699951171875,0.0,0.0,0.0,66.7128,C,27714056000000,
Raw,1732148830000,19292000000,,691209.6417715752,-1416184028708000000,0.0,115.38896992506021,2061.800414810929,0.0,0,13,0.0,16431,347247930737191,396,25.42799949645996,609.2074928073889,0.14999,16,0.0,0.0,1575420030,,,,0,10.631032845362645,1,6.0,25.42799949645996,0.0,0.0,0.0,66.7128,C,27714056000000,
Raw,1732148830000,19292000000,,691209.6417715752,-1416184028708000000,0.0,115.38896992506021,2061.800414810929,0.0,0,7,0.0,16431,347247922813334,58,33.367000579833984,1112.4066360897336,0.14999,16,0.0,0.0,1575420030,,,,0,20.512081227395274,1,6.0,33.367000579833984,0.0,0.0,0.0,66.7128,C,27714056000000,
Raw,1732148830000,19292000000,,691209.6417715752,-1416184028708000000,0.0,115.38896992506021,2061.800414810929,0.0,0,19,0.0,16431,347247925383493,396,25.075000762939453,2.1406179853167626,0.14999,16,0.0,0.0,1575420030,,,,0,10.139247380653616,1,6.0,25.075000762939453,0.0,0.0,0.0,66.7128,C,27714056000000,
Raw,1732148830000,19292000000,,691209.6417715752,-1416184028708000000,0.0,115.38896992506021,2061.800414810929,0.0,0,30,0.0,16431,347247929996307,316,27.920000076293945,891.886560203798,0.14999,16,0.0,0.0,1575420030,,,,0,13.937716634414171,1,6.0,27.920000076293945,0.0,0.0,0.0,66.7128,C,27714056000000,
Raw,1732148830000,19292000000,,691209.6417715752,-1416184028708000000,0.0,115.38896992506021,2061.800414810929,0.0,0,29,0.0,16431,347247917480692,487,17.200000762939453,1065.5265632936685,0.14999,16,0.0,0.0,1575420030,,,,0,0.0,6,6.0,17.200000762939453,0.0,0.0,20.067643743858106,66.7128,C,27714056000000,
Raw,1732148830000,19292000000,,691209.6417715752,-1416184028708000000,0.0,115.38896992506021,2061.800414810929,0.0,0,21,0.0,16431,347247918942107,396,25.94099998474121,866.2354748614736,0.14999,16,0.0,0.0,1575420030,,,,0,11.32014303267268,1,6.0,25.94099998474121,0.0,0.0,0.0,66.7128,C,27714056000000,
Raw,1732148830000,19292000000,,691209.6417715752,-1416184028708000000,0.0,115.38896992506021,2061.800414810929,0.0,0,27,0.0,16431,347247917384092,396,19.200000762939453,910.4426091392816,0.14999,16,0.0,0.0,1575420030,,,,0,2.9467531620570457,6,6.0,19.200000762939453,0.0,0.0,20.067643743858106,66.7128,C,27714056000000,
Raw,1732148830000,19292000000,,691209.6417715752,-1416184028708000000,0.0,115.38896992506021,2061.800414810929,0.0,0,14,0.0,16431,347247931854053,487,20.861000061035156,742.1343597273973,0.14999,16,0.0,0.0,1575420030,,,,0,3.6864244871204455,1,6.0,20.861000061035156,0.0,0.0,0.0,66.7128,C,27714056000000,
Raw,1732148830000,19292000000,,691209.6417715752,-1416184028708000000,0.0,115.38896992506021,2061.800414810929,0.0,0,17,0.0,16431,347247931672609,396,21.819000244140625,373.6272941181885,0.14999,16,0.0,0.0,1575420030,,,,0,5.2256202081937815,1,6.0,21.819000244140625,0.0,0.0,0.0,66.7128,C,27714056000000,
Raw,1732148830000,19292000000,,691209.6417715752,-1416184028708000000,0.0,115.38896992506021,2061.800414810929,0.0,0,19,0.0,16431,347247920324397,797,15.5,635.7259567803642,0.14999,16,0.0,0.0,1575420030,,,,0,0.0,6,6.0,15.5,0.0,0.0,20.067643743858106,66.7128,C,27714056000000,
Raw,1732148830000,19292000000,,691209.6417715752,-1416184028708000000,0.0,115.38896992506021,2061.800414810929,0.0,0,21,0.0,16431,347247920266843,487,17.399999618530273,531.3385413969057,0.14999,16,0.0,0.0,1575420030,,,,0,0.0,6,6.0,17.399999618530273,0.0,0.0,20.067643743858106,66.7128,C,27714056000000,
Raw,1732148830000,19292000000,,691209.6417715752,-1416184028708000000,0.0,115.38896992506021,2061.800414810929,0.0,0,16,0.0,17,839916,396,5.0,1114.540224681802,0.14999,16,0.0,0.0,1601437440,,,,0,7.26294423757484,3,6.0,23.0,0.0,0.0,40.24774798398359,66.7128,C,27714056000000,
Raw,1732148830000,19292000000,,691209.6417715752,-1416184028708000000,0.0,115.38896992506021,2061.800414810929,0.0,0,9,0.0,17,771020,487,5.0,844.0834252234068,0.14999,16,0.0,0.0,1600875010,,,,0,3.9705605182979093,3,6.0,18.0,0.0,0.0,40.24774798398359,66.7128,C,27714056000000,
Raw,1732148830000,19292000000,,691209.6417715752,-1416184028708000000,0.0,115.38896992506021,2061.800414810929,0.0,0,8,0.0,17,738258,797,5.0,821.1583400748461,0.14999,16,0.0,0.0,1605374980,,,,0,10.264828695491628,3,6.0,17.0,0.0,0.0,40.24774798398359,66.7128,C,27714056000000,
Raw,1732148830000,19292000000,,691209.6417715752,-1416184028708000000,0.0,115.38896992506021,2061.800414810929,0.0,0,18,0.0,17,317697,797,5.0,1210.4988556589149,0.14999,16,0.0,0.0,1600312450,,,,0,0.0,3,6.0,16.0,0.0,0.0,40.24774798398359,66.7128,C,27714056000000,
Fix,FLP,37.4243946000,-122.1707801000,2.0,0.13637051,2.466,218.41283,1732148830208,2.1,179.9,27714056000000,0.9622513,0,,,
Status,1732148830000,28,0,1,14,1575420030,25.70,16.0,68.0,1,0,0,20.7
Status,1732148830000,28,1,1,22,1575420030,0.00,311.0,68.0,0,0,0,0.0
Status,1732148830000,28,2,1,17,1575420030,28.90,167.0,65.0,1,0,0,23.9
Status,1732148830000,28,3,1,30,1575420030,28.00,109.0,57.0,1,0,0,23.0
Status,1732148830000,28,4,1,13,1575420030,27.80,274.0,56.0,1,0,0,22.8
Status,1732148830000,28,5,2,135,1575420030,0.00,197.0,45.0,0,0,0,0.0
Status,1732148830000,28,6,1,19,1575420030,28.20,194.0,36.0,1,0,0,23.2
Status,1732148830000,28,7,1,15,1575420030,0.00,301.0,27.0,0,0,0,0.0
Status,1732148830000,28,8,1,7,1575420030,38.40,118.0,23.0,1,0,0,33.4
Status,1732148830000,28,9,1,2,1575420030,30.30,69.0,21.0,1,0,0,25.3
Status,1732148830000,28,10,1,21,1575420030,28.90,51.0,13.0,1,0,0,23.9
Status,1732148830000,28,11,3,9,1602000000,24.80,48.0,46.0,1,0,0,19.8
Status,1732148830000,28,12,3,8,1602000000,29.30,275.0,38.0,1,0,0,24.3
Status,1732148830000,28,13,3,19,1602000000,0.00,60.0,35.0,0,0,0,0.0
Status,1732148830000,28,14,3,20,1602000000,0.00,139.0,29.0,0,0,0,0.0
Status,1732148830000,28,15,3,11,1602000000,0.00,288.0,12.0,0,0,0,0.0
Status,1732148830000,28,16,3,18,1602000000,21.20,24.0,10.0,1,0,0,16.2
Status,1732148830000,28,17,3,16,1602000000,27.40,84.0,3.0,0,0,0,22.4
Status,1732148830000,28,18,6,21,1575420030,20.70,297.0,64.0,1,0,0,15.700001
Status,1732148830000,28,19,6,19,1575420030,20.50,273.0,54.0,1,0,0,15.5
Status,1732148830000,28,20,6,27,1575420030,23.80,48.0,47.0,1,0,0,18.8
Status,1732148830000,28,21,6,29,1575420030,21.40,196.0,45.0,1,0,0,16.4
Status,1732148830000,28,22,6,15,1575420030,0.00,82.0,19.0,0,0,0,0.0
Status,1732148830000,28,23,6,13,1575420030,0.00,133.0,13.0,0,0,0,0.0
Status,1732148830000,28,24,6,4,1575420030,0.00,322.0,11.0,0,0,0,0.0
Status,1732148830000,28,25,6,34,1575420030,0.00,34.0,5.0,0,0,0,0.0
Status,1732148830000,28,26,6,7,1575420030,0.00,162.0,3.0,0,0,0,0.0
Status,1732148830000,28,27,6,30,1575420030,0.00,68.0,1.0,0,0,0,0.0
Fix,GPS,37.4243950000,-122.1707750000,3.400000000000002,0.0,2.5,213.43,1732148831000,2.4,179.9,27715056000000,45.9,0,,,
Raw,1732148831000,20292000000,,690973.9578905618,-1416184028708000000,0.0,114.66979614665962,2061.019422150131,0.0,0,2,0.0,16431,347248920503811,316,25.32200050354004,632.7345922774,0.14999,16,0.0,0.0,1575420030,,,,0,10.470178440254365,1,6.0,25.32200050354004,0.0,0.0,0.0,66.7128,C,27715056000000,
Raw,1732148831000,20292000000,,690973.9578905618,-1416184028708000000,0.0,114.66979614665962,2061.019422150131,0.0,0,13,0.0,16431,347248930735156,396,22.849000930786133,609.4082396238347,0.14999,16,0.0,0.0,1575420030,,,,0,6.846285226378146,1,6.0,22.849000930786133,0.0,0.0,0.0,66.7128,C,27715056000000,
Raw,1732148831000,20292000000,,690973.9578905618,-1416184028708000000,0.0,114.66979614665962,2061.019422150131,0.0,0,7,0.0,16431,347248922809624,58,33.367000579833984,1112.5246404669085,0.14999,16,0.0,0.0,1575420030,,,,0,20.512081227395274,1,6.0,33.367000579833984,0.0,0.0,0.0,66.7128,C,27715056000000,
Raw,1732148831000,20292000000,,690973.9578905618,-1416184028708000000,0.0,114.66979614665962,2061.019422150131,0.0,0,19,0.0,16431,347248925383485,487,23.2450008392334,2.2812011527698517,0.14999,16,0.0,0.0,1575420030,,,,0,7.441441919133936,1,6.0,23.2450008392334,0.0,0.0,0.0,66.7128,C,27715056000000,
Raw,1732148831000,20292000000,,690973.9578905618,-1416184028708000000,0.0,114.66979614665962,2061.019422150131,0.0,0,30,0.0,16431,347248929993327,396,22.993000030517578,891.7454195353504,0.14999,16,0.0,0.0,1575420030,,,,0,7.089263017970046,1,6.0,22.993000030517578,0.0,0.0,0.0,66.7128,C,27715056000000,
Raw,1732148831000,20292000000,,690973.9578905618,-1416184028708000000,0.0,114.66979614665962,2061.019422150131,0.0,0,29,0.0,16431,347248917477127,487,16.399999618530273,1065.241773202298,0.14999,16,0.0,0.0,1575420030,,,,0,0.0,6,6.0,16.399999618530273,0.0,0.0,23.359147480093874,66.7128,C,27715056000000,
Raw,1732148831000,20292000000,,690973.9578905618,-1416184028708000000,0.0,114.66979614665962,2061.019422150131,0.0,0,21,0.0,16431,347248918939219,396,23.915000915527344,865.2432160080489,0.14999,16,0.0,0.0,1575420030,,,,0,8.470881400836028,1,6.0,23.915000915527344,0.0,0.0,0.0,66.7128,C,27715056000000,
Raw,1732148831000,20292000000,,690973.9578905618,-1416184028708000000,0.0,114.66979614665962,2061.019422150131,0.0,0,27,0.0,16431,347248917381055,487,18.799999237060547,910.0965868553454,0.14999,16,0.0,0.0,1575420030,,,,0,2.347488694508181,6,6.0,18.799999237060547,0.0,0.0,23.359147480093874,66.7128,C,27715056000000,
Raw,1732148831000,20292000000,,690973.9578905618,-1416184028708000000,0.0,114.66979614665962,2061.019422150131,0.0,0,14,0.0,16431,347248931851627,487,20.66200065612793,740.9849320519323,0.14999,16,0.0,0.0,1575420030,,,,0,3.324460045264521,1,6.0,20.66200065612793,0.0,0.0,0.0,66.7128,C,27715056000000,
Raw,1732148831000,20292000000,,690973.9578905618,-1416184028708000000,0.0,114.66979614665962,2061.019422150131,0.0,0,17,0.0,16431,347248931671272,487,23.85099983215332,373.0399668204548,0.14999,16,0.0,0.0,1575420030,,,,0,8.368088607787804,1,6.0,23.85099983215332,0.0,0.0,0.0,66.7128,C,27715056000000,
Raw,1732148831000,20292000000,,690973.9578905618,-1416184028708000000,0.0,114.66979614665962,2061.019422150131,0.0,0,19,0.0,16431,347248920322277,797,15.5,635.6098107398378,0.14999,16,0.0,0.0,1575420030,,,,0,0.0,6,6.0,15.5,0.0,0.0,23.359147480093874,66.7128,C,27715056000000,
Raw,1732148831000,20292000000,,690973.9578905618,-1416184028708000000,0.0,114.66979614665962,2061.019422150131,0.0,0,21,0.0,16431,347248920265071,487,15.699999809265137,530.5677033551405,0.14999,16,0.0,0.0,1575420030,,,,0,0.0,6,6.0,15.699999809265137,0.0,0.0,23.359147480093874,66.7128,C,27715056000000,
Raw,1732148831000,20292000000,,690973.9578905618,-1416184028708000000,0.0,114.66979614665962,2061.019422150131,0.0,0,16,0.0,17,836194,396,5.0,1114.656768955974,0.14999,16,0.0,0.0,1601437440,,,,0,7.652511305491819,3,6.0,21.0,0.0,0.0,39.82427872432528,66.7128,C,27715056000000,
Raw,1732148831000,20292000000,,690973.9578905618,-1416184028708000000,0.0,114.66979614665962,2061.019422150131,0.0,0,9,0.0,17,768206,487,5.0,843.3179860757733,0.14999,16,0.0,0.0,1600875010,,,,0,3.9705605182979093,3,6.0,18.0,0.0,0.0,39.82427872432528,66.7128,C,27715056000000,
Raw,1732148831000,20292000000,,690973.9578905618,-1416184028708000000,0.0,114.66979614665962,2061.019422150131,0.0,0,8,0.0,17,735519,797,5.0,821.2141441194547,0.14999,16,0.0,0.0,1605374980,,,,0,10.264828695491628,3,6.0,17.0,0.0,0.0,39.82427872432528,66.7128,C,27715056000000,
Raw,1732148831000,20292000000,,690973.9578905618,-1416184028708000000,0.0,114.66979614665962,2061.019422150131,0.0,0,18,0.0,17,313654,797,5.0,1213.998282060529,0.14999,16,0.0,0.0,1600312450,,,,0,0.0,3,6.0,17.0,0.0,0.0,39.82427872432528,66.7128,C,27715056000000,
Fix,FLP,37.4243943000,-122.1707780000,2.0,0.12665185,2.483,216.46938,1732148831208,2.4,179.9,27715056000000,0.97711265,0,,,
Status,1732148831000,28,0,1,14,1575420030,25.70,16.0,68.0,1,0,0,20.7
Status,1732148831000,28,1,1,22,1575420030,0.00,311.0,68.0,0,0,0,0.0
Status,1732148831000,28,2,1,17,1575420030,26.20,167.0,65.0,1,0,0,21.2
Status,1732148831000,28,3,1,30,1575420030,28.80,109.0,57.0,1,0,0,23.8
Status,1732148831000,28,4,1,13,1575420030,28.10,274.0,56.0,1,0,0,23.1
Status,1732148831000,28,5,2,135,1575420030,0.00,197.0,45.0,0,0,0,0.0
Status,1732148831000,28,6,1,19,1575420030,24.40,194.0,36.0,1,0,0,19.4
Status,1732148831000,28,7,1,15,1575420030,0.00,301.0,27.0,0,0,0,0.0
Status,1732148831000,28,8,1,7,1575420030,34.30,118.0,23.0,1,0,0,29.3
Status,1732148831000,28,9,1,2,1575420030,29.20,69.0,21.0,1,0,0,24.2
Status,1732148831000,28,10,1,21,1575420030,30.40,51.0,13.0,1,0,0,25.4
Status,1732148831000,28,11,3,9,1602000000,21.60,48.0,46.0,1,0,0,16.6
Status,1732148831000,28,12,3,8,1602000000,21.90,275.0,38.0,1,0,0,16.9
Status,1732148831000,28,13,3,19,1602000000,0.00,60.0,35.0,0,0,0,0.0
Status,1732148831000,28,14,3,20,1602000000,0.00,139.0,29.0,0,0,0,0.0
Status,1732148831000,28,15,3,11,1602000000,0.00,288.0,12.0,0,0,0,0.0
Status,1732148831000,28,16,3,18,1602000000,22.10,24.0,10.0,1,0,0,17.1
Status,1732148831000,28,17,3,16,1602000000,22.40,84.0,3.0,0,0,0,17.4
Status,1732148831000,28,18,6,21,1575420030,28.70,297.0,64.0,1,0,0,23.7
Status,1732148831000,28,19,6,19,1575420030,20.40,273.0,54.0,1,0,0,15.4
Status,1732148831000,28,20,6,27,1575420030,22.40,48.0,47.0,1,0,0,17.4
Status,1732148831000,28,21,6,29,1575420030,21.30,196.0,45.0,1,0,0,16.3
Status,1732148831000,28,22,6,15,1575420030,0.00,82.0,19.0,0,0,0,0.0
Status,1732148831000,28,23,6,13,1575420030,0.00,133.0,13.0,0,0,0,0.0
Status,1732148831000,28,24,6,4,1575420030,0.00,322.0,11.0,0,0,0,0.0
Status,1732148831000,28,25,6,34,1575420030,0.00,34.0,5.0,0,0,0,0.0
Status,1732148831000,28,26,6,7,1575420030,0.00,162.0,3.0,0,0,0,0.0
Status,1732148831000,28,27,6,30,1575420030,0.00,68.0,1.0,0,0,0,0.0
Fix,GPS,37.4243933333,-122.1707766667,3.400000000000002,0.0,2.5,213.43,1732148832000,2.4,179.9,27716056000000,42.2,0,,,
Raw,1732148832000,21292000000,,690811.9708268312,-1416184028708000000,0.0,107.7262235141983,2059.8467309393704,0.0,0,2,0.0,16431,347249920501699,487,24.229999542236328,632.1066138654822,0.14999,16,0.0,0.0,1575420030,,,,0,8.918963592868412,1,6.0,24.229999542236328,0.0,0.0,0.0,66.7128,C,27716056000000,
Raw,1732148832000,21292000000,,690811.9708268312,-1416184028708000000,0.0,107.7262235141983,2059.8467309393704,0.0,0,13,0.0,16431,347249930733119,396,23.101999282836914,609.5150939811189,0.14999,16,0.0,0.0,1575420030,,,,0,7.2671372811696955,1,6.0,23.101999282836914,0.0,0.0,0.0,66.7128,C,27716056000000,
Raw,1732148832000,21292000000,,690811.9708268312,-1416184028708000000,0.0,107.7262235141983,2059.8467309393704,0.0,0,7,0.0,16431,347249922805914,235,29.30500030517578,1112.2697695955774,0.14999,16,0.0,0.0,1575420030,,,,0,15.683195113800533,1,6.0,29.30500030517578,0.0,0.0,0.0,66.7128,C,27716056000000,
Raw,1732148832000,21292000000,,690811.9708268312,-1416184028708000000,0.0,107.7262235141983,2059.8467309393704,0.0,0,19,0.0,16431,347249925383477,797,19.381999969482422,1.142598288281979,0.14999,16,0.0,0.0,1575420030,,,,0,1.1283601756796657,1,6.0,19.381999969482422,0.0,0.0,0.0,66.7128,C,27716056000000,
Raw,1732148832000,21292000000,,690811.9708268312,-1416184028708000000,0.0,107.7262235141983,2059.8467309393704,0.0,0,30,0.0,16431,347249929990354,396,23.785999298095703,891.5406308366944,0.14999,16,0.0,0.0,1575420030,,,,0,8.26406473407165,1,6.0,23.785999298095703,0.0,0.0,0.0,66.7128,C,27716056000000,
Raw,1732148832000,21292000000,,690811.9708268312,-1416184028708000000,0.0,107.7262235141983,2059.8467309393704,0.0,0,29,0.0,16431,347249917473572,797,16.344999313354492,1065.1587984709458,0.14999,16,0.0,0.0,1575420030,,,,0,0.0,6,6.0,16.344999313354492,0.0,0.0,23.04828148048515,66.7128,C,27716056000000,
Raw,1732148832000,21292000000,,690811.9708268312,-1416184028708000000,0.0,107.7262235141983,2059.8467309393704,0.0,0,21,0.0,16431,347249918936329,316,25.375,865.271927309267,0.14999,16,0.0,0.0,1575420030,,,,0,10.550977996289166,1,6.0,25.375,0.0,0.0,0.0,66.7128,C,27716056000000,
Raw,1732148832000,21292000000,,690811.9708268312,-1416184028708000000,0.0,107.7262235141983,2059.8467309393704,0.0,0,27,0.0,16431,347249917378017,487,17.399999618530273,910.3217243403018,0.14999,16,0.0,0.0,1575420030,,,,0,0.0,6,6.0,17.399999618530273,0.0,0.0,23.04828148048515,66.7128,C,27716056000000,
Raw,1732148832000,21292000000,,690811.9708268312,-1416184028708000000,0.0,107.7262235141983,2059.8467309393704,0.0,0,14,0.0,16431,347249931849156,487,20.66200065612793,741.3497699944337,0.14999,16,0.0,0.0,1575420030,,,,0,3.324460045264521,1,6.0,20.66200065612793,0.0,0.0,0.0,66.7128,C,27716056000000,
Raw,1732148832000,21292000000,,690811.9708268312,-1416184028708000000,0.0,107.7262235141983,2059.8467309393704,0.0,0,17,0.0,16431,347249931670075,487,21.242000579833984,373.534516661016,0.14999,16,0.0,0.0,1575420030,,,,0,4.285688954669309,1,6.0,21.242000579833984,0.0,0.0,0.0,66.7128,C,27716056000000,
Raw,1732148832000,21292000000,,690811.9708268312,-1416184028708000000,0.0,107.7262235141983,2059.8467309393704,0.0,0,19,0.0,16431,347249920320148,797,15.414999961853027,635.1242738320215,0.14999,16,0.0,0.0,1575420030,,,,0,0.0,6,6.0,15.414999961853027,0.0,0.0,23.04828148048515,66.7128,C,27716056000000,
Raw,1732148832000,21292000000,,690811.9708268312,-1416184028708000000,0.0,107.7262235141983,2059.8467309393704,0.0,0,21,0.0,16431,347249920263301,316,23.700000762939453,530.6510962122384,0.14999,16,0.0,0.0,1575420030,,,,0,9.436974992327128,6,6.0,23.700000762939453,0.0,0.0,23.04828148048515,66.7128,C,27716056000000,
Raw,1732148832000,21292000000,,690811.9708268312,-1416184028708000000,0.0,107.7262235141983,2059.8467309393704,0.0,0,16,0.0,17,832471,487,5.0,1118.1728411522881,0.14999,16,0.0,0.0,1601437440,,,,0,0.0,3,6.0,19.0,0.0,0.0,39.407139928597815,66.7128,C,27716056000000,
Raw,1732148832000,21292000000,,690811.9708268312,-1416184028708000000,0.0,107.7262235141983,2059.8467309393704,0.0,0,9,0.0,17,765381,797,5.0,843.2130136541412,0.14999,16,0.0,0.0,1600875010,,,,0,0.0,3,6.0,17.0,0.0,0.0,39.407139928597815,66.7128,C,27716056000000,
Raw,1732148832000,21292000000,,690811.9708268312,-1416184028708000000,0.0,107.7262235141983,2059.8467309393704,0.0,0,8,0.0,17,732781,797,5.0,820.8121179222674,0.14999,16,0.0,0.0,1605374980,,,,0,0.0,3,6.0,17.0,0.0,0.0,39.407139928597815,66.7128,C,27716056000000,
Raw,1732148832000,21292000000,,690811.9708268312,-1416184028708000000,0.0,107.7262235141983,2059.8467309393704,0.0,0,18,0.0,17,309611,487,5.0,1211.5592851299637,0.14999,16,0.0,0.0,1600312450,,,,0,0.0,3,6.0,18.0,0.0,0.0,39.407139928597815,66.7128,C,27716056000000,
Fix,FLP,37.4243934000,-122.1707778000,2.0,0.12048946,2.483,214.99126,1732148832208,2.4,179.9,27716056000000,0.98711014,0,,,
Status,1732148832000,28,0,1,14,1575420030,37.90,16.0,68.0,1,0,0,32.9
Status,1732148832000,28,1,1,22,1575420030,0.00,311.0,68.0,0,0,0,0.0
Status,1732148832000,28,2,1,17,1575420030,27.80,167.0,65.0,1,0,0,22.8
Status,1732148832000,28,3,1,30,1575420030,30.10,109.0,57.0,1,0,0,25.1
Status,1732148832000,28,4,1,13,1575420030,32.20,274.0,56.0,1,0,0,27.2
Status,1732148832000,28,5,2,135,1575420030,0.00,197.0,45.0,0,0,0,0.0
Status,1732148832000,28,6,1,19,1575420030,24.50,194.0,36.0,1,0,0,19.5
Status,1732148832000,28,7,1,15,1575420030,0.00,301.0,27.0,0,0,0,0.0
Status,1732148832000,28,8,1,7,1575420030,30.70,118.0,23.0,1,0,0,25.7
Status,1732148832000,28,9,1,2,1575420030,33.50,69.0,21.0,1,0,0,28.5
Status,1732148832000,28,10,1,21,1575420030,34.60,51.0,13.0,1,0,0,29.599998
Status,1732148832000,28,11,3,9,1602000000,26.60,48.0,46.0,1,0,0,21.6
Status,1732148832000,28,12,3,8,1602000000,21.90,275.0,38.0,1,0,0,16.9
Status,1732148832000,28,13,3,19,1602000000,0.00,60.0,35.0,0,0,0,0.0
Status,1732148832000,28,14,3,20,1602000000,0.00,139.0,29.0,0,0,0,0.0
Status,1732148832000,28,15,3,11,1602000000,0.00,288.0,12.0,0,0,0,0.0
Status,1732148832000,28,16,3,18,1602000000,22.70,24.0,10.0,1,0,0,17.7
Status,1732148832000,28,17,3,16,1602000000,22.40,84.0,3.0,0,0,0,17.4
Status,1732148832000,28,18,6,21,1575420030,29.80,297.0,64.0,1,0,0,24.8
Status,1732148832000,28,19,6,19,1575420030,20.30,273.0,54.0,1,0,0,15.299999
Status,1732148832000,28,20,6,27,1575420030,22.40,48.0,47.0,1,0,0,17.4
Status,1732148832000,28,21,6,29,1575420030,21.30,196.0,45.0,1,0,0,16.3
Status,1732148832000,28,22,6,15,1575420030,0.00,82.0,19.0,0,0,0,0.0
Status,1732148832000,28,23,6,13,1575420030,0.00,133.0,13.0,0,0,0,0.0
Status,1732148832000,28,24,6,4,1575420030,0.00,322.0,11.0,0,0,0,0.0
Status,1732148832000,28,25,6,34,1575420030,0.00,34.0,5.0,0,0,0,0.0
Status,1732148832000,28,26,6,7,1575420030,0.00,162.0,3.0,0,0,0,0.0
Status,1732148832000,28,27,6,30,1575420030,0.00,68.0,1.0,0,0,0,0.0
Fix,GPS,37.4243950000,-122.1707766667,3.3000000000000007,0.0,2.5,213.43,1732148833000,2.1,152.8,27717056000000,38.4,0,,,
Raw,1732148833000,22292000000,,690399.9149304817,-1416184028708000000,0.0,99.47778927695745,2060.025385586003,0.0,0,2,0.0,16431,347250920499589,235,28.450000762939453,632.4578394920338,0.14999,16,0.0,0.0,1575420030,,,,0,14.61828487473603,1,6.0,28.450000762939453,0.0,0.0,0.0,66.7128,C,27717056000000,
Raw,1732148833000,22292000000,,690399.9149304817,-1416184028708000000,0.0,99.47778927695745,2060.025385586003,0.0,0,13,0.0,16431,347250930731083,235,27.20599937438965,609.7725665237577,0.14999,16,0.0,0.0,1575420030,,,,0,13.019540907950395,1,6.0,27.20599937438965,0.0,0.0,0.0,66.7128,C,27717056000000,
Raw,1732148833000,22292000000,,690399.9149304817,-1416184028708000000,0.0,99.47778927695745,2060.025385586003,0.0,0,7,0.0,16431,347250922802197,316,25.663000106811523,1113.562800235549,0.14999,16,0.0,0.0,1575420030,,,,0,10.944071756218566,1,6.0,25.663000106811523,0.0,0.0,0.0,66.7128,C,27717056000000,
Raw,1732148833000,22292000000,,690399.9149304817,-1416184028708000000,0.0,99.47778927695745,2060.025385586003,0.0,0,19,0.0,16431,347250925383470,396,19.483999252319336,1.0829921402838583,0.14999,16,0.0,0.0,1575420030,,,,0,4.610432932083021,1,6.0,19.483999252319336,0.0,0.0,0.0,66.7128,C,27717056000000,
Raw,1732148833000,22292000000,,690399.9149304817,-1416184028708000000,0.0,99.47778927695745,2060.025385586003,0.0,0,30,0.0,16431,347250929987380,396,25.10300064086914,891.6918065230435,0.14999,16,0.0,0.0,1575420030,,,,0,10.181309882408904,1,6.0,25.10300064086914,0.0,0.0,0.0,66.7128,C,27717056000000,
Raw,1732148833000,22292000000,,690399.9149304817,-1416184028708000000,0.0,99.47778927695745,2060.025385586003,0.0,0,29,0.0,16431,347250917470022,316,16.25200080871582,1065.2545028083396,0.14999,16,0.0,0.0,1575420030,,,,0,0.0,6,6.0,16.25200080871582,0.0,0.0,20.53975098604682,66.7128,C,27717056000000,
Raw,1732148833000,22292000000,,690399.9149304817,-1416184028708000000,0.0,99.47778927695745,2060.025385586003,0.0,0,21,0.0,16431,347250918933445,316,29.582000732421875,865.9783739861645,0.14999,16,0.0,0.0,1575420030,,,,0,16.03242364481443,1,6.0,29.582000732421875,0.0,0.0,0.0,66.7128,C,27717056000000,
Raw,1732148833000,22292000000,,690399.9149304817,-1416184028708000000,0.0,99.47778927695745,2060.025385586003,0.0,0,27,0.0,16431,347250917374979,487,17.399999618530273,910.6177573683952,0.14999,16,0.0,0.0,1575420030,,,,0,0.0,6,6.0,17.399999618530273,0.0,0.0,20.53975098604682,66.7128,C,27717056000000,
Raw,1732148833000,22292000000,,690399.9149304817,-1416184028708000000,0.0,99.47778927695745,2060.025385586003,0.0,0,14,0.0,16431,347250931846702,58,32.88999938964844,741.4162984464473,0.14999,16,0.0,0.0,1575420030,,,,0,19.958316547693794,1,6.0,32.88999938964844,0.0,0.0,0.0,66.7128,C,27717056000000,
Raw,1732148833000,22292000000,,690399.9149304817,-1416184028708000000,0.0,99.47778927695745,2060.025385586003,0.0,0,17,0.0,16431,347250931668860,396,22.812999725341797,373.0969945263533,0.14999,16,0.0,0.0,1575420030,,,,0,6.784463686835309,1,6.0,22.812999725341797,0.0,0.0,0.0,66.7128,C,27717056000000,
Raw,1732148833000,22292000000,,690399.9149304817,-1416184028708000000,0.0,99.47778927695745,2060.025385586003,0.0,0,19,0.0,16431,347250920318028,487,15.333999633789062,635.5621444048058,0.14999,16,0.0,0.0,1575420030,,,,0,0.0,6,6.0,15.333999633789062,0.0,0.0,20.53975098604682,66.7128,C,27717056000000,
Raw,1732148833000,22292000000,,690399.9149304817,-1416184028708000000,0.0,99.47778927695745,2060.025385586003,0.0,0,21,0.0,16431,347250920261532,235,24.799999237060547,530.1568715805906,0.14999,16,0.0,0.0,1575420030,,,,0,10.866863339953804,6,6.0,24.799999237060547,0.0,0.0,20.53975098604682,66.7128,C,27717056000000,
Raw,1732148833000,22292000000,,690399.9149304817,-1416184028708000000,0.0,99.47778927695745,2060.025385586003,0.0,0,16,0.0,17,828751,487,5.0,1115.3128903677439,0.14999,16,0.0,0.0,1601437440,,,,0,0.0,3,6.0,18.0,0.0,0.0,34.70085656557711,66.7128,C,27717056000000,
Raw,1732148833000,22292000000,,690399.9149304817,-1416184028708000000,0.0,99.47778927695745,2060.025385586003,0.0,0,9,0.0,17,762600,396,5.0,843.0668020668677,0.14999,16,0.0,0.0,1600875010,,,,0,6.626098793549607,3,6.0,22.0,0.0,0.0,34.70085656557711,66.7128,C,27717056000000,
Raw,1732148833000,22292000000,,690399.9149304817,-1416184028708000000,0.0,99.47778927695745,2060.025385586003,0.0,0,8,0.0,17,730041,487,5.0,820.7239438844628,0.14999,16,0.0,0.0,1605374980,,,,0,0.0,3,6.0,19.0,0.0,0.0,34.70085656557711,66.7128,C,27717056000000,
Raw,1732148833000,22292000000,,690399.9149304817,-1416184028708000000,0.0,99.47778927695745,2060.025385586003,0.0,0,18,0.0,17,305566,487,5.0,1212.7184123840937,0.14999,16,0.0,0.0,1600312450,,,,0,0.3332729245237962,3,6.0,18.0,0.0,0.0,34.70085656557711,66.7128,C,27717056000000,
Fix,FLP,37.4243938000,-122.1707776000,2.0,0.11063009,2.483,214.26347,1732148833208,2.1,152.8,27717056000000,0.9971118,0,,,
Status,1732148833000,28,0,1,14,1575420030,38.60,16.0,68.0,1,0,0,33.6
Status,1732148833000,28,1,1,22,1575420030,30.10,311.0,68.0,1,0,0,25.1
Status,1732148833000,28,2,1,17,1575420030,32.10,167.0,65.0,1,0,0,27.099998
Status,1732148833000,28,3,1,30,1575420030,35.20,109.0,57.0,1,0,0,30.2
Status,1732148833000,28,4,1,13,1575420030,31.20,274.0,56.0,1,0,0,26.2
Status,1732148833000,28,5,2,135,1575420030,0.00,197.0,45.0,0,0,0,0.0
Status,1732148833000,28,6,1,19,1575420030,30.50,194.0,36.0,1,0,0,25.5
Status,1732148833000,28,7,1,15,1575420030,0.00,301.0,27.0,0,0,0,0.0
Status,1732148833000,28,8,1,7,1575420030,32.80,118.0,23.0,1,0,0,27.8
Status,1732148833000,28,9,1,2,1575420030,32.60,69.0,21.0,1,0,0,27.599998
Status,1732148833000,28,10,1,21,1575420030,26.80,51.0,13.0,1,0,0,21.8
Status,1732148833000,28,11,3,9,1602000000,26.70,48.0,46.0,1,0,0,21.7
Status,1732148833000,28,12,3,8,1602000000,21.90,275.0,38.0,1,0,0,16.9
Status,1732148833000,28,13,3,19,1602000000,0.00,60.0,35.0,0,0,0,0.0
Status,1732148833000,28,14,3,20,1602000000,0.00,139.0,29.0,0,0,0,0.0
Status,1732148833000,28,15,3,11,1602000000,0.00,288.0,12.0,0,0,0,0.0
Status,1732148833000,28,16,3,18,1602000000,20.40,24.0,10.0,1,0,0,15.4
Status,1732148833000,28,17,3,16,1602000000,21.50,84.0,3.0,0,0,0,16.5
Status,1732148833000,28,18,6,21,1575420030,24.10,297.0,64.0,1,0,0,19.1
Status,1732148833000,28,19,6,19,1575420030,20.40,273.0,54.0,1,0,0,15.4
Status,1732148833000,28,20,6,27,1575420030,23.80,48.0,47.0,1,0,0,18.8
Status,1732148833000,28,21,6,29,1575420030,25.00,196.0,45.0,1,0,0,20.0
Status,1732148833000,28,22,6,15,1575420030,0.00,82.0,19.0,0,0,0,0.0
Status,1732148833000,28,23,6,13,1575420030,0.00,133.0,13.0,0,0,0,0.0
Status,1732148833000,28,24,6,4,1575420030,0.00,322.0,11.0,0,0,0,0.0
Status,1732148833000,28,25,6,34,1575420030,0.00,34.0,5.0,0,0,0,0.0
Status,1732148833000,28,26,6,7,1575420030,0.00,162.0,3.0,0,0,0,0.0
Status,1732148833000,28,27,6,30,1575420030,0.00,68.0,1.0,0,0,0,0.0
Fix,GPS,37.4244016667,-122.1707800000,3.1000000000000014,0.0,2.5,213.43,1732148834000,2.4,179.9,27718056000000,35.3,0,,,
Raw,1732148834000,23292000000,,690032.0041573561,-1416184028708000000,0.0,92.83207081397543,2061.8716006862014,0.0,0,2,0.0,16431,347251920497472,316,27.579999923706055,632.5337990025381,0.14999,16,0.0,0.0,1575420030,,,,0,13.490755543316649,1,6.0,27.579999923706055,0.0,0.0,0.0,66.7128,C,27718056000000,
Raw,1732148834000,23292000000,,690032.0041573561,-1416184028708000000,0.0,92.83207081397543,2061.8716006862014,0.0,0,13,0.0,16431,347251930729044,396,26.16200065612793,611.0141676969844,0.14999,16,0.0,0.0,1575420030,,,,0,11.609699500045137,1,6.0,26.16200065612793,0.0,0.0,0.0,66.7128,C,27718056000000,
Raw,1732148834000,23292000000,,690032.0041573561,-1416184028708000000,0.0,92.83207081397543,2061.8716006862014,0.0,0,7,0.0,16431,347251922798482,316,27.76300048828125,1112.596000594208,0.14999,16,0.0,0.0,1575420030,,,,0,13.744994853639405,1,6.0,27.76300048828125,0.0,0.0,0.0,66.7128,C,27718056000000,
Raw,1732148834000,23292000000,,690032.0041573561,-1416184028708000000,0.0,92.83207081397543,2061.8716006862014,0.0,0,19,0.0,16431,347251925383456,396,25.479999542236328,2.005470452560307,0.14999,16,0.0,0.0,1575420030,,,,0,10.710356589714673,1,6.0,25.479999542236328,0.0,0.0,0.0,66.7128,C,27718056000000,
Raw,1732148834000,23292000000,,690032.0041573561,-1416184028708000000,0.0,92.83207081397543,2061.8716006862014,0.0,0,30,0.0,16431,347251929984405,74,30.201000213623047,892.1576915208027,0.14999,16,0.0,0.0,1575420030,,,,0,16.78997749773194,1,6.0,30.201000213623047,0.0,0.0,0.0,66.7128,C,27718056000000,
Raw,1732148834000,23292000000,,690032.0041573561,-1416184028708000000,0.0,92.83207081397543,2061.8716006862014,0.0,0,29,0.0,16431,347251917466463,396,20.0,1066.2355187250414,0.14999,16,0.0,0.0,1575420030,,,,0,4.285688954669309,6,6.0,20.0,0.0,0.0,20.65851882882957,66.7128,C,27718056000000,
Raw,1732148834000,23292000000,,690032.0041573561,-1416184028708000000,0.0,92.83207081397543,2061.8716006862014,0.0,0,21,0.0,16431,347251918930555,396,21.819000244140625,866.3881372171413,0.14999,16,0.0,0.0,1575420030,,,,0,5.2256202081937815,1,6.0,21.819000244140625,0.0,0.0,0.0,66.7128,C,27718056000000,
Raw,1732148834000,23292000000,,690032.0041573561,-1416184028708000000,0.0,92.83207081397543,2061.8716006862014,0.0,0,27,0.0,16431,347251917371940,396,18.799999237060547,910.2775888449017,0.14999,16,0.0,0.0,1575420030,,,,0,2.347488694508181,6,6.0,18.799999237060547,0.0,0.0,20.65851882882957,66.7128,C,27718056000000,
Raw,1732148834000,23292000000,,690032.0041573561,-1416184028708000000,0.0,92.83207081397543,2061.8716006862014,0.0,0,14,0.0,16431,347251931844245,58,33.58000183105469,741.6279629907025,0.14999,16,0.0,0.0,1575420030,,,,0,20.75144648818418,1,6.0,33.58000183105469,0.0,0.0,0.0,66.7128,C,27718056000000,
Raw,1732148834000,23292000000,,690032.0041573561,-1416184028708000000,0.0,92.83207081397543,2061.8716006862014,0.0,0,17,0.0,16431,347251931667641,316,27.054000854492188,374.26059201876245,0.14999,16,0.0,0.0,1575420030,,,,0,12.805063600114934,1,6.0,27.054000854492188,0.0,0.0,0.0,66.7128,C,27718056000000,
Raw,1732148834000,23292000000,,690032.0041573561,-1416184028708000000,0.0,92.83207081397543,2061.8716006862014,0.0,0,19,0.0,16431,347251920315906,487,15.397000312805176,636.7646275915832,0.14999,16,0.0,0.0,1575420030,,,,0,0.0,6,6.0,15.397000312805176,0.0,0.0,20.65851882882957,66.7128,C,27718056000000,
Raw,1732148834000,23292000000,,690032.0041573561,-1416184028708000000,0.0,92.83207081397543,2061.8716006862014,0.0,0,21,0.0,16431,347251920259761,487,19.100000381469727,531.1049020217829,0.14999,16,0.0,0.0,1575420030,,,,0,2.75155641627392,6,6.0,19.100000381469727,0.0,0.0,20.65851882882957,66.7128,C,27718056000000,
Raw,1732148834000,23292000000,,690032.0041573561,-1416184028708000000,0.0,92.83207081397543,2061.8716006862014,0.0,0,16,0.0,17,825039,797,5.0,1112.7731392635328,0.14999,16,0.0,0.0,1601437440,,,,0,0.0,3,6.0,17.0,0.0,0.0,38.45355249735729,66.7128,C,27718056000000,
Raw,1732148834000,23292000000,,690032.0041573561,-1416184028708000000,0.0,92.83207081397543,2061.8716006862014,0.0,0,9,0.0,17,759714,396,5.0,843.5908412205038,0.14999,16,0.0,0.0,1600875010,,,,0,9.050407389922636,3,6.0,22.0,0.0,0.0,38.45355249735729,66.7128,C,27718056000000,
Raw,1732148834000,23292000000,,690032.0041573561,-1416184028708000000,0.0,92.83207081397543,2061.8716006862014,0.0,0,8,0.0,17,727301,797,5.0,821.720939674902,0.14999,16,0.0,0.0,1605374980,,,,0,0.0,3,6.0,17.0,0.0,0.0,38.45355249735729,66.7128,C,27718056000000,
Raw,1732148834000,23292000000,,690032.0041573561,-1416184028708000000,0.0,92.83207081397543,2061.8716006862014,0.0,0,18,0.0,17,301518,797,5.0,1209.8804166307289,0.14999,16,0.0,0.0,1600312450,,,,0,0.0,3,6.0,16.0,0.0,0.0,38.45355249735729,66.7128,C,27718056000000,
Raw,1732148834000,23292000000,,690032.0041573561,-1416184028708000000,0.0,92.83207081397543,2061.8716006862014,0.0,0,22,0.0,16431,347251930767724,316,25.075000762939453,604.0992505697916,0.14999,16,0.0,0.0,1575420030,,,,0,10.139247380653616,1,6.0,25.075000762939453,0.0,0.0,0.0,66.7128,C,27718056000000,
Fix,FLP,37.4243972000,-122.1707791000,2.0,0.097730905,2.483,,1732148834208,2.4,,27718056000000,1.0071179,0,,,
Status,1732148834000,28,0,1,14,1575420030,32.60,16.0,68.0,1,0,0,27.599998
Status,1732148834000,28,1,1,22,1575420030,28.00,311.0,68.0,1,0,0,23.0
Status,1732148834000,28,2,1,17,1575420030,32.60,167.0,65.0,1,0,0,27.599998
Status,1732148834000,28,3,1,30,1575420030,34.90,109.0,57.0,1,0,0,29.900002
Status,1732148834000,28,4,1,13,1575420030,33.70,274.0,56.0,1,0,0,28.7
Status,1732148834000,28,5,2,135,1575420030,0.00,197.0,45.0,0,0,0,0.0
Status,1732148834000,28,6,1,19,1575420030,29.10,194.0,36.0,1,0,0,24.1
Status,1732148834000,28,7,1,15,1575420030,23.60,301.0,27.0,1,0,0,18.6
Status,1732148834000,28,8,1,7,1575420030,29.50,118.0,23.0,1,0,0,24.5
Status,1732148834000,28,9,1,2,1575420030,32.40,69.0,21.0,1,0,0,27.400002
Status,1732148834000,28,10,1,21,1575420030,33.00,51.0,13.0,1,0,0,28.0
Status,1732148834000,28,11,3,9,1602000000,26.70,48.0,46.0,1,0,0,21.7
Status,1732148834000,28,12,3,8,1602000000,22.00,275.0,38.0,1,0,0,17.0
Status,1732148834000,28,13,3,19,1602000000,0.00,60.0,35.0,0,0,0,0.0
Status,1732148834000,28,14,3,20,1602000000,0.00,139.0,29.0,0,0,0,0.0
Status,1732148834000,28,15,3,11,1602000000,0.00,288.0,12.0,0,0,0,0.0
Status,1732148834000,28,16,3,18,1602000000,20.40,24.0,10.0,1,0,0,15.4
Status,1732148834000,28,17,3,16,1602000000,23.50,84.0,3.0,0,0,0,18.5
Status,1732148834000,28,18,6,21,1575420030,26.20,297.0,64.0,1,0,0,21.2
Status,1732148834000,28,19,6,19,1575420030,20.50,273.0,54.0,1,0,0,15.5
Status,1732148834000,28,20,6,27,1575420030,23.90,48.0,47.0,1,0,0,18.9
Status,1732148834000,28,21,6,29,1575420030,22.20,196.0,45.0,1,0,0,17.2
Status,1732148834000,28,22,6,15,1575420030,0.00,82.0,19.0,0,0,0,0.0
Status,1732148834000,28,23,6,13,1575420030,0.00,133.0,13.0,0,0,0,0.0
Status,1732148834000,28,24,6,4,1575420030,0.00,322.0,11.0,0,0,0,0.0
Status,1732148834000,28,25,6,34,1575420030,0.00,34.0,5.0,0,0,0,0.0
Status,1732148834000,28,26,6,7,1575420030,0.00,162.0,3.0,0,0,0,0.0
Status,1732148834000,28,27,6,30,1575420030,0.00,68.0,1.0,0,0,0,0.0
Fix,GPS,37.4244100000,-122.1707850000,3.1000000000000014,0.0,2.5,213.43,1732148835000,2.3,179.9,27719056000000,35.2,0,,,
Raw,1732148835000,24292000000,,689600.9768030922,-1416184028708000000,0.0,91.58078554978856,2063.060262614765,0.0,0,2,0.0,16431,347252920495355,316,27.375,632.8147795037794,0.14999,16,0.0,0.0,1575420030,,,,0,13.228849581513694,1,6.0,27.375,0.0,0.0,0.0,66.7128,C,27719056000000,
Raw,1732148835000,24292000000,,689600.9768030922,-1416184028708000000,0.0,91.58078554978856,2063.060262614765,0.0,0,13,0.0,16431,347252930726999,235,28.70400047302246,611.3107582260724,0.14999,16,0.0,0.0,1575420030,,,,0,14.939563506148035,1,6.0,28.70400047302246,0.0,0.0,0.0,66.7128,C,27719056000000,
Raw,1732148835000,24292000000,,689600.9768030922,-1416184028708000000,0.0,91.58078554978856,2063.060262614765,0.0,0,7,0.0,16431,347252922794770,316,24.530000686645508,1113.0440455601422,0.14999,16,0.0,0.0,1575420030,,,,0,9.345059958544145,1,6.0,24.530000686645508,0.0,0.0,0.0,66.7128,C,27719056000000,
Raw,1732148835000,24292000000,,689600.9768030922,-1416184028708000000,0.0,91.58078554978856,2063.060262614765,0.0,0,19,0.0,16431,347252925383453,396,24.13599967956543,2.2170885383993086,0.14999,16,0.0,0.0,1575420030,,,,0,8.772156329553544,1,6.0,24.13599967956543,0.0,0.0,0.0,66.7128,C,27719056000000,
Raw,1732148835000,24292000000,,689600.9768030922,-1416184028708000000,0.0,91.58078554978856,2063.060262614765,0.0,0,30,0.0,16431,347252929981431,74,29.92799949645996,892.3165793042427,0.14999,16,0.0,0.0,1575420030,,,,0,16.45009495532493,1,6.0,29.92799949645996,0.0,0.0,0.0,66.7128,C,27719056000000,
Raw,1732148835000,24292000000,,689600.9768030922,-1416184028708000000,0.0,91.58078554978856,2063.060262614765,0.0,0,29,0.0,16431,347252917462908,487,17.200000762939453,1066.0323096125364,0.14999,16,0.0,0.0,1575420030,,,,0,0.0,6,6.0,17.200000762939453,0.0,0.0,19.360503133901304,66.7128,C,27719056000000,
Raw,1732148835000,24292000000,,689600.9768030922,-1416184028708000000,0.0,91.58078554978856,2063.060262614765,0.0,0,22,0.0,16431,347252930765745,396,22.95800018310547,604.6577271910585,0.14999,16,0.0,0.0,1575420030,,,,0,7.029152815175541,1,6.0,22.95800018310547,0.0,0.0,0.0,66.7128,C,27719056000000,
Raw,1732148835000,24292000000,,689600.9768030922,-1416184028708000000,0.0,91.58078554978856,2063.060262614765,0.0,0,21,0.0,16431,347252918927665,235,27.97800064086914,866.6306501497604,0.14999,16,0.0,0.0,1575420030,,,,0,14.019020407187167,1,6.0,27.97800064086914,0.0,0.0,0.0,66.7128,C,27719056000000,
Raw,1732148835000,24292000000,,689600.9768030922,-1416184028708000000,0.0,91.58078554978856,2063.060262614765,0.0,0,27,0.0,16431,347252917368902,487,18.915000915527344,910.2435812842356,0.14999,16,0.0,0.0,1575420030,,,,0,5.800103233431677,6,6.0,18.915000915527344,0.0,0.0,19.360503133901304,66.7128,C,27719056000000,
Raw,1732148835000,24292000000,,689600.9768030922,-1416184028708000000,0.0,91.58078554978856,2063.060262614765,0.0,0,14,0.0,16431,347252931841764,316,27.621000289916992,742.3432367666799,0.14999,16,0.0,0.0,1575420030,,,,0,13.547899760206265,1,6.0,27.621000289916992,0.0,0.0,0.0,66.7128,C,27719056000000,
Raw,1732148835000,24292000000,,689600.9768030922,-1416184028708000000,0.0,91.58078554978856,2063.060262614765,0.0,0,17,0.0,16431,347252931666407,235,27.60099983215332,374.75946249203116,0.14999,16,0.0,0.0,1575420030,,,,0,13.519374645445621,1,6.0,27.60099983215332,0.0,0.0,0.0,66.7128,C,27719056000000,
Raw,1732148835000,24292000000,,689600.9768030922,-1416184028708000000,0.0,91.58078554978856,2063.060262614765,0.0,0,19,0.0,16431,347252920313781,487,15.456999778747559,636.3706602221179,0.14999,16,0.0,0.0,1575420030,,,,0,0.0,6,6.0,15.456999778747559,0.0,0.0,19.360503133901304,66.7128,C,27719056000000,
Raw,1732148835000,24292000000,,689600.9768030922,-1416184028708000000,0.0,91.58078554978856,2063.060262614765,0.0,0,21,0.0,16431,347252920257988,396,21.200000762939453,531.5305540311039,0.14999,16,0.0,0.0,1575420030,,,,0,6.073697179255527,6,6.0,21.200000762939453,0.0,0.0,19.360503133901304,66.7128,C,27719056000000,
Raw,1732148835000,24292000000,,689600.9768030922,-1416184028708000000,0.0,91.58078554978856,2063.060262614765,0.0,0,16,0.0,17,821327,487,5.0,1113.5208507637108,0.14999,16,0.0,0.0,1601437440,,,,0,1.7829741500211123,3,6.0,19.0,0.0,0.0,42.7219985384242,66.7128,C,27719056000000,
Raw,1732148835000,24292000000,,689600.9768030922,-1416184028708000000,0.0,91.58078554978856,2063.060262614765,0.0,0,9,0.0,17,756904,396,5.0,843.7867958368433,0.14999,16,0.0,0.0,1600875010,,,,0,7.9589795913972745,3,6.0,22.0,0.0,0.0,42.7219985384242,66.7128,C,27719056000000,
Raw,1732148835000,24292000000,,689600.9768030922,-1416184028708000000,0.0,91.58078554978856,2063.060262614765,0.0,0,8,0.0,17,724537,487,5.0,822.4633523075848,0.14999,16,0.0,0.0,1605374980,,,,0,2.7027630711513426,3,6.0,18.0,0.0,0.0,42.7219985384242,66.7128,C,27719056000000,
Raw,1732148835000,24292000000,,689600.9768030922,-1416184028708000000,0.0,91.58078554978856,2063.060262614765,0.0,0,18,0.0,17,297476,487,5.0,1210.9051722042784,0.14999,16,0.0,0.0,1600312450,,,,0,0.0,3,6.0,19.0,0.0,0.0,42.7219985384242,66.7128,C,27719056000000,
Raw,1732148835000,24292000000,,689600.9768030922,-1416184028708000000,0.0,91.58078554978856,2063.060262614765,0.0,0,15,0.0,16431,347252924597126,487,18.59000015258789,400.29444825224556,0.14999,16,0.0,0.0,1575420030,,,,0,0.0,1,6.0,18.59000015258789,0.0,0.0,0.0,66.7128,C,27719056000000,
Fix,FLP,37.4244032000,-122.1707823000,2.0,0.08274778,2.483,,1732148835208,2.3,,27719056000000,1.0171124,0,,,
Fix,NLP,37.4243742000,-122.1708712000,2.0,,10.996,,1732148834685,,,27718533000000,1.0,0,,,
Status,1732148835000,28,0,1,14,1575420030,28.60,16.0,68.0,1,0,0,23.6
Status,1732148835000,28,1,1,22,1575420030,31.50,311.0,68.0,1,0,0,26.5
Status,1732148835000,28,2,1,17,1575420030,33.80,167.0,65.0,1,0,0,28.8
Status,1732148835000,28,3,1,30,1575420030,42.10,109.0,57.0,1,0,0,37.1
Status,1732148835000,28,4,1,13,1575420030,28.80,274.0,56.0,1,0,0,23.8
Status,1732148835000,28,5,2,135,1575420030,0.00,197.0,45.0,0,0,0,0.0
Status,1732148835000,28,6,1,19,1575420030,30.50,194.0,36.0,1,0,0,25.5
Status,1732148835000,28,7,1,15,1575420030,31.10,301.0,27.0,1,0,0,26.1
Status,1732148835000,28,8,1,7,1575420030,35.00,118.0,23.0,1,0,0,30.0
Status,1732148835000,28,9,1,2,1575420030,29.90,69.0,21.0,1,0,0,24.9
Status,1732148835000,28,10,1,21,1575420030,26.00,51.0,13.0,1,0,0,21.0
Status,1732148835000,28,11,3,9,1602000000,31.00,48.0,46.0,1,0,0,26.0
Status,1732148835000,28,12,3,8,1602000000,22.10,275.0,38.0,1,0,0,17.1
Status,1732148835000,28,13,3,19,1602000000,0.00,60.0,35.0,0,0,0,0.0
Status,1732148835000,28,14,3,20,1602000000,0.00,139.0,29.0,0,0,0,0.0
Status,1732148835000,28,15,3,11,1602000000,0.00,288.0,12.0,0,0,0,0.0
Status,1732148835000,28,16,3,18,1602000000,23.90,24.0,10.0,1,0,0,18.9
Status,1732148835000,28,17,3,16,1602000000,21.00,84.0,3.0,0,0,0,16.0
Status,1732148835000,28,18,6,21,1575420030,30.20,297.0,64.0,1,0,0,25.2
Status,1732148835000,28,19,6,19,1575420030,20.50,273.0,54.0,1,0,0,15.5
Status,1732148835000,28,20,6,27,1575420030,23.10,48.0,47.0,1,0,0,18.1
Status,1732148835000,28,21,6,29,1575420030,22.20,196.0,45.0,1,0,0,17.2
Status,1732148835000,28,22,6,15,1575420030,0.00,82.0,19.0,0,0,0,0.0
Status,1732148835000,28,23,6,13,1575420030,0.00,133.0,13.0,0,0,0,0.0
Status,1732148835000,28,24,6,4,1575420030,0.00,322.0,11.0,0,0,0,0.0
Status,1732148835000,28,25,6,34,1575420030,0.00,34.0,5.0,0,0,0,0.0
Status,1732148835000,28,26,6,7,1575420030,0.00,162.0,3.0,0,0,0,0.0
Status,1732148835000,28,27,6,30,1575420030,0.00,68.0,1.0,0,0,0,0.0
Fix,GPS,37.4244150000,-122.1707900000,3.1000000000000014,0.0,2.5,213.43,1732148836000,2.3,179.9,27720056000000,33.2,0,,,
Raw,1732148836000,25292000000,,689230.5642992527,-1416184028708000000,0.0,83.60081197845997,2067.046047547291,0.0,0,2,0.0,16431,347253920493246,396,24.851999282836914,634.4834728972295,0.14999,16,0.0,0.0,1575420030,,,,0,9.795206778501171,1,6.0,24.851999282836914,0.0,0.0,0.0,66.7128,C,27720056000000,
