# 
# Header Description:
# 
# Version: v3.1.0.3 Platform: 13 Manufacturer: samsung Model: SM-S135DL GNSS Hardware Model Name: MediaTek,MT6631,MTK_MNLD_default,MNL_VER_default
# 
# Raw,utcTimeMillis,TimeNanos,LeapSecond,TimeUncertaintyNanos,FullBiasNanos,BiasNanos,BiasUncertaintyNanos,DriftNanosPerSecond,DriftUncertaintyNanosPerSecond,HardwareClockDiscontinuityCount,Svid,TimeOffsetNanos,State,ReceivedSvTimeNanos,ReceivedSvTimeUncertaintyNanos,Cn0DbHz,PseudorangeRateMetersPerSecond,PseudorangeRateUncertaintyMetersPerSecond,AccumulatedDeltaRangeState,AccumulatedDeltaRangeMeters,AccumulatedDeltaRangeUncertaintyMeters,CarrierFrequencyHz,CarrierCycles,CarrierPhase,CarrierPhaseUncertainty,MultipathIndicator,SnrInDb,ConstellationType,AgcDb,BasebandCn0DbHz,FullInterSignalBiasNanos,FullInterSignalBiasUncertaintyNanos,SatelliteInterSignalBiasNanos,SatelliteInterSignalBiasUncertaintyNanos,CodeType,ChipsetElapsedRealtimeNanos,IsFullTracking
# 
# UncalAccel,utcTimeMillis,elapsedRealtimeNanos,UncalAccelXMps2,UncalAccelYMps2,UncalAccelZMps2,BiasXMps2,BiasYMps2,BiasZMps2
# 
# Accel,utcTimeMillis,elapsedRealtimeNanos,AccelXMps2,AccelYMps2,AccelZMps2
# 
# UncalGyro,utcTimeMillis,elapsedRealtimeNanos,UncalGyroXRadPerSec,UncalGyroYRadPerSec,UncalGyroZRadPerSec,DriftXRadPerSec,DriftYRadPerSec,DriftZRadPerSec
# 
# Gyro,utcTimeMillis,elapsedRealtimeNanos,GyroXRadPerSec,GyroYRadPerSec,GyroZRadPerSec
# 
# UncalMag,utcTimeMillis,elapsedRealtimeNanos,UncalMagXMicroT,UncalMagYMicroT,UncalMagZMicroT,BiasXMicroT,BiasYMicroT,BiasZMicroT
# 
# Mag,utcTimeMillis,elapsedRealtimeNanos,MagXMicroT,MagYMicroT,MagZMicroT
# 
# Pressure,utcTimeMillis,elapsedRealtimeNanos,PressureHpa
# 
# OrientationDeg,utcTimeMillis,elapsedRealtimeNanos,yawDeg,rollDeg,pitchDeg
# 
# Fix,Provider,LatitudeDegrees,LongitudeDegrees,AltitudeMeters,SpeedMps,AccuracyMeters,BearingDegrees,UnixTimeMillis,SpeedAccuracyMps,BearingAccuracyDegrees,elapsedRealtimeNanos,VerticalAccuracyMeters,MockLocation,NumberOfUsedSignals,VerticalSpeedAccuracyMps,SolutionType
# 
# Nav,Svid,Type,Status,MessageId,Sub-messageId,Data(Bytes)
# 
# Status,UnixTimeMillis,SignalCount,SignalIndex,ConstellationType,Svid,CarrierFrequencyHz,Cn0DbHz,AzimuthDegrees,ElevationDegrees,UsedInFix,HasAlmanacData,HasEphemerisData,BasebandCn0DbHz
# 
# Agc,utcTimeMillis,TimeNanos,LeapSecond,TimeUncertaintyNanos,FullBiasNanos,BiasNanos,BiasUncertaintyNanos,DriftNanosPerSecond,DriftUncertaintyNanosPerSecond,HardwareClockDiscontinuityCount,AgcDb,CarrierFrequencyHz,ConstellationType
# 
Status,,28,0,1,14,1575420030,0.00,8.0,69.0,0,0,0,0.0
Status,,28,1,1,22,1575420030,26.60,302.0,67.0,1,0,0,21.6
Status,,28,2,1,17,1575420030,27.10,169.0,61.0,1,0,0,22.1
Status,,28,3,1,30,1575420030,30.00,105.0,60.0,1,0,0,25.0
Status,,28,4,1,13,1575420030,0.00,281.0,56.0,0,0,0,0.0
Status,,28,5,1,19,1575420030,27.40,194.0,32.0,1,0,0,22.4
Status,,28,6,1,7,1575420030,32.20,116.0,26.0,1,0,0,27.2
Status,,28,7,1,15,1575420030,0.00,304.0,26.0,0,0,0,0.0
Status,,28,8,2,131,1575420030,30.00,3.0,23.0,0,0,0,25.0
Status,,28,9,1,2,1575420030,34.10,73.0,20.0,1,0,0,29.099998
Status,,28,10,1,21,1575420030,36.60,54.0,14.0,1,0,0,31.599998
Status,,28,11,3,9,1602000000,28.50,43.0,48.0,1,0,0,23.5
Status,,28,12,3,8,1602000000,24.60,280.0,39.0,1,0,0,19.6
Status,,28,13,3,19,1602000000,0.00,65.0,36.0,0,0,0,0.0
Status,,28,14,3,20,1602000000,0.00,141.0,26.0,0,0,0,0.0
Status,,28,15,3,18,1602000000,21.90,26.0,12.0,1,0,0,16.9
Status,,28,16,3,11,1602000000,0.00,285.0,10.0,0,0,0,0.0
Status,,28,17,3,16,1602000000,25.10,81.0,5.0,1,0,0,20.1
Status,,28,18,6,21,1575420030,20.60,291.0,63.0,1,0,0,15.6
Status,,28,19,6,19,1575420030,21.50,278.0,54.0,1,0,0,16.5
Status,,28,20,6,27,1575420030,0.00,46.0,49.0,0,0,0,0.0
Status,,28,21,6,29,1575420030,22.70,197.0,48.0,1,0,0,17.7
Status,,28,22,6,15,1575420030,0.00,84.0,18.0,0,0,0,0.0
Status,,28,23,6,4,1575420030,0.00,323.0,10.0,0,0,0,0.0
Status,,28,24,6,13,1575420030,0.00,135.0,10.0,0,0,0,0.0
Status,,28,25,6,34,1575420030,0.00,37.0,6.0,0,0,0,0.0
Status,,28,26,6,7,1575420030,0.00,162.0,5.0,0,0,0,0.0
Status,,28,27,6,30,1575420030,0.00,66.0,2.0,0,0,0,0.0
Fix,GPS,37.4244366667,-122.1707916667,-1.5,0.0,2.6,25.82,1732148396000,2.7,179.9,27280056000000,34.6,0,,,
Fix,FLP,37.4244393000,-122.1707909000,2.0,0.14653112,2.466,24.695683,1732148396208,2.7,179.9,27280056000000,1.0939467,0,,,
Raw,1732148396000,17014000000,,690825.730345758,-1416183596986999808,0.0,84.83656067647571,2175.13990568433,0.0,0,30,0.0,16431,346813931056227,487,24.988000869750977,889.5105838819587,0.14999,16,0.0,0.0,1575420030,,,,0,10.01726772396502,1,6.0,24.988000869750977,0.0,0.0,0.0,66.7128,C,27280056000000,
Raw,1732148396000,17014000000,,690825.730345758,-1416183596986999808,0.0,84.83656067647571,2175.13990568433,0.0,0,2,0.0,16431,346813921181944,235,29.14900016784668,619.5373358181373,0.14999,16,0.0,0.0,1575420030,,,,0,15.489102670305853,1,6.0,29.14900016784668,0.0,0.0,0.0,66.7128,C,27280056000000,
Raw,1732148396000,17014000000,,690825.730345758,-1416183596986999808,0.0,84.83656067647571,2175.13990568433,0.0,0,22,0.0,16431,346813931426791,487,21.621999740600586,613.1620331952299,0.14999,16,0.0,0.0,1575420030,,,,0,4.920676255647972,1,6.0,21.621999740600586,0.0,0.0,0.0,66.7128,C,27280056000000,
Raw,1732148396000,17014000000,,690825.730345758,-1416183596986999808,0.0,84.83656067647571,2175.13990568433,0.0,0,19,0.0,16431,346813925164337,487,22.43600082397461,13.913459403564431,0.14999,16,0.0,0.0,1575420030,,,,0,6.248220715954636,1,6.0,22.43600082397461,0.0,0.0,0.0,66.7128,C,27280056000000,
Raw,1732148396000,17014000000,,690825.730345758,-1416183596986999808,0.0,84.83656067647571,2175.13990568433,0.0,0,29,0.0,16431,346813918800200,396,17.700000762939453,1073.3152238545329,0.14999,16,0.0,0.0,1575420030,,,,0,0.2957457765132423,6,6.0,17.700000762939453,0.0,0.0,19.384522253927557,66.7128,C,27280056000000,
Raw,1732148396000,17014000000,,690825.730345758,-1416183596986999808,0.0,84.83656067647571,2175.13990568433,0.0,0,21,0.0,16431,346813919955224,74,31.648000717163086,851.2624848178116,0.14999,16,0.0,0.0,1575420030,,,,0,18.508900762825988,1,6.0,31.648000717163086,0.0,0.0,0.0,66.7128,C,27280056000000,
Raw,1732148396000,17014000000,,690825.730345758,-1416183596986999808,0.0,84.83656067647571,2175.13990568433,0.0,0,19,0.0,16431,346813921011223,797,16.5,630.7262414030347,0.14999,16,0.0,0.0,1575420030,,,,0,0.0,6,6.0,16.5,0.0,0.0,19.384522253927557,66.7128,C,27280056000000,
Raw,1732148396000,17014000000,,690825.730345758,-1416183596986999808,0.0,84.83656067647571,2175.13990568433,0.0,0,21,0.0,16431,346813920819676,487,15.600000381469727,549.8986322145995,0.14999,16,0.0,0.0,1575420030,,,,0,0.0,6,6.0,15.600000381469727,0.0,0.0,19.384522253927557,66.7128,C,27280056000000,
Raw,1732148396000,17014000000,,690825.730345758,-1416183596986999808,0.0,84.83656067647571,2175.13990568433,0.0,0,16,0.0,17,245162,316,5.0,1144.8047160206108,0.14999,16,0.0,0.0,1601437440,,,,0,4.404472202604727,3,6.0,25.0,0.0,0.0,48.797274941251395,66.7128,C,27280056000000,
Raw,1732148396000,17014000000,,690825.730345758,-1416183596986999808,0.0,84.83656067647571,2175.13990568433,0.0,0,18,0.0,17,833104,797,5.0,1195.0832498341608,0.14999,16,0.0,0.0,1600312450,,,,0,0.0,3,6.0,16.0,0.0,0.0,48.797274941251395,66.7128,C,27280056000000,
Raw,1732148396000,17014000000,,690825.730345758,-1416183596986999808,0.0,84.83656067647571,2175.13990568433,0.0,0,9,0.0,17,773882,396,5.0,859.5301902181003,0.14999,16,0.0,0.0,1600875010,,,,0,9.135201576442665,3,6.0,22.0,0.0,0.0,48.797274941251395,66.7128,C,27280056000000,
Raw,1732148396000,17014000000,,690825.730345758,-1416183596986999808,0.0,84.83656067647571,2175.13990568433,0.0,0,8,0.0,17,671460,487,5.0,785.0973470067041,0.14999,16,0.0,0.0,1605374980,,,,0,5.915149811213503,3,6.0,20.0,0.0,0.0,48.797274941251395,66.7128,C,27280056000000,
Raw,1732148396000,17014000000,,690825.730345758,-1416183596986999808,0.0,84.83656067647571,2175.13990568433,0.0,0,17,0.0,16431,346813931972794,487,22.104999542236328,358.72192429932096,0.14999,16,0.0,0.0,1575420030,,,,0,5.683085524686114,1,6.0,22.104999542236328,0.0,0.0,0.0,66.7128,C,27280056000000,
Raw,1732148396000,17014000000,,690825.730345758,-1416183596986999808,0.0,84.83656067647571,2175.13990568433,0.0,0,7,0.0,16431,346813924200246,316,27.20800018310547,1120.9377021416424,0.14999,16,0.0,0.0,1575420030,,,,0,13.02174167812447,1,6.0,27.20800018310547,0.0,0.0,0.0,66.7128,C,27280056000000,
Status,1732148396000,29,0,1,14,1575420030,25.70,8.0,69.0,1,0,0,20.7
Status,1732148396000,29,1,1,22,1575420030,27.90,302.0,67.0,1,0,0,22.9
Status,1732148396000,29,2,1,17,1575420030,26.10,169.0,61.0,1,0,0,21.1
Status,1732148396000,29,3,1,30,1575420030,29.60,105.0,60.0,1,0,0,24.6
Status,1732148396000,29,4,1,13,1575420030,0.00,281.0,56.0,0,0,0,0.0
Status,1732148396000,29,5,1,19,1575420030,26.80,194.0,32.0,1,0,0,21.8
Status,1732148396000,29,6,1,7,1575420030,41.60,116.0,26.0,1,0,0,36.6
Status,1732148396000,29,7,1,15,1575420030,0.00,304.0,26.0,0,0,0,0.0
Status,1732148396000,29,8,2,131,1575420030,30.00,3.0,23.0,0,0,0,25.0
Status,1732148396000,29,9,1,2,1575420030,30.00,73.0,20.0,1,0,0,25.0
Status,1732148396000,29,10,1,21,1575420030,35.90,54.0,14.0,1,0,0,30.900002
Status,1732148396000,29,11,3,9,1602000000,28.40,43.0,48.0,1,0,0,23.4
Status,1732148396000,29,12,3,8,1602000000,24.70,280.0,39.0,1,0,0,19.7
Status,1732148396000,29,13,3,19,1602000000,0.00,65.0,36.0,0,0,0,0.0
Status,1732148396000,29,14,3,20,1602000000,0.00,141.0,26.0,0,0,0,0.0
Status,1732148396000,29,15,3,18,1602000000,20.90,26.0,12.0,1,0,0,15.9
Status,1732148396000,29,16,3,11,1602000000,0.00,285.0,10.0,0,0,0,0.0
Status,1732148396000,29,17,3,16,1602000000,30.60,81.0,5.0,1,0,0,25.6
Status,1732148396000,29,18,3,17,1602000000,26.40,0.0,0.0,0,0,0,21.4
Status,1732148396000,29,19,6,21,1575420030,20.60,291.0,63.0,1,0,0,15.6
Status,1732148396000,29,20,6,19,1575420030,0.00,278.0,54.0,0,0,0,0.0
Status,1732148396000,29,21,6,27,1575420030,0.00,46.0,49.0,0,0,0,0.0
Status,1732148396000,29,22,6,29,1575420030,22.40,197.0,48.0,1,0,0,17.4
Status,1732148396000,29,23,6,15,1575420030,0.00,84.0,18.0,0,0,0,0.0
Status,1732148396000,29,24,6,4,1575420030,0.00,323.0,10.0,0,0,0,0.0
Status,1732148396000,29,25,6,13,1575420030,0.00,135.0,10.0,0,0,0,0.0
Status,1732148396000,29,26,6,34,1575420030,0.00,37.0,6.0,0,0,0,0.0
Status,1732148396000,29,27,6,7,1575420030,0.00,162.0,5.0,0,0,0,0.0
Status,1732148396000,29,28,6,30,1575420030,0.00,66.0,2.0,0,0,0,0.0
Fix,GPS,37.4244183333,-122.1707833333,-1.5,0.0,2.5,25.82,1732148397000,2.3,124.2,27281056000000,32.8,0,,,
Fix,FLP,37.4244296000,-122.1707869000,2.0,0.119095765,2.483,30.113531,1732148397208,2.3,124.2,27281056000000,1.1049591,0,,,
Raw,1732148397000,18014000000,,690418.2088363277,-1416183596986999808,0.0,82.19009558745786,2175.6569361637826,0.0,0,30,0.0,16431,346814931053261,316,24.632999420166016,889.9621596875252,0.14999,16,0.0,0.0,1575420030,,,,0,9.515580864895774,1,6.0,24.632999420166016,0.0,0.0,0.0,66.7128,C,27281056000000,
Raw,1732148397000,18014000000,,690418.2088363277,-1416183596986999808,0.0,82.19009558745786,2175.6569361637826,0.0,0,2,0.0,16431,346814921179876,316,25.016000747680664,619.2519882257722,0.14999,16,0.0,0.0,1575420030,,,,0,10.06147082006736,1,6.0,25.016000747680664,0.0,0.0,0.0,66.7128,C,27281056000000,
Raw,1732148397000,18014000000,,690418.2088363277,-1416183596986999808,0.0,82.19009558745786,2175.6569361637826,0.0,0,22,0.0,16431,346814931424743,396,22.94499969482422,613.1588275645114,0.14999,16,0.0,0.0,1575420030,,,,0,7.032442301917401,1,6.0,22.94499969482422,0.0,0.0,0.0,66.7128,C,27281056000000,
Raw,1732148397000,18014000000,,690418.2088363277,-1416183596986999808,0.0,82.19009558745786,2175.6569361637826,0.0,0,19,0.0,16431,346814925164288,487,21.80299949645996,13.783282921342503,0.14999,16,0.0,0.0,1575420030,,,,0,5.233715166503894,1,6.0,21.80299949645996,0.0,0.0,0.0,66.7128,C,27281056000000,
Raw,1732148397000,18014000000,,690418.2088363277,-1416183596986999808,0.0,82.19009558745786,2175.6569361637826,0.0,0,14,0.0,16431,346814932703624,396,20.701000213623047,752.809853354752,0.14999,16,0.0,0.0,1575420030,,,,0,3.447902843746604,1,6.0,20.701000213623047,0.0,0.0,0.0,66.7128,C,27281056000000,
Raw,1732148397000,18014000000,,690418.2088363277,-1416183596986999808,0.0,82.19009558745786,2175.6569361637826,0.0,0,29,0.0,16431,346814918796613,487,17.399999618530273,1073.7556496402087,0.14999,16,0.0,0.0,1575420030,,,,0,0.0,6,6.0,17.399999618530273,0.0,0.0,18.379562804936185,66.7128,C,27281056000000,
Raw,1732148397000,18014000000,,690418.2088363277,-1416183596986999808,0.0,82.19009558745786,2175.6569361637826,0.0,0,21,0.0,16431,346814919952380,74,30.91200065612793,851.4103154981935,0.14999,16,0.0,0.0,1575420030,,,,0,17.63256443941342,1,6.0,30.91200065612793,0.0,0.0,0.0,66.7128,C,27281056000000,
Raw,1732148397000,18014000000,,690418.2088363277,-1416183596986999808,0.0,82.19009558745786,2175.6569361637826,0.0,0,21,0.0,16431,346814920817842,487,15.600000381469727,550.0661612634548,0.14999,16,0.0,0.0,1575420030,,,,0,0.0,6,6.0,15.600000381469727,0.0,0.0,18.379562804936185,66.7128,C,27281056000000,
Raw,1732148397000,18014000000,,690418.2088363277,-1416183596986999808,0.0,82.19009558745786,2175.6569361637826,0.0,0,16,0.0,17,241340,235,5.0,1145.2810393246973,0.14999,16,0.0,0.0,1601437440,,,,0,11.78078357192353,3,6.0,27.0,0.0,0.0,42.75126902311475,66.7128,C,27281056000000,
Raw,1732148397000,18014000000,,690418.2088363277,-1416183596986999808,0.0,82.19009558745786,2175.6569361637826,0.0,0,18,0.0,17,829114,487,5.0,1198.3023159900436,0.14999,16,0.0,0.0,1600312450,,,,0,0.0,3,6.0,18.0,0.0,0.0,42.75126902311475,66.7128,C,27281056000000,
Raw,1732148397000,18014000000,,690418.2088363277,-1416183596986999808,0.0,82.19009558745786,2175.6569361637826,0.0,0,9,0.0,17,771015,396,5.0,859.8897299061298,0.14999,16,0.0,0.0,1600875010,,,,0,9.002589998462401,3,6.0,23.0,0.0,0.0,42.75126902311475,66.7128,C,27281056000000,
Raw,1732148397000,18014000000,,690418.2088363277,-1416183596986999808,0.0,82.19009558745786,2175.6569361637826,0.0,0,8,0.0,17,668846,396,5.0,785.0978029221012,0.14999,16,0.0,0.0,1605374980,,,,0,6.338935792612265,3,6.0,21.0,0.0,0.0,42.75126902311475,66.7128,C,27281056000000,
Raw,1732148397000,18014000000,,690418.2088363277,-1416183596986999808,0.0,82.19009558745786,2175.6569361637826,0.0,0,17,0.0,16431,346814931971594,487,21.05299949645996,359.1082724885278,0.14999,16,0.0,0.0,1575420030,,,,0,3.996667810685396,1,6.0,21.05299949645996,0.0,0.0,0.0,66.7128,C,27281056000000,
Raw,1732148397000,18014000000,,690418.2088363277,-1416183596986999808,0.0,82.19009558745786,2175.6569361637826,0.0,0,7,0.0,16431,346814924196515,51,36.58000183105469,1120.3280748041277,0.14999,16,0.0,0.0,1575420030,,,,0,24.102379739919073,1,6.0,36.58000183105469,0.0,0.0,0.0,66.7128,C,27281056000000,
Fix,NLP,37.4243747000,-122.1708666000,2.0,,17.424,,1732148396853,,,27280701000000,1.0,0,,,
Status,1732148397000,29,0,1,14,1575420030,27.70,8.0,69.0,1,0,0,22.7
Status,1732148397000,29,1,1,22,1575420030,28.20,303.0,67.0,1,0,0,23.2
Status,1732148397000,29,2,1,17,1575420030,27.10,169.0,61.0,1,0,0,22.1
Status,1732148397000,29,3,1,30,1575420030,31.30,105.0,60.0,1,0,0,26.3
Status,1732148397000,29,4,1,13,1575420030,0.00,281.0,56.0,0,0,0,0.0
Status,1732148397000,29,5,1,19,1575420030,28.50,194.0,32.0,1,0,0,23.5
Status,1732148397000,29,6,1,7,1575420030,33.50,116.0,26.0,1,0,0,28.5
Status,1732148397000,29,7,1,15,1575420030,0.00,304.0,26.0,0,0,0,0.0
Status,1732148397000,29,8,2,131,1575420030,31.00,3.0,23.0,0,0,0,26.0
Status,1732148397000,29,9,1,2,1575420030,31.30,73.0,20.0,1,0,0,26.3
Status,1732148397000,29,10,1,21,1575420030,30.40,54.0,14.0,1,0,0,25.4
Status,1732148397000,29,11,3,9,1602000000,27.90,43.0,48.0,1,0,0,22.9
Status,1732148397000,29,12,3,8,1602000000,24.60,280.0,39.0,1,0,0,19.6
Status,1732148397000,29,13,3,19,1602000000,0.00,65.0,36.0,0,0,0,0.0
Status,1732148397000,29,14,3,20,1602000000,0.00,141.0,26.0,0,0,0,0.0
Status,1732148397000,29,15,3,18,1602000000,22.70,26.0,12.0,1,0,0,17.7
Status,1732148397000,29,16,3,11,1602000000,0.00,285.0,10.0,0,0,0,0.0
Status,1732148397000,29,17,3,16,1602000000,29.40,81.0,5.0,1,0,0,24.4
Status,1732148397000,29,18,3,17,1602000000,26.60,0.0,0.0,0,0,0,21.6
Status,1732148397000,29,19,6,21,1575420030,20.30,291.0,63.0,1,0,0,15.299999
Status,1732148397000,29,20,6,19,1575420030,0.00,278.0,54.0,0,0,0,0.0
Status,1732148397000,29,21,6,27,1575420030,27.40,46.0,49.0,1,0,0,22.4
Status,1732148397000,29,22,6,29,1575420030,22.40,197.0,48.0,1,0,0,17.4
Status,1732148397000,29,23,6,15,1575420030,0.00,84.0,18.0,0,0,0,0.0
Status,1732148397000,29,24,6,4,1575420030,0.00,323.0,10.0,0,0,0,0.0
Status,1732148397000,29,25,6,13,1575420030,0.00,135.0,10.0,0,0,0,0.0
Status,1732148397000,29,26,6,34,1575420030,0.00,37.0,6.0,0,0,0,0.0
Status,1732148397000,29,27,6,7,1575420030,0.00,162.0,5.0,0,0,0,0.0
Status,1732148397000,29,28,6,30,1575420030,0.00,66.0,2.0,0,0,0,0.0
Fix,GPS,37.4244133333,-122.1707766667,-1.3999999999999986,0.0,2.6,25.82,1732148398000,2.8,138.0,27282056000000,32.6,0,,,
Fix,FLP,37.4244221000,-122.1707816000,2.0,0.101551786,2.516,38.29575,1732148398208,2.8,138.0,27282056000000,0.8970643,0,,,
Raw,1732148398000,19014000000,,690176.1142703596,-1416183596986999808,0.0,81.77063374975769,2172.830284094495,0.0,0,30,0.0,16431,346815931050287,316,26.322999954223633,888.3410397122746,0.14999,16,0.0,0.0,1575420030,,,,0,11.848453616444125,1,6.0,26.322999954223633,0.0,0.0,0.0,66.7128,C,27282056000000,
Raw,1732148398000,19014000000,,690176.1142703596,-1416183596986999808,0.0,81.77063374975769,2172.830284094495,0.0,0,2,0.0,16431,346815921177811,316,26.27400016784668,618.697646403548,0.14999,16,0.0,0.0,1575420030,,,,0,11.77637113106762,1,6.0,26.27400016784668,0.0,0.0,0.0,66.7128,C,27282056000000,
Raw,1732148398000,19014000000,,690176.1142703596,-1416183596986999808,0.0,81.77063374975769,2172.830284094495,0.0,0,22,0.0,16431,346815931422701,487,23.20599937438965,611.7623804900551,0.14999,16,0.0,0.0,1575420030,,,,0,7.399506341534996,1,6.0,23.20599937438965,0.0,0.0,0.0,66.7128,C,27282056000000,
Raw,1732148398000,19014000000,,690176.1142703596,-1416183596986999808,0.0,81.77063374975769,2172.830284094495,0.0,0,19,0.0,16431,346815925164240,487,23.489999771118164,12.612205623923463,0.14999,16,0.0,0.0,1575420030,,,,0,7.8090180557309505,1,6.0,23.489999771118164,0.0,0.0,0.0,66.7128,C,27282056000000,
Raw,1732148398000,19014000000,,690176.1142703596,-1416183596986999808,0.0,81.77063374975769,2172.830284094495,0.0,0,14,0.0,16431,346815932701085,487,22.715999603271484,750.8420142193223,0.14999,16,0.0,0.0,1575420030,,,,0,6.649179116177214,1,6.0,22.715999603271484,0.0,0.0,0.0,66.7128,C,27282056000000,
Raw,1732148398000,19014000000,,690176.1142703596,-1416183596986999808,0.0,81.77063374975769,2172.830284094495,0.0,0,29,0.0,16431,346815918793030,487,17.440000534057617,1073.0133370659967,0.14999,16,0.0,0.0,1575420030,,,,0,1.1973132712170056,6,6.0,17.440000534057617,0.0,0.0,21.208284506256277,66.7128,C,27282056000000,
Raw,1732148398000,19014000000,,690176.1142703596,-1416183596986999808,0.0,81.77063374975769,2172.830284094495,0.0,0,21,0.0,16431,346815919949540,316,25.38599967956543,849.8861077791581,0.14999,16,0.0,0.0,1575420030,,,,0,10.575072019056577,1,6.0,25.38599967956543,0.0,0.0,0.0,66.7128,C,27282056000000,
Raw,1732148398000,19014000000,,690176.1142703596,-1416183596986999808,0.0,81.77063374975769,2172.830284094495,0.0,0,27,0.0,16431,346815918486243,316,22.399999618530273,936.4461280269792,0.14999,16,0.0,0.0,1575420030,,,,0,7.693971477949123,6,6.0,22.399999618530273,0.0,0.0,21.208284506256277,66.7128,C,27282056000000,
Raw,1732148398000,19014000000,,690176.1142703596,-1416183596986999808,0.0,81.77063374975769,2172.830284094495,0.0,0,21,0.0,16431,346815920816010,487,15.300000190734863,548.4331479336543,0.14999,16,0.0,0.0,1575420030,,,,0,0.0,6,6.0,15.300000190734863,0.0,0.0,21.208284506256277,66.7128,C,27282056000000,
Raw,1732148398000,19014000000,,690176.1142703596,-1416183596986999808,0.0,81.77063374975769,2172.830284094495,0.0,0,16,0.0,17,237523,396,5.0,1144.1088324447117,0.14999,16,0.0,0.0,1601437440,,,,0,10.323123475635974,3,6.0,23.0,0.0,0.0,41.59965655106466,66.7128,C,27282056000000,
Raw,1732148398000,19014000000,,690176.1142703596,-1416183596986999808,0.0,81.77063374975769,2172.830284094495,0.0,0,18,0.0,17,825125,797,5.0,1192.8441182011236,0.14999,16,0.0,0.0,1600312450,,,,0,0.3332729245237962,3,6.0,17.0,0.0,0.0,41.59965655106466,66.7128,C,27282056000000,
Raw,1732148398000,19014000000,,690176.1142703596,-1416183596986999808,0.0,81.77063374975769,2172.830284094495,0.0,0,9,0.0,17,768147,396,5.0,858.7956575848498,0.14999,16,0.0,0.0,1600875010,,,,0,8.379430358654668,3,6.0,21.0,0.0,0.0,41.59965655106466,66.7128,C,27282056000000,
Raw,1732148398000,19014000000,,690176.1142703596,-1416183596986999808,0.0,81.77063374975769,2172.830284094495,0.0,0,8,0.0,17,666226,797,5.0,784.2493443680464,0.14999,16,0.0,0.0,1605374980,,,,0,2.004753593333359,3,6.0,17.0,0.0,0.0,41.59965655106466,66.7128,C,27282056000000,
Raw,1732148398000,19014000000,,690176.1142703596,-1416183596986999808,0.0,81.77063374975769,2172.830284094495,0.0,0,17,0.0,16431,346815931970398,396,22.06100082397461,357.6400936194423,0.14999,16,0.0,0.0,1575420030,,,,0,5.609786442958007,1,6.0,22.06100082397461,0.0,0.0,0.0,66.7128,C,27282056000000,
Raw,1732148398000,19014000000,,690176.1142703596,-1416183596986999808,0.0,81.77063374975769,2172.830284094495,0.0,0,7,0.0,16431,346815924192786,316,28.45599937438965,1119.5909655725313,0.14999,16,0.0,0.0,1575420030,,,,0,14.621030966961897,1,6.0,28.45599937438965,0.0,0.0,0.0,66.7128,C,27282056000000,
Status,1732148398000,29,0,1,14,1575420030,30.00,8.0,69.0,1,0,0,25.0
Status,1732148398000,29,1,1,22,1575420030,32.60,303.0,67.0,1,0,0,27.599998
Status,1732148398000,29,2,1,17,1575420030,0.00,169.0,61.0,0,0,0,0.0
Status,1732148398000,29,3,1,30,1575420030,28.50,105.0,60.0,1,0,0,23.5
Status,1732148398000,29,4,1,13,1575420030,0.00,281.0,56.0,0,0,0,0.0
Status,1732148398000,29,5,1,19,1575420030,27.40,194.0,32.0,1,0,0,22.4
Status,1732148398000,29,6,1,7,1575420030,13.60,116.0,26.0,1,0,0,8.6
Status,1732148398000,29,7,1,15,1575420030,0.00,304.0,26.0,0,0,0,0.0
Status,1732148398000,29,8,2,131,1575420030,31.00,3.0,23.0,0,0,0,26.0
Status,1732148398000,29,9,1,2,1575420030,32.40,73.0,20.0,1,0,0,27.400002
Status,1732148398000,29,10,1,21,1575420030,30.40,54.0,14.0,1,0,0,25.4
Status,1732148398000,29,11,3,9,1602000000,29.40,43.0,48.0,1,0,0,24.4
Status,1732148398000,29,12,3,8,1602000000,29.70,280.0,39.0,1,0,0,24.7
Status,1732148398000,29,13,3,19,1602000000,0.00,65.0,36.0,0,0,0,0.0
Status,1732148398000,29,14,3,20,1602000000,0.00,141.0,26.0,0,0,0,0.0
Status,1732148398000,29,15,3,18,1602000000,27.80,26.0,12.0,1,0,0,22.8
Status,1732148398000,29,16,3,11,1602000000,0.00,285.0,10.0,0,0,0,0.0
Status,1732148398000,29,17,3,16,1602000000,28.70,81.0,5.0,1,0,0,23.7
Status,1732148398000,29,18,3,17,1602000000,30.80,0.0,0.0,0,0,0,25.8
Status,1732148398000,29,19,6,21,1575420030,22.60,291.0,63.0,1,0,0,17.6
Status,1732148398000,29,20,6,19,1575420030,17.60,278.0,54.0,1,0,0,12.6
Status,1732148398000,29,21,6,27,1575420030,24.80,46.0,49.0,1,0,0,19.8
Status,1732148398000,29,22,6,29,1575420030,22.50,197.0,48.0,1,0,0,17.5
Status,1732148398000,29,23,6,15,1575420030,0.00,84.0,18.0,0,0,0,0.0
Status,1732148398000,29,24,6,4,1575420030,0.00,323.0,10.0,0,0,0,0.0
Status,1732148398000,29,25,6,13,1575420030,0.00,135.0,10.0,0,0,0,0.0
Status,1732148398000,29,26,6,34,1575420030,0.00,37.0,6.0,0,0,0,0.0
Status,1732148398000,29,27,6,7,1575420030,0.00,162.0,5.0,0,0,0,0.0
Status,1732148398000,29,28,6,30,1575420030,0.00,66.0,2.0,0,0,0,0.0
Fix,GPS,37.4244216667,-122.1707833333,-1.3999999999999986,0.0,2.6,25.82,1732148399000,2.4,179.9,27283056000000,31.3,0,,,
Fix,FLP,37.4244222000,-122.1707822000,2.0,0.09354026,2.533,,1732148399208,2.4,,27283056000000,0.9081044,0,,,
Raw,1732148399000,20014000000,,689906.5006665378,-1416183596986999808,0.0,78.99472272490111,2163.8084202719942,0.0,0,30,0.0,16431,346816931047326,396,23.489999771118164,886.4537130121377,0.14999,16,0.0,0.0,1575420030,,,,0,7.8090180557309505,1,6.0,23.489999771118164,0.0,0.0,0.0,66.7128,C,27283056000000,
Raw,1732148399000,20014000000,,689906.5006665378,-1416183596986999808,0.0,78.99472272490111,2163.8084202719942,0.0,0,2,0.0,16431,346816921175754,235,27.361000061035156,615.8852861782431,0.14999,16,0.0,0.0,1575420030,,,,0,13.207875007321304,1,6.0,27.361000061035156,0.0,0.0,0.0,66.7128,C,27283056000000,
Raw,1732148399000,20014000000,,689906.5006665378,-1416183596986999808,0.0,78.99472272490111,2163.8084202719942,0.0,0,22,0.0,16431,346816931420656,235,27.573999404907227,608.6792141566589,0.14999,16,0.0,0.0,1575420030,,,,0,13.50949870391769,1,6.0,27.573999404907227,0.0,0.0,0.0,66.7128,C,27283056000000,
Raw,1732148399000,20014000000,,689906.5006665378,-1416183596986999808,0.0,78.99472272490111,2163.8084202719942,0.0,0,19,0.0,16431,346816925164198,487,22.395999908447266,10.11511221102324,0.14999,16,0.0,0.0,1575420030,,,,0,6.179557199186758,1,6.0,22.395999908447266,0.0,0.0,0.0,66.7128,C,27283056000000,
Raw,1732148399000,20014000000,,689906.5006665378,-1416183596986999808,0.0,78.99472272490111,2163.8084202719942,0.0,0,14,0.0,16431,346816932698662,396,25.04599952697754,748.6093156530762,0.14999,16,0.0,0.0,1575420030,,,,0,10.105450102066122,1,6.0,25.04599952697754,0.0,0.0,0.0,66.7128,C,27283056000000,
Raw,1732148399000,20014000000,,689906.5006665378,-1416183596986999808,0.0,78.99472272490111,2163.8084202719942,0.0,0,29,0.0,16431,346816918789452,487,17.468000411987305,1070.1943332871738,0.14999,16,0.0,0.0,1575420030,,,,0,0.9491281115806061,6,6.0,17.468000411987305,0.0,0.0,22.015147582608748,66.7128,C,27283056000000,
Raw,1732148399000,20014000000,,689906.5006665378,-1416183596986999808,0.0,78.99472272490111,2163.8084202719942,0.0,0,21,0.0,16431,346816919946709,396,25.38599967956543,847.9937635700705,0.14999,16,0.0,0.0,1575420030,,,,0,10.575072019056577,1,6.0,25.38599967956543,0.0,0.0,0.0,66.7128,C,27283056000000,
Raw,1732148399000,20014000000,,689906.5006665378,-1416183596986999808,0.0,78.99472272490111,2163.8084202719942,0.0,0,7,0.0,16431,346816924188997,797,8.600000381469727,1117.6739054860197,0.14999,16,0.0,0.0,1575420030,,,,0,0.0,1,6.0,8.600000381469727,0.0,0.0,0.0,66.7128,C,27283056000000,
Raw,1732148399000,20014000000,,689906.5006665378,-1416183596986999808,0.0,78.99472272490111,2163.8084202719942,0.0,0,27,0.0,16431,346816918483121,396,19.799999237060547,933.4018938463674,0.14999,16,0.0,0.0,1575420030,,,,0,3.9075809821603964,6,6.0,19.799999237060547,0.0,0.0,22.015147582608748,66.7128,C,27283056000000,
Raw,1732148399000,20014000000,,689906.5006665378,-1416183596986999808,0.0,78.99472272490111,2163.8084202719942,0.0,0,19,0.0,16431,346816921004924,487,12.600000381469727,626.3324831483392,0.14999,16,0.0,0.0,1575420030,,,,0,0.0,6,6.0,12.600000381469727,0.0,0.0,22.015147582608748,66.7128,C,27283056000000,
Raw,1732148399000,20014000000,,689906.5006665378,-1416183596986999808,0.0,78.99472272490111,2163.8084202719942,0.0,0,21,0.0,16431,346816920814181,316,17.600000381469727,546.009969860945,0.14999,16,0.0,0.0,1575420030,,,,0,0.15895728590713354,6,6.0,17.600000381469727,0.0,0.0,22.015147582608748,66.7128,C,27283056000000,
Raw,1732148399000,20014000000,,689906.5006665378,-1416183596986999808,0.0,78.99472272490111,2163.8084202719942,0.0,0,16,0.0,17,233706,396,5.0,1141.1905638194444,0.14999,16,0.0,0.0,1601437440,,,,0,9.469085526635496,3,6.0,22.0,0.0,0.0,41.81020705864911,66.7128,C,27283056000000,
Raw,1732148399000,20014000000,,689906.5006665378,-1416183596986999808,0.0,78.99472272490111,2163.8084202719942,0.0,0,18,0.0,17,821138,396,5.0,1194.3587038287976,0.14999,16,0.0,0.0,1600312450,,,,0,8.238179090696267,3,6.0,22.0,0.0,0.0,41.81020705864911,66.7128,C,27283056000000,
Raw,1732148399000,20014000000,,689906.5006665378,-1416183596986999808,0.0,78.99472272490111,2163.8084202719942,0.0,0,9,0.0,17,765284,316,5.0,856.0684777284206,0.14999,16,0.0,0.0,1600875010,,,,0,10.303261898189056,3,6.0,25.0,0.0,0.0,41.81020705864911,66.7128,C,27283056000000,
Raw,1732148399000,20014000000,,689906.5006665378,-1416183596986999808,0.0,78.99472272490111,2163.8084202719942,0.0,0,8,0.0,17,663616,316,5.0,781.2316403544575,0.14999,16,0.0,0.0,1605374980,,,,0,10.65093179939936,3,6.0,25.0,0.0,0.0,41.81020705864911,66.7128,C,27283056000000,
Status,1732148399000,29,0,1,14,1575420030,34.00,8.0,69.0,1,0,0,29.0
Status,1732148399000,29,1,1,22,1575420030,36.50,303.0,67.0,1,0,0,31.5
Status,1732148399000,29,2,1,17,1575420030,0.00,169.0,61.0,0,0,0,0.0
Status,1732148399000,29,3,1,30,1575420030,29.80,105.0,60.0,1,0,0,24.8
Status,1732148399000,29,4,1,13,1575420030,0.00,281.0,56.0,0,0,0,0.0
Status,1732148399000,29,5,1,19,1575420030,27.20,194.0,32.0,1,0,0,22.2
Status,1732148399000,29,6,1,7,1575420030,26.30,116.0,26.0,1,0,0,21.3
Status,1732148399000,29,7,1,15,1575420030,0.00,304.0,26.0,0,0,0,0.0
Status,1732148399000,29,8,2,131,1575420030,32.00,3.0,23.0,0,0,0,27.0
Status,1732148399000,29,9,1,2,1575420030,32.20,73.0,20.0,1,0,0,27.2
Status,1732148399000,29,10,1,21,1575420030,29.90,54.0,14.0,1,0,0,24.9
Status,1732148399000,29,11,3,9,1602000000,28.60,43.0,48.0,1,0,0,23.6
Status,1732148399000,29,12,3,8,1602000000,24.30,280.0,39.0,1,0,0,19.3
Status,1732148399000,29,13,3,19,1602000000,0.00,65.0,36.0,0,0,0,0.0
Status,1732148399000,29,14,3,20,1602000000,0.00,141.0,26.0,0,0,0,0.0
Status,1732148399000,29,15,3,18,1602000000,26.50,26.0,12.0,1,0,0,21.5
Status,1732148399000,29,16,3,11,1602000000,0.00,285.0,10.0,0,0,0,0.0
Status,1732148399000,29,17,3,16,1602000000,27.60,81.0,5.0,1,0,0,22.6
Status,1732148399000,29,18,3,17,1602000000,26.60,0.0,0.0,0,0,0,21.6
Status,1732148399000,29,19,6,21,1575420030,34.80,291.0,63.0,1,0,0,29.8
Status,1732148399000,29,20,6,19,1575420030,17.60,278.0,54.0,1,0,0,12.6
Status,1732148399000,29,21,6,27,1575420030,24.00,46.0,49.0,1,0,0,19.0
Status,1732148399000,29,22,6,29,1575420030,22.50,197.0,48.0,1,0,0,17.5
Status,1732148399000,29,23,6,15,1575420030,0.00,84.0,18.0,0,0,0,0.0
Status,1732148399000,29,24,6,4,1575420030,0.00,323.0,10.0,0,0,0,0.0
Status,1732148399000,29,25,6,13,1575420030,0.00,135.0,10.0,0,0,0,0.0
Status,1732148399000,29,26,6,34,1575420030,0.00,37.0,6.0,0,0,0,0.0
Status,1732148399000,29,27,6,7,1575420030,0.00,162.0,5.0,0,0,0,0.0
Status,1732148399000,29,28,6,30,1575420030,0.00,66.0,2.0,0,0,0,0.0
Fix,GPS,37.4244300000,-122.1707900000,-1.1999999999999993,0.0,2.6,25.82,1732148400000,2.5,179.9,27284056000000,31.4,0,,,
Fix,FLP,37.4244264000,-122.1707857000,2.0,0.09359836,2.566,,1732148400208,2.5,,27284056000000,0.9128941,0,,,
Raw,1732148400000,21014000000,,689607.3353686569,-1416183596986999808,0.0,79.30664378537321,2154.3271459039097,0.0,0,30,0.0,16431,346817931044376,487,24.81399917602539,884.1904448080251,0.14999,16,0.0,0.0,1575420030,,,,0,9.747218315892077,1,6.0,24.81399917602539,0.0,0.0,0.0,66.7128,C,27284056000000,
Raw,1732148400000,21014000000,,689607.3353686569,-1416183596986999808,0.0,79.30664378537321,2154.3271459039097,0.0,0,2,0.0,16431,346817921173703,235,27.163999557495117,614.9382778222074,0.14999,16,0.0,0.0,1575420030,,,,0,12.958800173440752,1,6.0,27.163999557495117,0.0,0.0,0.0,66.7128,C,27284056000000,
Raw,1732148400000,21014000000,,689607.3353686569,-1416183596986999808,0.0,79.30664378537321,2154.3271459039097,0.0,0,22,0.0,16431,346817931418634,74,31.514999389648438,607.6175928878318,0.14999,16,0.0,0.0,1575420030,,,,0,18.357545516352115,1,6.0,31.514999389648438,0.0,0.0,0.0,66.7128,C,27284056000000,
Raw,1732148400000,21014000000,,689607.3353686569,-1416183596986999808,0.0,79.30664378537321,2154.3271459039097,0.0,0,19,0.0,16431,346817925164175,487,22.190000534057617,7.034082964772762,0.14999,16,0.0,0.0,1575420030,,,,0,5.827853703164502,1,6.0,22.190000534057617,0.0,0.0,0.0,66.7128,C,27284056000000,
Raw,1732148400000,21014000000,,689607.3353686569,-1416183596986999808,0.0,79.30664378537321,2154.3271459039097,0.0,0,14,0.0,16431,346817932696197,235,28.98900032043457,746.9789504529998,0.14999,16,0.0,0.0,1575420030,,,,0,15.298196312181245,1,6.0,28.98900032043457,0.0,0.0,0.0,66.7128,C,27284056000000,
Raw,1732148400000,21014000000,,689607.3353686569,-1416183596986999808,0.0,79.30664378537321,2154.3271459039097,0.0,0,29,0.0,16431,346817918785887,487,17.479000091552734,1068.3082145058584,0.14999,16,0.0,0.0,1575420030,,,,0,0.2957457765132423,6,6.0,17.479000091552734,0.0,0.0,18.131298784483548,66.7128,C,27284056000000,
Raw,1732148400000,21014000000,,689607.3353686569,-1416183596986999808,0.0,79.30664378537321,2154.3271459039097,0.0,0,21,0.0,16431,346817919943881,316,24.902000427246094,846.2223970767951,0.14999,16,0.0,0.0,1575420030,,,,0,9.883292476990974,1,6.0,24.902000427246094,0.0,0.0,0.0,66.7128,C,27284056000000,
Raw,1732148400000,21014000000,,689607.3353686569,-1416183596986999808,0.0,79.30664378537321,2154.3271459039097,0.0,0,7,0.0,16431,346817924185276,487,21.34600067138672,1115.2264761200486,0.14999,16,0.0,0.0,1575420030,,,,0,4.512813082811106,1,6.0,21.34600067138672,0.0,0.0,0.0,66.7128,C,27284056000000,
Raw,1732148400000,21014000000,,689607.3353686569,-1416183596986999808,0.0,79.30664378537321,2154.3271459039097,0.0,0,27,0.0,16431,346817918480013,487,19.0,931.1983711655016,0.14999,16,0.0,0.0,1575420030,,,,0,2.553708144356977,6,6.0,19.0,0.0,0.0,18.131298784483548,66.7128,C,27284056000000,
Raw,1732148400000,21014000000,,689607.3353686569,-1416183596986999808,0.0,79.30664378537321,2154.3271459039097,0.0,0,19,0.0,16431,346817921002839,487,12.600000381469727,624.0313977934313,0.14999,16,0.0,0.0,1575420030,,,,0,0.0,6,6.0,12.600000381469727,0.0,0.0,18.131298784483548,66.7128,C,27284056000000,
Raw,1732148400000,21014000000,,689607.3353686569,-1416183596986999808,0.0,79.30664378537321,2154.3271459039097,0.0,0,21,0.0,16431,346817920812366,74,29.799999237060547,544.2924951304739,0.14999,16,0.0,0.0,1575420030,,,,0,16.801021677098937,6,6.0,29.799999237060547,0.0,0.0,18.131298784483548,66.7128,C,27284056000000,
Raw,1732148400000,21014000000,,689607.3353686569,-1416183596986999808,0.0,79.30664378537321,2154.3271459039097,0.0,0,16,0.0,17,229905,487,5.0,1138.320923863871,0.14999,16,0.0,0.0,1601437440,,,,0,8.006409355945141,3,6.0,19.0,0.0,0.0,42.61906037630668,66.7128,C,27284056000000,
Raw,1732148400000,21014000000,,689607.3353686569,-1416183596986999808,0.0,79.30664378537321,2154.3271459039097,0.0,0,18,0.0,17,817158,396,5.0,1191.5132988813366,0.14999,16,0.0,0.0,1600312450,,,,0,6.398530466449258,3,6.0,22.0,0.0,0.0,42.61906037630668,66.7128,C,27284056000000,
Raw,1732148400000,21014000000,,689607.3353686569,-1416183596986999808,0.0,79.30664378537321,2154.3271459039097,0.0,0,9,0.0,17,762428,396,5.0,853.567336048189,0.14999,16,0.0,0.0,1600875010,,,,0,9.257224056687013,3,6.0,23.0,0.0,0.0,42.61906037630668,66.7128,C,27284056000000,
Raw,1732148400000,21014000000,,689607.3353686569,-1416183596986999808,0.0,79.30664378537321,2154.3271459039097,0.0,0,8,0.0,17,661013,487,5.0,778.7391508783596,0.14999,16,0.0,0.0,1605374980,,,,0,3.1219099426333767,3,6.0,18.0,0.0,0.0,42.61906037630668,66.7128,C,27284056000000,
Status,1732148400000,29,0,1,14,1575420030,32.70,8.0,69.0,1,0,0,27.7
Status,1732148400000,29,1,1,22,1575420030,34.60,303.0,67.0,1,0,0,29.599998
Status,1732148400000,29,2,1,17,1575420030,0.00,169.0,61.0,0,0,0,0.0
Status,1732148400000,29,3,1,30,1575420030,28.40,105.0,60.0,1,0,0,23.4
Status,1732148400000,29,4,1,13,1575420030,30.10,281.0,56.0,1,0,0,25.1
Status,1732148400000,29,5,1,19,1575420030,29.90,194.0,32.0,1,0,0,24.9
Status,1732148400000,29,6,1,7,1575420030,30.70,116.0,26.0,1,0,0,25.7
Status,1732148400000,29,7,1,15,1575420030,24.40,304.0,26.0,1,0,0,19.4
Status,1732148400000,29,8,2,131,1575420030,29.00,3.0,23.0,0,0,0,24.0
Status,1732148400000,29,9,1,2,1575420030,36.10,73.0,20.0,1,0,0,31.099998
Status,1732148400000,29,10,1,21,1575420030,30.30,54.0,14.0,1,0,0,25.3
Status,1732148400000,29,11,3,9,1602000000,27.90,43.0,48.0,1,0,0,22.9
Status,1732148400000,29,12,3,8,1602000000,24.30,280.0,39.0,1,0,0,19.3
Status,1732148400000,29,13,3,19,1602000000,0.00,65.0,36.0,0,0,0,0.0
Status,1732148400000,29,14,3,20,1602000000,0.00,141.0,26.0,0,0,0,0.0
Status,1732148400000,29,15,3,18,1602000000,25.90,26.0,12.0,1,0,0,20.9
Status,1732148400000,29,16,3,11,1602000000,0.00,285.0,10.0,0,0,0,0.0
Status,1732148400000,29,17,3,16,1602000000,27.20,81.0,5.0,1,0,0,22.2
Status,1732148400000,29,18,3,17,1602000000,29.20,0.0,0.0,0,0,0,24.2
Status,1732148400000,29,19,6,21,1575420030,26.90,291.0,63.0,1,0,0,21.9
Status,1732148400000,29,20,6,19,1575420030,20.10,278.0,54.0,1,0,0,15.1
Status,1732148400000,29,21,6,27,1575420030,24.10,46.0,49.0,1,0,0,19.1
Status,1732148400000,29,22,6,29,1575420030,22.50,197.0,48.0,1,0,0,17.5
Status,1732148400000,29,23,6,15,1575420030,0.00,84.0,18.0,0,0,0,0.0
Status,1732148400000,29,24,6,4,1575420030,0.00,323.0,10.0,0,0,0,0.0
Status,1732148400000,29,25,6,13,1575420030,0.00,135.0,10.0,0,0,0,0.0
Status,1732148400000,29,26,6,34,1575420030,0.00,37.0,6.0,0,0,0,0.0
Status,1732148400000,29,27,6,7,1575420030,0.00,162.0,5.0,0,0,0,0.0
Status,1732148400000,29,28,6,30,1575420030,0.00,66.0,2.0,0,0,0,0.0
Fix,GPS,37.4244366667,-122.1707933333,-1.0999999999999979,0.0,2.6,25.82,1732148401000,2.8,179.9,27285056000000,32.7,0,,,
Fix,FLP,37.4244318000,-122.1707892000,2.0,0.10000294,2.583,19.56706,1732148401208,2.8,179.9,27285056000000,0.92391837,0,,,
Raw,1732148401000,22014000000,,689118.4554916321,-1416183596986999808,0.0,82.05314221997213,2150.2370940402284,0.0,0,30,0.0,16431,346818931041430,396,23.35099983215332,883.5809103873429,0.14999,16,0.0,0.0,1575420030,,,,0,7.63587166508098,1,6.0,23.35099983215332,0.0,0.0,0.0,66.7128,C,27285056000000,
Raw,1732148401000,22014000000,,689118.4554916321,-1416183596986999808,0.0,82.05314221997213,2150.2370940402284,0.0,0,2,0.0,16431,346818921171645,74,31.12299919128418,614.7215493105853,0.14999,16,0.0,0.0,1575420030,,,,0,17.88698106888077,1,6.0,31.12299919128418,0.0,0.0,0.0,66.7128,C,27285056000000,
Raw,1732148401000,22014000000,,689118.4554916321,-1416183596986999808,0.0,82.05314221997213,2150.2370940402284,0.0,0,22,0.0,16431,346818931416610,235,29.625,608.2622498711693,0.14999,16,0.0,0.0,1575420030,,,,0,16.08207073334698,1,6.0,29.625,0.0,0.0,0.0,66.7128,C,27285056000000,
Raw,1732148401000,22014000000,,689118.4554916321,-1416183596986999808,0.0,82.05314221997213,2150.2370940402284,0.0,0,19,0.0,16431,346818925164156,316,24.87299919128418,7.008995420019071,0.14999,16,0.0,0.0,1575420030,,,,0,9.838170870906492,1,6.0,24.87299919128418,0.0,0.0,0.0,66.7128,C,27285056000000,
Raw,1732148401000,22014000000,,689118.4554916321,-1416183596986999808,0.0,82.05314221997213,2150.2370940402284,0.0,0,14,0.0,16431,346818932693701,316,27.701000213623047,747.5432343762931,0.14999,16,0.0,0.0,1575420030,,,,0,13.656471578360604,1,6.0,27.701000213623047,0.0,0.0,0.0,66.7128,C,27285056000000,
Raw,1732148401000,22014000000,,689118.4554916321,-1416183596986999808,0.0,82.05314221997213,2150.2370940402284,0.0,0,29,0.0,16431,346818918782325,487,17.5049991607666,1068.0812186842536,0.14999,16,0.0,0.0,1575420030,,,,0,0.8223245509602259,6,6.0,17.5049991607666,0.0,0.0,16.71536263837386,66.7128,C,27285056000000,
Raw,1732148401000,22014000000,,689118.4554916321,-1416183596986999808,0.0,82.05314221997213,2150.2370940402284,0.0,0,21,0.0,16431,346818919941058,316,25.30299949645996,846.0763318162292,0.14999,16,0.0,0.0,1575420030,,,,0,10.449490704218567,1,6.0,25.30299949645996,0.0,0.0,0.0,66.7128,C,27285056000000,
Raw,1732148401000,22014000000,,689118.4554916321,-1416183596986999808,0.0,82.05314221997213,2150.2370940402284,0.0,0,7,0.0,16431,346818924181579,316,25.711000442504883,1114.798965774079,0.14999,16,0.0,0.0,1575420030,,,,0,11.020599913279625,1,6.0,25.711000442504883,0.0,0.0,0.0,66.7128,C,27285056000000,
Raw,1732148401000,22014000000,,689118.4554916321,-1416183596986999808,0.0,82.05314221997213,2150.2370940402284,0.0,0,13,0.0,16431,346818931363999,316,25.104000091552734,581.1434502439215,0.14999,16,0.0,0.0,1575420030,,,,0,10.149207825029633,1,6.0,25.104000091552734,0.0,0.0,0.0,66.7128,C,27285056000000,
Raw,1732148401000,22014000000,,689118.4554916321,-1416183596986999808,0.0,82.05314221997213,2150.2370940402284,0.0,0,27,0.0,16431,346818918476908,396,19.1200008392334,931.7675796809132,0.14999,16,0.0,0.0,1575420030,,,,0,6.248220715954636,6,6.0,19.1200008392334,0.0,0.0,16.71536263837386,66.7128,C,27285056000000,
Raw,1732148401000,22014000000,,689118.4554916321,-1416183596986999808,0.0,82.05314221997213,2150.2370940402284,0.0,0,19,0.0,16431,346818921000759,797,15.100000381469727,624.3739821545678,0.14999,16,0.0,0.0,1575420030,,,,0,0.0,6,6.0,15.100000381469727,0.0,0.0,16.71536263837386,66.7128,C,27285056000000,
Raw,1732148401000,22014000000,,689118.4554916321,-1416183596986999808,0.0,82.05314221997213,2150.2370940402284,0.0,0,21,0.0,16431,346818920810553,396,21.899999618530273,544.1881959860812,0.14999,16,0.0,0.0,1575420030,,,,0,6.96972802486023,6,6.0,21.899999618530273,0.0,0.0,16.71536263837386,66.7128,C,27285056000000,
Raw,1732148401000,22014000000,,689118.4554916321,-1416183596986999808,0.0,82.05314221997213,2150.2370940402284,0.0,0,15,0.0,16431,346818924931442,487,19.44099998474121,374.59630053429976,0.14999,16,0.0,0.0,1575420030,,,,0,1.1973132712170056,1,6.0,19.44099998474121,0.0,0.0,0.0,66.7128,C,27285056000000,
Raw,1732148401000,22014000000,,689118.4554916321,-1416183596986999808,0.0,82.05314221997213,2150.2370940402284,0.0,0,16,0.0,17,226106,396,5.0,1138.7172658033298,0.14999,16,0.0,0.0,1601437440,,,,0,7.392198062064661,3,6.0,23.0,0.0,0.0,41.60027210034288,66.7128,C,27285056000000,
Raw,1732148401000,22014000000,,689118.4554916321,-1416183596986999808,0.0,82.05314221997213,2150.2370940402284,0.0,0,18,0.0,17,813178,396,5.0,1193.9334526762998,0.14999,16,0.0,0.0,1600312450,,,,0,5.55730356643503,3,6.0,21.0,0.0,0.0,41.60027210034288,66.7128,C,27285056000000,
Raw,1732148401000,22014000000,,689118.4554916321,-1416183596986999808,0.0,82.05314221997213,2150.2370940402284,0.0,0,9,0.0,17,759579,396,5.0,852.8981825799794,0.14999,16,0.0,0.0,1600875010,,,,0,8.379430358654668,3,6.0,21.0,0.0,0.0,41.60027210034288,66.7128,C,27285056000000,
Raw,1732148401000,22014000000,,689118.4554916321,-1416183596986999808,0.0,82.05314221997213,2150.2370940402284,0.0,0,8,0.0,17,658412,487,5.0,778.6453234896308,0.14999,16,0.0,0.0,1605374980,,,,0,3.416375079047504,3,6.0,18.0,0.0,0.0,41.60027210034288,66.7128,C,27285056000000,
Status,1732148401000,29,0,1,14,1575420030,33.70,8.0,69.0,1,0,0,28.7
Status,1732148401000,29,1,1,22,1575420030,28.20,303.0,67.0,1,0,0,23.2
Status,1732148401000,29,2,1,17,1575420030,24.80,169.0,61.0,1,0,0,19.8
Status,1732148401000,29,3,1,30,1575420030,32.10,105.0,60.0,1,0,0,27.099998
Status,1732148401000,29,4,1,13,1575420030,30.60,281.0,56.0,1,0,0,25.6
Status,1732148401000,29,5,1,19,1575420030,29.80,194.0,32.0,1,0,0,24.8
Status,1732148401000,29,6,1,7,1575420030,33.50,116.0,26.0,1,0,0,28.5
Status,1732148401000,29,7,1,15,1575420030,25.60,304.0,26.0,1,0,0,20.6
Status,1732148401000,29,8,2,131,1575420030,32.00,3.0,23.0,0,0,0,27.0
Status,1732148401000,29,9,1,2,1575420030,33.00,73.0,20.0,1,0,0,28.0
Status,1732148401000,29,10,1,21,1575420030,35.60,54.0,14.0,1,0,0,30.599998
Status,1732148401000,29,11,3,9,1602000000,30.20,43.0,48.0,1,0,0,25.2
Status,1732148401000,29,12,3,8,1602000000,24.20,280.0,39.0,1,0,0,19.2
Status,1732148401000,29,13,3,19,1602000000,0.00,65.0,36.0,0,0,0,0.0
Status,1732148401000,29,14,3,20,1602000000,0.00,141.0,26.0,0,0,0,0.0
Status,1732148401000,29,15,3,18,1602000000,0.00,26.0,12.0,0,0,0,0.0
Status,1732148401000,29,16,3,11,1602000000,0.00,285.0,10.0,0,0,0,0.0
Status,1732148401000,29,17,3,16,1602000000,29.00,81.0,5.0,1,0,0,24.0
Status,1732148401000,29,18,3,17,1602000000,29.00,0.0,0.0,0,0,0,24.0
Status,1732148401000,29,19,6,21,1575420030,21.50,291.0,63.0,1,0,0,16.5
Status,1732148401000,29,20,6,19,1575420030,20.10,278.0,54.0,1,0,0,15.1
Status,1732148401000,29,21,6,27,1575420030,0.00,46.0,49.0,0,0,0,0.0
Status,1732148401000,29,22,6,29,1575420030,25.90,197.0,48.0,1,0,0,20.9
Status,1732148401000,29,23,6,15,1575420030,0.00,84.0,18.0,0,0,0,0.0
Status,1732148401000,29,24,6,4,1575420030,0.00,323.0,10.0,0,0,0,0.0
Status,1732148401000,29,25,6,13,1575420030,0.00,135.0,10.0,0,0,0,0.0
Status,1732148401000,29,26,6,34,1575420030,0.00,37.0,6.0,0,0,0,0.0
Status,1732148401000,29,27,6,7,1575420030,0.00,162.0,5.0,0,0,0,0.0
Status,1732148401000,29,28,6,30,1575420030,0.00,66.0,2.0,0,0,0,0.0
Fix,GPS,37.4244366667,-122.1708000000,-1.0,0.0,2.6,25.82,1732148402000,2.5,179.9,27286056000000,32.6,0,,,
Fix,FLP,37.4244346000,-122.1707943000,2.0,0.0996155,2.583,,1732148402208,2.5,,27286056000000,0.9381014,0,,,
Raw,1732148402000,23014000000,,688643.5957304836,-1416183596986999808,0.0,81.41154311451373,2150.485619361451,0.0,0,30,0.0,16431,346819931038484,316,27.051000595092773,884.9956620777862,0.14999,16,0.0,0.0,1575420030,,,,0,12.799421580015245,1,6.0,27.051000595092773,0.0,0.0,0.0,66.7128,C,27286056000000,
Raw,1732148402000,23014000000,,688643.5957304836,-1416183596986999808,0.0,81.41154311451373,2150.485619361451,0.0,0,2,0.0,16431,346819921169594,235,27.986000061035156,614.7579727088944,0.14999,16,0.0,0.0,1575420030,,,,0,14.02735407737225,1,6.0,27.986000061035156,0.0,0.0,0.0,66.7128,C,27286056000000,
Raw,1732148402000,23014000000,,688643.5957304836,-1416183596986999808,0.0,81.41154311451373,2150.485619361451,0.0,0,22,0.0,16431,346819931414581,396,23.20599937438965,607.3985879138154,0.14999,16,0.0,0.0,1575420030,,,,0,7.399506341534996,1,6.0,23.20599937438965,0.0,0.0,0.0,66.7128,C,27286056000000,
Raw,1732148402000,23014000000,,688643.5957304836,-1416183596986999808,0.0,81.41154311451373,2150.485619361451,0.0,0,19,0.0,16431,346819925164132,316,24.78499984741211,7.1008437088673055,0.14999,16,0.0,0.0,1575420030,,,,0,9.701382380300382,1,6.0,24.78499984741211,0.0,0.0,0.0,66.7128,C,27286056000000,
Raw,1732148402000,23014000000,,688643.5957304836,-1416183596986999808,0.0,81.41154311451373,2150.485619361451,0.0,0,14,0.0,16431,346819932691208,316,28.718000411987305,747.0801368835064,0.14999,16,0.0,0.0,1575420030,,,,0,14.953668272691033,1,6.0,28.718000411987305,0.0,0.0,0.0,66.7128,C,27286056000000,
Raw,1732148402000,23014000000,,688643.5957304836,-1416183596986999808,0.0,81.41154311451373,2150.485619361451,0.0,0,29,0.0,16431,346819918778763,396,20.899999618530273,1068.0646794880827,0.14999,16,0.0,0.0,1575420030,,,,0,5.535863531758733,6,6.0,20.899999618530273,0.0,0.0,14.55107344606593,66.7128,C,27286056000000,
Raw,1732148402000,23014000000,,688643.5957304836,-1416183596986999808,0.0,81.41154311451373,2150.485619361451,0.0,0,21,0.0,16431,346819919938235,74,30.593000411987305,845.9746808015606,0.14999,16,0.0,0.0,1575420030,,,,0,17.25567713439471,1,6.0,30.593000411987305,0.0,0.0,0.0,66.7128,C,27286056000000,
Raw,1732148402000,23014000000,,688643.5957304836,-1416183596986999808,0.0,81.41154311451373,2150.485619361451,0.0,0,7,0.0,16431,346819924177859,235,28.493000030517578,1115.4386981652983,0.14999,16,0.0,0.0,1575420030,,,,0,14.673042437572404,1,6.0,28.493000030517578,0.0,0.0,0.0,66.7128,C,27286056000000,
Raw,1732148402000,23014000000,,688643.5957304836,-1416183596986999808,0.0,81.41154311451373,2150.485619361451,0.0,0,13,0.0,16431,346819931362000,396,25.60300064086914,581.1579917281954,0.14999,16,0.0,0.0,1575420030,,,,0,10.861221319854117,1,6.0,25.60300064086914,0.0,0.0,0.0,66.7128,C,27286056000000,
Raw,1732148402000,23014000000,,688643.5957304836,-1416183596986999808,0.0,81.41154311451373,2150.485619361451,0.0,0,19,0.0,16431,346819920998677,487,15.100000381469727,623.7629610645668,0.14999,16,0.0,0.0,1575420030,,,,0,0.0,6,6.0,15.100000381469727,0.0,0.0,14.55107344606593,66.7128,C,27286056000000,
Raw,1732148402000,23014000000,,688643.5957304836,-1416183596986999808,0.0,81.41154311451373,2150.485619361451,0.0,0,21,0.0,16431,346819920808737,487,16.5,544.1319348440502,0.14999,16,0.0,0.0,1575420030,,,,0,0.0,6,6.0,16.5,0.0,0.0,14.55107344606593,66.7128,C,27286056000000,
Raw,1732148402000,23014000000,,688643.5957304836,-1416183596986999808,0.0,81.41154311451373,2150.485619361451,0.0,0,15,0.0,16431,346819924930210,396,20.594999313354492,374.0859083738108,0.14999,16,0.0,0.0,1575420030,,,,0,3.256996485621997,1,6.0,20.594999313354492,0.0,0.0,0.0,66.7128,C,27286056000000,
Raw,1732148402000,23014000000,,688643.5957304836,-1416183596986999808,0.0,81.41154311451373,2150.485619361451,0.0,0,16,0.0,17,222308,396,5.0,1139.0986169498753,0.14999,16,0.0,0.0,1601437440,,,,0,9.830443701626901,3,6.0,21.0,0.0,0.0,40.42404298623468,66.7128,C,27286056000000,
Raw,1732148402000,23014000000,,688643.5957304836,-1416183596986999808,0.0,81.41154311451373,2150.485619361451,0.0,0,9,0.0,17,756733,316,5.0,853.6670049851045,0.14999,16,0.0,0.0,1600875010,,,,0,11.332701379891144,3,6.0,25.0,0.0,0.0,40.42404298623468,66.7128,C,27286056000000,
Raw,1732148402000,23014000000,,688643.5957304836,-1416183596986999808,0.0,81.41154311451373,2150.485619361451,0.0,0,8,0.0,17,655812,487,5.0,778.7468102570314,0.14999,16,0.0,0.0,1605374980,,,,0,0.942033245237127,3,6.0,19.0,0.0,0.0,40.42404298623468,66.7128,C,27286056000000,
Raw,1732148402000,23014000000,,688643.5957304836,-1416183596986999808,0.0,81.41154311451373,2150.485619361451,0.0,0,17,0.0,16431,346819931965618,487,19.75200080871582,353.23857680923976,0.14999,16,0.0,0.0,1575420030,,,,0,1.7884181424513264,1,6.0,19.75200080871582,0.0,0.0,0.0,66.7128,C,27286056000000,
Status,1732148402000,29,0,1,14,1575420030,35.70,8.0,69.0,1,0,0,30.7
Status,1732148402000,29,1,1,22,1575420030,27.90,303.0,67.0,1,0,0,22.9
Status,1732148402000,29,2,1,17,1575420030,28.80,169.0,61.0,1,0,0,23.8
Status,1732148402000,29,3,1,30,1575420030,31.00,105.0,60.0,1,0,0,26.0
Status,1732148402000,29,4,1,13,1575420030,29.20,281.0,56.0,1,0,0,24.2
Status,1732148402000,29,5,1,19,1575420030,29.10,194.0,32.0,1,0,0,24.1
Status,1732148402000,29,6,1,7,1575420030,30.20,116.0,26.0,1,0,0,25.2
Status,1732148402000,29,7,1,15,1575420030,0.00,304.0,26.0,0,0,0,0.0
Status,1732148402000,29,8,2,131,1575420030,31.00,3.0,23.0,0,0,0,26.0
Status,1732148402000,29,9,1,2,1575420030,34.80,73.0,20.0,1,0,0,29.8
Status,1732148402000,29,10,1,21,1575420030,33.30,54.0,14.0,1,0,0,28.3
Status,1732148402000,29,11,3,9,1602000000,32.20,43.0,48.0,1,0,0,27.2
Status,1732148402000,29,12,3,8,1602000000,24.20,280.0,39.0,1,0,0,19.2
Status,1732148402000,29,13,3,19,1602000000,0.00,65.0,36.0,0,0,0,0.0
Status,1732148402000,29,14,3,20,1602000000,0.00,141.0,26.0,0,0,0,0.0
Status,1732148402000,29,15,3,18,1602000000,0.00,26.0,12.0,0,0,0,0.0
Status,1732148402000,29,16,3,11,1602000000,0.00,285.0,10.0,0,0,0,0.0
Status,1732148402000,29,17,3,16,1602000000,28.90,81.0,5.0,1,0,0,23.9
Status,1732148402000,29,18,3,17,1602000000,27.60,0.0,0.0,0,0,0,22.6
Status,1732148402000,29,19,6,21,1575420030,21.00,291.0,63.0,1,0,0,16.0
Status,1732148402000,29,20,6,19,1575420030,21.30,278.0,54.0,1,0,0,16.3
Status,1732148402000,29,21,6,27,1575420030,29.20,46.0,49.0,1,0,0,24.2
Status,1732148402000,29,22,6,29,1575420030,25.80,197.0,48.0,1,0,0,20.8
Status,1732148402000,29,23,6,15,1575420030,0.00,84.0,18.0,0,0,0,0.0
Status,1732148402000,29,24,6,4,1575420030,0.00,323.0,10.0,0,0,0,0.0
Status,1732148402000,29,25,6,13,1575420030,0.00,135.0,10.0,0,0,0,0.0
Status,1732148402000,29,26,6,34,1575420030,0.00,37.0,6.0,0,0,0,0.0
Status,1732148402000,29,27,6,7,1575420030,0.00,162.0,5.0,0,0,0,0.0
Status,1732148402000,29,28,6,30,1575420030,0.00,66.0,2.0,0,0,0,0.0
Fix,GPS,37.4244316667,-122.1708033333,-0.8999999999999986,0.0,2.6,25.82,1732148403000,2.5,162.0,27287056000000,33.2,0,,,
Raw,1732148403000,24014000000,,688217.8845539871,-1416183596986999808,0.0,81.71966592355088,2150.8807836059,0.0,0,30,0.0,16431,346820931035533,316,25.9950008392334,884.9203994435251,0.14999,16,0.0,0.0,1575420030,,,,0,11.406703017187356,1,6.0,25.9950008392334,0.0,0.0,0.0,66.7128,C,27287056000000,
Raw,1732148403000,24014000000,,688217.8845539871,-1416183596986999808,0.0,81.71966592355088,2150.8807836059,0.0,0,2,0.0,16431,346820921167544,74,29.82200050354004,614.8379741016089,0.14999,16,0.0,0.0,1575420030,,,,0,16.32124676112887,1,6.0,29.82200050354004,0.0,0.0,0.0,66.7128,C,27287056000000,
Raw,1732148403000,24014000000,,688217.8845539871,-1416183596986999808,0.0,81.71966592355088,2150.8807836059,0.0,0,22,0.0,16431,346820931412551,396,22.906999588012695,607.3217456934032,0.14999,16,0.0,0.0,1575420030,,,,0,6.96972802486023,1,6.0,22.906999588012695,0.0,0.0,0.0,66.7128,C,27287056000000,
Raw,1732148403000,24014000000,,688217.8845539871,-1416183596986999808,0.0,81.71966592355088,2150.8807836059,0.0,0,19,0.0,16431,346820925164108,396,24.131999969482422,7.644732387444077,0.14999,16,0.0,0.0,1575420030,,,,0,8.781124724400978,1,6.0,24.131999969482422,0.0,0.0,0.0,66.7128,C,27287056000000,
Raw,1732148403000,24014000000,,688217.8845539871,-1416183596986999808,0.0,81.71966592355088,2150.8807836059,0.0,0,14,0.0,16431,346820932688716,58,30.68199920654297,747.3888066008092,0.14999,16,0.0,0.0,1575420030,,,,0,17.370470298232505,1,6.0,30.68199920654297,0.0,0.0,0.0,66.7128,C,27287056000000,
Raw,1732148403000,24014000000,,688217.8845539871,-1416183596986999808,0.0,81.71966592355088,2150.8807836059,0.0,0,29,0.0,16431,346820918775200,487,20.774999618530273,1068.011159392608,0.14999,16,0.0,0.0,1575420030,,,,0,1.5567806914550228,6,6.0,20.774999618530273,0.0,0.0,14.305414480673848,66.7128,C,27287056000000,
Raw,1732148403000,24014000000,,688217.8845539871,-1416183596986999808,0.0,81.71966592355088,2150.8807836059,0.0,0,21,0.0,16431,346820919935411,235,28.30299949645996,846.2300162570536,0.14999,16,0.0,0.0,1575420030,,,,0,14.43649829819428,1,6.0,28.30299949645996,0.0,0.0,0.0,66.7128,C,27287056000000,
Raw,1732148403000,24014000000,,688217.8845539871,-1416183596986999808,0.0,81.71966592355088,2150.8807836059,0.0,0,7,0.0,16431,346820924174139,396,25.246999740600586,1115.645438117435,0.14999,16,0.0,0.0,1575420030,,,,0,10.364749645353474,1,6.0,25.246999740600586,0.0,0.0,0.0,66.7128,C,27287056000000,
Raw,1732148403000,24014000000,,688217.8845539871,-1416183596986999808,0.0,81.71966592355088,2150.8807836059,0.0,0,13,0.0,16431,346820931360071,396,24.19700050354004,581.5417382460944,0.14999,16,0.0,0.0,1575420030,,,,0,8.882715234986478,1,6.0,24.19700050354004,0.0,0.0,0.0,66.7128,C,27287056000000,
Raw,1732148403000,24014000000,,688217.8845539871,-1416183596986999808,0.0,81.71966592355088,2150.8807836059,0.0,0,27,0.0,16431,346820918470691,316,24.200000762939453,931.9457941654967,0.14999,16,0.0,0.0,1575420030,,,,0,10.01726772396502,6,6.0,24.200000762939453,0.0,0.0,14.305414480673848,66.7128,C,27287056000000,
Raw,1732148403000,24014000000,,688217.8845539871,-1416183596986999808,0.0,81.71966592355088,2150.8807836059,0.0,0,19,0.0,16431,346820920996592,487,16.299999237060547,624.3830880041451,0.14999,16,0.0,0.0,1575420030,,,,0,0.0,6,6.0,16.299999237060547,0.0,0.0,14.305414480673848,66.7128,C,27287056000000,
Raw,1732148403000,24014000000,,688217.8845539871,-1416183596986999808,0.0,81.71966592355088,2150.8807836059,0.0,0,21,0.0,16431,346820920806922,396,16.0,543.9272855206428,0.14999,16,0.0,0.0,1575420030,,,,0,0.0,6,6.0,16.0,0.0,0.0,14.305414480673848,66.7128,C,27287056000000,
Raw,1732148403000,24014000000,,688217.8845539871,-1416183596986999808,0.0,81.71966592355088,2150.8807836059,0.0,0,16,0.0,17,218503,316,5.0,1139.2007188747775,0.14999,16,0.0,0.0,1601437440,,,,0,9.633566949684703,3,6.0,24.0,0.0,0.0,38.00903124009723,66.7128,C,27287056000000,
Raw,1732148403000,24014000000,,688217.8845539871,-1416183596986999808,0.0,81.71966592355088,2150.8807836059,0.0,0,9,0.0,17,753884,316,5.0,853.9904261134261,0.14999,16,0.0,0.0,1600875010,,,,0,13.805891735273685,3,6.0,24.0,0.0,0.0,38.00903124009723,66.7128,C,27287056000000,
Raw,1732148403000,24014000000,,688217.8845539871,-1416183596986999808,0.0,81.71966592355088,2150.8807836059,0.0,0,8,0.0,17,653214,487,5.0,779.4052432735634,0.14999,16,0.0,0.0,1605374980,,,,0,0.942033245237127,3,6.0,20.0,0.0,0.0,38.00903124009723,66.7128,C,27287056000000,
Raw,1732148403000,24014000000,,688217.8845539871,-1416183596986999808,0.0,81.71966592355088,2150.8807836059,0.0,0,17,0.0,16431,346820931964501,396,23.768999099731445,353.2384606631992,0.14999,16,0.0,0.0,1575420030,,,,0,8.254545949953995,1,6.0,23.768999099731445,0.0,0.0,0.0,66.7128,C,27287056000000,
Fix,FLP,37.4244336000,-122.1707986000,2.0,0.09009705,2.6,,1732148403208,2.5,,27287056000000,0.9481756,0,,,
Status,1732148403000,29,0,1,14,1575420030,33.40,8.0,69.0,1,0,0,28.400002
Status,1732148403000,29,1,1,22,1575420030,28.60,303.0,67.0,1,0,0,23.6
Status,1732148403000,29,2,1,17,1575420030,32.00,169.0,61.0,1,0,0,27.0
Status,1732148403000,29,3,1,30,1575420030,33.20,105.0,60.0,1,0,0,28.2
Status,1732148403000,29,4,1,13,1575420030,28.20,281.0,56.0,1,0,0,23.2
Status,1732148403000,29,5,1,19,1575420030,30.60,194.0,32.0,1,0,0,25.6
Status,1732148403000,29,6,1,7,1575420030,39.50,116.0,26.0,1,0,0,34.5
Status,1732148403000,29,7,1,15,1575420030,25.90,304.0,26.0,1,0,0,20.9
Status,1732148403000,29,8,2,131,1575420030,32.00,3.0,23.0,0,0,0,27.0
Status,1732148403000,29,9,1,2,1575420030,33.50,73.0,20.0,1,0,0,28.5
Status,1732148403000,29,10,1,21,1575420030,0.00,54.0,14.0,0,0,0,0.0
Status,1732148403000,29,11,3,9,1602000000,29.20,43.0,48.0,1,0,0,24.2
Status,1732148403000,29,12,3,8,1602000000,24.20,280.0,39.0,1,0,0,19.2
Status,1732148403000,29,13,3,19,1602000000,0.00,65.0,36.0,0,0,0,0.0
Status,1732148403000,29,14,3,20,1602000000,0.00,141.0,26.0,0,0,0,0.0
Status,1732148403000,29,15,3,18,1602000000,24.20,26.0,12.0,1,0,0,19.2
Status,1732148403000,29,16,3,11,1602000000,0.00,285.0,10.0,0,0,0,0.0
Status,1732148403000,29,17,3,16,1602000000,27.30,81.0,5.0,1,0,0,22.3
Status,1732148403000,29,18,3,17,1602000000,28.70,0.0,0.0,0,0,0,23.7
Status,1732148403000,29,19,6,21,1575420030,25.20,291.0,63.0,1,0,0,20.2
Status,1732148403000,29,20,6,19,1575420030,21.30,278.0,54.0,1,0,0,16.3
Status,1732148403000,29,21,6,27,1575420030,25.80,46.0,49.0,1,0,0,20.8
Status,1732148403000,29,22,6,29,1575420030,23.00,197.0,48.0,1,0,0,18.0
Status,1732148403000,29,23,6,15,1575420030,0.00,84.0,18.0,0,0,0,0.0
Status,1732148403000,29,24,6,4,1575420030,0.00,323.0,10.0,0,0,0,0.0
Status,1732148403000,29,25,6,13,1575420030,0.00,135.0,10.0,0,0,0,0.0
Status,1732148403000,29,26,6,34,1575420030,0.00,37.0,6.0,0,0,0,0.0
Status,1732148403000,29,27,6,7,1575420030,0.00,162.0,5.0,0,0,0,0.0
Status,1732148403000,29,28,6,30,1575420030,0.00,66.0,2.0,0,0,0,0.0
Fix,GPS,37.4244266667,-122.1708150000,-0.8000000000000007,0.57082695,2.5,251.15,1732148404000,2.6,170.9,27288056000000,36.4,0,,,
Raw,1732148404000,25014000000,,687502.0768534477,-1416183596986999808,0.0,92.13045042872236,2151.8129549460177,0.0,0,30,0.0,16431,346821931032582,316,28.166000366210938,885.2516479511062,0.14999,16,0.0,0.0,1575420030,,,,0,14.247959957979122,1,6.0,28.166000366210938,0.0,0.0,0.0,66.7128,C,27288056000000,
Raw,1732148404000,25014000000,,687502.0768534477,-1416183596986999808,0.0,92.13045042872236,2151.8129549460177,0.0,0,2,0.0,16431,346821921165495,235,28.5310001373291,614.5042632979686,0.14999,16,0.0,0.0,1575420030,,,,0,14.72474431426227,1,6.0,28.5310001373291,0.0,0.0,0.0,66.7128,C,27288056000000,
Raw,1732148404000,25014000000,,687502.0768534477,-1416183596986999808,0.0,92.13045042872236,2151.8129549460177,0.0,0,22,0.0,16431,346821931410524,396,23.631000518798828,607.3023725338434,0.14999,16,0.0,0.0,1575420030,,,,0,8.03463826392473,1,6.0,23.631000518798828,0.0,0.0,0.0,66.7128,C,27288056000000,
Raw,1732148404000,25014000000,,687502.0768534477,-1416183596986999808,0.0,92.13045042872236,2151.8129549460177,0.0,0,19,0.0,16431,346821925164082,396,25.60300064086914,8.746633103125625,0.14999,16,0.0,0.0,1575420030,,,,0,10.861221319854117,1,6.0,25.60300064086914,0.0,0.0,0.0,66.7128,C,27288056000000,
Raw,1732148404000,25014000000,,687502.0768534477,-1416183596986999808,0.0,92.13045042872236,2151.8129549460177,0.0,0,14,0.0,16431,346821932686230,235,28.437000274658203,747.011657178012,0.14999,16,0.0,0.0,1575420030,,,,0,14.594907970916225,1,6.0,28.437000274658203,0.0,0.0,0.0,66.7128,C,27288056000000,
