# 
# Header Description:
# 
# Version: v3.1.0.3 Platform: 13 Manufacturer: samsung Model: SM-S135DL GNSS Hardware Model Name: MediaTek,MT6631,MTK_MNLD_default,MNL_VER_default
# 
# Raw,utcTimeMillis,TimeNanos,LeapSecond,TimeUncertaintyNanos,FullBiasNanos,BiasNanos,BiasUncertaintyNanos,DriftNanosPerSecond,DriftUncertaintyNanosPerSecond,HardwareClockDiscontinuityCount,Svid,TimeOffsetNanos,State,ReceivedSvTimeNanos,ReceivedSvTimeUncertaintyNanos,Cn0DbHz,PseudorangeRateMetersPerSecond,PseudorangeRateUncertaintyMetersPerSecond,AccumulatedDeltaRangeState,AccumulatedDeltaRangeMeters,AccumulatedDeltaRangeUncertaintyMeters,CarrierFrequencyHz,CarrierCycles,CarrierPhase,CarrierPhaseUncertainty,MultipathIndicator,SnrInDb,ConstellationType,AgcDb,BasebandCn0DbHz,FullInterSignalBiasNanos,FullInterSignalBiasUncertaintyNanos,SatelliteInterSignalBiasNanos,SatelliteInterSignalBiasUncertaintyNanos,CodeType,ChipsetElapsedRealtimeNanos,IsFullTracking
# 
# UncalAccel,utcTimeMillis,elapsedRealtimeNanos,UncalAccelXMps2,UncalAccelYMps2,UncalAccelZMps2,BiasXMps2,BiasYMps2,BiasZMps2
# 
# Accel,utcTimeMillis,elapsedRealtimeNanos,AccelXMps2,AccelYMps2,AccelZMps2
# 
# UncalGyro,utcTimeMillis,elapsedRealtimeNanos,UncalGyroXRadPerSec,UncalGyroYRadPerSec,UncalGyroZRadPerSec,DriftXRadPerSec,DriftYRadPerSec,DriftZRadPerSec
# 
# Gyro,utcTimeMillis,elapsedRealtimeNanos,GyroXRadPerSec,GyroYRadPerSec,GyroZRadPerSec
# 
# UncalMag,utcTimeMillis,elapsedRealtimeNanos,UncalMagXMicroT,UncalMagYMicroT,UncalMagZMicroT,BiasXMicroT,BiasYMicroT,BiasZMicroT
# 
# Mag,utcTimeMillis,elapsedRealtimeNanos,MagXMicroT,MagYMicroT,MagZMicroT
# 
# Pressure,utcTimeMillis,elapsedRealtimeNanos,PressureHpa
# 
# OrientationDeg,utcTimeMillis,elapsedRealtimeNanos,yawDeg,rollDeg,pitchDeg
# 
# Fix,Provider,LatitudeDegrees,LongitudeDegrees,AltitudeMeters,SpeedMps,AccuracyMeters,BearingDegrees,UnixTimeMillis,SpeedAccuracyMps,BearingAccuracyDegrees,elapsedRealtimeNanos,VerticalAccuracyMeters,MockLocation,NumberOfUsedSignals,VerticalSpeedAccuracyMps,SolutionType
# 
# Nav,Svid,Type,Status,MessageId,Sub-messageId,Data(Bytes)
# 
# Status,UnixTimeMillis,SignalCount,SignalIndex,ConstellationType,Svid,CarrierFrequencyHz,Cn0DbHz,AzimuthDegrees,ElevationDegrees,UsedInFix,HasAlmanacData,HasEphemerisData,BasebandCn0DbHz
# 
# Agc,utcTimeMillis,TimeNanos,LeapSecond,TimeUncertaintyNanos,FullBiasNanos,BiasNanos,BiasUncertaintyNanos,DriftNanosPerSecond,DriftUncertaintyNanosPerSecond,HardwareClockDiscontinuityCount,AgcDb,CarrierFrequencyHz,ConstellationType
# 
Status,,29,0,1,14,1575420030,31.40,4.0,70.0,1,0,0,26.4
Status,,29,1,1,22,1575420030,29.20,298.0,67.0,1,0,0,24.2
Status,,29,2,1,30,1575420030,31.30,102.0,61.0,1,0,0,26.3
Status,,29,3,1,17,1575420030,28.60,171.0,59.0,1,0,0,23.6
Status,,29,4,1,13,1575420030,31.00,284.0,55.0,1,0,0,26.0
Status,,29,5,1,19,1575420030,25.90,193.0,31.0,1,0,0,20.9
Status,,29,6,1,7,1575420030,33.20,115.0,27.0,1,0,0,28.2
Status,,29,7,1,15,1575420030,29.10,306.0,25.0,1,0,0,24.1
Status,,29,8,2,131,1575420030,32.00,3.0,23.0,0,0,0,27.0
Status,,29,9,1,2,1575420030,31.00,74.0,20.0,1,0,0,26.0
Status,,29,10,1,21,1575420030,0.00,56.0,14.0,0,0,0,0.0
Status,,29,11,3,9,1602000000,25.60,41.0,48.0,1,0,0,20.6
Status,,29,12,3,8,1602000000,28.10,282.0,40.0,1,0,0,23.1
Status,,29,13,3,19,1602000000,0.00,67.0,36.0,0,0,0,0.0
Status,,29,14,3,20,1602000000,0.00,142.0,24.0,0,0,0,0.0
Status,,29,15,3,18,1602000000,23.00,28.0,14.0,1,0,0,18.0
Status,,29,16,3,11,1602000000,0.00,284.0,9.0,0,0,0,0.0
Status,,29,17,3,16,1602000000,24.90,80.0,6.0,1,0,0,19.9
Status,,29,18,3,17,1602000000,34.60,0.0,0.0,0,0,0,29.599998
Status,,29,19,6,21,1575420030,20.50,289.0,62.0,1,0,0,15.5
Status,,29,20,6,19,1575420030,0.00,280.0,54.0,0,0,0,0.0
Status,,29,21,6,27,1575420030,26.30,45.0,50.0,1,0,0,21.3
Status,,29,22,6,29,1575420030,0.00,197.0,49.0,0,0,0,0.0
Status,,29,23,6,15,1575420030,0.00,85.0,17.0,0,0,0,0.0
Status,,29,24,6,4,1575420030,0.00,324.0,9.0,0,0,0,0.0
Status,,29,25,6,13,1575420030,0.00,136.0,9.0,0,0,0,0.0
Status,,29,26,6,7,1575420030,0.00,162.0,6.0,0,0,0,0.0
Status,,29,27,6,34,1575420030,0.00,38.0,6.0,0,0,0,0.0
Status,,29,28,6,30,1575420030,0.00,65.0,3.0,0,0,0,0.0
Fix,GPS,37.4243683333,-122.1707866667,-4.199999999999999,0.0,2.8,137.56,1732148177000,3.1,179.9,27061055000000,38.6,0,,,
Fix,FLP,37.4243683000,-122.1707912000,2.0,0.044158496,2.683,,1732148177207,3.1,,27061055000000,0.98753417,0,,,
Raw,1732148177000,12691000000,,701817.3448346056,-1416183382309999872,0.0,106.31932446132177,2225.9581257324076,0.0,0,7,0.0,16431,346594924423673,235,28.225000381469727,1121.8230137209505,0.14999,16,0.0,0.0,1575420030,,,,0,14.329263730752118,1,6.0,28.225000381469727,0.0,0.0,0.0,66.7128,C,27061055000000,
Raw,1732148177000,12691000000,,701817.3448346056,-1416183382309999872,0.0,106.31932446132177,2225.9581257324076,0.0,0,17,0.0,16431,346594931635214,396,23.59600067138672,349.57832725888437,0.14999,16,0.0,0.0,1575420030,,,,0,7.978780260241329,1,6.0,23.59600067138672,0.0,0.0,0.0,66.7128,C,27061055000000,
Raw,1732148177000,12691000000,,701817.3448346056,-1416183382309999872,0.0,106.31932446132177,2225.9581257324076,0.0,0,2,0.0,16431,346594921035310,316,26.020000457763672,611.8555296145572,0.14999,16,0.0,0.0,1575420030,,,,0,11.444385894678387,1,6.0,26.020000457763672,0.0,0.0,0.0,66.7128,C,27061055000000,
Raw,1732148177000,12691000000,,701817.3448346056,-1416183382309999872,0.0,106.31932446132177,2225.9581257324076,0.0,0,15,0.0,16431,346594924614397,487,24.099000930786133,368.23105615850204,0.14999,16,0.0,0.0,1575420030,,,,0,8.72988038910897,1,6.0,24.099000930786133,0.0,0.0,0.0,66.7128,C,27061055000000,
Raw,1732148177000,12691000000,,701817.3448346056,-1416183382309999872,0.0,106.31932446132177,2225.9581257324076,0.0,0,27,0.0,16431,346594918585661,396,21.299999237060547,948.7531483148157,0.14999,16,0.0,0.0,1575420030,,,,0,6.179557199186758,6,6.0,21.299999237060547,0.0,0.0,17.7833405736279,66.7128,C,27061055000000,
Raw,1732148177000,12691000000,,701817.3448346056,-1416183382309999872,0.0,106.31932446132177,2225.9581257324076,0.0,0,21,0.0,16431,346594920627773,396,15.5,556.6463455018505,0.14999,16,0.0,0.0,1575420030,,,,0,0.0,6,6.0,15.5,0.0,0.0,17.7833405736279,66.7128,C,27061055000000,
Raw,1732148177000,12691000000,,701817.3448346056,-1416183382309999872,0.0,106.31932446132177,2225.9581257324076,0.0,0,13,0.0,16431,346594931201322,316,26.04599952697754,572.812341215383,0.14999,16,0.0,0.0,1575420030,,,,0,11.481905994653491,1,6.0,26.04599952697754,0.0,0.0,0.0,66.7128,C,27061055000000,
Raw,1732148177000,12691000000,,701817.3448346056,-1416183382309999872,0.0,106.31932446132177,2225.9581257324076,0.0,0,14,0.0,16431,346594932660879,396,26.395999908447266,756.2317480007392,0.14999,16,0.0,0.0,1575420030,,,,0,11.955467984126148,1,6.0,26.395999908447266,0.0,0.0,0.0,66.7128,C,27061055000000,
Raw,1732148177000,12691000000,,701817.3448346056,-1416183382309999872,0.0,106.31932446132177,2225.9581257324076,0.0,0,22,0.0,16431,346594931279142,316,24.19700050354004,615.5939454501868,0.14999,16,0.0,0.0,1575420030,,,,0,8.882715234986478,1,6.0,24.19700050354004,0.0,0.0,0.0,66.7128,C,27061055000000,
Raw,1732148177000,12691000000,,701817.3448346056,-1416183382309999872,0.0,106.31932446132177,2225.9581257324076,0.0,0,16,0.0,17,490345,396,5.0,1157.4329965335203,0.14999,16,0.0,0.0,1601437440,,,,0,4.108357346945191,3,6.0,22.0,0.0,0.0,33.51017831622126,66.7128,C,27061055000000,
Raw,1732148177000,12691000000,,701817.3448346056,-1416183382309999872,0.0,106.31932446132177,2225.9581257324076,0.0,0,9,0.0,17,807691,396,5.0,865.366858027513,0.14999,16,0.0,0.0,1600875010,,,,0,5.102792793048221,3,6.0,21.0,0.0,0.0,33.51017831622126,66.7128,C,27061055000000,
Raw,1732148177000,12691000000,,701817.3448346056,-1416183382309999872,0.0,106.31932446132177,2225.9581257324076,0.0,0,8,0.0,17,641084,396,5.0,762.6882389986176,0.14999,16,0.0,0.0,1605374980,,,,0,8.600788358013473,3,6.0,22.0,0.0,0.0,33.51017831622126,66.7128,C,27061055000000,
Raw,1732148177000,12691000000,,701817.3448346056,-1416183382309999872,0.0,106.31932446132177,2225.9581257324076,0.0,0,18,0.0,17,108110,487,5.0,1184.9035659754468,0.14999,16,0.0,0.0,1600312450,,,,0,0.854582733302343,3,6.0,18.0,0.0,0.0,33.51017831622126,66.7128,C,27061055000000,
Raw,1732148177000,12691000000,,701817.3448346056,-1416183382309999872,0.0,106.31932446132177,2225.9581257324076,0.0,0,19,0.0,16431,346594924579666,487,20.905000686645508,18.500252377614668,0.14999,16,0.0,0.0,1575420030,,,,0,3.7266184026124547,1,6.0,20.905000686645508,0.0,0.0,0.0,66.7128,C,27061055000000,
Raw,1732148177000,12691000000,,701817.3448346056,-1416183382309999872,0.0,106.31932446132177,2225.9581257324076,0.0,0,30,0.0,16431,346594931109181,316,26.347999572753906,887.2734253077564,0.14999,16,0.0,0.0,1575420030,,,,0,11.884271768801742,1,6.0,26.347999572753906,0.0,0.0,0.0,66.7128,C,27061055000000,
Status,1732148177000,29,0,1,14,1575420030,30.90,4.0,70.0,1,0,0,25.9
Status,1732148177000,29,1,1,22,1575420030,30.30,298.0,67.0,1,0,0,25.3
Status,1732148177000,29,2,1,30,1575420030,32.20,102.0,61.0,1,0,0,27.2
Status,1732148177000,29,3,1,17,1575420030,29.10,170.0,60.0,1,0,0,24.1
Status,1732148177000,29,4,1,13,1575420030,27.60,284.0,55.0,1,0,0,22.6
Status,1732148177000,29,5,1,19,1575420030,24.20,193.0,31.0,1,0,0,19.2
Status,1732148177000,29,6,1,7,1575420030,38.20,115.0,27.0,1,0,0,33.2
Status,1732148177000,29,7,1,15,1575420030,25.90,306.0,25.0,1,0,0,20.9
Status,1732148177000,29,8,2,131,1575420030,32.00,3.0,23.0,0,0,0,27.0
Status,1732148177000,29,9,1,2,1575420030,32.60,74.0,20.0,1,0,0,27.599998
Status,1732148177000,29,10,1,21,1575420030,0.00,56.0,14.0,0,0,0,0.0
Status,1732148177000,29,11,3,9,1602000000,25.60,41.0,48.0,1,0,0,20.6
Status,1732148177000,29,12,3,8,1602000000,28.90,282.0,40.0,1,0,0,23.9
Status,1732148177000,29,13,3,19,1602000000,0.00,67.0,36.0,0,0,0,0.0
Status,1732148177000,29,14,3,20,1602000000,0.00,142.0,24.0,0,0,0,0.0
Status,1732148177000,29,15,3,18,1602000000,23.50,28.0,14.0,1,0,0,18.5
Status,1732148177000,29,16,3,11,1602000000,0.00,284.0,9.0,0,0,0,0.0
Status,1732148177000,29,17,3,16,1602000000,22.60,80.0,6.0,1,0,0,17.6
Status,1732148177000,29,18,3,17,1602000000,34.00,0.0,0.0,0,0,0,29.0
Status,1732148177000,29,19,6,21,1575420030,32.80,289.0,62.0,1,0,0,27.8
Status,1732148177000,29,20,6,19,1575420030,0.00,280.0,54.0,0,0,0,0.0
Status,1732148177000,29,21,6,27,1575420030,22.90,45.0,50.0,1,0,0,17.9
Status,1732148177000,29,22,6,29,1575420030,0.00,197.0,49.0,0,0,0,0.0
Status,1732148177000,29,23,6,15,1575420030,0.00,85.0,17.0,0,0,0,0.0
Status,1732148177000,29,24,6,4,1575420030,0.00,324.0,9.0,0,0,0,0.0
Status,1732148177000,29,25,6,13,1575420030,0.00,136.0,9.0,0,0,0,0.0
Status,1732148177000,29,26,6,7,1575420030,0.00,162.0,6.0,0,0,0,0.0
Status,1732148177000,29,27,6,34,1575420030,0.00,38.0,6.0,0,0,0,0.0
Status,1732148177000,29,28,6,30,1575420030,0.00,65.0,3.0,0,0,0,0.0
Fix,GPS,37.4243816667,-122.1707933333,-4.300000000000001,0.0,2.8,137.56,1732148178000,2.6,179.9,27062055000000,34.4,0,,,
Raw,1732148178000,13691000000,,701471.1678470577,-1416183382309999872,0.0,94.00419084766781,2227.5672398880843,0.0,0,7,0.0,16431,346595924419925,58,33.22700119018555,1123.266105045282,0.14999,16,0.0,0.0,1575420030,,,,0,20.349863644031743,1,6.0,33.22700119018555,0.0,0.0,0.0,66.7128,C,27062055000000,
Raw,1732148178000,13691000000,,701471.1678470577,-1416183382309999872,0.0,94.00419084766781,2227.5672398880843,0.0,0,17,0.0,16431,346595931634041,316,24.06599998474121,349.784556168443,0.14999,16,0.0,0.0,1575420030,,,,0,8.678331931352757,1,6.0,24.06599998474121,0.0,0.0,0.0,66.7128,C,27062055000000,
Raw,1732148178000,13691000000,,701471.1678470577,-1416183382309999872,0.0,94.00419084766781,2227.5672398880843,0.0,0,2,0.0,16431,346595921033269,235,27.617000579833984,611.1994903192482,0.14999,16,0.0,0.0,1575420030,,,,0,13.539092905078645,1,6.0,27.617000579833984,0.0,0.0,0.0,66.7128,C,27062055000000,
Raw,1732148178000,13691000000,,701471.1678470577,-1416183382309999872,0.0,94.00419084766781,2227.5672398880843,0.0,0,15,0.0,16431,346595924613167,396,20.905000686645508,369.0944858237749,0.14999,16,0.0,0.0,1575420030,,,,0,3.7266184026124547,1,6.0,20.905000686645508,0.0,0.0,0.0,66.7128,C,27062055000000,
Raw,1732148178000,13691000000,,701471.1678470577,-1416183382309999872,0.0,94.00419084766781,2227.5672398880843,0.0,0,27,0.0,16431,346595918582496,487,17.899999618530273,949.4086765675463,0.14999,16,0.0,0.0,1575420030,,,,0,0.6936423508520289,6,6.0,17.899999618530273,0.0,0.0,18.609702052872652,66.7128,C,27062055000000,
Raw,1732148178000,13691000000,,701471.1678470577,-1416183382309999872,0.0,94.00419084766781,2227.5672398880843,0.0,0,21,0.0,16431,346595920625915,316,27.799999237060547,557.1250994809001,0.14999,16,0.0,0.0,1575420030,,,,0,14.48962317106908,6,6.0,27.799999237060547,0.0,0.0,18.609702052872652,66.7128,C,27062055000000,
Raw,1732148178000,13691000000,,701471.1678470577,-1416183382309999872,0.0,94.00419084766781,2227.5672398880843,0.0,0,13,0.0,16431,346595931199406,396,22.555999755859375,574.2903228102888,0.14999,16,0.0,0.0,1575420030,,,,0,6.383940502820478,1,6.0,22.555999755859375,0.0,0.0,0.0,66.7128,C,27062055000000,
Raw,1732148178000,13691000000,,701471.1678470577,-1416183382309999872,0.0,94.00419084766781,2227.5672398880843,0.0,0,14,0.0,16431,346595932658349,396,25.868000030517578,756.1978333569056,0.14999,16,0.0,0.0,1575420030,,,,0,11.215796659062748,1,6.0,25.868000030517578,0.0,0.0,0.0,66.7128,C,27062055000000,
Raw,1732148178000,13691000000,,701471.1678470577,-1416183382309999872,0.0,94.00419084766781,2227.5672398880843,0.0,0,22,0.0,16431,346595931277088,487,25.30299949645996,616.641489818902,0.14999,16,0.0,0.0,1575420030,,,,0,10.449490704218567,1,6.0,25.30299949645996,0.0,0.0,0.0,66.7128,C,27062055000000,
Raw,1732148178000,13691000000,,701471.1678470577,-1416183382309999872,0.0,94.00419084766781,2227.5672398880843,0.0,0,16,0.0,17,486481,487,5.0,1157.8775101063034,0.14999,16,0.0,0.0,1601437440,,,,0,0.16568011104001457,3,6.0,20.0,0.0,0.0,36.840405965422136,66.7128,C,27062055000000,
Raw,1732148178000,13691000000,,701471.1678470577,-1416183382309999872,0.0,94.00419084766781,2227.5672398880843,0.0,0,9,0.0,17,804801,396,5.0,866.3052090647863,0.14999,16,0.0,0.0,1600875010,,,,0,6.249848964087263,3,6.0,22.0,0.0,0.0,36.840405965422136,66.7128,C,27062055000000,
Raw,1732148178000,13691000000,,701471.1678470577,-1416183382309999872,0.0,94.00419084766781,2227.5672398880843,0.0,0,8,0.0,17,638536,316,5.0,764.2340201525794,0.14999,16,0.0,0.0,1605374980,,,,0,9.651452300162589,3,6.0,25.0,0.0,0.0,36.840405965422136,66.7128,C,27062055000000,
Raw,1732148178000,13691000000,,701471.1678470577,-1416183382309999872,0.0,94.00419084766781,2227.5672398880843,0.0,0,18,0.0,17,104165,797,5.0,1187.960727519602,0.14999,16,0.0,0.0,1600312450,,,,0,1.8117950462711314,3,6.0,17.0,0.0,0.0,36.840405965422136,66.7128,C,27062055000000,
Raw,1732148178000,13691000000,,701471.1678470577,-1416183382309999872,0.0,94.00419084766781,2227.5672398880843,0.0,0,19,0.0,16431,346595924579586,487,19.18400001525879,19.421847979983113,0.14999,16,0.0,0.0,1575420030,,,,0,0.8223245509602259,1,6.0,19.18400001525879,0.0,0.0,0.0,66.7128,C,27062055000000,
Raw,1732148178000,13691000000,,701471.1678470577,-1416183382309999872,0.0,94.00419084766781,2227.5672398880843,0.0,0,30,0.0,16431,346595931106219,316,27.18600082397461,887.289221169268,0.14999,16,0.0,0.0,1575420030,,,,0,12.990327938139854,1,6.0,27.18600082397461,0.0,0.0,0.0,66.7128,C,27062055000000,
Fix,FLP,37.4243747000,-122.1707921000,2.0,0.029298862,2.733,,1732148178207,2.6,,27062055000000,0.9975466,0,,,
Status,1732148178000,29,0,1,14,1575420030,28.20,4.0,70.0,1,0,0,23.2
Status,1732148178000,29,1,1,22,1575420030,30.30,298.0,67.0,1,0,0,25.3
Status,1732148178000,29,2,1,30,1575420030,30.90,102.0,61.0,1,0,0,25.9
Status,1732148178000,29,3,1,17,1575420030,27.40,170.0,60.0,1,0,0,22.4
Status,1732148178000,29,4,1,13,1575420030,31.90,284.0,55.0,1,0,0,26.9
Status,1732148178000,29,5,1,19,1575420030,0.00,193.0,31.0,0,0,0,0.0
Status,1732148178000,29,6,1,7,1575420030,37.30,115.0,27.0,1,0,0,32.3
Status,1732148178000,29,7,1,15,1575420030,30.30,306.0,25.0,1,0,0,25.3
Status,1732148178000,29,8,2,131,1575420030,29.00,3.0,23.0,0,0,0,24.0
Status,1732148178000,29,9,1,2,1575420030,28.70,74.0,20.0,1,0,0,23.7
Status,1732148178000,29,10,1,21,1575420030,24.80,56.0,14.0,1,0,0,19.8
Status,1732148178000,29,11,3,9,1602000000,25.60,41.0,48.0,1,0,0,20.6
Status,1732148178000,29,12,3,8,1602000000,26.30,282.0,40.0,1,0,0,21.3
Status,1732148178000,29,13,3,19,1602000000,0.00,67.0,36.0,0,0,0,0.0
Status,1732148178000,29,14,3,20,1602000000,0.00,142.0,24.0,0,0,0,0.0
Status,1732148178000,29,15,3,18,1602000000,22.80,28.0,14.0,1,0,0,17.8
Status,1732148178000,29,16,3,11,1602000000,0.00,284.0,9.0,0,0,0,0.0
Status,1732148178000,29,17,3,16,1602000000,29.40,80.0,6.0,1,0,0,24.4
Status,1732148178000,29,18,3,17,1602000000,31.40,0.0,0.0,0,0,0,26.4
Status,1732148178000,29,19,6,21,1575420030,26.60,289.0,62.0,1,0,0,21.6
Status,1732148178000,29,20,6,19,1575420030,0.00,280.0,54.0,0,0,0,0.0
Status,1732148178000,29,21,6,27,1575420030,21.20,45.0,50.0,1,0,0,16.2
Status,1732148178000,29,22,6,29,1575420030,0.00,197.0,49.0,0,0,0,0.0
Status,1732148178000,29,23,6,15,1575420030,0.00,85.0,17.0,0,0,0,0.0
Status,1732148178000,29,24,6,4,1575420030,0.00,324.0,9.0,0,0,0,0.0
Status,1732148178000,29,25,6,13,1575420030,0.00,136.0,9.0,0,0,0,0.0
Status,1732148178000,29,26,6,7,1575420030,0.00,162.0,6.0,0,0,0,0.0
Status,1732148178000,29,27,6,34,1575420030,0.00,38.0,6.0,0,0,0,0.0
Status,1732148178000,29,28,6,30,1575420030,0.00,65.0,3.0,0,0,0,0.0
Fix,GPS,37.4243883333,-122.1707933333,-4.199999999999999,0.0,2.8,137.56,1732148179000,2.6,179.9,27063055000000,38.0,0,,,
Fix,FLP,37.4243813000,-122.1707926000,2.0,0.019861503,2.766,,1732148179207,2.6,,27063055000000,1.007539,0,,,
Raw,1732148179000,14691000000,,701269.0488531236,-1416183382309999872,0.0,105.16416613336743,2226.593314463032,0.0,0,7,0.0,16431,346596924416178,74,32.32500076293945,1123.0436621484662,0.14999,16,0.0,0.0,1575420030,,,,0,19.30486846175246,1,6.0,32.32500076293945,0.0,0.0,0.0,66.7128,C,27063055000000,
Raw,1732148179000,14691000000,,701269.0488531236,-1416183382309999872,0.0,105.16416613336743,2226.593314463032,0.0,0,17,0.0,16431,346596931632873,396,22.395999908447266,350.0391482892767,0.14999,16,0.0,0.0,1575420030,,,,0,6.179557199186758,1,6.0,22.395999908447266,0.0,0.0,0.0,66.7128,C,27063055000000,
Raw,1732148179000,14691000000,,701269.0488531236,-1416183382309999872,0.0,105.16416613336743,2226.593314463032,0.0,0,2,0.0,16431,346596921031228,396,23.735000610351562,610.9805782620641,0.14999,16,0.0,0.0,1575420030,,,,0,8.20008878324453,1,6.0,23.735000610351562,0.0,0.0,0.0,66.7128,C,27063055000000,
Raw,1732148179000,14691000000,,701269.0488531236,-1416183382309999872,0.0,105.16416613336743,2226.593314463032,0.0,0,15,0.0,16431,346596924611939,396,25.33099937438965,367.5561547462115,0.14999,16,0.0,0.0,1575420030,,,,0,10.491553205973855,1,6.0,25.33099937438965,0.0,0.0,0.0,66.7128,C,27063055000000,
Raw,1732148179000,14691000000,,701269.0488531236,-1416183382309999872,0.0,105.16416613336743,2226.593314463032,0.0,0,27,0.0,16431,346596918579329,487,16.200000762939453,949.2983842874626,0.14999,16,0.0,0.0,1575420030,,,,0,0.0,6,6.0,16.200000762939453,0.0,0.0,19.395416213273283,66.7128,C,27063055000000,
Raw,1732148179000,14691000000,,701269.0488531236,-1416183382309999872,0.0,105.16416613336743,2226.593314463032,0.0,0,21,0.0,16431,346596920624057,396,21.600000381469727,556.569224530941,0.14999,16,0.0,0.0,1575420030,,,,0,6.649179116177214,6,6.0,21.600000381469727,0.0,0.0,19.395416213273283,66.7128,C,27063055000000,
Raw,1732148179000,14691000000,,701269.0488531236,-1416183382309999872,0.0,105.16416613336743,2226.593314463032,0.0,0,13,0.0,16431,346596931197487,316,26.89299964904785,572.4048544468003,0.14999,16,0.0,0.0,1575420030,,,,0,12.60422483423212,1,6.0,26.89299964904785,0.0,0.0,0.0,66.7128,C,27063055000000,
Raw,1732148179000,14691000000,,701269.0488531236,-1416183382309999872,0.0,105.16416613336743,2226.593314463032,0.0,0,14,0.0,16431,346596932655828,487,23.16900062561035,756.2474044870022,0.14999,16,0.0,0.0,1575420030,,,,0,7.339396138740492,1,6.0,23.16900062561035,0.0,0.0,0.0,66.7128,C,27063055000000,
Raw,1732148179000,14691000000,,701269.0488531236,-1416183382309999872,0.0,105.16416613336743,2226.593314463032,0.0,0,21,0.0,16431,346596919971864,487,19.812000274658203,842.4289744763722,0.14999,16,0.0,0.0,1575420030,,,,0,1.9019608002851363,1,6.0,19.812000274658203,0.0,0.0,0.0,66.7128,C,27063055000000,
Raw,1732148179000,14691000000,,701269.0488531236,-1416183382309999872,0.0,105.16416613336743,2226.593314463032,0.0,0,22,0.0,16431,346596931275031,316,25.30299949645996,615.1840428439612,0.14999,16,0.0,0.0,1575420030,,,,0,10.449490704218567,1,6.0,25.30299949645996,0.0,0.0,0.0,66.7128,C,27063055000000,
Raw,1732148179000,14691000000,,701269.0488531236,-1416183382309999872,0.0,105.16416613336743,2226.593314463032,0.0,0,16,0.0,17,482619,316,5.0,1158.9394798140136,0.14999,16,0.0,0.0,1601437440,,,,0,10.340605748742627,3,6.0,26.0,0.0,0.0,38.69169197879894,66.7128,C,27063055000000,
Raw,1732148179000,14691000000,,701269.0488531236,-1416183382309999872,0.0,105.16416613336743,2226.593314463032,0.0,0,9,0.0,17,801909,487,5.0,865.9654202853566,0.14999,16,0.0,0.0,1600875010,,,,0,3.7045589885001347,3,6.0,20.0,0.0,0.0,38.69169197879894,66.7128,C,27063055000000,
Raw,1732148179000,14691000000,,701269.0488531236,-1416183382309999872,0.0,105.16416613336743,2226.593314463032,0.0,0,8,0.0,17,635989,487,5.0,763.5057408972075,0.14999,16,0.0,0.0,1605374980,,,,0,6.129627119048964,3,6.0,19.0,0.0,0.0,38.69169197879894,66.7128,C,27063055000000,
Raw,1732148179000,14691000000,,701269.0488531236,-1416183382309999872,0.0,105.16416613336743,2226.593314463032,0.0,0,18,0.0,17,100205,487,5.0,1188.6893897439074,0.14999,16,0.0,0.0,1600312450,,,,0,0.5105421311498954,3,6.0,20.0,0.0,0.0,38.69169197879894,66.7128,C,27063055000000,
Raw,1732148179000,14691000000,,701269.0488531236,-1416183382309999872,0.0,105.16416613336743,2226.593314463032,0.0,0,30,0.0,16431,346596931103254,316,25.868000030517578,888.082730918144,0.14999,16,0.0,0.0,1575420030,,,,0,11.215796659062748,1,6.0,25.868000030517578,0.0,0.0,0.0,66.7128,C,27063055000000,
Status,1732148179000,29,0,1,14,1575420030,29.40,4.0,70.0,1,0,0,24.4
Status,1732148179000,29,1,1,22,1575420030,30.40,298.0,67.0,1,0,0,25.4
Status,1732148179000,29,2,1,30,1575420030,30.90,102.0,61.0,1,0,0,25.9
Status,1732148179000,29,3,1,17,1575420030,27.50,170.0,60.0,1,0,0,22.5
Status,1732148179000,29,4,1,13,1575420030,31.10,284.0,55.0,1,0,0,26.1
Status,1732148179000,29,5,1,19,1575420030,0.00,193.0,31.0,0,0,0,0.0
Status,1732148179000,29,6,1,7,1575420030,39.70,115.0,27.0,1,0,0,34.7
Status,1732148179000,29,7,1,15,1575420030,25.90,306.0,25.0,1,0,0,20.9
Status,1732148179000,29,8,2,131,1575420030,29.00,3.0,23.0,0,0,0,24.0
Status,1732148179000,29,9,1,2,1575420030,34.60,74.0,20.0,1,0,0,29.599998
Status,1732148179000,29,10,1,21,1575420030,31.70,56.0,14.0,1,0,0,26.7
Status,1732148179000,29,11,3,9,1602000000,25.70,41.0,48.0,1,0,0,20.7
Status,1732148179000,29,12,3,8,1602000000,26.20,282.0,40.0,1,0,0,21.2
Status,1732148179000,29,13,3,19,1602000000,0.00,67.0,36.0,0,0,0,0.0
Status,1732148179000,29,14,3,20,1602000000,0.00,142.0,24.0,0,0,0,0.0
Status,1732148179000,29,15,3,18,1602000000,22.80,28.0,14.0,1,0,0,17.8
Status,1732148179000,29,16,3,11,1602000000,0.00,284.0,9.0,0,0,0,0.0
Status,1732148179000,29,17,3,16,1602000000,28.50,80.0,6.0,1,0,0,23.5
Status,1732148179000,29,18,3,17,1602000000,32.20,0.0,0.0,0,0,0,27.2
Status,1732148179000,29,19,6,21,1575420030,22.00,289.0,62.0,1,0,0,17.0
Status,1732148179000,29,20,6,19,1575420030,0.00,280.0,54.0,0,0,0,0.0
Status,1732148179000,29,21,6,27,1575420030,25.00,45.0,50.0,1,0,0,20.0
Status,1732148179000,29,22,6,29,1575420030,0.00,197.0,49.0,0,0,0,0.0
Status,1732148179000,29,23,6,15,1575420030,0.00,85.0,17.0,0,0,0,0.0
Status,1732148179000,29,24,6,4,1575420030,0.00,324.0,9.0,0,0,0,0.0
Status,1732148179000,29,25,6,13,1575420030,0.00,136.0,9.0,0,0,0,0.0
Status,1732148179000,29,26,6,7,1575420030,0.00,162.0,6.0,0,0,0,0.0
Status,1732148179000,29,27,6,34,1575420030,0.00,38.0,6.0,0,0,0,0.0
Status,1732148179000,29,28,6,30,1575420030,0.00,65.0,3.0,0,0,0,0.0
Fix,GPS,37.4243866667,-122.1707966667,-4.300000000000001,0.0,2.8,137.56,1732148180000,2.4,179.9,27064055000000,38.0,0,,,
Raw,1732148180000,15691000000,,701025.0258697302,-1416183382309999872,0.0,105.10348954386119,2226.6214101152036,0.0,0,7,0.0,16431,346597924412428,58,34.65299987792969,1123.931389565417,0.14999,16,0.0,0.0,1575420030,,,,0,21.96938072199927,1,6.0,34.65299987792969,0.0,0.0,0.0,66.7128,C,27064055000000,
Raw,1732148180000,15691000000,,701025.0258697302,-1416183382309999872,0.0,105.10348954386119,2226.6214101152036,0.0,0,17,0.0,16431,346597931631701,396,22.481000900268555,350.26858317773247,0.14999,16,0.0,0.0,1575420030,,,,0,8.72988038910897,1,6.0,22.481000900268555,0.0,0.0,0.0,66.7128,C,27064055000000,
Raw,1732148180000,15691000000,,701025.0258697302,-1416183382309999872,0.0,105.10348954386119,2226.6214101152036,0.0,0,2,0.0,16431,346597921029183,316,29.625,613.6096600354185,0.14999,16,0.0,0.0,1575420030,,,,0,16.08207073334698,1,6.0,29.625,0.0,0.0,0.0,66.7128,C,27064055000000,
Raw,1732148180000,15691000000,,701025.0258697302,-1416183382309999872,0.0,105.10348954386119,2226.6214101152036,0.0,0,15,0.0,16431,346597924610713,396,20.856000900268555,367.8874264830008,0.14999,16,0.0,0.0,1575420030,,,,0,3.634703368829472,1,6.0,20.856000900268555,0.0,0.0,0.0,66.7128,C,27064055000000,
Raw,1732148180000,15691000000,,701025.0258697302,-1416183382309999872,0.0,105.10348954386119,2226.6214101152036,0.0,0,27,0.0,16431,346597918576159,487,20.0,950.5965253532174,0.14999,16,0.0,0.0,1575420030,,,,0,4.258573772488351,6,6.0,20.0,0.0,0.0,18.246380790907953,66.7128,C,27064055000000,
Raw,1732148180000,15691000000,,701025.0258697302,-1416183382309999872,0.0,105.10348954386119,2226.6214101152036,0.0,0,21,0.0,16431,346597920622198,487,17.0,556.9988719640561,0.14999,16,0.0,0.0,1575420030,,,,0,0.0,6,6.0,17.0,0.0,0.0,18.246380790907953,66.7128,C,27064055000000,
Raw,1732148180000,15691000000,,701025.0258697302,-1416183382309999872,0.0,105.10348954386119,2226.6214101152036,0.0,0,13,0.0,16431,346597931195581,396,26.097999572753906,573.7593495714185,0.14999,16,0.0,0.0,1575420030,,,,0,11.556463445038357,1,6.0,26.097999572753906,0.0,0.0,0.0,66.7128,C,27064055000000,
Raw,1732148180000,15691000000,,701025.0258697302,-1416183382309999872,0.0,105.10348954386119,2226.6214101152036,0.0,0,14,0.0,16431,346597932653305,396,24.386999130249023,756.4251079290075,0.14999,16,0.0,0.0,1575420030,,,,0,9.131611624071631,1,6.0,24.386999130249023,0.0,0.0,0.0,66.7128,C,27064055000000,
Raw,1732148180000,15691000000,,701025.0258697302,-1416183382309999872,0.0,105.10348954386119,2226.6214101152036,0.0,0,21,0.0,16431,346597919969037,396,26.707000732421875,843.8782912284762,0.14999,16,0.0,0.0,1575420030,,,,0,12.37080876346139,1,6.0,26.707000732421875,0.0,0.0,0.0,66.7128,C,27064055000000,
Raw,1732148180000,15691000000,,701025.0258697302,-1416183382309999872,0.0,105.10348954386119,2226.6214101152036,0.0,0,22,0.0,16431,346597931272973,316,25.413000106811523,616.1849894212172,0.14999,16,0.0,0.0,1575420030,,,,0,10.616532191513883,1,6.0,25.413000106811523,0.0,0.0,0.0,66.7128,C,27064055000000,
Raw,1732148180000,15691000000,,701025.0258697302,-1416183382309999872,0.0,105.10348954386119,2226.6214101152036,0.0,0,16,0.0,17,478753,396,5.0,1158.3365574356303,0.14999,16,0.0,0.0,1601437440,,,,0,9.128063466490403,3,6.0,23.0,0.0,0.0,44.40170666210118,66.7128,C,27064055000000,
Raw,1732148180000,15691000000,,701025.0258697302,-1416183382309999872,0.0,105.10348954386119,2226.6214101152036,0.0,0,9,0.0,17,799018,396,5.0,865.7143277158426,0.14999,16,0.0,0.0,1600875010,,,,0,7.870077837041784,3,6.0,21.0,0.0,0.0,44.40170666210118,66.7128,C,27064055000000,
Raw,1732148180000,15691000000,,701025.0258697302,-1416183382309999872,0.0,105.10348954386119,2226.6214101152036,0.0,0,8,0.0,17,633438,797,5.0,762.71007734614,0.14999,16,0.0,0.0,1605374980,,,,0,6.023050448947625,3,6.0,17.0,0.0,0.0,44.40170666210118,66.7128,C,27064055000000,
Raw,1732148180000,15691000000,,701025.0258697302,-1416183382309999872,0.0,105.10348954386119,2226.6214101152036,0.0,0,18,0.0,17,96245,487,5.0,1188.6374339137035,0.14999,16,0.0,0.0,1600312450,,,,0,0.5276445528959393,3,6.0,18.0,0.0,0.0,44.40170666210118,66.7128,C,27064055000000,
Raw,1732148180000,15691000000,,701025.0258697302,-1416183382309999872,0.0,105.10348954386119,2226.6214101152036,0.0,0,30,0.0,16431,346597931100291,316,25.94499969482422,888.0522541971098,0.14999,16,0.0,0.0,1575420030,,,,0,11.330843236844576,1,6.0,25.94499969482422,0.0,0.0,0.0,66.7128,C,27064055000000,
Fix,FLP,37.4243839000,-122.1707945000,2.0,0.014758941,2.783,,1732148180207,2.4,,27064055000000,1.013284,0,,,
Status,1732148180000,29,0,1,14,1575420030,30.30,4.0,70.0,1,0,0,25.3
Status,1732148180000,29,1,1,22,1575420030,26.70,298.0,67.0,1,0,0,21.7
Status,1732148180000,29,2,1,30,1575420030,31.40,102.0,61.0,1,0,0,26.4
Status,1732148180000,29,3,1,17,1575420030,27.50,170.0,60.0,1,0,0,22.5
Status,1732148180000,29,4,1,13,1575420030,28.00,284.0,55.0,1,0,0,23.0
Status,1732148180000,29,5,1,19,1575420030,0.00,193.0,31.0,0,0,0,0.0
Status,1732148180000,29,6,1,7,1575420030,32.40,115.0,27.0,1,0,0,27.400002
Status,1732148180000,29,7,1,15,1575420030,29.90,306.0,25.0,1,0,0,24.9
Status,1732148180000,29,8,2,131,1575420030,29.00,3.0,23.0,0,0,0,24.0
Status,1732148180000,29,9,1,2,1575420030,29.20,74.0,20.0,1,0,0,24.2
Status,1732148180000,29,10,1,21,1575420030,30.20,56.0,14.0,1,0,0,25.2
Status,1732148180000,29,11,3,9,1602000000,25.70,41.0,48.0,1,0,0,20.7
Status,1732148180000,29,12,3,8,1602000000,0.00,282.0,40.0,0,0,0,0.0
Status,1732148180000,29,13,3,19,1602000000,0.00,67.0,36.0,0,0,0,0.0
Status,1732148180000,29,14,3,20,1602000000,0.00,142.0,24.0,0,0,0,0.0
Status,1732148180000,29,15,3,18,1602000000,22.80,28.0,14.0,1,0,0,17.8
Status,1732148180000,29,16,3,11,1602000000,0.00,284.0,9.0,0,0,0,0.0
Status,1732148180000,29,17,3,16,1602000000,27.60,80.0,6.0,1,0,0,22.6
Status,1732148180000,29,18,3,17,1602000000,34.10,0.0,0.0,0,0,0,29.099998
Status,1732148180000,29,19,6,21,1575420030,22.10,289.0,62.0,1,0,0,17.1
Status,1732148180000,29,20,6,19,1575420030,0.00,280.0,54.0,0,0,0,0.0
Status,1732148180000,29,21,6,27,1575420030,24.70,45.0,50.0,1,0,0,19.7
Status,1732148180000,29,22,6,29,1575420030,0.00,197.0,49.0,0,0,0,0.0
Status,1732148180000,29,23,6,15,1575420030,0.00,85.0,17.0,0,0,0,0.0
Status,1732148180000,29,24,6,4,1575420030,0.00,324.0,9.0,0,0,0,0.0
Status,1732148180000,29,25,6,13,1575420030,0.00,136.0,9.0,0,0,0,0.0
Status,1732148180000,29,26,6,7,1575420030,0.00,162.0,6.0,0,0,0,0.0
Status,1732148180000,29,27,6,34,1575420030,0.00,38.0,6.0,0,0,0,0.0
Status,1732148180000,29,28,6,30,1575420030,0.00,65.0,3.0,0,0,0,0.0
Fix,GPS,37.4243783333,-122.1708033333,-4.300000000000001,0.0,2.8,137.56,1732148181000,2.6,179.9,27065055000000,39.4,0,,,
Fix,FLP,37.4243812000,-122.1707987000,2.0,0.0049647815,2.8,,1732148181207,2.6,,27065055000000,1.0234064,0,,,
Raw,1732148181000,16691000000,,700848.9665707335,-1416183382309999872,0.0,107.48942130580758,2230.2848154677313,0.0,0,7,0.0,16431,346598924408671,316,27.44700050354004,1125.4741806509367,0.14999,16,0.0,0.0,1575420030,,,,0,13.329784231515344,1,6.0,27.44700050354004,0.0,0.0,0.0,66.7128,C,27065055000000,
Raw,1732148181000,16691000000,,700848.9665707335,-1416183382309999872,0.0,107.48942130580758,2230.2848154677313,0.0,0,17,0.0,16431,346598931630530,396,22.493999481201172,351.5135525861343,0.14999,16,0.0,0.0,1575420030,,,,0,6.714242264131652,1,6.0,22.493999481201172,0.0,0.0,0.0,66.7128,C,27065055000000,
Raw,1732148181000,16691000000,,700848.9665707335,-1416183382309999872,0.0,107.48942130580758,2230.2848154677313,0.0,0,2,0.0,16431,346598921027135,316,24.229999542236328,613.835494396618,0.14999,16,0.0,0.0,1575420030,,,,0,8.933068359411408,1,6.0,24.229999542236328,0.0,0.0,0.0,66.7128,C,27065055000000,
Raw,1732148181000,16691000000,,700848.9665707335,-1416183382309999872,0.0,107.48942130580758,2230.2848154677313,0.0,0,15,0.0,16431,346598924609480,487,24.902000427246094,369.0515350179882,0.14999,16,0.0,0.0,1575420030,,,,0,9.883292476990974,1,6.0,24.902000427246094,0.0,0.0,0.0,66.7128,C,27065055000000,
Raw,1732148181000,16691000000,,700848.9665707335,-1416183382309999872,0.0,107.48942130580758,2230.2848154677313,0.0,0,30,0.0,16431,346598931097297,316,26.395999908447266,888.0337637474581,0.14999,16,0.0,0.0,1575420030,,,,0,11.955467984126148,1,6.0,26.395999908447266,0.0,0.0,0.0,66.7128,C,27065055000000,
Raw,1732148181000,16691000000,,700848.9665707335,-1416183382309999872,0.0,107.48942130580758,2230.2848154677313,0.0,0,27,0.0,16431,346598918572984,396,19.700000762939453,951.4330555955044,0.14999,16,0.0,0.0,1575420030,,,,0,3.817570957626867,6,6.0,19.700000762939453,0.0,0.0,17.855378199492396,66.7128,C,27065055000000,
Raw,1732148181000,16691000000,,700848.9665707335,-1416183382309999872,0.0,107.48942130580758,2230.2848154677313,0.0,0,21,0.0,16431,346598920620337,487,17.100000381469727,558.2394045937099,0.14999,16,0.0,0.0,1575420030,,,,0,0.0,6,6.0,17.100000381469727,0.0,0.0,17.855378199492396,66.7128,C,27065055000000,
Raw,1732148181000,16691000000,,700848.9665707335,-1416183382309999872,0.0,107.48942130580758,2230.2848154677313,0.0,0,13,0.0,16431,346598931193662,396,23.01799964904785,575.7076761720399,0.14999,16,0.0,0.0,1575420030,,,,0,7.09470701040026,1,6.0,23.01799964904785,0.0,0.0,0.0,66.7128,C,27065055000000,
Raw,1732148181000,16691000000,,700848.9665707335,-1416183382309999872,0.0,107.48942130580758,2230.2848154677313,0.0,0,14,0.0,16431,346598932650776,396,25.33099937438965,757.7469427870298,0.14999,16,0.0,0.0,1575420030,,,,0,10.491553205973855,1,6.0,25.33099937438965,0.0,0.0,0.0,66.7128,C,27065055000000,
Raw,1732148181000,16691000000,,700848.9665707335,-1416183382309999872,0.0,107.48942130580758,2230.2848154677313,0.0,0,21,0.0,16431,346598919966166,316,25.190000534057617,844.0828940934674,0.14999,16,0.0,0.0,1575420030,,,,0,10.279173685767976,1,6.0,25.190000534057617,0.0,0.0,0.0,66.7128,C,27065055000000,
Raw,1732148181000,16691000000,,700848.9665707335,-1416183382309999872,0.0,107.48942130580758,2230.2848154677313,0.0,0,22,0.0,16431,346598931270917,487,21.667999267578125,617.0646330737476,0.14999,16,0.0,0.0,1575420030,,,,0,5.0,1,6.0,21.667999267578125,0.0,0.0,0.0,66.7128,C,27065055000000,
Raw,1732148181000,16691000000,,700848.9665707335,-1416183382309999872,0.0,107.48942130580758,2230.2848154677313,0.0,0,16,0.0,17,474880,396,5.0,1161.3837103170406,0.14999,16,0.0,0.0,1601437440,,,,0,8.019195484633624,3,6.0,23.0,0.0,0.0,48.558999838477874,66.7128,C,27065055000000,
Raw,1732148181000,16691000000,,700848.9665707335,-1416183382309999872,0.0,107.48942130580758,2230.2848154677313,0.0,0,9,0.0,17,796121,396,5.0,867.4532306271491,0.14999,16,0.0,0.0,1600875010,,,,0,6.068886384539322,3,6.0,23.0,0.0,0.0,48.558999838477874,66.7128,C,27065055000000,
Raw,1732148181000,16691000000,,700848.9665707335,-1416183382309999872,0.0,107.48942130580758,2230.2848154677313,0.0,0,18,0.0,17,92283,487,5.0,1188.2784081504094,0.14999,16,0.0,0.0,1600312450,,,,0,0.5276445528959393,3,6.0,20.0,0.0,0.0,48.558999838477874,66.7128,C,27065055000000,
Status,1732148181000,29,0,1,14,1575420030,27.10,4.0,70.0,1,0,0,22.1
Status,1732148181000,29,1,1,22,1575420030,30.00,298.0,67.0,1,0,0,25.0
Status,1732148181000,29,2,1,30,1575420030,33.30,102.0,61.0,1,0,0,28.3
Status,1732148181000,29,3,1,17,1575420030,30.90,170.0,60.0,1,0,0,25.9
Status,1732148181000,29,4,1,13,1575420030,29.40,284.0,55.0,1,0,0,24.4
Status,1732148181000,29,5,1,19,1575420030,0.00,193.0,31.0,0,0,0,0.0
Status,1732148181000,29,6,1,7,1575420030,27.70,115.0,27.0,1,0,0,22.7
Status,1732148181000,29,7,1,15,1575420030,25.40,306.0,25.0,1,0,0,20.4
Status,1732148181000,29,8,2,131,1575420030,30.00,3.0,23.0,0,0,0,25.0
Status,1732148181000,29,9,1,2,1575420030,35.20,74.0,20.0,1,0,0,30.2
Status,1732148181000,29,10,1,21,1575420030,29.70,56.0,14.0,1,0,0,24.7
Status,1732148181000,29,11,3,9,1602000000,25.70,41.0,48.0,1,0,0,20.7
Status,1732148181000,29,12,3,8,1602000000,26.20,282.0,40.0,1,0,0,21.2
Status,1732148181000,29,13,3,19,1602000000,0.00,67.0,36.0,0,0,0,0.0
Status,1732148181000,29,14,3,20,1602000000,0.00,142.0,24.0,0,0,0,0.0
Status,1732148181000,29,15,3,18,1602000000,22.90,28.0,14.0,1,0,0,17.9
Status,1732148181000,29,16,3,11,1602000000,0.00,284.0,9.0,0,0,0,0.0
Status,1732148181000,29,17,3,16,1602000000,25.30,80.0,6.0,1,0,0,20.3
Status,1732148181000,29,18,3,17,1602000000,25.20,0.0,0.0,0,0,0,20.2
Status,1732148181000,29,19,6,21,1575420030,30.90,289.0,62.0,1,0,0,25.9
Status,1732148181000,29,20,6,19,1575420030,0.00,280.0,54.0,0,0,0,0.0
Status,1732148181000,29,21,6,27,1575420030,22.70,45.0,50.0,1,0,0,17.7
Status,1732148181000,29,22,6,29,1575420030,0.00,197.0,49.0,0,0,0,0.0
Status,1732148181000,29,23,6,15,1575420030,0.00,85.0,17.0,0,0,0,0.0
Status,1732148181000,29,24,6,4,1575420030,0.00,324.0,9.0,0,0,0,0.0
Status,1732148181000,29,25,6,13,1575420030,0.00,136.0,9.0,0,0,0,0.0
Status,1732148181000,29,26,6,7,1575420030,0.00,162.0,6.0,0,0,0,0.0
Status,1732148181000,29,27,6,34,1575420030,0.00,38.0,6.0,0,0,0,0.0
Status,1732148181000,29,28,6,30,1575420030,0.00,65.0,3.0,0,0,0,0.0
Fix,GPS,37.4243883333,-122.1708116667,-4.399999999999999,0.0,2.8,137.56,1732148182000,2.5,87.6,27066055000000,40.8,0,,,
Fix,FLP,37.4243847000,-122.1708051000,2.0,0.011509842,2.8,,1732148182208,2.5,,27066055000000,1.0334126,0,,,
Raw,1732148182000,17691000000,,700523.8979360849,-1416183382309999872,0.0,113.75279518213058,2233.16083145958,0.0,0,7,0.0,16431,346599924404911,396,22.715999603271484,1126.5946647331023,0.14999,16,0.0,0.0,1575420030,,,,0,6.649179116177214,1,6.0,22.715999603271484,0.0,0.0,0.0,66.7128,C,27066055000000,
Raw,1732148182000,17691000000,,700523.8979360849,-1416183382309999872,0.0,113.75279518213058,2233.16083145958,0.0,0,17,0.0,16431,346599931629345,316,25.868000030517578,352.56067882910367,0.14999,16,0.0,0.0,1575420030,,,,0,11.215796659062748,1,6.0,25.868000030517578,0.0,0.0,0.0,66.7128,C,27066055000000,
Raw,1732148182000,17691000000,,700523.8979360849,-1416183382309999872,0.0,113.75279518213058,2233.16083145958,0.0,0,2,0.0,16431,346599921025085,74,30.23200035095215,614.3542955304409,0.14999,16,0.0,0.0,1575420030,,,,0,16.821292140529984,1,6.0,30.23200035095215,0.0,0.0,0.0,66.7128,C,27066055000000,
Raw,1732148182000,17691000000,,700523.8979360849,-1416183382309999872,0.0,113.75279518213058,2233.16083145958,0.0,0,15,0.0,16431,346599924608242,487,20.381000518798828,370.3001978704789,0.14999,16,0.0,0.0,1575420030,,,,0,2.8621153217068542,1,6.0,20.381000518798828,0.0,0.0,0.0,66.7128,C,27066055000000,
Raw,1732148182000,17691000000,,700523.8979360849,-1416183382309999872,0.0,113.75279518213058,2233.16083145958,0.0,0,30,0.0,16431,346599931094367,235,28.32200050354004,888.877355669009,0.14999,16,0.0,0.0,1575420030,,,,0,14.46310135004122,1,6.0,28.32200050354004,0.0,0.0,0.0,66.7128,C,27066055000000,
Raw,1732148182000,17691000000,,700523.8979360849,-1416183382309999872,0.0,113.75279518213058,2233.16083145958,0.0,0,27,0.0,16431,346599918569809,487,17.700000762939453,951.1307042228061,0.14999,16,0.0,0.0,1575420030,,,,0,0.2957457765132423,6,6.0,17.700000762939453,0.0,0.0,13.33609192095536,66.7128,C,27066055000000,
Raw,1732148182000,17691000000,,700523.8979360849,-1416183382309999872,0.0,113.75279518213058,2233.16083145958,0.0,0,21,0.0,16431,346599920618473,235,25.899999618530273,558.8698917601031,0.14999,16,0.0,0.0,1575420030,,,,0,12.234556720351858,6,6.0,25.899999618530273,0.0,0.0,13.33609192095536,66.7128,C,27066055000000,
Raw,1732148182000,17691000000,,700523.8979360849,-1416183382309999872,0.0,113.75279518213058,2233.16083145958,0.0,0,13,0.0,16431,346599931191736,316,24.417999267578125,576.7643263903324,0.14999,16,0.0,0.0,1575420030,,,,0,9.18054634301338,1,6.0,24.417999267578125,0.0,0.0,0.0,66.7128,C,27066055000000,
Raw,1732148182000,17691000000,,700523.8979360849,-1416183382309999872,0.0,113.75279518213058,2233.16083145958,0.0,0,14,0.0,16431,346599932648246,396,22.148000717163086,759.4632095986794,0.14999,16,0.0,0.0,1575420030,,,,0,5.755771217787995,1,6.0,22.148000717163086,0.0,0.0,0.0,66.7128,C,27066055000000,
Raw,1732148182000,17691000000,,700523.8979360849,-1416183382309999872,0.0,113.75279518213058,2233.16083145958,0.0,0,21,0.0,16431,346599919963363,396,24.725000381469727,844.9141280763064,0.14999,16,0.0,0.0,1575420030,,,,0,9.608978427565479,1,6.0,24.725000381469727,0.0,0.0,0.0,66.7128,C,27066055000000,
Raw,1732148182000,17691000000,,700523.8979360849,-1416183382309999872,0.0,113.75279518213058,2233.16083145958,0.0,0,22,0.0,16431,346599931268856,316,24.958999633789062,617.2002451906661,0.14999,16,0.0,0.0,1575420030,,,,0,9.972838524085859,1,6.0,24.958999633789062,0.0,0.0,0.0,66.7128,C,27066055000000,
Raw,1732148182000,17691000000,,700523.8979360849,-1416183382309999872,0.0,113.75279518213058,2233.16083145958,0.0,0,16,0.0,17,470997,487,5.0,1161.3634179022436,0.14999,16,0.0,0.0,1601437440,,,,0,4.625780725607928,3,6.0,20.0,0.0,0.0,47.38291227780532,66.7128,C,27066055000000,
Raw,1732148182000,17691000000,,700523.8979360849,-1416183382309999872,0.0,113.75279518213058,2233.16083145958,0.0,0,9,0.0,17,793228,487,5.0,868.5121902220294,0.14999,16,0.0,0.0,1600875010,,,,0,4.130686124378194,3,6.0,19.0,0.0,0.0,47.38291227780532,66.7128,C,27066055000000,
Raw,1732148182000,17691000000,,700523.8979360849,-1416183382309999872,0.0,113.75279518213058,2233.16083145958,0.0,0,8,0.0,17,628336,487,5.0,764.2699918774128,0.14999,16,0.0,0.0,1605374980,,,,0,6.023050448947625,3,6.0,18.0,0.0,0.0,47.38291227780532,66.7128,C,27066055000000,
Raw,1732148182000,17691000000,,700523.8979360849,-1416183382309999872,0.0,113.75279518213058,2233.16083145958,0.0,0,18,0.0,17,88321,487,5.0,1188.9709391195556,0.14999,16,0.0,0.0,1600312450,,,,0,4.453537455775303,3,6.0,19.0,0.0,0.0,47.38291227780532,66.7128,C,27066055000000,
Status,1732148182000,29,0,1,14,1575420030,31.20,4.0,70.0,1,0,0,26.2
Status,1732148182000,29,1,1,22,1575420030,31.40,299.0,67.0,1,0,0,26.4
Status,1732148182000,29,2,1,30,1575420030,34.80,102.0,61.0,1,0,0,29.8
Status,1732148182000,29,3,1,17,1575420030,32.40,170.0,60.0,1,0,0,27.400002
Status,1732148182000,29,4,1,13,1575420030,33.50,284.0,55.0,1,0,0,28.5
Status,1732148182000,29,5,1,19,1575420030,22.00,193.0,31.0,1,0,0,17.0
Status,1732148182000,29,6,1,7,1575420030,30.30,115.0,27.0,1,0,0,25.3
Status,1732148182000,29,7,1,15,1575420030,26.50,306.0,25.0,1,0,0,21.5
Status,1732148182000,29,8,2,131,1575420030,30.00,3.0,23.0,0,0,0,25.0
Status,1732148182000,29,9,1,2,1575420030,31.00,74.0,20.0,1,0,0,26.0
Status,1732148182000,29,10,1,21,1575420030,27.90,56.0,14.0,1,0,0,22.9
Status,1732148182000,29,11,3,9,1602000000,25.70,41.0,48.0,1,0,0,20.7
Status,1732148182000,29,12,3,8,1602000000,19.70,282.0,40.0,1,0,0,14.700001
Status,1732148182000,29,13,3,19,1602000000,0.00,67.0,36.0,0,0,0,0.0
Status,1732148182000,29,14,3,20,1602000000,0.00,142.0,24.0,0,0,0,0.0
Status,1732148182000,29,15,3,18,1602000000,25.50,28.0,14.0,1,0,0,20.5
Status,1732148182000,29,16,3,11,1602000000,0.00,284.0,9.0,0,0,0,0.0
Status,1732148182000,29,17,3,16,1602000000,29.60,80.0,6.0,1,0,0,24.6
Status,1732148182000,29,18,3,17,1602000000,26.40,0.0,0.0,0,0,0,21.4
Status,1732148182000,29,19,6,21,1575420030,31.60,289.0,62.0,1,0,0,26.6
Status,1732148182000,29,20,6,19,1575420030,0.00,280.0,54.0,0,0,0,0.0
Status,1732148182000,29,21,6,27,1575420030,22.80,45.0,50.0,1,0,0,17.8
Status,1732148182000,29,22,6,29,1575420030,0.00,197.0,49.0,0,0,0,0.0
Status,1732148182000,29,23,6,15,1575420030,0.00,85.0,17.0,0,0,0,0.0
Status,1732148182000,29,24,6,4,1575420030,0.00,324.0,9.0,0,0,0,0.0
Status,1732148182000,29,25,6,13,1575420030,0.00,136.0,9.0,0,0,0,0.0
Status,1732148182000,29,26,6,7,1575420030,0.00,162.0,6.0,0,0,0,0.0
Status,1732148182000,29,27,6,34,1575420030,0.00,38.0,6.0,0,0,0,0.0
Status,1732148182000,29,28,6,30,1575420030,0.00,65.0,3.0,0,0,0,0.0
Fix,GPS,37.4243933333,-122.1708166667,-4.399999999999999,0.0,2.8,137.56,1732148183000,2.4,79.8,27067055000000,38.8,0,,,
Fix,FLP,37.4243889000,-122.1708108000,2.0,0.026975663,2.8,,1732148183207,2.4,,27067055000000,1.0434096,0,,,
Raw,1732148183000,18691000000,,700357.7413211643,-1416183382309999872,0.0,106.97283366173201,2233.292586127778,0.0,0,7,0.0,16431,346600924401156,396,25.30299949645996,1126.2804200058542,0.14999,16,0.0,0.0,1575420030,,,,0,10.449490704218567,1,6.0,25.30299949645996,0.0,0.0,0.0,66.7128,C,27067055000000,
Raw,1732148183000,18691000000,,700357.7413211643,-1416183382309999872,0.0,106.97283366173201,2233.292586127778,0.0,0,17,0.0,16431,346600931628169,487,27.424999237060547,351.84291952785895,0.14999,16,0.0,0.0,1575420030,,,,0,13.29946695941636,1,6.0,27.424999237060547,0.0,0.0,0.0,66.7128,C,27067055000000,
Raw,1732148183000,18691000000,,700357.7413211643,-1416183382309999872,0.0,106.97283366173201,2233.292586127778,0.0,0,2,0.0,16431,346600921023037,316,26.04599952697754,614.3610784592078,0.14999,16,0.0,0.0,1575420030,,,,0,11.481905994653491,1,6.0,26.04599952697754,0.0,0.0,0.0,66.7128,C,27067055000000,
Raw,1732148183000,18691000000,,700357.7413211643,-1416183382309999872,0.0,106.97283366173201,2233.292586127778,0.0,0,15,0.0,16431,346600924607002,487,21.482999801635742,371.01335778851876,0.14999,16,0.0,0.0,1575420030,,,,0,4.678263602130904,1,6.0,21.482999801635742,0.0,0.0,0.0,66.7128,C,27067055000000,
Raw,1732148183000,18691000000,,700357.7413211643,-1416183382309999872,0.0,106.97283366173201,2233.292586127778,0.0,0,30,0.0,16431,346600931091399,74,29.756999969482422,889.9550050914287,0.14999,16,0.0,0.0,1575420030,,,,0,16.235033749239143,1,6.0,29.756999969482422,0.0,0.0,0.0,66.7128,C,27067055000000,
Raw,1732148183000,18691000000,,700357.7413211643,-1416183382309999872,0.0,106.97283366173201,2233.292586127778,0.0,0,27,0.0,16431,346600918566638,396,17.799999237060547,951.2983261884938,0.14999,16,0.0,0.0,1575420030,,,,0,3.7266184026124547,6,6.0,17.799999237060547,0.0,0.0,10.963259323880257,66.7128,C,27067055000000,
Raw,1732148183000,18691000000,,700357.7413211643,-1416183382309999872,0.0,106.97283366173201,2233.292586127778,0.0,0,21,0.0,16431,346600920616607,235,26.600000381469727,558.8611111194393,0.14999,16,0.0,0.0,1575420030,,,,0,13.02174167812447,6,6.0,26.600000381469727,0.0,0.0,10.963259323880257,66.7128,C,27067055000000,
Raw,1732148183000,18691000000,,700357.7413211643,-1416183382309999872,0.0,106.97283366173201,2233.292586127778,0.0,0,13,0.0,16431,346600931189817,316,28.5310001373291,574.9455723125222,0.14999,16,0.0,0.0,1575420030,,,,0,14.72474431426227,1,6.0,28.5310001373291,0.0,0.0,0.0,66.7128,C,27067055000000,
Raw,1732148183000,18691000000,,700357.7413211643,-1416183382309999872,0.0,106.97283366173201,2233.292586127778,0.0,0,14,0.0,16431,346600932645717,316,26.224000930786133,758.6756000686622,0.14999,16,0.0,0.0,1575420030,,,,0,11.703685437965738,1,6.0,26.224000930786133,0.0,0.0,0.0,66.7128,C,27067055000000,
Raw,1732148183000,18691000000,,700357.7413211643,-1416183382309999872,0.0,106.97283366173201,2233.292586127778,0.0,0,21,0.0,16431,346600919960543,316,22.94499969482422,845.0649320953257,0.14999,16,0.0,0.0,1575420030,,,,0,7.032442301917401,1,6.0,22.94499969482422,0.0,0.0,0.0,66.7128,C,27067055000000,
Raw,1732148183000,18691000000,,700357.7413211643,-1416183382309999872,0.0,106.97283366173201,2233.292586127778,0.0,0,22,0.0,16431,346600931266799,316,26.395999908447266,617.5527716528717,0.14999,16,0.0,0.0,1575420030,,,,0,11.955467984126148,1,6.0,26.395999908447266,0.0,0.0,0.0,66.7128,C,27067055000000,
Raw,1732148183000,18691000000,,700357.7413211643,-1416183382309999872,0.0,106.97283366173201,2233.292586127778,0.0,0,16,0.0,17,467121,316,5.0,1161.4899255692665,0.14999,16,0.0,0.0,1601437440,,,,0,10.564049314990909,3,6.0,25.0,0.0,0.0,49.71285296263626,66.7128,C,27067055000000,
Raw,1732148183000,18691000000,,700357.7413211643,-1416183382309999872,0.0,106.97283366173201,2233.292586127778,0.0,0,9,0.0,17,790318,396,5.0,868.2703330310736,0.14999,16,0.0,0.0,1600875010,,,,0,5.6952421251842384,3,6.0,21.0,0.0,0.0,49.71285296263626,66.7128,C,27067055000000,
Raw,1732148183000,18691000000,,700357.7413211643,-1416183382309999872,0.0,106.97283366173201,2233.292586127778,0.0,0,8,0.0,17,625778,487,5.0,768.4972850311216,0.14999,16,0.0,0.0,1605374980,,,,0,0.0,3,6.0,18.0,0.0,0.0,49.71285296263626,66.7128,C,27067055000000,
Raw,1732148183000,18691000000,,700357.7413211643,-1416183382309999872,0.0,106.97283366173201,2233.292586127778,0.0,0,18,0.0,17,84409,487,5.0,1190.1222912934613,0.14999,16,0.0,0.0,1600312450,,,,0,5.0,3,6.0,18.0,0.0,0.0,49.71285296263626,66.7128,C,27067055000000,
Raw,1732148183000,18691000000,,700357.7413211643,-1416183382309999872,0.0,106.97283366173201,2233.292586127778,0.0,0,19,0.0,16431,346600924579322,797,16.958999633789062,21.743282121191292,0.14999,16,0.0,0.0,1575420030,,,,0,0.0,1,6.0,16.958999633789062,0.0,0.0,0.0,66.7128,C,27067055000000,
Status,1732148183000,29,0,1,14,1575420030,29.90,4.0,70.0,1,0,0,24.9
Status,1732148183000,29,1,1,22,1575420030,34.30,299.0,67.0,1,0,0,29.3
Status,1732148183000,29,2,1,30,1575420030,33.70,102.0,61.0,1,0,0,28.7
Status,1732148183000,29,3,1,17,1575420030,29.70,170.0,60.0,1,0,0,24.7
Status,1732148183000,29,4,1,13,1575420030,0.00,284.0,55.0,0,0,0,0.0
Status,1732148183000,29,5,1,19,1575420030,27.20,193.0,31.0,1,0,0,22.2
Status,1732148183000,29,6,1,7,1575420030,28.10,115.0,27.0,1,0,0,23.1
Status,1732148183000,29,7,1,15,1575420030,30.20,306.0,25.0,1,0,0,25.2
Status,1732148183000,29,8,2,131,1575420030,32.00,3.0,23.0,0,0,0,27.0
Status,1732148183000,29,9,1,2,1575420030,32.60,74.0,20.0,1,0,0,27.599998
Status,1732148183000,29,10,1,21,1575420030,30.20,56.0,14.0,1,0,0,25.2
Status,1732148183000,29,11,3,9,1602000000,25.80,41.0,48.0,1,0,0,20.8
Status,1732148183000,29,12,3,8,1602000000,23.40,282.0,40.0,1,0,0,18.4
Status,1732148183000,29,13,3,19,1602000000,0.00,67.0,36.0,0,0,0,0.0
Status,1732148183000,29,14,3,20,1602000000,0.00,142.0,24.0,0,0,0,0.0
Status,1732148183000,29,15,3,18,1602000000,25.50,28.0,14.0,1,0,0,20.5
Status,1732148183000,29,16,3,11,1602000000,0.00,284.0,9.0,0,0,0,0.0
Status,1732148183000,29,17,3,16,1602000000,32.70,80.0,6.0,1,0,0,27.7
Status,1732148183000,29,18,3,17,1602000000,27.90,0.0,0.0,0,0,0,22.9
Status,1732148183000,29,19,6,21,1575420030,27.10,289.0,62.0,1,0,0,22.1
Status,1732148183000,29,20,6,19,1575420030,0.00,280.0,54.0,0,0,0,0.0
Status,1732148183000,29,21,6,27,1575420030,27.20,45.0,50.0,1,0,0,22.2
Status,1732148183000,29,22,6,29,1575420030,0.00,197.0,49.0,0,0,0,0.0
Status,1732148183000,29,23,6,15,1575420030,0.00,85.0,17.0,0,0,0,0.0
Status,1732148183000,29,24,6,4,1575420030,0.00,324.0,9.0,0,0,0,0.0
Status,1732148183000,29,25,6,13,1575420030,0.00,136.0,9.0,0,0,0,0.0
Status,1732148183000,29,26,6,7,1575420030,0.00,162.0,6.0,0,0,0,0.0
Status,1732148183000,29,27,6,34,1575420030,0.00,38.0,6.0,0,0,0,0.0
Status,1732148183000,29,28,6,30,1575420030,0.00,65.0,3.0,0,0,0,0.0
Fix,GPS,37.4243983333,-122.1708150000,-4.300000000000001,0.90488166,2.8,356.35,1732148184000,2.5,103.5,27068055000000,37.6,0,,,
Fix,FLP,37.4243938000,-122.1708130000,2.0,0.05517231,2.8,,1732148184207,2.5,,27068055000000,1.0534123,0,,,
Raw,1732148184000,19691000000,,700130.9177364295,-1416183382309999872,0.0,102.99385035321474,2234.46140710244,0.0,0,7,0.0,16431,346601924397400,396,23.055999755859375,1126.4761957717656,0.14999,16,0.0,0.0,1575420030,,,,0,7.156528549943097,1,6.0,23.055999755859375,0.0,0.0,0.0,66.7128,C,27068055000000,
Raw,1732148184000,19691000000,,700130.9177364295,-1416183382309999872,0.0,102.99385035321474,2234.46140710244,0.0,0,17,0.0,16431,346601931626994,396,24.663999557495117,352.75545573906635,0.14999,16,0.0,0.0,1575420030,,,,0,9.562405181193824,1,6.0,24.663999557495117,0.0,0.0,0.0,66.7128,C,27068055000000,
Raw,1732148184000,19691000000,,700130.9177364295,-1416183382309999872,0.0,102.99385035321474,2234.46140710244,0.0,0,2,0.0,16431,346601921020989,235,27.573999404907227,615.492712561264,0.14999,16,0.0,0.0,1575420030,,,,0,13.50949870391769,1,6.0,27.573999404907227,0.0,0.0,0.0,66.7128,C,27068055000000,
Raw,1732148184000,19691000000,,700130.9177364295,-1416183382309999872,0.0,102.99385035321474,2234.46140710244,0.0,0,15,0.0,16431,346601924605758,396,25.16200065612793,371.2123391851485,0.14999,16,0.0,0.0,1575420030,,,,0,10.236067445245277,1,6.0,25.16200065612793,0.0,0.0,0.0,66.7128,C,27068055000000,
Raw,1732148184000,19691000000,,700130.9177364295,-1416183382309999872,0.0,102.99385035321474,2234.46140710244,0.0,0,30,0.0,16431,346601931088432,235,28.700000762939453,890.2580068819539,0.14999,16,0.0,0.0,1575420030,,,,0,14.928528198300981,1,6.0,28.700000762939453,0.0,0.0,0.0,66.7128,C,27068055000000,
Raw,1732148184000,19691000000,,700130.9177364295,-1416183382309999872,0.0,102.99385035321474,2234.46140710244,0.0,0,27,0.0,16431,346601918563464,316,22.200000762939453,951.8753397178286,0.14999,16,0.0,0.0,1575420030,,,,0,7.399506341534996,6,6.0,22.200000762939453,0.0,0.0,11.569469517035023,66.7128,C,27068055000000,
Raw,1732148184000,19691000000,,700130.9177364295,-1416183382309999872,0.0,102.99385035321474,2234.46140710244,0.0,0,21,0.0,16431,346601920614743,396,22.100000381469727,559.4856980669738,0.14999,16,0.0,0.0,1575420030,,,,0,7.217913184496629,6,6.0,22.100000381469727,0.0,0.0,11.569469517035023,66.7128,C,27068055000000,
Raw,1732148184000,19691000000,,700130.9177364295,-1416183382309999872,0.0,102.99385035321474,2234.46140710244,0.0,0,14,0.0,16431,346601932643194,316,24.902000427246094,758.1875079479543,0.14999,16,0.0,0.0,1575420030,,,,0,9.883292476990974,1,6.0,24.902000427246094,0.0,0.0,0.0,66.7128,C,27068055000000,
Raw,1732148184000,19691000000,,700130.9177364295,-1416183382309999872,0.0,102.99385035321474,2234.46140710244,0.0,0,21,0.0,16431,346601919957727,396,25.16200065612793,844.5866891588545,0.14999,16,0.0,0.0,1575420030,,,,0,10.236067445245277,1,6.0,25.16200065612793,0.0,0.0,0.0,66.7128,C,27068055000000,
Raw,1732148184000,19691000000,,700130.9177364295,-1416183382309999872,0.0,102.99385035321474,2234.46140710244,0.0,0,22,0.0,16431,346601931264739,235,29.270999908447266,617.9242531488911,0.14999,16,0.0,0.0,1575420030,,,,0,15.652771651389877,1,6.0,29.270999908447266,0.0,0.0,0.0,66.7128,C,27068055000000,
Raw,1732148184000,19691000000,,700130.9177364295,-1416183382309999872,0.0,102.99385035321474,2234.46140710244,0.0,0,16,0.0,17,463244,235,5.0,1162.1274913044426,0.14999,16,0.0,0.0,1601437440,,,,0,14.29168097128842,3,6.0,27.0,0.0,0.0,53.888312496320296,66.7128,C,27068055000000,
Raw,1732148184000,19691000000,,700130.9177364295,-1416183382309999872,0.0,102.99385035321474,2234.46140710244,0.0,0,9,0.0,17,787424,396,5.0,868.2621949252155,0.14999,16,0.0,0.0,1600875010,,,,0,7.3422679819268675,3,6.0,22.0,0.0,0.0,53.888312496320296,66.7128,C,27068055000000,
Raw,1732148184000,19691000000,,700130.9177364295,-1416183382309999872,0.0,102.99385035321474,2234.46140710244,0.0,0,8,0.0,17,623212,487,5.0,768.8568199132966,0.14999,16,0.0,0.0,1605374980,,,,0,1.6572716719449043,3,6.0,19.0,0.0,0.0,53.888312496320296,66.7128,C,27068055000000,
Raw,1732148184000,19691000000,,700130.9177364295,-1416183382309999872,0.0,102.99385035321474,2234.46140710244,0.0,0,18,0.0,17,80428,396,5.0,1191.1801595616128,0.14999,16,0.0,0.0,1600312450,,,,0,4.893423329898661,3,6.0,21.0,0.0,0.0,53.888312496320296,66.7128,C,27068055000000,
Raw,1732148184000,19691000000,,700130.9177364295,-1416183382309999872,0.0,102.99385035321474,2234.46140710244,0.0,0,19,0.0,16431,346601924579237,396,22.23200035095215,21.517401301575656,0.14999,16,0.0,0.0,1575420030,,,,0,5.899342910330464,1,6.0,22.23200035095215,0.0,0.0,0.0,66.7128,C,27068055000000,
Status,1732148184000,29,0,1,14,1575420030,30.50,4.0,70.0,1,0,0,25.5
Status,1732148184000,29,1,1,22,1575420030,30.90,299.0,67.0,1,0,0,25.9
Status,1732148184000,29,2,1,30,1575420030,42.40,102.0,61.0,1,0,0,37.4
Status,1732148184000,29,3,1,17,1575420030,31.30,170.0,60.0,1,0,0,26.3
Status,1732148184000,29,4,1,13,1575420030,34.80,284.0,55.0,1,0,0,29.8
Status,1732148184000,29,5,1,19,1575420030,0.00,193.0,31.0,0,0,0,0.0
Status,1732148184000,29,6,1,7,1575420030,32.60,115.0,27.0,1,0,0,27.599998
Status,1732148184000,29,7,1,15,1575420030,27.60,306.0,25.0,1,0,0,22.6
Status,1732148184000,29,8,2,131,1575420030,33.00,3.0,23.0,0,0,0,28.0
Status,1732148184000,29,9,1,2,1575420030,32.90,74.0,20.0,1,0,0,27.900002
Status,1732148184000,29,10,1,21,1575420030,31.90,56.0,14.0,1,0,0,26.9
Status,1732148184000,29,11,3,9,1602000000,34.70,41.0,48.0,1,0,0,29.7
Status,1732148184000,29,12,3,8,1602000000,23.40,282.0,40.0,1,0,0,18.4
Status,1732148184000,29,13,3,19,1602000000,0.00,67.0,36.0,0,0,0,0.0
Status,1732148184000,29,14,3,20,1602000000,0.00,142.0,24.0,0,0,0,0.0
Status,1732148184000,29,15,3,18,1602000000,25.50,28.0,14.0,1,0,0,20.5
Status,1732148184000,29,16,3,11,1602000000,0.00,284.0,9.0,0,0,0,0.0
Status,1732148184000,29,17,3,16,1602000000,28.10,80.0,6.0,1,0,0,23.1
Status,1732148184000,29,18,3,17,1602000000,29.40,0.0,0.0,0,0,0,24.4
Status,1732148184000,29,19,6,21,1575420030,27.70,289.0,62.0,1,0,0,22.7
Status,1732148184000,29,20,6,19,1575420030,0.00,280.0,54.0,0,0,0,0.0
Status,1732148184000,29,21,6,27,1575420030,27.80,45.0,50.0,1,0,0,22.8
Status,1732148184000,29,22,6,29,1575420030,0.00,197.0,49.0,0,0,0,0.0
Status,1732148184000,29,23,6,15,1575420030,0.00,85.0,17.0,0,0,0,0.0
Status,1732148184000,29,24,6,4,1575420030,0.00,324.0,9.0,0,0,0,0.0
Status,1732148184000,29,25,6,13,1575420030,0.00,136.0,9.0,0,0,0,0.0
Status,1732148184000,29,26,6,7,1575420030,0.00,162.0,6.0,0,0,0,0.0
Status,1732148184000,29,27,6,34,1575420030,0.00,38.0,6.0,0,0,0,0.0
Status,1732148184000,29,28,6,30,1575420030,0.00,65.0,3.0,0,0,0,0.0
Fix,GPS,37.4244016667,-122.1708116667,-4.199999999999999,0.88738114,2.7,6.02,1732148185000,2.4,99.0,27069055000000,38.8,0,,,
Fix,FLP,37.4243980000,-122.1708125000,2.0,0.08039144,2.783,,1732148185207,2.4,,27069055000000,1.0634229,0,,,
Raw,1732148185000,20691000000,,699840.0394215387,-1416183382309999872,0.0,105.91633443763352,2235.4744691713286,0.0,0,7,0.0,16431,346602924393639,235,27.573999404907227,1126.963730391479,0.14999,16,0.0,0.0,1575420030,,,,0,13.50949870391769,1,6.0,27.573999404907227,0.0,0.0,0.0,66.7128,C,27069055000000,
Raw,1732148185000,20691000000,,699840.0394215387,-1416183382309999872,0.0,105.91633443763352,2235.4744691713286,0.0,0,17,0.0,16431,346602931625815,396,26.298999786376953,353.17304721317475,0.14999,16,0.0,0.0,1575420030,,,,0,11.812487148332867,1,6.0,26.298999786376953,0.0,0.0,0.0,66.7128,C,27069055000000,
Raw,1732148185000,20691000000,,699840.0394215387,-1416183382309999872,0.0,105.91633443763352,2235.4744691713286,0.0,0,2,0.0,16431,346602921018935,235,27.945999145507812,615.879757626714,0.14999,16,0.0,0.0,1575420030,,,,0,13.971315885332192,1,6.0,27.945999145507812,0.0,0.0,0.0,66.7128,C,27069055000000,
Raw,1732148185000,20691000000,,699840.0394215387,-1416183382309999872,0.0,105.91633443763352,2235.4744691713286,0.0,0,15,0.0,16431,346602924604516,396,22.555999755859375,371.6321838924431,0.14999,16,0.0,0.0,1575420030,,,,0,6.383940502820478,1,6.0,22.555999755859375,0.0,0.0,0.0,66.7128,C,27069055000000,
Raw,1732148185000,20691000000,,699840.0394215387,-1416183382309999872,0.0,105.91633443763352,2235.4744691713286,0.0,0,30,0.0,16431,346602931085467,51,37.41400146484375,891.4501298419162,0.14999,16,0.0,0.0,1575420030,,,,0,25.015778187150826,1,6.0,37.41400146484375,0.0,0.0,0.0,66.7128,C,27069055000000,
Raw,1732148185000,20691000000,,699840.0394215387,-1416183382309999872,0.0,105.91633443763352,2235.4744691713286,0.0,0,27,0.0,16431,346602918560287,235,22.799999237060547,952.2572278990793,0.14999,16,0.0,0.0,1575420030,,,,0,8.254545949953995,6,6.0,22.799999237060547,0.0,0.0,14.038494723543513,66.7128,C,27069055000000,
Raw,1732148185000,20691000000,,699840.0394215387,-1416183382309999872,0.0,105.91633443763352,2235.4744691713286,0.0,0,21,0.0,16431,346602920612876,396,22.700000762939453,560.1504715445303,0.14999,16,0.0,0.0,1575420030,,,,0,8.14528803592395,6,6.0,22.700000762939453,0.0,0.0,14.038494723543513,66.7128,C,27069055000000,
