# 
# Header Description:
# 
# Version: v3.1.0.3 Platform: 13 Manufacturer: samsung Model: SM-S135DL GNSS Hardware Model Name: MediaTek,MT6631,MTK_MNLD_default,MNL_VER_default
# 
# Raw,utcTimeMillis,TimeNanos,LeapSecond,TimeUncertaintyNanos,FullBiasNanos,BiasNanos,BiasUncertaintyNanos,DriftNanosPerSecond,DriftUncertaintyNanosPerSecond,HardwareClockDiscontinuityCount,Svid,TimeOffsetNanos,State,ReceivedSvTimeNanos,ReceivedSvTimeUncertaintyNanos,Cn0DbHz,PseudorangeRateMetersPerSecond,PseudorangeRateUncertaintyMetersPerSecond,AccumulatedDeltaRangeState,AccumulatedDeltaRangeMeters,AccumulatedDeltaRangeUncertaintyMeters,CarrierFrequencyHz,CarrierCycles,CarrierPhase,CarrierPhaseUncertainty,MultipathIndicator,SnrInDb,ConstellationType,AgcDb,BasebandCn0DbHz,FullInterSignalBiasNanos,FullInterSignalBiasUncertaintyNanos,SatelliteInterSignalBiasNanos,SatelliteInterSignalBiasUncertaintyNanos,CodeType,ChipsetElapsedRealtimeNanos,IsFullTracking
# 
# UncalAccel,utcTimeMillis,elapsedRealtimeNanos,UncalAccelXMps2,UncalAccelYMps2,UncalAccelZMps2,BiasXMps2,BiasYMps2,BiasZMps2
# 
# Accel,utcTimeMillis,elapsedRealtimeNanos,AccelXMps2,AccelYMps2,AccelZMps2
# 
# UncalGyro,utcTimeMillis,elapsedRealtimeNanos,UncalGyroXRadPerSec,UncalGyroYRadPerSec,UncalGyroZRadPerSec,DriftXRadPerSec,DriftYRadPerSec,DriftZRadPerSec
# 
# Gyro,utcTimeMillis,elapsedRealtimeNanos,GyroXRadPerSec,GyroYRadPerSec,GyroZRadPerSec
# 
# UncalMag,utcTimeMillis,elapsedRealtimeNanos,UncalMagXMicroT,UncalMagYMicroT,UncalMagZMicroT,BiasXMicroT,BiasYMicroT,BiasZMicroT
# 
# Mag,utcTimeMillis,elapsedRealtimeNanos,MagXMicroT,MagYMicroT,MagZMicroT
# 
# Pressure,utcTimeMillis,elapsedRealtimeNanos,PressureHpa
# 
# OrientationDeg,utcTimeMillis,elapsedRealtimeNanos,yawDeg,rollDeg,pitchDeg
# 
# Fix,Provider,LatitudeDegrees,LongitudeDegrees,AltitudeMeters,SpeedMps,AccuracyMeters,BearingDegrees,UnixTimeMillis,SpeedAccuracyMps,BearingAccuracyDegrees,elapsedRealtimeNanos,VerticalAccuracyMeters,MockLocation,NumberOfUsedSignals,VerticalSpeedAccuracyMps,SolutionType
# 
# Nav,Svid,Type,Status,MessageId,Sub-messageId,Data(Bytes)
# 
# Status,UnixTimeMillis,SignalCount,SignalIndex,ConstellationType,Svid,CarrierFrequencyHz,Cn0DbHz,AzimuthDegrees,ElevationDegrees,UsedInFix,HasAlmanacData,HasEphemerisData,BasebandCn0DbHz
# 
# Agc,utcTimeMillis,TimeNanos,LeapSecond,TimeUncertaintyNanos,FullBiasNanos,BiasNanos,BiasUncertaintyNanos,DriftNanosPerSecond,DriftUncertaintyNanosPerSecond,HardwareClockDiscontinuityCount,AgcDb,CarrierFrequencyHz,ConstellationType
# 
Fix,FLP,37.4244290000,-122.1707975000,2.0,0.03874178,3.8,,1732148071207,2.5,,26955055000000,0.98470104,0,,,
Status,,26,0,1,14,1575420030,30.50,2.0,71.0,1,0,0,25.5
Status,,26,1,1,22,1575420030,0.00,296.0,66.0,0,0,0,0.0
Status,,26,2,1,30,1575420030,32.10,101.0,62.0,1,0,0,27.099998
Status,,26,3,1,17,1575420030,26.30,171.0,59.0,1,0,0,21.3
Status,,26,4,1,13,1575420030,29.00,285.0,55.0,1,0,0,24.0
Status,,26,5,1,19,1575420030,28.10,193.0,30.0,1,0,0,23.1
Status,,26,6,1,7,1575420030,36.70,114.0,28.0,1,0,0,31.7
Status,,26,7,1,15,1575420030,27.90,306.0,25.0,1,0,0,22.9
Status,,26,8,2,131,1575420030,31.00,3.0,23.0,0,0,0,26.0
Status,,26,9,1,2,1575420030,36.80,75.0,20.0,1,0,0,31.8
Status,,26,10,1,21,1575420030,29.60,56.0,14.0,1,0,0,24.6
Status,,26,11,3,9,1602000000,24.40,39.0,49.0,1,0,0,19.4
Status,,26,12,3,8,1602000000,23.90,284.0,40.0,1,0,0,18.9
Status,,26,13,3,20,1602000000,0.00,143.0,23.0,0,0,0,0.0
Status,,26,14,3,11,1602000000,0.00,283.0,9.0,0,0,0,0.0
Status,,26,15,3,16,1602000000,29.90,79.0,6.0,1,0,0,24.9
Status,,26,16,6,21,1575420030,24.00,287.0,62.0,1,0,0,19.0
Status,,26,17,6,19,1575420030,0.00,281.0,54.0,0,0,0,0.0
Status,,26,18,6,27,1575420030,23.00,45.0,50.0,1,0,0,18.0
Status,,26,19,6,29,1575420030,20.40,198.0,50.0,1,0,0,15.4
Status,,26,20,6,15,1575420030,0.00,86.0,17.0,0,0,0,0.0
Status,,26,21,6,13,1575420030,0.00,136.0,9.0,0,0,0,0.0
Status,,26,22,6,4,1575420030,0.00,324.0,8.0,0,0,0,0.0
Status,,26,23,6,7,1575420030,0.00,162.0,7.0,0,0,0,0.0
Status,,26,24,6,34,1575420030,0.00,38.0,6.0,0,0,0,0.0
Status,,26,25,6,30,1575420030,0.00,65.0,4.0,0,0,0,0.0
Fix,GPS,37.4244316667,-122.1708033333,-6.099999999999998,0.0,3.8,30.36,1732148072000,2.5,179.9,26956055000000,31.6,0,,,
Raw,1732148071999,11510000000,,705712.2268399427,-1416183278489999872,0.0,83.62306705973216,2240.3466172306867,0.0,0,2,0.0,16431,346489920710937,74,31.77400016784668,605.0726008478185,0.14999,16,0.0,0.0,1575420030,,,,0,18.66872992762434,1,6.0,31.77400016784668,0.0,0.0,0.0,66.7128,C,26956055000000,
Raw,1732148071999,11510000000,,705712.2268399427,-1416183278489999872,0.0,83.62306705973216,2240.3466172306867,0.0,0,30,0.0,16431,346489930881829,235,27.14699935913086,883.687950578292,0.14999,16,0.0,0.0,1575420030,,,,0,12.958800173440752,1,6.0,27.14699935913086,0.0,0.0,0.0,66.7128,C,26956055000000,
Raw,1732148071999,11510000000,,705712.2268399427,-1416183278489999872,0.0,83.62306705973216,2240.3466172306867,0.0,0,14,0.0,16431,346489932387899,316,25.464000701904297,754.953165928209,0.14999,16,0.0,0.0,1575420030,,,,0,10.681498011487705,1,6.0,25.464000701904297,0.0,0.0,0.0,66.7128,C,26956055000000,
Raw,1732148071999,11510000000,,705712.2268399427,-1416183278489999872,0.0,83.62306705973216,2240.3466172306867,0.0,0,19,0.0,16431,346489924048769,487,23.114999771118164,18.69314772172082,0.14999,16,0.0,0.0,1575420030,,,,0,7.290897366118185,1,6.0,23.114999771118164,0.0,0.0,0.0,66.7128,C,26956055000000,
Raw,1732148071999,11510000000,,705712.2268399427,-1416183278489999872,0.0,83.62306705973216,2240.3466172306867,0.0,0,21,0.0,16431,346489919733620,396,24.576000213623047,833.9863652489283,0.14999,16,0.0,0.0,1575420030,,,,0,9.460418703288145,1,6.0,24.576000213623047,0.0,0.0,0.0,66.7128,C,26956055000000,
Raw,1732148071999,11510000000,,705712.2268399427,-1416183278489999872,0.0,83.62306705973216,2240.3466172306867,0.0,0,29,0.0,16431,346489918827821,487,15.380000114440918,1073.7208058280507,0.14999,16,0.0,0.0,1575420030,,,,0,0.0,6,6.0,15.380000114440918,0.0,0.0,5.97769820368926,66.7128,C,26956055000000,
Raw,1732148071999,11510000000,,705712.2268399427,-1416183278489999872,0.0,83.62306705973216,2240.3466172306867,0.0,0,27,0.0,16431,346489918381214,487,18.0,952.4808787147168,0.14999,16,0.0,0.0,1575420030,,,,0,0.9332365160691296,6,6.0,18.0,0.0,0.0,5.97769820368926,66.7128,C,26956055000000,
Raw,1732148071999,11510000000,,705712.2268399427,-1416183278489999872,0.0,83.62306705973216,2240.3466172306867,0.0,0,13,0.0,16431,346489930863147,396,24.042999267578125,565.4310745062688,0.14999,16,0.0,0.0,1575420030,,,,0,8.67693447504887,1,6.0,24.042999267578125,0.0,0.0,0.0,66.7128,C,26956055000000,
Raw,1732148071999,11510000000,,705712.2268399427,-1416183278489999872,0.0,83.62306705973216,2240.3466172306867,0.0,0,21,0.0,16431,346489920285567,487,19.0,559.6687442268433,0.14999,16,0.0,0.0,1575420030,,,,0,2.6306746032606982,6,6.0,19.0,0.0,0.0,5.97769820368926,66.7128,C,26956055000000,
Raw,1732148071999,11510000000,,705712.2268399427,-1416183278489999872,0.0,83.62306705973216,2240.3466172306867,0.0,0,9,0.0,17,573458,316,5.0,865.6402618085934,0.14999,16,0.0,0.0,1600875010,,,,0,3.2452190063421944,3,6.0,25.0,0.0,0.0,36.76392589293007,66.7128,C,26956055000000,
Raw,1732148071999,11510000000,,705712.2268399427,-1416183278489999872,0.0,83.62306705973216,2240.3466172306867,0.0,0,8,0.0,17,368965,487,5.0,753.7496073140694,0.14999,16,0.0,0.0,1605374980,,,,0,2.4614728431237305,3,6.0,20.0,0.0,0.0,36.76392589293007,66.7128,C,26956055000000,
Raw,1732148071999,11510000000,,705712.2268399427,-1416183278489999872,0.0,83.62306705973216,2240.3466172306867,0.0,0,16,0.0,17,359432,316,5.0,1164.1049048598647,0.14999,16,0.0,0.0,1601437440,,,,0,10.967475040404823,3,6.0,25.0,0.0,0.0,36.76392589293007,66.7128,C,26956055000000,
Raw,1732148071999,11510000000,,705712.2268399427,-1416183278489999872,0.0,83.62306705973216,2240.3466172306867,0.0,0,17,0.0,16431,346489931218996,487,21.343000411987305,342.4815951198517,0.14999,16,0.0,0.0,1575420030,,,,0,4.475866233208308,1,6.0,21.343000411987305,0.0,0.0,0.0,66.7128,C,26956055000000,
Raw,1732148071999,11510000000,,705712.2268399427,-1416183278489999872,0.0,83.62306705973216,2240.3466172306867,0.0,0,7,0.0,16431,346489924279246,74,31.74799919128418,1122.435707313935,0.14999,16,0.0,0.0,1575420030,,,,0,18.636228899476627,1,6.0,31.74799919128418,0.0,0.0,0.0,66.7128,C,26956055000000,
Raw,1732148071999,11510000000,,705712.2268399427,-1416183278489999872,0.0,83.62306705973216,2240.3466172306867,0.0,0,15,0.0,16431,346489924204443,487,22.854999542236328,361.0959261384713,0.14999,16,0.0,0.0,1575420030,,,,0,6.922535892276198,1,6.0,22.854999542236328,0.0,0.0,0.0,66.7128,C,26956055000000,
Fix,FLP,37.4244305000,-122.1708004000,2.0,0.041237287,3.8,,1732148072207,2.5,,26956055000000,0.9946951,0,,,
Status,1732148072000,26,0,1,14,1575420030,29.30,2.0,71.0,1,0,0,24.3
Status,1732148072000,26,1,1,22,1575420030,27.00,296.0,66.0,1,0,0,22.0
Status,1732148072000,26,2,1,30,1575420030,32.40,101.0,62.0,1,0,0,27.400002
Status,1732148072000,26,3,1,17,1575420030,0.00,171.0,59.0,0,0,0,0.0
Status,1732148072000,26,4,1,13,1575420030,32.90,285.0,55.0,1,0,0,27.900002
Status,1732148072000,26,5,1,19,1575420030,28.10,193.0,30.0,1,0,0,23.1
Status,1732148072000,26,6,1,7,1575420030,43.00,114.0,28.0,1,0,0,38.0
Status,1732148072000,26,7,1,15,1575420030,28.10,306.0,25.0,1,0,0,23.1
Status,1732148072000,26,8,2,131,1575420030,30.00,3.0,23.0,0,0,0,25.0
Status,1732148072000,26,9,1,2,1575420030,33.70,75.0,20.0,1,0,0,28.7
Status,1732148072000,26,10,1,21,1575420030,26.00,56.0,14.0,1,0,0,21.0
Status,1732148072000,26,11,3,9,1602000000,25.90,39.0,49.0,1,0,0,20.9
Status,1732148072000,26,12,3,8,1602000000,28.10,284.0,40.0,1,0,0,23.1
Status,1732148072000,26,13,3,20,1602000000,0.00,143.0,23.0,0,0,0,0.0
Status,1732148072000,26,14,3,11,1602000000,0.00,283.0,9.0,0,0,0,0.0
Status,1732148072000,26,15,3,16,1602000000,35.10,79.0,6.0,1,0,0,30.099998
Status,1732148072000,26,16,6,21,1575420030,21.30,287.0,62.0,1,0,0,16.3
Status,1732148072000,26,17,6,19,1575420030,0.00,281.0,54.0,0,0,0,0.0
Status,1732148072000,26,18,6,27,1575420030,23.30,45.0,50.0,1,0,0,18.3
Status,1732148072000,26,19,6,29,1575420030,20.50,198.0,50.0,1,0,0,15.5
Status,1732148072000,26,20,6,15,1575420030,0.00,86.0,17.0,0,0,0,0.0
Status,1732148072000,26,21,6,13,1575420030,0.00,136.0,9.0,0,0,0,0.0
Status,1732148072000,26,22,6,4,1575420030,0.00,324.0,8.0,0,0,0,0.0
Status,1732148072000,26,23,6,7,1575420030,0.00,162.0,7.0,0,0,0,0.0
Status,1732148072000,26,24,6,34,1575420030,0.00,38.0,6.0,0,0,0,0.0
Status,1732148072000,26,25,6,30,1575420030,0.00,65.0,4.0,0,0,0,0.0
Fix,GPS,37.4244316667,-122.1708050000,-6.199999999999999,0.0,3.8,30.36,1732148073000,2.5,179.9,26957055000000,30.5,0,,,
Fix,FLP,37.4244312000,-122.1708027000,2.0,0.04210301,3.8,,1732148073207,2.5,,26957055000000,0.9998604,0,,,
Raw,1732148072999,12510000000,,705696.7473811499,-1416183278489999872,0.0,79.73669873637189,2242.4427729851254,0.0,0,2,0.0,16431,346490920708912,316,28.67300033569336,607.4402146547401,0.14999,16,0.0,0.0,1575420030,,,,0,14.912636602789505,1,6.0,28.67300033569336,0.0,0.0,0.0,66.7128,C,26957055000000,
Raw,1732148072999,12510000000,,705696.7473811499,-1416183278489999872,0.0,79.73669873637189,2242.4427729851254,0.0,0,30,0.0,16431,346490930878877,235,27.406999588012695,884.0228228423375,0.14999,16,0.0,0.0,1575420030,,,,0,13.296456774101856,1,6.0,27.406999588012695,0.0,0.0,0.0,66.7128,C,26957055000000,
Raw,1732148072999,12510000000,,705696.7473811499,-1416183278489999872,0.0,79.73669873637189,2242.4427729851254,0.0,0,14,0.0,16431,346490932385378,396,24.301000595092773,755.628392549413,0.14999,16,0.0,0.0,1575420030,,,,0,9.028434618743677,1,6.0,24.301000595092773,0.0,0.0,0.0,66.7128,C,26957055000000,
Raw,1732148072999,12510000000,,705696.7473811499,-1416183278489999872,0.0,79.73669873637189,2242.4427729851254,0.0,0,19,0.0,16431,346490924048705,396,23.114999771118164,19.473974322971337,0.14999,16,0.0,0.0,1575420030,,,,0,7.290897366118185,1,6.0,23.114999771118164,0.0,0.0,0.0,66.7128,C,26957055000000,
Raw,1732148072999,12510000000,,705696.7473811499,-1416183278489999872,0.0,79.73669873637189,2242.4427729851254,0.0,0,21,0.0,16431,346490919730836,487,20.954999923706055,835.2006953318394,0.14999,16,0.0,0.0,1575420030,,,,0,3.873632738237588,1,6.0,20.954999923706055,0.0,0.0,0.0,66.7128,C,26957055000000,
Raw,1732148072999,12510000000,,705696.7473811499,-1416183278489999872,0.0,79.73669873637189,2242.4427729851254,0.0,0,29,0.0,16431,346490918824236,396,15.465999603271484,1074.3988199542275,0.14999,16,0.0,0.0,1575420030,,,,0,0.0,6,6.0,15.465999603271484,0.0,0.0,5.579654799896136,66.7128,C,26957055000000,
Raw,1732148072999,12510000000,,705696.7473811499,-1416183278489999872,0.0,79.73669873637189,2242.4427729851254,0.0,0,27,0.0,16431,346490918378039,396,18.299999237060547,953.0125488298303,0.14999,16,0.0,0.0,1575420030,,,,0,1.4192872059507495,6,6.0,18.299999237060547,0.0,0.0,5.579654799896136,66.7128,C,26957055000000,
Raw,1732148072999,12510000000,,705696.7473811499,-1416183278489999872,0.0,79.73669873637189,2242.4427729851254,0.0,0,13,0.0,16431,346490930861255,316,27.905000686645508,565.1226370810471,0.14999,16,0.0,0.0,1575420030,,,,0,13.934772514518832,1,6.0,27.905000686645508,0.0,0.0,0.0,66.7128,C,26957055000000,
Raw,1732148072999,12510000000,,705696.7473811499,-1416183278489999872,0.0,79.73669873637189,2242.4427729851254,0.0,0,21,0.0,16431,346490920283699,487,16.299999237060547,559.6230291452921,0.14999,16,0.0,0.0,1575420030,,,,0,0.0,6,6.0,16.299999237060547,0.0,0.0,5.579654799896136,66.7128,C,26957055000000,
Raw,1732148072999,12510000000,,705696.7473811499,-1416183278489999872,0.0,79.73669873637189,2242.4427729851254,0.0,0,9,0.0,17,570566,487,5.0,866.9624754120792,0.14999,16,0.0,0.0,1600875010,,,,0,5.613376395329039,3,6.0,20.0,0.0,0.0,45.983164598712186,66.7128,C,26957055000000,
Raw,1732148072999,12510000000,,705696.7473811499,-1416183278489999872,0.0,79.73669873637189,2242.4427729851254,0.0,0,8,0.0,17,366455,396,5.0,749.9582148715546,0.14999,16,0.0,0.0,1605374980,,,,0,8.679040145274472,3,6.0,22.0,0.0,0.0,45.983164598712186,66.7128,C,26957055000000,
Raw,1732148072999,12510000000,,705696.7473811499,-1416183278489999872,0.0,79.73669873637189,2242.4427729851254,0.0,0,16,0.0,17,355555,74,5.0,1163.925929417646,0.14999,16,0.0,0.0,1601437440,,,,0,17.120282827840043,3,6.0,30.0,0.0,0.0,45.983164598712186,66.7128,C,26957055000000,
Raw,1732148072999,12510000000,,705696.7473811499,-1416183278489999872,0.0,79.73669873637189,2242.4427729851254,0.0,0,7,0.0,16431,346490924275505,51,38.03900146484375,1122.4373798169186,0.14999,16,0.0,0.0,1575420030,,,,0,25.69524212518424,1,6.0,38.03900146484375,0.0,0.0,0.0,66.7128,C,26957055000000,
Raw,1732148072999,12510000000,,705696.7473811499,-1416183278489999872,0.0,79.73669873637189,2242.4427729851254,0.0,0,15,0.0,16431,346490924203238,396,23.114999771118164,360.97550592365366,0.14999,16,0.0,0.0,1575420030,,,,0,7.290897366118185,1,6.0,23.114999771118164,0.0,0.0,0.0,66.7128,C,26957055000000,
Raw,1732148072999,12510000000,,705696.7473811499,-1416183278489999872,0.0,79.73669873637189,2242.4427729851254,0.0,0,22,0.0,16431,346490930954942,396,22.009000778198242,614.6819202815577,0.14999,16,0.0,0.0,1575420030,,,,0,5.567907431189305,1,6.0,22.009000778198242,0.0,0.0,0.0,66.7128,C,26957055000000,
Status,1732148073000,26,0,1,14,1575420030,25.60,2.0,71.0,1,0,0,20.6
Status,1732148073000,26,1,1,22,1575420030,35.50,296.0,66.0,1,0,0,30.5
Status,1732148073000,26,2,1,30,1575420030,33.40,101.0,62.0,1,0,0,28.400002
Status,1732148073000,26,3,1,17,1575420030,0.00,171.0,59.0,0,0,0,0.0
Status,1732148073000,26,4,1,13,1575420030,36.50,285.0,55.0,1,0,0,31.5
Status,1732148073000,26,5,1,19,1575420030,29.00,193.0,30.0,1,0,0,24.0
Status,1732148073000,26,6,1,7,1575420030,33.80,114.0,28.0,1,0,0,28.8
Status,1732148073000,26,7,1,15,1575420030,29.20,306.0,25.0,1,0,0,24.2
Status,1732148073000,26,8,2,131,1575420030,29.00,3.0,23.0,0,0,0,24.0
Status,1732148073000,26,9,1,2,1575420030,38.40,75.0,20.0,1,0,0,33.4
Status,1732148073000,26,10,1,21,1575420030,34.40,56.0,14.0,1,0,0,29.400002
Status,1732148073000,26,11,3,9,1602000000,25.50,39.0,49.0,1,0,0,20.5
Status,1732148073000,26,12,3,8,1602000000,27.60,284.0,40.0,1,0,0,22.6
Status,1732148073000,26,13,3,20,1602000000,0.00,143.0,23.0,0,0,0,0.0
Status,1732148073000,26,14,3,11,1602000000,0.00,283.0,9.0,0,0,0,0.0
Status,1732148073000,26,15,3,16,1602000000,31.80,79.0,6.0,1,0,0,26.8
Status,1732148073000,26,16,6,21,1575420030,25.00,287.0,62.0,1,0,0,20.0
Status,1732148073000,26,17,6,19,1575420030,0.00,281.0,54.0,0,0,0,0.0
Status,1732148073000,26,18,6,27,1575420030,26.10,45.0,50.0,1,0,0,21.1
Status,1732148073000,26,19,6,29,1575420030,25.30,198.0,50.0,1,0,0,20.3
Status,1732148073000,26,20,6,15,1575420030,0.00,86.0,17.0,0,0,0,0.0
Status,1732148073000,26,21,6,13,1575420030,0.00,136.0,9.0,0,0,0,0.0
Status,1732148073000,26,22,6,4,1575420030,0.00,324.0,8.0,0,0,0,0.0
Status,1732148073000,26,23,6,7,1575420030,0.00,162.0,7.0,0,0,0,0.0
Status,1732148073000,26,24,6,34,1575420030,0.00,38.0,6.0,0,0,0,0.0
Status,1732148073000,26,25,6,30,1575420030,0.00,65.0,4.0,0,0,0,0.0
Fix,GPS,37.4244316667,-122.1707983333,-6.199999999999999,0.5219283,3.8,77.5,1732148074000,2.6,179.9,26958055000000,32.1,0,,,
Raw,1732148073999,13510000000,,705663.0782552909,-1416183278489999872,0.0,86.17236816899336,2241.3297922775296,0.0,0,2,0.0,16431,346491920706885,58,33.42499923706055,605.474512606456,0.14999,16,0.0,0.0,1575420030,,,,0,20.582565824999108,1,6.0,33.42499923706055,0.0,0.0,0.0,66.7128,C,26958055000000,
Raw,1732148073999,13510000000,,705663.0782552909,-1416183278489999872,0.0,86.17236816899336,2241.3297922775296,0.0,0,30,0.0,16431,346491930875925,235,28.448999404907227,883.5561945099189,0.14999,16,0.0,0.0,1575420030,,,,0,14.633241795466764,1,6.0,28.448999404907227,0.0,0.0,0.0,66.7128,C,26958055000000,
Raw,1732148073999,13510000000,,705663.0782552909,-1416183278489999872,0.0,86.17236816899336,2241.3297922775296,0.0,0,14,0.0,16431,346491932382851,487,20.599000930786133,755.551596787417,0.14999,16,0.0,0.0,1575420030,,,,0,3.321962305595817,1,6.0,20.599000930786133,0.0,0.0,0.0,66.7128,C,26958055000000,
Raw,1732148073999,13510000000,,705663.0782552909,-1416183278489999872,0.0,86.17236816899336,2241.3297922775296,0.0,0,19,0.0,16431,346491924048636,396,23.97800064086914,19.16502585517126,0.14999,16,0.0,0.0,1575420030,,,,0,8.573836651724132,1,6.0,23.97800064086914,0.0,0.0,0.0,66.7128,C,26958055000000,
Raw,1732148073999,13510000000,,705663.0782552909,-1416183278489999872,0.0,86.17236816899336,2241.3297922775296,0.0,0,7,0.0,16431,346491924271799,235,28.836999893188477,1121.7507244253268,0.14999,16,0.0,0.0,1575420030,,,,0,15.110332525582553,1,6.0,28.836999893188477,0.0,0.0,0.0,66.7128,C,26958055000000,
Raw,1732148073999,13510000000,,705663.0782552909,-1416183278489999872,0.0,86.17236816899336,2241.3297922775296,0.0,0,21,0.0,16431,346491919728046,74,29.444000244140625,835.1644577671952,0.14999,16,0.0,0.0,1575420030,,,,0,15.858974561113433,1,6.0,29.444000244140625,0.0,0.0,0.0,66.7128,C,26958055000000,
Raw,1732148073999,13510000000,,705663.0782552909,-1416183278489999872,0.0,86.17236816899336,2241.3297922775296,0.0,0,29,0.0,16431,346491918820649,487,20.299999237060547,1073.6876345188766,0.14999,16,0.0,0.0,1575420030,,,,0,4.640532579761982,6,6.0,20.299999237060547,0.0,0.0,5.5960321559646555,66.7128,C,26958055000000,
Raw,1732148073999,13510000000,,705663.0782552909,-1416183278489999872,0.0,86.17236816899336,2241.3297922775296,0.0,0,27,0.0,16431,346491918374862,396,21.100000381469727,952.6133781177493,0.14999,16,0.0,0.0,1575420030,,,,0,5.926879576180542,6,6.0,21.100000381469727,0.0,0.0,5.5960321559646555,66.7128,C,26958055000000,
Raw,1732148073999,13510000000,,705663.0782552909,-1416183278489999872,0.0,86.17236816899336,2241.3297922775296,0.0,0,13,0.0,16431,346491930859363,74,31.540000915527344,564.7139423936429,0.14999,16,0.0,0.0,1575420030,,,,0,18.388515638768048,1,6.0,31.540000915527344,0.0,0.0,0.0,66.7128,C,26958055000000,
Raw,1732148073999,13510000000,,705663.0782552909,-1416183278489999872,0.0,86.17236816899336,2241.3297922775296,0.0,0,21,0.0,16431,346491920281835,396,20.0,557.4480319319796,0.14999,16,0.0,0.0,1575420030,,,,0,4.222861269251486,6,6.0,20.0,0.0,0.0,5.5960321559646555,66.7128,C,26958055000000,
Raw,1732148073999,13510000000,,705663.0782552909,-1416183278489999872,0.0,86.17236816899336,2241.3297922775296,0.0,0,9,0.0,17,567677,487,5.0,865.9621284672567,0.14999,16,0.0,0.0,1600875010,,,,0,5.0,3,6.0,20.0,0.0,0.0,50.95340082130226,66.7128,C,26958055000000,
Raw,1732148073999,13510000000,,705663.0782552909,-1416183278489999872,0.0,86.17236816899336,2241.3297922775296,0.0,0,8,0.0,17,363948,396,5.0,750.0286082088711,0.14999,16,0.0,0.0,1605374980,,,,0,7.948020105426345,3,6.0,22.0,0.0,0.0,50.95340082130226,66.7128,C,26958055000000,
Raw,1732148073999,13510000000,,705663.0782552909,-1416183278489999872,0.0,86.17236816899336,2241.3297922775296,0.0,0,16,0.0,17,351674,235,5.0,1163.0449461121796,0.14999,16,0.0,0.0,1601437440,,,,0,13.331998419309484,3,6.0,28.0,0.0,0.0,50.95340082130226,66.7128,C,26958055000000,
Raw,1732148073999,13510000000,,705663.0782552909,-1416183278489999872,0.0,86.17236816899336,2241.3297922775296,0.0,0,15,0.0,16431,346491924202017,396,24.20599937438965,360.21467967058175,0.14999,16,0.0,0.0,1575420030,,,,0,8.929449050170826,1,6.0,24.20599937438965,0.0,0.0,0.0,66.7128,C,26958055000000,
Raw,1732148073999,13510000000,,705663.0782552909,-1416183278489999872,0.0,86.17236816899336,2241.3297922775296,0.0,0,22,0.0,16431,346491930952805,74,30.452999114990234,613.4316313844997,0.14999,16,0.0,0.0,1575420030,,,,0,17.089969688758156,1,6.0,30.452999114990234,0.0,0.0,0.0,66.7128,C,26958055000000,
Fix,FLP,37.4244317000,-122.1708005000,2.0,0.04261629,3.8,,1732148074208,2.6,,26958055000000,1.0107012,0,,,
Status,1732148074000,26,0,1,14,1575420030,25.60,2.0,71.0,1,0,0,20.6
Status,1732148074000,26,1,1,22,1575420030,33.00,296.0,66.0,1,0,0,28.0
Status,1732148074000,26,2,1,30,1575420030,33.90,101.0,62.0,1,0,0,28.900002
Status,1732148074000,26,3,1,17,1575420030,0.00,171.0,59.0,0,0,0,0.0
Status,1732148074000,26,4,1,13,1575420030,30.90,285.0,55.0,1,0,0,25.9
Status,1732148074000,26,5,1,19,1575420030,29.00,193.0,30.0,1,0,0,24.0
Status,1732148074000,26,6,1,7,1575420030,40.40,114.0,28.0,1,0,0,35.4
Status,1732148074000,26,7,1,15,1575420030,0.00,306.0,25.0,0,0,0,0.0
Status,1732148074000,26,8,2,131,1575420030,30.00,3.0,23.0,0,0,0,25.0
Status,1732148074000,26,9,1,2,1575420030,31.40,75.0,20.0,1,0,0,26.4
Status,1732148074000,26,10,1,21,1575420030,32.00,56.0,14.0,1,0,0,27.0
Status,1732148074000,26,11,3,9,1602000000,30.00,39.0,49.0,1,0,0,25.0
Status,1732148074000,26,12,3,8,1602000000,24.70,284.0,40.0,1,0,0,19.7
Status,1732148074000,26,13,3,20,1602000000,0.00,143.0,23.0,0,0,0,0.0
Status,1732148074000,26,14,3,11,1602000000,0.00,283.0,9.0,0,0,0,0.0
Status,1732148074000,26,15,3,16,1602000000,25.90,79.0,6.0,1,0,0,20.9
Status,1732148074000,26,16,6,21,1575420030,25.90,287.0,62.0,1,0,0,20.9
Status,1732148074000,26,17,6,19,1575420030,0.00,281.0,54.0,0,0,0,0.0
Status,1732148074000,26,18,6,27,1575420030,25.40,45.0,50.0,1,0,0,20.4
Status,1732148074000,26,19,6,29,1575420030,22.10,198.0,50.0,1,0,0,17.1
Status,1732148074000,26,20,6,15,1575420030,0.00,86.0,17.0,0,0,0,0.0
Status,1732148074000,26,21,6,13,1575420030,0.00,136.0,9.0,0,0,0,0.0
Status,1732148074000,26,22,6,4,1575420030,0.00,324.0,8.0,0,0,0,0.0
Status,1732148074000,26,23,6,7,1575420030,0.00,162.0,7.0,0,0,0,0.0
Status,1732148074000,26,24,6,34,1575420030,0.00,38.0,6.0,0,0,0,0.0
Status,1732148074000,26,25,6,30,1575420030,0.00,65.0,4.0,0,0,0,0.0
Fix,GPS,37.4244300000,-122.1708016667,-6.199999999999999,0.0,3.8,77.5,1732148075000,2.8,179.9,26959055000000,32.4,0,,,
Raw,1732148074999,14510000000,,705642.7516932398,-1416183278489999872,0.0,86.80586179316509,2238.356343577835,0.0,0,2,0.0,16431,346492920704863,316,26.361000061035156,605.2011977438893,0.14999,16,0.0,0.0,1575420030,,,,0,11.894570353446596,1,6.0,26.361000061035156,0.0,0.0,0.0,66.7128,C,26959055000000,
Raw,1732148074999,14510000000,,705642.7516932398,-1416183278489999872,0.0,86.80586179316509,2238.356343577835,0.0,0,30,0.0,16431,346492930872980,316,28.908000946044922,883.1386262650185,0.14999,16,0.0,0.0,1575420030,,,,0,15.20751831864488,1,6.0,28.908000946044922,0.0,0.0,0.0,66.7128,C,26959055000000,
Raw,1732148074999,14510000000,,705642.7516932398,-1416183278489999872,0.0,86.80586179316509,2238.356343577835,0.0,0,14,0.0,16431,346492932380332,487,20.599000930786133,755.0294506476267,0.14999,16,0.0,0.0,1575420030,,,,0,3.321962305595817,1,6.0,20.599000930786133,0.0,0.0,0.0,66.7128,C,26959055000000,
Raw,1732148074999,14510000000,,705642.7516932398,-1416183278489999872,0.0,86.80586179316509,2238.356343577835,0.0,0,19,0.0,16431,346492924048574,487,23.97800064086914,18.307124741427458,0.14999,16,0.0,0.0,1575420030,,,,0,8.573836651724132,1,6.0,23.97800064086914,0.0,0.0,0.0,66.7128,C,26959055000000,
Raw,1732148074999,14510000000,,705642.7516932398,-1416183278489999872,0.0,86.80586179316509,2238.356343577835,0.0,0,7,0.0,16431,346492924268047,58,35.35499954223633,1121.356013721202,0.14999,16,0.0,0.0,1575420030,,,,0,22.758222998563014,1,6.0,35.35499954223633,0.0,0.0,0.0,66.7128,C,26959055000000,
Raw,1732148074999,14510000000,,705642.7516932398,-1416183278489999872,0.0,86.80586179316509,2238.356343577835,0.0,0,21,0.0,16431,346492919725256,316,26.968000411987305,835.6727128405385,0.14999,16,0.0,0.0,1575420030,,,,0,12.704715814722,1,6.0,26.968000411987305,0.0,0.0,0.0,66.7128,C,26959055000000,
Raw,1732148074999,14510000000,,705642.7516932398,-1416183278489999872,0.0,86.80586179316509,2238.356343577835,0.0,0,29,0.0,16431,346492918817066,487,17.100000381469727,1072.8327996606026,0.14999,16,0.0,0.0,1575420030,,,,0,0.0,6,6.0,17.100000381469727,0.0,0.0,10.06598367600103,66.7128,C,26959055000000,
Raw,1732148074999,14510000000,,705642.7516932398,-1416183278489999872,0.0,86.80586179316509,2238.356343577835,0.0,0,27,0.0,16431,346492918371685,396,20.399999618530273,951.9348994074106,0.14999,16,0.0,0.0,1575420030,,,,0,4.881822807789594,6,6.0,20.399999618530273,0.0,0.0,10.06598367600103,66.7128,C,26959055000000,
Raw,1732148074999,14510000000,,705642.7516932398,-1416183278489999872,0.0,86.80586179316509,2238.356343577835,0.0,0,13,0.0,16431,346492930857483,396,25.937000274658203,563.4083679812944,0.14999,16,0.0,0.0,1575420030,,,,0,11.34695901878019,1,6.0,25.937000274658203,0.0,0.0,0.0,66.7128,C,26959055000000,
Raw,1732148074999,14510000000,,705642.7516932398,-1416183278489999872,0.0,86.80586179316509,2238.356343577835,0.0,0,21,0.0,16431,346492920279976,396,20.899999618530273,557.2675874434178,0.14999,16,0.0,0.0,1575420030,,,,0,5.567907431189305,6,6.0,20.899999618530273,0.0,0.0,10.06598367600103,66.7128,C,26959055000000,
Raw,1732148074999,14510000000,,705642.7516932398,-1416183278489999872,0.0,86.80586179316509,2238.356343577835,0.0,0,9,0.0,17,564786,316,5.0,865.7236545337925,0.14999,16,0.0,0.0,1600875010,,,,0,11.125884713126768,3,6.0,25.0,0.0,0.0,49.780225819712506,66.7128,C,26959055000000,
Raw,1732148074999,14510000000,,705642.7516932398,-1416183278489999872,0.0,86.80586179316509,2238.356343577835,0.0,0,8,0.0,17,361439,487,5.0,751.8614336968645,0.14999,16,0.0,0.0,1605374980,,,,0,3.7890173034303958,3,6.0,20.0,0.0,0.0,49.780225819712506,66.7128,C,26959055000000,
Raw,1732148074999,14510000000,,705642.7516932398,-1416183278489999872,0.0,86.80586179316509,2238.356343577835,0.0,0,16,0.0,17,347797,487,5.0,1162.9085664595798,0.14999,16,0.0,0.0,1601437440,,,,0,5.55730356643503,3,6.0,20.0,0.0,0.0,49.780225819712506,66.7128,C,26959055000000,
Raw,1732148074999,14510000000,,705642.7516932398,-1416183278489999872,0.0,86.80586179316509,2238.356343577835,0.0,0,22,0.0,16431,346492930950754,316,28.042999267578125,613.4882177354441,0.14999,16,0.0,0.0,1575420030,,,,0,14.10101471133433,1,6.0,28.042999267578125,0.0,0.0,0.0,66.7128,C,26959055000000,
Fix,FLP,37.4244310000,-122.1708011000,2.0,0.030694207,3.8,,1732148075208,2.8,,26959055000000,1.0207036,0,,,
Status,1732148075000,26,0,1,14,1575420030,29.50,2.0,71.0,1,0,0,24.5
Status,1732148075000,26,1,1,22,1575420030,0.00,296.0,66.0,0,0,0,0.0
Status,1732148075000,26,2,1,30,1575420030,32.20,101.0,62.0,1,0,0,27.2
Status,1732148075000,26,3,1,17,1575420030,0.00,171.0,59.0,0,0,0,0.0
Status,1732148075000,26,4,1,13,1575420030,28.10,285.0,55.0,1,0,0,23.1
Status,1732148075000,26,5,1,19,1575420030,23.70,193.0,30.0,1,0,0,18.7
Status,1732148075000,26,6,1,7,1575420030,38.90,114.0,28.0,1,0,0,33.9
Status,1732148075000,26,7,1,15,1575420030,0.00,306.0,25.0,0,0,0,0.0
Status,1732148075000,26,8,2,131,1575420030,31.00,3.0,23.0,0,0,0,26.0
Status,1732148075000,26,9,1,2,1575420030,32.00,75.0,20.0,1,0,0,27.0
Status,1732148075000,26,10,1,21,1575420030,29.80,56.0,14.0,1,0,0,24.8
Status,1732148075000,26,11,3,9,1602000000,32.60,39.0,49.0,1,0,0,27.599998
Status,1732148075000,26,12,3,8,1602000000,20.80,284.0,40.0,1,0,0,15.799999
Status,1732148075000,26,13,3,20,1602000000,0.00,143.0,23.0,0,0,0,0.0
Status,1732148075000,26,14,3,11,1602000000,0.00,283.0,9.0,0,0,0,0.0
Status,1732148075000,26,15,3,16,1602000000,28.60,79.0,6.0,1,0,0,23.6
Status,1732148075000,26,16,6,21,1575420030,25.10,287.0,62.0,1,0,0,20.1
Status,1732148075000,26,17,6,19,1575420030,0.00,281.0,54.0,0,0,0,0.0
Status,1732148075000,26,18,6,27,1575420030,22.40,45.0,50.0,1,0,0,17.4
Status,1732148075000,26,19,6,29,1575420030,19.10,198.0,50.0,1,0,0,14.1
Status,1732148075000,26,20,6,15,1575420030,0.00,86.0,17.0,0,0,0,0.0
Status,1732148075000,26,21,6,13,1575420030,0.00,136.0,9.0,0,0,0,0.0
Status,1732148075000,26,22,6,4,1575420030,0.00,324.0,8.0,0,0,0,0.0
Status,1732148075000,26,23,6,7,1575420030,0.00,162.0,7.0,0,0,0,0.0
Status,1732148075000,26,24,6,34,1575420030,0.00,38.0,6.0,0,0,0,0.0
Status,1732148075000,26,25,6,30,1575420030,0.00,65.0,4.0,0,0,0,0.0
Fix,GPS,37.4244283333,-122.1708066667,-6.199999999999999,0.0,3.8,77.5,1732148076000,2.6,179.9,26960055000000,31.7,0,,,
Raw,1732148075999,15510000000,,705628.3146222444,-1416183278489999872,0.0,86.28408256923872,2236.68027762241,0.0,0,2,0.0,16431,346493920702849,316,26.989999771118164,604.6426282057901,0.14999,16,0.0,0.0,1575420030,,,,0,12.736885813118617,1,6.0,26.989999771118164,0.0,0.0,0.0,66.7128,C,26960055000000,
Raw,1732148075999,15510000000,,705628.3146222444,-1416183278489999872,0.0,86.28408256923872,2236.68027762241,0.0,0,30,0.0,16431,346493930870036,235,27.19099998474121,882.2206079606983,0.14999,16,0.0,0.0,1575420030,,,,0,13.021176668715693,1,6.0,27.19099998474121,0.0,0.0,0.0,66.7128,C,26960055000000,
Raw,1732148075999,15510000000,,705628.3146222444,-1416183278489999872,0.0,86.28408256923872,2236.68027762241,0.0,0,14,0.0,16431,346493932377812,396,24.545000076293945,754.2107139787485,0.14999,16,0.0,0.0,1575420030,,,,0,9.413467834168435,1,6.0,24.545000076293945,0.0,0.0,0.0,66.7128,C,26960055000000,
Raw,1732148075999,15510000000,,705628.3146222444,-1416183278489999872,0.0,86.28408256923872,2236.68027762241,0.0,0,19,0.0,16431,346493924048510,487,18.6560001373291,18.236136281457757,0.14999,16,0.0,0.0,1575420030,,,,0,0.0,1,6.0,18.6560001373291,0.0,0.0,0.0,66.7128,C,26960055000000,
Raw,1732148075999,15510000000,,705628.3146222444,-1416183278489999872,0.0,86.28408256923872,2236.68027762241,0.0,0,7,0.0,16431,346493924264308,58,33.915000915527344,1121.71169935571,0.14999,16,0.0,0.0,1575420030,,,,0,21.137038512672916,1,6.0,33.915000915527344,0.0,0.0,0.0,66.7128,C,26960055000000,
Raw,1732148075999,15510000000,,705628.3146222444,-1416183278489999872,0.0,86.28408256923872,2236.68027762241,0.0,0,21,0.0,16431,346493919722471,396,24.757999420166016,834.9458244605084,0.14999,16,0.0,0.0,1575420030,,,,0,9.691440024499613,1,6.0,24.757999420166016,0.0,0.0,0.0,66.7128,C,26960055000000,
Raw,1732148075999,15510000000,,705628.3146222444,-1416183278489999872,0.0,86.28408256923872,2236.68027762241,0.0,0,29,0.0,16431,346493918813488,487,14.100000381469727,1072.1138092113283,0.14999,16,0.0,0.0,1575420030,,,,0,0.0,6,6.0,14.100000381469727,0.0,0.0,13.025661956235387,66.7128,C,26960055000000,
Raw,1732148075999,15510000000,,705628.3146222444,-1416183278489999872,0.0,86.28408256923872,2236.68027762241,0.0,0,27,0.0,16431,346493918368514,396,17.399999618530273,951.4750540037587,0.14999,16,0.0,0.0,1575420030,,,,0,0.0,6,6.0,17.399999618530273,0.0,0.0,13.025661956235387,66.7128,C,26960055000000,
Raw,1732148075999,15510000000,,705628.3146222444,-1416183278489999872,0.0,86.28408256923872,2236.68027762241,0.0,0,13,0.0,16431,346493930855599,396,23.114999771118164,563.5798924539437,0.14999,16,0.0,0.0,1575420030,,,,0,7.290897366118185,1,6.0,23.114999771118164,0.0,0.0,0.0,66.7128,C,26960055000000,
Raw,1732148075999,15510000000,,705628.3146222444,-1416183278489999872,0.0,86.28408256923872,2236.68027762241,0.0,0,21,0.0,16431,346493920278118,396,20.100000381469727,557.1136707105123,0.14999,16,0.0,0.0,1575420030,,,,0,4.308017732102313,6,6.0,20.100000381469727,0.0,0.0,13.025661956235387,66.7128,C,26960055000000,
Raw,1732148075999,15510000000,,705628.3146222444,-1416183278489999872,0.0,86.28408256923872,2236.68027762241,0.0,0,9,0.0,17,561889,235,5.0,865.8815703631991,0.14999,16,0.0,0.0,1600875010,,,,0,14.181963011727797,3,6.0,27.0,0.0,0.0,49.09797095599719,66.7128,C,26960055000000,
Raw,1732148075999,15510000000,,705628.3146222444,-1416183278489999872,0.0,86.28408256923872,2236.68027762241,0.0,0,8,0.0,17,358939,797,5.0,751.0271085201207,0.14999,16,0.0,0.0,1605374980,,,,0,0.0,3,6.0,16.0,0.0,0.0,49.09797095599719,66.7128,C,26960055000000,
Raw,1732148075999,15510000000,,705628.3146222444,-1416183278489999872,0.0,86.28408256923872,2236.68027762241,0.0,0,16,0.0,17,343921,396,5.0,1163.0173411154738,0.14999,16,0.0,0.0,1601437440,,,,0,9.265818919621818,3,6.0,23.0,0.0,0.0,49.09797095599719,66.7128,C,26960055000000,
Fix,FLP,37.4244298000,-122.1708039000,2.0,0.022862263,3.8,,1732148076208,2.6,,26960055000000,1.030705,0,,,
Status,1732148076000,26,0,1,14,1575420030,38.50,2.0,71.0,1,0,0,33.5
Status,1732148076000,26,1,1,22,1575420030,31.80,296.0,66.0,1,0,0,26.8
Status,1732148076000,26,2,1,30,1575420030,32.10,101.0,62.0,1,0,0,27.099998
Status,1732148076000,26,3,1,17,1575420030,0.00,171.0,59.0,0,0,0,0.0
Status,1732148076000,26,4,1,13,1575420030,30.30,285.0,55.0,1,0,0,25.3
Status,1732148076000,26,5,1,19,1575420030,26.70,193.0,30.0,1,0,0,21.7
Status,1732148076000,26,6,1,7,1575420030,34.20,114.0,28.0,1,0,0,29.2
Status,1732148076000,26,7,1,15,1575420030,0.00,306.0,25.0,0,0,0,0.0
Status,1732148076000,26,8,2,131,1575420030,32.00,3.0,23.0,0,0,0,27.0
Status,1732148076000,26,9,1,2,1575420030,34.50,75.0,20.0,1,0,0,29.5
Status,1732148076000,26,10,1,21,1575420030,36.20,56.0,14.0,1,0,0,31.2
Status,1732148076000,26,11,3,9,1602000000,24.40,39.0,49.0,1,0,0,19.4
Status,1732148076000,26,12,3,8,1602000000,22.60,284.0,40.0,1,0,0,17.6
Status,1732148076000,26,13,3,20,1602000000,0.00,143.0,23.0,0,0,0,0.0
Status,1732148076000,26,14,3,11,1602000000,0.00,283.0,9.0,0,0,0,0.0
Status,1732148076000,26,15,3,16,1602000000,30.40,79.0,6.0,1,0,0,25.4
Status,1732148076000,26,16,6,21,1575420030,25.10,287.0,62.0,1,0,0,20.1
Status,1732148076000,26,17,6,19,1575420030,0.00,281.0,54.0,0,0,0,0.0
Status,1732148076000,26,18,6,27,1575420030,24.80,45.0,50.0,1,0,0,19.8
Status,1732148076000,26,19,6,29,1575420030,19.10,198.0,50.0,1,0,0,14.1
Status,1732148076000,26,20,6,15,1575420030,0.00,86.0,17.0,0,0,0,0.0
Status,1732148076000,26,21,6,13,1575420030,0.00,136.0,9.0,0,0,0,0.0
Status,1732148076000,26,22,6,4,1575420030,0.00,324.0,8.0,0,0,0,0.0
Status,1732148076000,26,23,6,7,1575420030,0.00,162.0,7.0,0,0,0,0.0
Status,1732148076000,26,24,6,34,1575420030,0.00,38.0,6.0,0,0,0,0.0
Status,1732148076000,26,25,6,30,1575420030,0.00,65.0,4.0,0,0,0,0.0
Fix,GPS,37.4244350000,-122.1708083333,-6.099999999999998,0.42104277,3.8,292.72,1732148077000,2.6,179.9,26961055000000,32.2,0,,,
Raw,1732148076999,16510000000,,705592.2480044512,-1416183278489999872,0.0,86.24164013151238,2237.03735332475,0.0,0,2,0.0,16431,346494920700823,235,29.527000427246094,605.4302841942235,0.14999,16,0.0,0.0,1575420030,,,,0,15.970333645892278,1,6.0,29.527000427246094,0.0,0.0,0.0,66.7128,C,26961055000000,
Raw,1732148076999,16510000000,,705592.2480044512,-1416183278489999872,0.0,86.24164013151238,2237.03735332475,0.0,0,30,0.0,16431,346494930867096,235,27.101999282836914,883.3213007575583,0.14999,16,0.0,0.0,1575420030,,,,0,12.89597248802293,1,6.0,27.101999282836914,0.0,0.0,0.0,66.7128,C,26961055000000,
Raw,1732148076999,16510000000,,705592.2480044512,-1416183278489999872,0.0,86.24164013151238,2237.03735332475,0.0,0,14,0.0,16431,346494932375300,58,33.48699951171875,754.7416407592025,0.14999,16,0.0,0.0,1575420030,,,,0,20.64738619775576,1,6.0,33.48699951171875,0.0,0.0,0.0,66.7128,C,26961055000000,
Raw,1732148076999,16510000000,,705592.2480044512,-1416183278489999872,0.0,86.24164013151238,2237.03735332475,0.0,0,19,0.0,16431,346494924048446,396,21.70800018310547,18.77050098471137,0.14999,16,0.0,0.0,1575420030,,,,0,5.116590873214478,1,6.0,21.70800018310547,0.0,0.0,0.0,66.7128,C,26961055000000,
Raw,1732148076999,16510000000,,705592.2480044512,-1416183278489999872,0.0,86.24164013151238,2237.03735332475,0.0,0,7,0.0,16431,346494924260565,235,29.155000686645508,1121.7990411781857,0.14999,16,0.0,0.0,1575420030,,,,0,15.516065965953086,1,6.0,29.155000686645508,0.0,0.0,0.0,66.7128,C,26961055000000,
Raw,1732148076999,16510000000,,705592.2480044512,-1416183278489999872,0.0,86.24164013151238,2237.03735332475,0.0,0,21,0.0,16431,346494919719687,74,31.24799919128418,836.5224372730293,0.14999,16,0.0,0.0,1575420030,,,,0,18.04684367722034,1,6.0,31.24799919128418,0.0,0.0,0.0,66.7128,C,26961055000000,
Raw,1732148076999,16510000000,,705592.2480044512,-1416183278489999872,0.0,86.24164013151238,2237.03735332475,0.0,0,29,0.0,16431,346494918809909,396,14.100000381469727,1073.5746476506524,0.14999,16,0.0,0.0,1575420030,,,,0,0.0,6,6.0,14.100000381469727,0.0,0.0,13.499374136828498,66.7128,C,26961055000000,
Raw,1732148076999,16510000000,,705592.2480044512,-1416183278489999872,0.0,86.24164013151238,2237.03735332475,0.0,0,22,0.0,16431,346494930946659,316,26.78700065612793,613.736212761176,0.14999,16,0.0,0.0,1575420030,,,,0,12.476126579106364,1,6.0,26.78700065612793,0.0,0.0,0.0,66.7128,C,26961055000000,
Raw,1732148076999,16510000000,,705592.2480044512,-1416183278489999872,0.0,86.24164013151238,2237.03735332475,0.0,0,27,0.0,16431,346494918365338,487,19.799999237060547,952.3170663391585,0.14999,16,0.0,0.0,1575420030,,,,0,3.873632738237588,6,6.0,19.799999237060547,0.0,0.0,13.499374136828498,66.7128,C,26961055000000,
Raw,1732148076999,16510000000,,705592.2480044512,-1416183278489999872,0.0,86.24164013151238,2237.03735332475,0.0,0,13,0.0,16431,346494930853722,316,25.273000717163086,564.2435509295112,0.14999,16,0.0,0.0,1575420030,,,,0,10.433902445229082,1,6.0,25.273000717163086,0.0,0.0,0.0,66.7128,C,26961055000000,
Raw,1732148076999,16510000000,,705592.2480044512,-1416183278489999872,0.0,86.24164013151238,2237.03735332475,0.0,0,21,0.0,16431,346494920276257,396,20.139999389648438,557.7599537384172,0.14999,16,0.0,0.0,1575420030,,,,0,5.640898529949982,6,6.0,20.139999389648438,0.0,0.0,13.499374136828498,66.7128,C,26961055000000,
Raw,1732148076999,16510000000,,705592.2480044512,-1416183278489999872,0.0,86.24164013151238,2237.03735332475,0.0,0,9,0.0,17,558999,487,5.0,867.4471041879075,0.14999,16,0.0,0.0,1600875010,,,,0,3.2452190063421944,3,6.0,20.0,0.0,0.0,49.26995922684449,66.7128,C,26961055000000,
Raw,1732148076999,16510000000,,705592.2480044512,-1416183278489999872,0.0,86.24164013151238,2237.03735332475,0.0,0,8,0.0,17,356439,487,5.0,749.6479644438091,0.14999,16,0.0,0.0,1605374980,,,,0,0.09450473183273722,3,6.0,18.0,0.0,0.0,49.26995922684449,66.7128,C,26961055000000,
Raw,1732148076999,16510000000,,705592.2480044512,-1416183278489999872,0.0,86.24164013151238,2237.03735332475,0.0,0,16,0.0,17,340093,316,5.0,1163.3665169016203,0.14999,16,0.0,0.0,1601437440,,,,0,11.633976308608663,3,6.0,26.0,0.0,0.0,49.26995922684449,66.7128,C,26961055000000,
Fix,FLP,37.4244324000,-122.1708062000,2.0,0.036340784,3.8,,1732148077207,2.6,,26961055000000,1.0407056,0,,,
Status,1732148077000,26,0,1,14,1575420030,33.60,2.0,71.0,1,0,0,28.599998
Status,1732148077000,26,1,1,22,1575420030,33.70,296.0,66.0,1,0,0,28.7
Status,1732148077000,26,2,1,30,1575420030,35.50,101.0,62.0,1,0,0,30.5
Status,1732148077000,26,3,1,17,1575420030,0.00,171.0,59.0,0,0,0,0.0
Status,1732148077000,26,4,1,13,1575420030,32.50,285.0,55.0,1,0,0,27.5
Status,1732148077000,26,5,1,19,1575420030,29.30,193.0,30.0,1,0,0,24.3
Status,1732148077000,26,6,1,7,1575420030,26.90,114.0,28.0,1,0,0,21.9
Status,1732148077000,26,7,1,15,1575420030,24.50,306.0,25.0,1,0,0,19.5
Status,1732148077000,26,8,2,131,1575420030,32.00,3.0,23.0,0,0,0,27.0
Status,1732148077000,26,9,1,2,1575420030,32.90,75.0,20.0,1,0,0,27.900002
Status,1732148077000,26,10,1,21,1575420030,35.30,56.0,14.0,1,0,0,30.3
Status,1732148077000,26,11,3,9,1602000000,28.70,39.0,49.0,1,0,0,23.7
Status,1732148077000,26,12,3,8,1602000000,22.60,284.0,40.0,1,0,0,17.6
Status,1732148077000,26,13,3,20,1602000000,0.00,143.0,23.0,0,0,0,0.0
Status,1732148077000,26,14,3,11,1602000000,0.00,283.0,9.0,0,0,0,0.0
Status,1732148077000,26,15,3,16,1602000000,29.20,79.0,6.0,1,0,0,24.2
Status,1732148077000,26,16,6,21,1575420030,25.10,287.0,62.0,1,0,0,20.1
Status,1732148077000,26,17,6,19,1575420030,0.00,281.0,54.0,0,0,0,0.0
Status,1732148077000,26,18,6,27,1575420030,24.90,45.0,50.0,1,0,0,19.9
Status,1732148077000,26,19,6,29,1575420030,23.90,198.0,50.0,1,0,0,18.9
Status,1732148077000,26,20,6,15,1575420030,0.00,86.0,17.0,0,0,0,0.0
Status,1732148077000,26,21,6,13,1575420030,0.00,136.0,9.0,0,0,0,0.0
Status,1732148077000,26,22,6,4,1575420030,0.00,324.0,8.0,0,0,0,0.0
Status,1732148077000,26,23,6,7,1575420030,0.00,162.0,7.0,0,0,0,0.0
Status,1732148077000,26,24,6,34,1575420030,0.00,38.0,6.0,0,0,0,0.0
Status,1732148077000,26,25,6,30,1575420030,0.00,65.0,4.0,0,0,0,0.0
Fix,GPS,37.4244283333,-122.1708166667,-6.099999999999998,0.31912777,3.8,263.2,1732148078000,2.5,179.9,26962055000000,37.1,0,,,
Raw,1732148077999,17510000000,,705571.9735617898,-1416183278489999872,0.0,101.06540747892959,2238.0703870541192,0.0,0,2,0.0,16431,346495920698793,235,27.864999771118164,606.8362087855868,0.14999,16,0.0,0.0,1575420030,,,,0,13.87864379165206,1,6.0,27.864999771118164,0.0,0.0,0.0,66.7128,C,26962055000000,
Raw,1732148077999,17510000000,,705571.9735617898,-1416183278489999872,0.0,101.06540747892959,2238.0703870541192,0.0,0,30,0.0,16431,346495930864146,74,30.496999740600586,884.3410629933796,0.14999,16,0.0,0.0,1575420030,,,,0,17.1481343456518,1,6.0,30.496999740600586,0.0,0.0,0.0,66.7128,C,26962055000000,
Raw,1732148077999,17510000000,,705571.9735617898,-1416183278489999872,0.0,101.06540747892959,2238.0703870541192,0.0,0,14,0.0,16431,346495932372784,235,28.599000930786133,754.77244268915,0.14999,16,0.0,0.0,1575420030,,,,0,14.812075252178236,1,6.0,28.599000930786133,0.0,0.0,0.0,66.7128,C,26962055000000,
Raw,1732148077999,17510000000,,705571.9735617898,-1416183278489999872,0.0,101.06540747892959,2238.0703870541192,0.0,0,19,0.0,16431,346495924048388,316,24.268999099731445,18.95261797625668,0.14999,16,0.0,0.0,1575420030,,,,0,8.97908284030371,1,6.0,24.268999099731445,0.0,0.0,0.0,66.7128,C,26962055000000,
Raw,1732148077999,17510000000,,705571.9735617898,-1416183278489999872,0.0,101.06540747892959,2238.0703870541192,0.0,0,21,0.0,16431,346495919716893,74,30.259000778198242,836.8894587610924,0.14999,16,0.0,0.0,1575420030,,,,0,16.85333603996056,1,6.0,30.259000778198242,0.0,0.0,0.0,66.7128,C,26962055000000,
Raw,1732148077999,17510000000,,705571.9735617898,-1416183278489999872,0.0,101.06540747892959,2238.0703870541192,0.0,0,29,0.0,16431,346495918806326,396,18.899999618530273,1073.079400933848,0.14999,16,0.0,0.0,1575420030,,,,0,2.527269933938893,6,6.0,18.899999618530273,0.0,0.0,21.25759842205438,66.7128,C,26962055000000,
Raw,1732148077999,17510000000,,705571.9735617898,-1416183278489999872,0.0,101.06540747892959,2238.0703870541192,0.0,0,22,0.0,16431,346495930944615,316,28.67300033569336,614.6470300109836,0.14999,16,0.0,0.0,1575420030,,,,0,14.912636602789505,1,6.0,28.67300033569336,0.0,0.0,0.0,66.7128,C,26962055000000,
Raw,1732148077999,17510000000,,705571.9735617898,-1416183278489999872,0.0,101.06540747892959,2238.0703870541192,0.0,0,27,0.0,16431,346495918362162,235,19.895000457763672,952.2602012377167,0.14999,16,0.0,0.0,1575420030,,,,0,6.732326328475342,6,6.0,19.895000457763672,0.0,0.0,21.25759842205438,66.7128,C,26962055000000,
Raw,1732148077999,17510000000,,705571.9735617898,-1416183278489999872,0.0,101.06540747892959,2238.0703870541192,0.0,0,13,0.0,16431,346495930851837,235,27.490999221801758,564.7623985217505,0.14999,16,0.0,0.0,1575420030,,,,0,13.416057832630838,1,6.0,27.490999221801758,0.0,0.0,0.0,66.7128,C,26962055000000,
Raw,1732148077999,17510000000,,705571.9735617898,-1416183278489999872,0.0,101.06540747892959,2238.0703870541192,0.0,0,21,0.0,16431,346495920274394,487,20.13800048828125,558.1458373434618,0.14999,16,0.0,0.0,1575420030,,,,0,4.308017732102313,6,6.0,20.13800048828125,0.0,0.0,21.25759842205438,66.7128,C,26962055000000,
Raw,1732148077999,17510000000,,705571.9735617898,-1416183278489999872,0.0,101.06540747892959,2238.0703870541192,0.0,0,9,0.0,17,556103,396,5.0,865.5855810523773,0.14999,16,0.0,0.0,1600875010,,,,0,9.44743362048787,3,6.0,21.0,0.0,0.0,48.06040432616152,66.7128,C,26962055000000,
Raw,1732148077999,17510000000,,705571.9735617898,-1416183278489999872,0.0,101.06540747892959,2238.0703870541192,0.0,0,8,0.0,17,353933,487,5.0,752.7809694613317,0.14999,16,0.0,0.0,1605374980,,,,0,0.09450473183273722,3,6.0,19.0,0.0,0.0,48.06040432616152,66.7128,C,26962055000000,
Raw,1732148077999,17510000000,,705571.9735617898,-1416183278489999872,0.0,101.06540747892959,2238.0703870541192,0.0,0,16,0.0,17,336213,316,5.0,1163.032788944756,0.14999,16,0.0,0.0,1601437440,,,,0,10.128957260224816,3,6.0,24.0,0.0,0.0,48.06040432616152,66.7128,C,26962055000000,
Raw,1732148077999,17510000000,,705571.9735617898,-1416183278489999872,0.0,101.06540747892959,2238.0703870541192,0.0,0,15,0.0,16431,346495924197194,487,19.516000747680664,360.92035978361173,0.14999,16,0.0,0.0,1575420030,,,,0,1.4192872059507495,1,6.0,19.516000747680664,0.0,0.0,0.0,66.7128,C,26962055000000,
Raw,1732148077999,17510000000,,705571.9735617898,-1416183278489999872,0.0,101.06540747892959,2238.0703870541192,0.0,0,7,0.0,16431,346495924256771,396,21.924999237060547,1122.0832737685619,0.14999,16,0.0,0.0,1575420030,,,,0,5.420058931507606,1,6.0,21.924999237060547,0.0,0.0,0.0,66.7128,C,26962055000000,
Fix,FLP,37.4244305000,-122.1708115000,2.0,0.042831097,3.8,,1732148078207,2.5,,26962055000000,1.0507089,0,,,
Status,1732148078000,26,0,1,14,1575420030,34.30,2.0,71.0,1,0,0,29.3
Status,1732148078000,26,1,1,22,1575420030,31.50,297.0,66.0,1,0,0,26.5
Status,1732148078000,26,2,1,30,1575420030,37.20,101.0,62.0,1,0,0,32.2
Status,1732148078000,26,3,1,17,1575420030,0.00,171.0,59.0,0,0,0,0.0
Status,1732148078000,26,4,1,13,1575420030,34.20,285.0,55.0,1,0,0,29.2
Status,1732148078000,26,5,1,19,1575420030,29.30,193.0,30.0,1,0,0,24.3
Status,1732148078000,26,6,1,7,1575420030,33.10,114.0,28.0,1,0,0,28.099998
Status,1732148078000,26,7,1,15,1575420030,24.50,306.0,25.0,1,0,0,19.5
Status,1732148078000,26,8,2,131,1575420030,36.00,3.0,23.0,0,0,0,31.0
Status,1732148078000,26,9,1,2,1575420030,35.30,75.0,20.0,1,0,0,30.3
Status,1732148078000,26,10,1,21,1575420030,31.60,56.0,14.0,1,0,0,26.6
Status,1732148078000,26,11,3,9,1602000000,32.70,39.0,49.0,1,0,0,27.7
Status,1732148078000,26,12,3,8,1602000000,23.60,284.0,40.0,1,0,0,18.6
Status,1732148078000,26,13,3,20,1602000000,0.00,143.0,23.0,0,0,0,0.0
Status,1732148078000,26,14,3,11,1602000000,0.00,283.0,9.0,0,0,0,0.0
Status,1732148078000,26,15,3,16,1602000000,29.90,79.0,6.0,1,0,0,24.9
Status,1732148078000,26,16,6,21,1575420030,25.10,287.0,62.0,1,0,0,20.1
Status,1732148078000,26,17,6,19,1575420030,0.00,281.0,54.0,0,0,0,0.0
Status,1732148078000,26,18,6,27,1575420030,27.90,45.0,50.0,1,0,0,22.9
Status,1732148078000,26,19,6,29,1575420030,23.90,198.0,50.0,1,0,0,18.9
Status,1732148078000,26,20,6,15,1575420030,0.00,86.0,17.0,0,0,0,0.0
Status,1732148078000,26,21,6,13,1575420030,0.00,136.0,9.0,0,0,0,0.0
Status,1732148078000,26,22,6,4,1575420030,0.00,324.0,8.0,0,0,0,0.0
Status,1732148078000,26,23,6,7,1575420030,0.00,162.0,7.0,0,0,0,0.0
Status,1732148078000,26,24,6,34,1575420030,0.00,38.0,6.0,0,0,0,0.0
Status,1732148078000,26,25,6,30,1575420030,0.00,65.0,4.0,0,0,0,0.0
Fix,GPS,37.4244283333,-122.1708200000,-6.099999999999998,0.39890972,3.8,276.11,1732148079000,2.5,179.9,26963055000000,35.9,0,,,
Raw,1732148078999,18510000000,,705563.1132655111,-1416183278489999872,0.0,98.06092697157314,2239.7958689808593,0.0,0,2,0.0,16431,346496920696769,74,30.304000854492188,607.0115428483654,0.14999,16,0.0,0.0,1575420030,,,,0,16.913101571433494,1,6.0,30.304000854492188,0.0,0.0,0.0,66.7128,C,26963055000000,
Raw,1732148078999,18510000000,,705563.1132655111,-1416183278489999872,0.0,98.06092697157314,2239.7958689808593,0.0,0,30,0.0,16431,346496930861200,74,32.231998443603516,884.6741698376093,0.14999,16,0.0,0.0,1575420030,,,,0,19.203414992569236,1,6.0,32.231998443603516,0.0,0.0,0.0,66.7128,C,26963055000000,
Raw,1732148078999,18510000000,,705563.1132655111,-1416183278489999872,0.0,98.06092697157314,2239.7958689808593,0.0,0,14,0.0,16431,346496932370272,235,29.292999267578125,754.5839144361677,0.14999,16,0.0,0.0,1575420030,,,,0,15.677776028896835,1,6.0,29.292999267578125,0.0,0.0,0.0,66.7128,C,26963055000000,
Raw,1732148078999,18510000000,,705563.1132655111,-1416183278489999872,0.0,98.06092697157314,2239.7958689808593,0.0,0,19,0.0,16431,346496924048323,487,24.268999099731445,19.554579675096623,0.14999,16,0.0,0.0,1575420030,,,,0,8.97908284030371,1,6.0,24.268999099731445,0.0,0.0,0.0,66.7128,C,26963055000000,
Raw,1732148078999,18510000000,,705563.1132655111,-1416183278489999872,0.0,98.06092697157314,2239.7958689808593,0.0,0,21,0.0,16431,346496919714106,396,26.552000045776367,836.3673590797184,0.14999,16,0.0,0.0,1575420030,,,,0,12.173099697653948,1,6.0,26.552000045776367,0.0,0.0,0.0,66.7128,C,26963055000000,
Raw,1732148078999,18510000000,,705563.1132655111,-1416183278489999872,0.0,98.06092697157314,2239.7958689808593,0.0,0,29,0.0,16431,346496918802746,487,18.860000610351562,1074.6060244905264,0.14999,16,0.0,0.0,1575420030,,,,0,1.0573227640948248,6,6.0,18.860000610351562,0.0,0.0,20.574066746349594,66.7128,C,26963055000000,
Raw,1732148078999,18510000000,,705563.1132655111,-1416183278489999872,0.0,98.06092697157314,2239.7958689808593,0.0,0,22,0.0,16431,346496930942548,396,26.527000427246094,614.937952613294,0.14999,16,0.0,0.0,1575420030,,,,0,12.138768073360456,1,6.0,26.527000427246094,0.0,0.0,0.0,66.7128,C,26963055000000,
Raw,1732148078999,18510000000,,705563.1132655111,-1416183278489999872,0.0,98.06092697157314,2239.7958689808593,0.0,0,27,0.0,16431,346496918358989,316,22.899999618530273,952.3767189455727,0.14999,16,0.0,0.0,1575420030,,,,0,8.36389556419295,6,6.0,22.899999618530273,0.0,0.0,20.574066746349594,66.7128,C,26963055000000,
Raw,1732148078999,18510000000,,705563.1132655111,-1416183278489999872,0.0,98.06092697157314,2239.7958689808593,0.0,0,13,0.0,16431,346496930849953,235,29.155000686645508,565.588011036228,0.14999,16,0.0,0.0,1575420030,,,,0,15.516065965953086,1,6.0,29.155000686645508,0.0,0.0,0.0,66.7128,C,26963055000000,
Raw,1732148078999,18510000000,,705563.1132655111,-1416183278489999872,0.0,98.06092697157314,2239.7958689808593,0.0,0,21,0.0,16431,346496920272532,396,20.145999908447266,558.470024171779,0.14999,16,0.0,0.0,1575420030,,,,0,4.640532579761982,6,6.0,20.145999908447266,0.0,0.0,20.574066746349594,66.7128,C,26963055000000,
Raw,1732148078999,18510000000,,705563.1132655111,-1416183278489999872,0.0,98.06092697157314,2239.7958689808593,0.0,0,9,0.0,17,553211,235,5.0,867.1138990446776,0.14999,16,0.0,0.0,1600875010,,,,0,14.384015421671304,3,6.0,28.0,0.0,0.0,46.948500756943986,66.7128,C,26963055000000,
Raw,1732148078999,18510000000,,705563.1132655111,-1416183278489999872,0.0,98.06092697157314,2239.7958689808593,0.0,0,8,0.0,17,351464,797,5.0,751.3276023583676,0.14999,16,0.0,0.0,1605374980,,,,0,2.004753593333359,3,6.0,16.0,0.0,0.0,46.948500756943986,66.7128,C,26963055000000,
Raw,1732148078999,18510000000,,705563.1132655111,-1416183278489999872,0.0,98.06092697157314,2239.7958689808593,0.0,0,16,0.0,17,332337,316,5.0,1163.4712696374645,0.14999,16,0.0,0.0,1601437440,,,,0,11.020599913279625,3,6.0,26.0,0.0,0.0,46.948500756943986,66.7128,C,26963055000000,
Raw,1732148078999,18510000000,,705563.1132655111,-1416183278489999872,0.0,98.06092697157314,2239.7958689808593,0.0,0,15,0.0,16431,346496924195989,396,19.516000747680664,360.9492336892866,0.14999,16,0.0,0.0,1575420030,,,,0,1.4192872059507495,1,6.0,19.516000747680664,0.0,0.0,0.0,66.7128,C,26963055000000,
Raw,1732148078999,18510000000,,705563.1132655111,-1416183278489999872,0.0,98.06092697157314,2239.7958689808593,0.0,0,7,0.0,16431,346496924253033,235,28.12299919128418,1122.6441197690554,0.14999,16,0.0,0.0,1575420030,,,,0,14.210101101363575,1,6.0,28.12299919128418,0.0,0.0,0.0,66.7128,C,26963055000000,
Fix,FLP,37.4244296000,-122.1708160000,2.0,0.05727729,3.8,,1732148079207,2.5,,26963055000000,1.065892,0,,,
Status,1732148079000,27,0,1,14,1575420030,32.00,2.0,71.0,1,0,0,27.0
Status,1732148079000,27,1,1,22,1575420030,30.60,297.0,66.0,1,0,0,25.6
Status,1732148079000,27,2,1,30,1575420030,33.90,101.0,62.0,1,0,0,28.900002
Status,1732148079000,27,3,1,17,1575420030,31.20,171.0,59.0,1,0,0,26.2
Status,1732148079000,27,4,1,13,1575420030,0.00,285.0,55.0,0,0,0,0.0
Status,1732148079000,27,5,1,19,1575420030,28.20,193.0,30.0,1,0,0,23.2
Status,1732148079000,27,6,1,7,1575420030,32.20,114.0,28.0,1,0,0,27.2
Status,1732148079000,27,7,1,15,1575420030,0.00,306.0,25.0,0,0,0,0.0
Status,1732148079000,27,8,2,131,1575420030,32.00,3.0,23.0,0,0,0,27.0
Status,1732148079000,27,9,1,2,1575420030,30.00,75.0,20.0,1,0,0,25.0
Status,1732148079000,27,10,1,21,1575420030,30.20,56.0,14.0,1,0,0,25.2
Status,1732148079000,27,11,3,9,1602000000,30.10,39.0,49.0,1,0,0,25.1
Status,1732148079000,27,12,3,8,1602000000,23.60,284.0,40.0,1,0,0,18.6
Status,1732148079000,27,13,3,20,1602000000,0.00,143.0,23.0,0,0,0,0.0
Status,1732148079000,27,14,3,11,1602000000,0.00,283.0,9.0,0,0,0,0.0
Status,1732148079000,27,15,3,16,1602000000,25.90,79.0,6.0,1,0,0,20.9
Status,1732148079000,27,16,3,17,1602000000,25.40,0.0,0.0,0,0,0,20.4
Status,1732148079000,27,17,6,21,1575420030,25.10,287.0,62.0,1,0,0,20.1
Status,1732148079000,27,18,6,19,1575420030,0.00,281.0,54.0,0,0,0,0.0
Status,1732148079000,27,19,6,27,1575420030,22.70,45.0,50.0,1,0,0,17.7
Status,1732148079000,27,20,6,29,1575420030,20.20,198.0,50.0,1,0,0,15.200001
Status,1732148079000,27,21,6,15,1575420030,0.00,86.0,17.0,0,0,0,0.0
Status,1732148079000,27,22,6,13,1575420030,0.00,136.0,9.0,0,0,0,0.0
Status,1732148079000,27,23,6,4,1575420030,0.00,324.0,8.0,0,0,0,0.0
Status,1732148079000,27,24,6,7,1575420030,0.00,162.0,7.0,0,0,0,0.0
Status,1732148079000,27,25,6,34,1575420030,0.00,38.0,6.0,0,0,0,0.0
Status,1732148079000,27,26,6,30,1575420030,0.00,65.0,4.0,0,0,0,0.0
Fix,GPS,37.4244300000,-122.1708266667,-6.099999999999998,0.0,3.8,276.11,1732148080000,2.8,179.9,26964055000000,36.4,0,,,
Raw,1732148079999,19510000000,,705533.5615714522,-1416183278489999872,0.0,100.26757108622103,2243.198315452516,0.0,0,2,0.0,16431,346497920694743,316,25.04599952697754,607.716688689609,0.14999,16,0.0,0.0,1575420030,,,,0,10.092398424722191,1,6.0,25.04599952697754,0.0,0.0,0.0,66.7128,C,26964055000000,
Raw,1732148079999,19510000000,,705533.5615714522,-1416183278489999872,0.0,100.26757108622103,2243.198315452516,0.0,0,30,0.0,16431,346497930858247,235,28.926000595092773,885.1595673701769,0.14999,16,0.0,0.0,1575420030,,,,0,15.231645805375809,1,6.0,28.926000595092773,0.0,0.0,0.0,66.7128,C,26964055000000,
Raw,1732148079999,19510000000,,705533.5615714522,-1416183278489999872,0.0,100.26757108622103,2243.198315452516,0.0,0,14,0.0,16431,346497932367750,316,27.034000396728516,756.0297468070559,0.14999,16,0.0,0.0,1575420030,,,,0,12.800870556520076,1,6.0,27.034000396728516,0.0,0.0,0.0,66.7128,C,26964055000000,
Raw,1732148079999,19510000000,,705533.5615714522,-1416183278489999872,0.0,100.26757108622103,2243.198315452516,0.0,0,19,0.0,16431,346497924048260,396,23.225000381469727,20.559289384065725,0.14999,16,0.0,0.0,1575420030,,,,0,7.469380830550487,1,6.0,23.225000381469727,0.0,0.0,0.0,66.7128,C,26964055000000,
Raw,1732148079999,19510000000,,705533.5615714522,-1416183278489999872,0.0,100.26757108622103,2243.198315452516,0.0,0,21,0.0,16431,346497919711311,316,25.160999298095703,837.2098359992804,0.14999,16,0.0,0.0,1575420030,,,,0,10.264828695491628,1,6.0,25.160999298095703,0.0,0.0,0.0,66.7128,C,26964055000000,
Raw,1732148079999,19510000000,,705533.5615714522,-1416183278489999872,0.0,100.26757108622103,2243.198315452516,0.0,0,29,0.0,16431,346497918799160,487,15.199999809265137,1075.1326770966891,0.14999,16,0.0,0.0,1575420030,,,,0,0.0,6,6.0,15.199999809265137,0.0,0.0,20.94364300483503,66.7128,C,26964055000000,
Raw,1732148079999,19510000000,,705533.5615714522,-1416183278489999872,0.0,100.26757108622103,2243.198315452516,0.0,0,22,0.0,16431,346497930940494,316,25.625,615.2602811049627,0.14999,16,0.0,0.0,1575420030,,,,0,10.922230915829655,1,6.0,25.625,0.0,0.0,0.0,66.7128,C,26964055000000,
Raw,1732148079999,19510000000,,705533.5615714522,-1416183278489999872,0.0,100.26757108622103,2243.198315452516,0.0,0,27,0.0,16431,346497918355809,316,17.700000762939453,954.1515233616478,0.14999,16,0.0,0.0,1575420030,,,,0,0.2847347169722063,6,6.0,17.700000762939453,0.0,0.0,20.94364300483503,66.7128,C,26964055000000,
Raw,1732148079999,19510000000,,705533.5615714522,-1416183278489999872,0.0,100.26757108622103,2243.198315452516,0.0,0,17,0.0,16431,346497931209830,316,26.165000915527344,344.7643526295646,0.14999,16,0.0,0.0,1575420030,,,,0,11.643308091789507,1,6.0,26.165000915527344,0.0,0.0,0.0,66.7128,C,26964055000000,
Raw,1732148079999,19510000000,,705533.5615714522,-1416183278489999872,0.0,100.26757108622103,2243.198315452516,0.0,0,21,0.0,16431,346497920270664,316,20.05299949645996,559.4387286081849,0.14999,16,0.0,0.0,1575420030,,,,0,1.4192872059507495,6,6.0,20.05299949645996,0.0,0.0,20.94364300483503,66.7128,C,26964055000000,
Raw,1732148079999,19510000000,,705533.5615714522,-1416183278489999872,0.0,100.26757108622103,2243.198315452516,0.0,0,9,0.0,17,550316,316,5.0,867.6833835759716,0.14999,16,0.0,0.0,1600875010,,,,0,11.150436256625671,3,6.0,24.0,0.0,0.0,46.29012107283978,66.7128,C,26964055000000,
Raw,1732148079999,19510000000,,705533.5615714522,-1416183278489999872,0.0,100.26757108622103,2243.198315452516,0.0,0,8,0.0,17,348956,797,5.0,752.0049102723407,0.14999,16,0.0,0.0,1605374980,,,,0,2.004753593333359,3,6.0,17.0,0.0,0.0,46.29012107283978,66.7128,C,26964055000000,
Raw,1732148079999,19510000000,,705533.5615714522,-1416183278489999872,0.0,100.26757108622103,2243.198315452516,0.0,0,16,0.0,17,328453,396,5.0,1164.305086789619,0.14999,16,0.0,0.0,1601437440,,,,0,5.613376395329039,3,6.0,21.0,0.0,0.0,46.29012107283978,66.7128,C,26964055000000,
Raw,1732148079999,19510000000,,705533.5615714522,-1416183278489999872,0.0,100.26757108622103,2243.198315452516,0.0,0,7,0.0,16431,346497924249303,235,27.16900062561035,1123.751316744185,0.14999,16,0.0,0.0,1575420030,,,,0,12.990044414461806,1,6.0,27.16900062561035,0.0,0.0,0.0,66.7128,C,26964055000000,
Fix,FLP,37.4244298000,-122.1708215000,2.0,0.06412894,3.8,,1732148080207,2.8,,26964055000000,1.0758897,0,,,
Status,1732148080000,27,0,1,14,1575420030,30.90,2.0,71.0,1,0,0,25.9
Status,1732148080000,27,1,1,22,1575420030,26.30,297.0,66.0,1,0,0,21.3
Status,1732148080000,27,2,1,30,1575420030,30.90,101.0,62.0,1,0,0,25.9
Status,1732148080000,27,3,1,17,1575420030,30.60,171.0,59.0,1,0,0,25.6
Status,1732148080000,27,4,1,13,1575420030,34.40,285.0,55.0,1,0,0,29.400002
Status,1732148080000,27,5,1,19,1575420030,30.50,193.0,30.0,1,0,0,25.5
Status,1732148080000,27,6,1,7,1575420030,32.30,114.0,28.0,1,0,0,27.3
Status,1732148080000,27,7,1,15,1575420030,0.00,306.0,25.0,0,0,0,0.0
Status,1732148080000,27,8,2,131,1575420030,32.00,3.0,23.0,0,0,0,27.0
