# 
# Header Description:
# 
# Version: v3.1.0.3 Platform: 13 Manufacturer: samsung Model: SM-S135DL GNSS Hardware Model Name: MediaTek,MT6631,MTK_MNLD_default,MNL_VER_default
# 
# Raw,utcTimeMillis,TimeNanos,LeapSecond,TimeUncertaintyNanos,FullBiasNanos,BiasNanos,BiasUncertaintyNanos,DriftNanosPerSecond,DriftUncertaintyNanosPerSecond,HardwareClockDiscontinuityCount,Svid,TimeOffsetNanos,State,ReceivedSvTimeNanos,ReceivedSvTimeUncertaintyNanos,Cn0DbHz,PseudorangeRateMetersPerSecond,PseudorangeRateUncertaintyMetersPerSecond,AccumulatedDeltaRangeState,AccumulatedDeltaRangeMeters,AccumulatedDeltaRangeUncertaintyMeters,CarrierFrequencyHz,CarrierCycles,CarrierPhase,CarrierPhaseUncertainty,MultipathIndicator,SnrInDb,ConstellationType,AgcDb,BasebandCn0DbHz,FullInterSignalBiasNanos,FullInterSignalBiasUncertaintyNanos,SatelliteInterSignalBiasNanos,SatelliteInterSignalBiasUncertaintyNanos,CodeType,ChipsetElapsedRealtimeNanos,IsFullTracking
# 
# UncalAccel,utcTimeMillis,elapsedRealtimeNanos,UncalAccelXMps2,UncalAccelYMps2,UncalAccelZMps2,BiasXMps2,BiasYMps2,BiasZMps2
# 
# Accel,utcTimeMillis,elapsedRealtimeNanos,AccelXMps2,AccelYMps2,AccelZMps2
# 
# UncalGyro,utcTimeMillis,elapsedRealtimeNanos,UncalGyroXRadPerSec,UncalGyroYRadPerSec,UncalGyroZRadPerSec,DriftXRadPerSec,DriftYRadPerSec,DriftZRadPerSec
# 
# Gyro,utcTimeMillis,elapsedRealtimeNanos,GyroXRadPerSec,GyroYRadPerSec,GyroZRadPerSec
# 
# UncalMag,utcTimeMillis,elapsedRealtimeNanos,UncalMagXMicroT,UncalMagYMicroT,UncalMagZMicroT,BiasXMicroT,BiasYMicroT,BiasZMicroT
# 
# Mag,utcTimeMillis,elapsedRealtimeNanos,MagXMicroT,MagYMicroT,MagZMicroT
# 
# Pressure,utcTimeMillis,elapsedRealtimeNanos,PressureHpa
# 
# OrientationDeg,utcTimeMillis,elapsedRealtimeNanos,yawDeg,rollDeg,pitchDeg
# 
# Fix,Provider,LatitudeDegrees,LongitudeDegrees,AltitudeMeters,SpeedMps,AccuracyMeters,BearingDegrees,UnixTimeMillis,SpeedAccuracyMps,BearingAccuracyDegrees,elapsedRealtimeNanos,VerticalAccuracyMeters,MockLocation,NumberOfUsedSignals,VerticalSpeedAccuracyMps,SolutionType
# 
# Nav,Svid,Type,Status,MessageId,Sub-messageId,Data(Bytes)
# 
# Status,UnixTimeMillis,SignalCount,SignalIndex,ConstellationType,Svid,CarrierFrequencyHz,Cn0DbHz,AzimuthDegrees,ElevationDegrees,UsedInFix,HasAlmanacData,HasEphemerisData,BasebandCn0DbHz
# 
# Agc,utcTimeMillis,TimeNanos,LeapSecond,TimeUncertaintyNanos,FullBiasNanos,BiasNanos,BiasUncertaintyNanos,DriftNanosPerSecond,DriftUncertaintyNanosPerSecond,HardwareClockDiscontinuityCount,AgcDb,CarrierFrequencyHz,ConstellationType
# 
Fix,FLP,37.4244320000,-122.1707718000,2.0,0.028137553,2.48,,1732148756209,1.2,,27640056000000,0.87103635,0,,,
Status,,29,0,1,14,1575420030,27.40,15.0,68.0,1,0,0,22.4
Status,,29,1,1,22,1575420030,31.90,310.0,68.0,1,0,0,26.9
Status,,29,2,1,17,1575420030,0.00,167.0,64.0,0,0,0,0.0
Status,,29,3,1,30,1575420030,0.00,109.0,58.0,0,0,0,0.0
Status,,29,4,1,13,1575420030,31.80,275.0,56.0,1,0,0,26.8
Status,,29,5,2,133,1575420030,32.00,191.0,45.0,0,0,0,27.0
Status,,29,6,1,19,1575420030,0.00,194.0,35.0,0,0,0,0.0
Status,,29,7,1,15,1575420030,27.70,302.0,27.0,1,0,0,22.7
Status,,29,8,1,7,1575420030,33.90,118.0,24.0,1,0,0,28.900002
Status,,29,9,1,2,1575420030,35.10,70.0,21.0,1,0,0,30.099998
Status,,29,10,1,21,1575420030,31.30,52.0,13.0,1,0,0,26.3
Status,,29,11,3,9,1602000000,29.40,48.0,46.0,1,0,0,24.4
Status,,29,12,3,8,1602000000,24.80,275.0,38.0,1,0,0,19.8
Status,,29,13,3,19,1602000000,0.00,61.0,35.0,0,0,0,0.0
Status,,29,14,3,20,1602000000,0.00,139.0,29.0,0,0,0,0.0
Status,,29,15,3,11,1602000000,0.00,288.0,12.0,0,0,0,0.0
Status,,29,16,3,18,1602000000,0.00,24.0,10.0,0,0,0,0.0
Status,,29,17,3,16,1602000000,23.20,84.0,3.0,0,0,0,18.2
Status,,29,18,3,17,1602000000,36.00,0.0,0.0,0,0,0,31.0
Status,,29,19,6,21,1575420030,0.00,296.0,64.0,0,0,0,0.0
Status,,29,20,6,19,1575420030,0.00,274.0,54.0,0,0,0,0.0
Status,,29,21,6,27,1575420030,22.00,48.0,47.0,1,0,0,17.0
Status,,29,22,6,29,1575420030,0.00,196.0,45.0,0,0,0,0.0
Status,,29,23,6,15,1575420030,0.00,82.0,19.0,0,0,0,0.0
Status,,29,24,6,13,1575420030,0.00,133.0,12.0,0,0,0,0.0
Status,,29,25,6,4,1575420030,0.00,323.0,11.0,0,0,0,0.0
Status,,29,26,6,34,1575420030,0.00,35.0,5.0,0,0,0,0.0
Status,,29,27,6,7,1575420030,0.00,162.0,3.0,0,0,0,0.0
Status,,29,28,6,30,1575420030,0.00,67.0,1.0,0,0,0,0.0
Fix,GPS,37.4244333333,-122.1707716667,3.400000000000002,0.0,2.5,4.66,1732148757000,1.2,167.0,27641056000000,33.4,0,,,
Raw,1732148757000,10386000000,,703056.796045216,-1416183964614000128,0.0,85.80164737692675,2120.6523675026765,0.0,0,7,0.0,16431,347174922973832,235,28.926000595092773,1125.8721434441961,0.14999,16,0.0,0.0,1575420030,,,,0,15.231645805375809,1,6.0,28.926000595092773,0.0,0.0,0.0,66.7128,C,27641056000000,
Raw,1732148757000,10386000000,,703056.796045216,-1416183964614000128,0.0,85.80164737692675,2120.6523675026765,0.0,0,22,0.0,16431,347174930812422,396,26.878000259399414,617.0897206185012,0.14999,16,0.0,0.0,1575420030,,,,0,12.607484691518673,1,6.0,26.878000259399414,0.0,0.0,0.0,66.7128,C,27641056000000,
Raw,1732148757000,10386000000,,703056.796045216,-1416183964614000128,0.0,85.80164737692675,2120.6523675026765,0.0,0,2,0.0,16431,347174920549008,74,30.104000091552734,642.4949944806558,0.14999,16,0.0,0.0,1575420030,,,,0,16.671531712678984,1,6.0,30.104000091552734,0.0,0.0,0.0,66.7128,C,27641056000000,
Raw,1732148757000,10386000000,,703056.796045216,-1416183964614000128,0.0,85.80164737692675,2120.6523675026765,0.0,0,15,0.0,16431,347174924590303,487,22.70199966430664,407.4369651604537,0.14999,16,0.0,0.0,1575420030,,,,0,6.667986111035388,1,6.0,22.70199966430664,0.0,0.0,0.0,66.7128,C,27641056000000,
Raw,1732148757000,10386000000,,703056.796045216,-1416183964614000128,0.0,85.80164737692675,2120.6523675026765,0.0,0,27,0.0,16431,347174917495863,396,17.0,927.7212374626401,0.14999,16,0.0,0.0,1575420030,,,,0,0.0,6,6.0,17.0,0.0,0.0,17.46451231469509,66.7128,C,27641056000000,
Raw,1732148757000,10386000000,,703056.796045216,-1416183964614000128,0.0,85.80164737692675,2120.6523675026765,0.0,0,14,0.0,16431,347174931924452,396,22.424999237060547,756.1956498113436,0.14999,16,0.0,0.0,1575420030,,,,0,6.2037441196663305,1,6.0,22.424999237060547,0.0,0.0,0.0,66.7128,C,27641056000000,
Raw,1732148757000,10386000000,,703056.796045216,-1416183964614000128,0.0,85.80164737692675,2120.6523675026765,0.0,0,13,0.0,16431,347174930774714,396,26.83300018310547,618.0610731846313,0.14999,16,0.0,0.0,1575420030,,,,0,12.542053951690942,1,6.0,26.83300018310547,0.0,0.0,0.0,66.7128,C,27641056000000,
Raw,1732148757000,10386000000,,703056.796045216,-1416183964614000128,0.0,85.80164737692675,2120.6523675026765,0.0,0,21,0.0,16431,347174919042062,316,26.263999938964844,876.010604382668,0.14999,16,0.0,0.0,1575420030,,,,0,11.787775283032502,1,6.0,26.263999938964844,0.0,0.0,0.0,66.7128,C,27641056000000,
Raw,1732148757000,10386000000,,703056.796045216,-1416183964614000128,0.0,85.80164737692675,2120.6523675026765,0.0,0,16,0.0,17,1251,487,5.0,1130.261361713052,0.14999,16,0.0,0.0,1601437440,,,,0,1.233485690546142,3,6.0,19.0,0.0,0.0,58.12454434838857,66.7128,C,27641056000000,
Raw,1732148757000,10386000000,,703056.796045216,-1416183964614000128,0.0,85.80164737692675,2120.6523675026765,0.0,0,9,0.0,17,866179,316,5.0,858.3386435053046,0.14999,16,0.0,0.0,1600875010,,,,0,10.303261898189056,3,6.0,24.0,0.0,0.0,58.12454434838857,66.7128,C,27641056000000,
Raw,1732148757000,10386000000,,703056.796045216,-1416183964614000128,0.0,85.80164737692675,2120.6523675026765,0.0,0,8,0.0,17,826942,487,5.0,825.2665025352854,0.14999,16,0.0,0.0,1605374980,,,,0,0.3013213985971124,3,6.0,19.0,0.0,0.0,58.12454434838857,66.7128,C,27641056000000,
Fix,FLP,37.4244327000,-122.1707717000,2.0,0.027316095,2.483,,1732148757208,1.2,,27641056000000,0.8810289,0,,,
Status,1732148757000,29,0,1,14,1575420030,28.30,15.0,68.0,1,0,0,23.3
Status,1732148757000,29,1,1,22,1575420030,28.30,310.0,68.0,1,0,0,23.3
Status,1732148757000,29,2,1,17,1575420030,25.90,167.0,64.0,1,0,0,20.9
Status,1732148757000,29,3,1,30,1575420030,36.20,109.0,58.0,1,0,0,31.2
Status,1732148757000,29,4,1,13,1575420030,32.60,275.0,56.0,1,0,0,27.599998
Status,1732148757000,29,5,2,133,1575420030,32.00,191.0,45.0,0,0,0,27.0
Status,1732148757000,29,6,1,19,1575420030,0.00,194.0,35.0,0,0,0,0.0
Status,1732148757000,29,7,1,15,1575420030,25.40,302.0,27.0,1,0,0,20.4
Status,1732148757000,29,8,1,7,1575420030,29.70,118.0,24.0,1,0,0,24.7
Status,1732148757000,29,9,1,2,1575420030,34.30,70.0,21.0,1,0,0,29.3
Status,1732148757000,29,10,1,21,1575420030,40.70,52.0,13.0,1,0,0,35.7
Status,1732148757000,29,11,3,9,1602000000,28.90,48.0,46.0,1,0,0,23.9
Status,1732148757000,29,12,3,8,1602000000,24.90,275.0,38.0,1,0,0,19.9
Status,1732148757000,29,13,3,19,1602000000,0.00,61.0,35.0,0,0,0,0.0
Status,1732148757000,29,14,3,20,1602000000,0.00,139.0,29.0,0,0,0,0.0
Status,1732148757000,29,15,3,11,1602000000,0.00,288.0,12.0,0,0,0,0.0
Status,1732148757000,29,16,3,18,1602000000,20.50,24.0,10.0,1,0,0,15.5
Status,1732148757000,29,17,3,16,1602000000,22.40,84.0,3.0,0,0,0,17.4
Status,1732148757000,29,18,3,17,1602000000,27.50,0.0,0.0,0,0,0,22.5
Status,1732148757000,29,19,6,21,1575420030,0.00,296.0,64.0,0,0,0,0.0
Status,1732148757000,29,20,6,19,1575420030,0.00,274.0,54.0,0,0,0,0.0
Status,1732148757000,29,21,6,27,1575420030,22.10,48.0,47.0,1,0,0,17.1
Status,1732148757000,29,22,6,29,1575420030,0.00,196.0,45.0,0,0,0,0.0
Status,1732148757000,29,23,6,15,1575420030,0.00,82.0,19.0,0,0,0,0.0
Status,1732148757000,29,24,6,13,1575420030,0.00,133.0,12.0,0,0,0,0.0
Status,1732148757000,29,25,6,4,1575420030,0.00,323.0,11.0,0,0,0,0.0
Status,1732148757000,29,26,6,34,1575420030,0.00,35.0,5.0,0,0,0,0.0
Status,1732148757000,29,27,6,7,1575420030,0.00,162.0,3.0,0,0,0,0.0
Status,1732148757000,29,28,6,30,1575420030,0.00,67.0,1.0,0,0,0,0.0
Fix,GPS,37.4244283333,-122.1707783333,3.3000000000000007,0.0,2.5,4.66,1732148758000,2.3,179.9,27642056000000,41.3,0,,,
Fix,FLP,37.4244307000,-122.1707749000,2.0,0.023392612,2.483,,1732148758208,2.3,,27642056000000,0.89077413,0,,,
Raw,1732148758000,11386000000,,702896.6852795209,-1416183964614000128,0.0,106.95307257470188,2122.2726125268905,0.0,0,7,0.0,16431,347175922970072,316,24.697999954223633,1126.0916130023747,0.14999,16,0.0,0.0,1575420030,,,,0,9.599767515103085,1,6.0,24.697999954223633,0.0,0.0,0.0,66.7128,C,27642056000000,
Raw,1732148758000,11386000000,,702896.6852795209,-1416183964614000128,0.0,106.95307257470188,2122.2726125268905,0.0,0,22,0.0,16431,347175930810359,487,23.297000885009766,617.2827553378561,0.14999,16,0.0,0.0,1575420030,,,,0,7.586364277475821,1,6.0,23.297000885009766,0.0,0.0,0.0,66.7128,C,27642056000000,
Raw,1732148758000,11386000000,,702896.6852795209,-1416183964614000128,0.0,106.95307257470188,2122.2726125268905,0.0,0,2,0.0,16431,347175920546863,235,29.257999420166016,642.643754329362,0.14999,16,0.0,0.0,1575420030,,,,0,15.631879543570992,1,6.0,29.257999420166016,0.0,0.0,0.0,66.7128,C,27642056000000,
Raw,1732148758000,11386000000,,702896.6852795209,-1416183964614000128,0.0,106.95307257470188,2122.2726125268905,0.0,0,15,0.0,16431,347175924588915,487,20.440000534057617,408.6768009138644,0.14999,16,0.0,0.0,1575420030,,,,0,3.03240583822336,1,6.0,20.440000534057617,0.0,0.0,0.0,66.7128,C,27642056000000,
Raw,1732148758000,11386000000,,702896.6852795209,-1416183964614000128,0.0,106.95307257470188,2122.2726125268905,0.0,0,27,0.0,16431,347175917492747,487,17.084999084472656,927.6293427153756,0.14999,16,0.0,0.0,1575420030,,,,0,2.1008829973962575,6,6.0,17.084999084472656,0.0,0.0,19.663611217672514,66.7128,C,27642056000000,
Raw,1732148758000,11386000000,,702896.6852795209,-1416183964614000128,0.0,106.95307257470188,2122.2726125268905,0.0,0,17,0.0,16431,347175931651462,396,20.85700035095215,382.8870604283595,0.14999,16,0.0,0.0,1575420030,,,,0,3.693607855941778,1,6.0,20.85700035095215,0.0,0.0,0.0,66.7128,C,27642056000000,
Raw,1732148758000,11386000000,,702896.6852795209,-1416183964614000128,0.0,106.95307257470188,2122.2726125268905,0.0,0,14,0.0,16431,347175931921922,396,23.33300018310547,756.5966324016568,0.14999,16,0.0,0.0,1575420030,,,,0,7.6442704228640945,1,6.0,23.33300018310547,0.0,0.0,0.0,66.7128,C,27642056000000,
Raw,1732148758000,11386000000,,702896.6852795209,-1416183964614000128,0.0,106.95307257470188,2122.2726125268905,0.0,0,30,0.0,16431,347175930099828,235,31.20800018310547,903.2590229911433,0.14999,16,0.0,0.0,1575420030,,,,0,17.994413600692738,1,6.0,31.20800018310547,0.0,0.0,0.0,66.7128,C,27642056000000,
Raw,1732148758000,11386000000,,702896.6852795209,-1416183964614000128,0.0,106.95307257470188,2122.2726125268905,0.0,0,13,0.0,16431,347175930772653,396,27.638999938964844,618.2412389226956,0.14999,16,0.0,0.0,1575420030,,,,0,13.592427133574608,1,6.0,27.638999938964844,0.0,0.0,0.0,66.7128,C,27642056000000,
Raw,1732148758000,11386000000,,702896.6852795209,-1416183964614000128,0.0,106.95307257470188,2122.2726125268905,0.0,0,21,0.0,16431,347175919039135,51,35.749000549316406,876.4661756120286,0.14999,16,0.0,0.0,1575420030,,,,0,23.192855045435266,1,6.0,35.749000549316406,0.0,0.0,0.0,66.7128,C,27642056000000,
Raw,1732148758000,11386000000,,702896.6852795209,-1416183964614000128,0.0,106.95307257470188,2122.2726125268905,0.0,0,16,0.0,17,997464,487,5.0,1130.601213957265,0.14999,16,0.0,0.0,1601437440,,,,0,0.0,3,6.0,19.0,0.0,0.0,56.864337076519305,66.7128,C,27642056000000,
Raw,1732148758000,11386000000,,702896.6852795209,-1416183964614000128,0.0,106.95307257470188,2122.2726125268905,0.0,0,9,0.0,17,863315,396,5.0,860.0398733872448,0.14999,16,0.0,0.0,1600875010,,,,0,9.646283665890426,3,6.0,23.0,0.0,0.0,56.864337076519305,66.7128,C,27642056000000,
Raw,1732148758000,11386000000,,702896.6852795209,-1416183964614000128,0.0,106.95307257470188,2122.2726125268905,0.0,0,8,0.0,17,824177,396,5.0,827.0854226036666,0.14999,16,0.0,0.0,1605374980,,,,0,6.473864946887167,3,6.0,22.0,0.0,0.0,56.864337076519305,66.7128,C,27642056000000,
Raw,1732148758000,11386000000,,702896.6852795209,-1416183964614000128,0.0,106.95307257470188,2122.2726125268905,0.0,0,18,0.0,17,498029,797,5.0,1225.2102221584207,0.14999,16,0.0,0.0,1600312450,,,,0,0.0,3,6.0,15.0,0.0,0.0,56.864337076519305,66.7128,C,27642056000000,
Status,1732148758000,29,0,1,14,1575420030,29.40,15.0,68.0,1,0,0,24.4
Status,1732148758000,29,1,1,22,1575420030,30.10,310.0,68.0,1,0,0,25.1
Status,1732148758000,29,2,1,17,1575420030,0.00,167.0,64.0,0,0,0,0.0
Status,1732148758000,29,3,1,30,1575420030,29.70,109.0,58.0,1,0,0,24.7
Status,1732148758000,29,4,1,13,1575420030,30.90,275.0,56.0,1,0,0,25.9
Status,1732148758000,29,5,2,133,1575420030,30.00,191.0,45.0,0,0,0,25.0
Status,1732148758000,29,6,1,19,1575420030,0.00,194.0,35.0,0,0,0,0.0
Status,1732148758000,29,7,1,15,1575420030,25.80,301.0,27.0,1,0,0,20.8
Status,1732148758000,29,8,1,7,1575420030,31.40,118.0,24.0,1,0,0,26.4
Status,1732148758000,29,9,1,2,1575420030,30.50,70.0,21.0,1,0,0,25.5
Status,1732148758000,29,10,1,21,1575420030,34.20,52.0,13.0,1,0,0,29.2
Status,1732148758000,29,11,3,9,1602000000,28.90,48.0,46.0,1,0,0,23.9
Status,1732148758000,29,12,3,8,1602000000,0.00,275.0,38.0,0,0,0,0.0
Status,1732148758000,29,13,3,19,1602000000,0.00,61.0,35.0,0,0,0,0.0
Status,1732148758000,29,14,3,20,1602000000,0.00,139.0,29.0,0,0,0,0.0
Status,1732148758000,29,15,3,11,1602000000,0.00,288.0,12.0,0,0,0,0.0
Status,1732148758000,29,16,3,18,1602000000,20.80,24.0,10.0,1,0,0,15.799999
Status,1732148758000,29,17,3,16,1602000000,24.20,84.0,3.0,0,0,0,19.2
Status,1732148758000,29,18,3,17,1602000000,26.60,0.0,0.0,0,0,0,21.6
Status,1732148758000,29,19,6,21,1575420030,0.00,296.0,64.0,0,0,0,0.0
Status,1732148758000,29,20,6,19,1575420030,0.00,274.0,54.0,0,0,0,0.0
Status,1732148758000,29,21,6,27,1575420030,22.10,48.0,47.0,1,0,0,17.1
Status,1732148758000,29,22,6,29,1575420030,0.00,196.0,45.0,0,0,0,0.0
Status,1732148758000,29,23,6,15,1575420030,0.00,82.0,19.0,0,0,0,0.0
Status,1732148758000,29,24,6,13,1575420030,0.00,133.0,12.0,0,0,0,0.0
Status,1732148758000,29,25,6,4,1575420030,0.00,323.0,11.0,0,0,0,0.0
Status,1732148758000,29,26,6,34,1575420030,0.00,35.0,5.0,0,0,0,0.0
Status,1732148758000,29,27,6,7,1575420030,0.00,162.0,3.0,0,0,0,0.0
Status,1732148758000,29,28,6,30,1575420030,0.00,67.0,1.0,0,0,0,0.0
Fix,GPS,37.4244266667,-122.1707833333,3.1999999999999993,0.0,2.6,4.66,1732148759000,2.8,179.9,27643056000000,38.2,0,,,
Fix,FLP,37.4244289000,-122.1707789000,2.0,0.019643635,2.5,,1732148759208,2.8,,27643056000000,0.89658487,0,,,
Raw,1732148759000,12386000000,,702804.1733624933,-1416183964614000128,0.0,98.24267680196265,2127.109280132026,0.0,0,7,0.0,16431,347176922966312,316,26.433000564575195,1128.0144339324963,0.14999,16,0.0,0.0,1575420030,,,,0,12.000068285653871,1,6.0,26.433000564575195,0.0,0.0,0.0,66.7128,C,27643056000000,
Raw,1732148759000,12386000000,,702804.1733624933,-1416183964614000128,0.0,98.24267680196265,2127.109280132026,0.0,0,22,0.0,16431,347176930808299,316,25.075000762939453,618.5535788548791,0.14999,16,0.0,0.0,1575420030,,,,0,10.135827963390874,1,6.0,25.075000762939453,0.0,0.0,0.0,66.7128,C,27643056000000,
Raw,1732148759000,12386000000,,702804.1733624933,-1416183964614000128,0.0,98.24267680196265,2127.109280132026,0.0,0,2,0.0,16431,347176920544716,316,25.516000747680664,643.45403556649,0.14999,16,0.0,0.0,1575420030,,,,0,10.762485914201859,1,6.0,25.516000747680664,0.0,0.0,0.0,66.7128,C,27643056000000,
Raw,1732148759000,12386000000,,702804.1733624933,-1416183964614000128,0.0,98.24267680196265,2127.109280132026,0.0,0,15,0.0,16431,347176924587532,487,20.80699920654297,409.609918203453,0.14999,16,0.0,0.0,1575420030,,,,0,3.60217659445211,1,6.0,20.80699920654297,0.0,0.0,0.0,66.7128,C,27643056000000,
Raw,1732148759000,12386000000,,702804.1733624933,-1416183964614000128,0.0,98.24267680196265,2127.109280132026,0.0,0,27,0.0,16431,347176917489651,396,17.1299991607666,928.9189354325478,0.14999,16,0.0,0.0,1575420030,,,,0,0.9332365160691296,6,6.0,17.1299991607666,0.0,0.0,24.29989635125823,66.7128,C,27643056000000,
Raw,1732148759000,12386000000,,702804.1733624933,-1416183964614000128,0.0,98.24267680196265,2127.109280132026,0.0,0,14,0.0,16431,347176931919392,316,24.423999786376953,757.1444700456115,0.14999,16,0.0,0.0,1575420030,,,,0,9.223084549100385,1,6.0,24.423999786376953,0.0,0.0,0.0,66.7128,C,27643056000000,
Raw,1732148759000,12386000000,,702804.1733624933,-1416183964614000128,0.0,98.24267680196265,2127.109280132026,0.0,0,30,0.0,16431,347176930096808,487,24.697999954223633,905.0790779046073,0.14999,16,0.0,0.0,1575420030,,,,0,9.599767515103085,1,6.0,24.697999954223633,0.0,0.0,0.0,66.7128,C,27643056000000,
Raw,1732148759000,12386000000,,702804.1733624933,-1416183964614000128,0.0,98.24267680196265,2127.109280132026,0.0,0,13,0.0,16431,347176930770586,316,25.861000061035156,620.0142314605384,0.14999,16,0.0,0.0,1575420030,,,,0,11.233168444129475,1,6.0,25.861000061035156,0.0,0.0,0.0,66.7128,C,27643056000000,
Raw,1732148759000,12386000000,,702804.1733624933,-1416183964614000128,0.0,98.24267680196265,2127.109280132026,0.0,0,21,0.0,16431,347176919036205,74,29.155000686645508,876.8938717916628,0.14999,16,0.0,0.0,1575420030,,,,0,15.516065965953086,1,6.0,29.155000686645508,0.0,0.0,0.0,66.7128,C,27643056000000,
Raw,1732148759000,12386000000,,702804.1733624933,-1416183964614000128,0.0,98.24267680196265,2127.109280132026,0.0,0,16,0.0,17,993686,487,5.0,1132.7816430679309,0.14999,16,0.0,0.0,1601437440,,,,0,3.0214939151323605,3,6.0,19.0,0.0,0.0,56.37548306369369,66.7128,C,27643056000000,
Raw,1732148759000,12386000000,,702804.1733624933,-1416183964614000128,0.0,98.24267680196265,2127.109280132026,0.0,0,9,0.0,17,860442,316,5.0,859.4164396148682,0.14999,16,0.0,0.0,1600875010,,,,0,9.646283665890426,3,6.0,25.0,0.0,0.0,56.37548306369369,66.7128,C,27643056000000,
Raw,1732148759000,12386000000,,702804.1733624933,-1416183964614000128,0.0,98.24267680196265,2127.109280132026,0.0,0,18,0.0,17,493942,797,5.0,1225.277545206009,0.14999,16,0.0,0.0,1600312450,,,,0,0.0,3,6.0,17.0,0.0,0.0,56.37548306369369,66.7128,C,27643056000000,
Status,1732148759000,29,0,1,14,1575420030,31.80,15.0,68.0,1,0,0,26.8
Status,1732148759000,29,1,1,22,1575420030,30.70,310.0,68.0,1,0,0,25.7
Status,1732148759000,29,2,1,17,1575420030,0.00,167.0,64.0,0,0,0,0.0
Status,1732148759000,29,3,1,30,1575420030,0.00,109.0,58.0,0,0,0,0.0
Status,1732148759000,29,4,1,13,1575420030,30.90,275.0,56.0,1,0,0,25.9
Status,1732148759000,29,5,2,133,1575420030,33.00,191.0,45.0,0,0,0,28.0
Status,1732148759000,29,6,1,19,1575420030,27.30,194.0,35.0,1,0,0,22.3
Status,1732148759000,29,7,1,15,1575420030,24.90,301.0,27.0,1,0,0,19.9
Status,1732148759000,29,8,1,7,1575420030,30.20,118.0,24.0,1,0,0,25.2
Status,1732148759000,29,9,1,2,1575420030,36.60,70.0,21.0,1,0,0,31.599998
Status,1732148759000,29,10,1,21,1575420030,37.40,52.0,13.0,1,0,0,32.4
Status,1732148759000,29,11,3,9,1602000000,33.00,48.0,46.0,1,0,0,28.0
Status,1732148759000,29,12,3,8,1602000000,0.00,275.0,38.0,0,0,0,0.0
Status,1732148759000,29,13,3,19,1602000000,0.00,61.0,35.0,0,0,0,0.0
Status,1732148759000,29,14,3,20,1602000000,0.00,139.0,29.0,0,0,0,0.0
Status,1732148759000,29,15,3,11,1602000000,0.00,288.0,12.0,0,0,0,0.0
Status,1732148759000,29,16,3,18,1602000000,20.40,24.0,10.0,1,0,0,15.4
Status,1732148759000,29,17,3,16,1602000000,23.60,84.0,3.0,0,0,0,18.6
Status,1732148759000,29,18,3,17,1602000000,24.50,0.0,0.0,0,0,0,19.5
Status,1732148759000,29,19,6,21,1575420030,22.50,296.0,64.0,1,0,0,17.5
Status,1732148759000,29,20,6,19,1575420030,0.00,274.0,54.0,0,0,0,0.0
Status,1732148759000,29,21,6,27,1575420030,27.40,48.0,47.0,1,0,0,22.4
Status,1732148759000,29,22,6,29,1575420030,0.00,196.0,45.0,0,0,0,0.0
Status,1732148759000,29,23,6,15,1575420030,0.00,82.0,19.0,0,0,0,0.0
Status,1732148759000,29,24,6,13,1575420030,0.00,133.0,12.0,0,0,0,0.0
Status,1732148759000,29,25,6,4,1575420030,0.00,323.0,11.0,0,0,0,0.0
Status,1732148759000,29,26,6,34,1575420030,0.00,35.0,5.0,0,0,0,0.0
Status,1732148759000,29,27,6,7,1575420030,0.00,162.0,3.0,0,0,0,0.0
Status,1732148759000,29,28,6,30,1575420030,0.00,67.0,1.0,0,0,0,0.0
Fix,GPS,37.4244250000,-122.1707966667,3.1999999999999993,0.0,2.7,4.66,1732148760000,2.8,159.7,27644056000000,38.5,0,,,
Fix,FLP,37.4244271000,-122.1707874000,2.0,0.015774187,2.533,,1732148760208,2.8,,27644056000000,0.9065856,0,,,
Raw,1732148760000,13386000000,,702572.3984357205,-1416183964614000128,0.0,98.65897024901857,2129.0095059475248,0.0,0,7,0.0,16431,347177922962551,316,25.18899917602539,1127.9191941792649,0.14999,16,0.0,0.0,1575420030,,,,0,10.307406671134064,1,6.0,25.18899917602539,0.0,0.0,0.0,66.7128,C,27644056000000,
Raw,1732148760000,13386000000,,702572.3984357205,-1416183964614000128,0.0,98.65897024901857,2129.0095059475248,0.0,0,22,0.0,16431,347177930806235,396,25.679000854492188,619.549182714271,0.14999,16,0.0,0.0,1575420030,,,,0,11.001015035448619,1,6.0,25.679000854492188,0.0,0.0,0.0,66.7128,C,27644056000000,
Raw,1732148760000,13386000000,,702572.3984357205,-1416183964614000128,0.0,98.65897024901857,2129.0095059475248,0.0,0,2,0.0,16431,347177920542570,74,31.566999435424805,644.9242121474724,0.14999,16,0.0,0.0,1575420030,,,,0,18.421955101197952,1,6.0,31.566999435424805,0.0,0.0,0.0,66.7128,C,27644056000000,
Raw,1732148760000,13386000000,,702572.3984357205,-1416183964614000128,0.0,98.65897024901857,2129.0095059475248,0.0,0,15,0.0,16431,347177924586174,487,19.881000518798828,409.5087317729465,0.14999,16,0.0,0.0,1575420030,,,,0,2.1008829973962575,1,6.0,19.881000518798828,0.0,0.0,0.0,66.7128,C,27644056000000,
Raw,1732148760000,13386000000,,702572.3984357205,-1416183964614000128,0.0,98.65897024901857,2129.0095059475248,0.0,0,27,0.0,16431,347177917486539,396,22.399999618530273,929.5595969920911,0.14999,16,0.0,0.0,1575420030,,,,0,7.701793081033328,6,6.0,22.399999618530273,0.0,0.0,31.173079262962364,66.7128,C,27644056000000,
Raw,1732148760000,13386000000,,702572.3984357205,-1416183964614000128,0.0,98.65897024901857,2129.0095059475248,0.0,0,14,0.0,16431,347177931916873,316,26.78700065612793,757.8008810082501,0.14999,16,0.0,0.0,1575420030,,,,0,12.476126579106364,1,6.0,26.78700065612793,0.0,0.0,0.0,66.7128,C,27644056000000,
Raw,1732148760000,13386000000,,702572.3984357205,-1416183964614000128,0.0,98.65897024901857,2129.0095059475248,0.0,0,13,0.0,16431,347177930768522,316,25.937000274658203,619.9687951294845,0.14999,16,0.0,0.0,1575420030,,,,0,11.34695901878019,1,6.0,25.937000274658203,0.0,0.0,0.0,66.7128,C,27644056000000,
Raw,1732148760000,13386000000,,702572.3984357205,-1416183964614000128,0.0,98.65897024901857,2129.0095059475248,0.0,0,21,0.0,16431,347177919033275,74,32.375999450683594,878.3016547196745,0.14999,16,0.0,0.0,1575420030,,,,0,19.369584905758703,1,6.0,32.375999450683594,0.0,0.0,0.0,66.7128,C,27644056000000,
Raw,1732148760000,13386000000,,702572.3984357205,-1416183964614000128,0.0,98.65897024901857,2129.0095059475248,0.0,0,21,0.0,16431,347177920280532,487,17.5,548.2035039823256,0.14999,16,0.0,0.0,1575420030,,,,0,0.011140771148355988,6,6.0,17.5,0.0,0.0,31.173079262962364,66.7128,C,27644056000000,
Raw,1732148760000,13386000000,,702572.3984357205,-1416183964614000128,0.0,98.65897024901857,2129.0095059475248,0.0,0,16,0.0,17,989908,797,5.0,1133.0675650205662,0.14999,16,0.0,0.0,1601437440,,,,0,1.8712685788157755,3,6.0,17.0,0.0,0.0,51.50580595769286,66.7128,C,27644056000000,
Raw,1732148760000,13386000000,,702572.3984357205,-1416183964614000128,0.0,98.65897024901857,2129.0095059475248,0.0,0,9,0.0,17,857571,235,5.0,861.2197158579072,0.14999,16,0.0,0.0,1600875010,,,,0,14.68252312576642,3,6.0,28.0,0.0,0.0,51.50580595769286,66.7128,C,27644056000000,
Raw,1732148760000,13386000000,,702572.3984357205,-1416183964614000128,0.0,98.65897024901857,2129.0095059475248,0.0,0,18,0.0,17,489862,797,5.0,1224.610809208901,0.14999,16,0.0,0.0,1600312450,,,,0,0.0,3,6.0,16.0,0.0,0.0,51.50580595769286,66.7128,C,27644056000000,
Raw,1732148760000,13386000000,,702572.3984357205,-1416183964614000128,0.0,98.65897024901857,2129.0095059475248,0.0,0,19,0.0,16431,347177925273421,396,22.263999938964844,16.64930261737061,0.14999,16,0.0,0.0,1575420030,,,,0,5.996927452901955,1,6.0,22.263999938964844,0.0,0.0,0.0,66.7128,C,27644056000000,
Status,1732148760000,29,0,1,14,1575420030,38.40,15.0,68.0,1,0,0,33.4
Status,1732148760000,29,1,1,22,1575420030,30.50,310.0,68.0,1,0,0,25.5
Status,1732148760000,29,2,1,17,1575420030,0.00,167.0,64.0,0,0,0,0.0
Status,1732148760000,29,3,1,30,1575420030,0.00,109.0,58.0,0,0,0,0.0
Status,1732148760000,29,4,1,13,1575420030,33.40,275.0,56.0,1,0,0,28.400002
Status,1732148760000,29,5,2,133,1575420030,33.00,191.0,45.0,0,0,0,28.0
Status,1732148760000,29,6,1,19,1575420030,0.00,194.0,35.0,0,0,0,0.0
Status,1732148760000,29,7,1,15,1575420030,27.10,301.0,27.0,1,0,0,22.1
Status,1732148760000,29,8,1,7,1575420030,28.60,118.0,24.0,1,0,0,23.6
Status,1732148760000,29,9,1,2,1575420030,31.50,70.0,21.0,1,0,0,26.5
Status,1732148760000,29,10,1,21,1575420030,31.50,52.0,13.0,1,0,0,26.5
Status,1732148760000,29,11,3,9,1602000000,30.40,48.0,46.0,1,0,0,25.4
Status,1732148760000,29,12,3,8,1602000000,25.10,275.0,38.0,1,0,0,20.1
Status,1732148760000,29,13,3,19,1602000000,0.00,61.0,35.0,0,0,0,0.0
Status,1732148760000,29,14,3,20,1602000000,0.00,139.0,29.0,0,0,0,0.0
Status,1732148760000,29,15,3,11,1602000000,0.00,288.0,12.0,0,0,0,0.0
Status,1732148760000,29,16,3,18,1602000000,21.90,24.0,10.0,1,0,0,16.9
Status,1732148760000,29,17,3,16,1602000000,23.60,84.0,3.0,0,0,0,18.6
Status,1732148760000,29,18,3,17,1602000000,27.50,0.0,0.0,0,0,0,22.5
Status,1732148760000,29,19,6,21,1575420030,23.10,296.0,64.0,1,0,0,18.1
Status,1732148760000,29,20,6,19,1575420030,0.00,274.0,54.0,0,0,0,0.0
Status,1732148760000,29,21,6,27,1575420030,27.50,48.0,47.0,1,0,0,22.5
Status,1732148760000,29,22,6,29,1575420030,0.00,196.0,45.0,0,0,0,0.0
Status,1732148760000,29,23,6,15,1575420030,0.00,82.0,19.0,0,0,0,0.0
Status,1732148760000,29,24,6,13,1575420030,0.00,133.0,12.0,0,0,0,0.0
Status,1732148760000,29,25,6,4,1575420030,0.00,323.0,11.0,0,0,0,0.0
Status,1732148760000,29,26,6,34,1575420030,0.00,35.0,5.0,0,0,0,0.0
Status,1732148760000,29,27,6,7,1575420030,0.00,162.0,3.0,0,0,0,0.0
Status,1732148760000,29,28,6,30,1575420030,0.00,67.0,1.0,0,0,0,0.0
Fix,GPS,37.4244216667,-122.1707900000,3.1000000000000014,0.0,2.8,4.66,1732148761000,2.9,151.4,27645056000000,39.5,0,,,
Raw,1732148761000,14386000000,,702476.498758351,-1416183964614000128,0.0,104.08194441253268,2131.1246365944316,0.0,0,7,0.0,16431,347178922958787,396,23.576000213623047,1128.5721207606878,0.14999,16,0.0,0.0,1575420030,,,,0,7.983827261916197,1,6.0,23.576000213623047,0.0,0.0,0.0,66.7128,C,27645056000000,
Raw,1732148761000,14386000000,,702476.498758351,-1416183964614000128,0.0,104.08194441253268,2131.1246365944316,0.0,0,22,0.0,16431,347178930804171,396,25.464000701904297,619.8550184681849,0.14999,16,0.0,0.0,1575420030,,,,0,10.681498011487705,1,6.0,25.464000701904297,0.0,0.0,0.0,66.7128,C,27645056000000,
Raw,1732148761000,14386000000,,702476.498758351,-1416183964614000128,0.0,104.08194441253268,2131.1246365944316,0.0,0,2,0.0,16431,347178920540423,316,26.503999710083008,644.6410481006692,0.14999,16,0.0,0.0,1575420030,,,,0,12.104300212105777,1,6.0,26.503999710083008,0.0,0.0,0.0,66.7128,C,27645056000000,
Raw,1732148761000,14386000000,,702476.498758351,-1416183964614000128,0.0,104.08194441253268,2131.1246365944316,0.0,0,15,0.0,16431,347178924584809,396,22.13800048828125,410.5894939092522,0.14999,16,0.0,0.0,1575420030,,,,0,5.785065982953471,1,6.0,22.13800048828125,0.0,0.0,0.0,66.7128,C,27645056000000,
Raw,1732148761000,14386000000,,702476.498758351,-1416183964614000128,0.0,104.08194441253268,2131.1246365944316,0.0,0,27,0.0,16431,347178917483443,316,22.46500015258789,929.8807175649383,0.14999,16,0.0,0.0,1575420030,,,,0,9.413467834168435,6,6.0,22.46500015258789,0.0,0.0,36.92439823958354,66.7128,C,27645056000000,
Raw,1732148761000,14386000000,,702476.498758351,-1416183964614000128,0.0,104.08194441253268,2131.1246365944316,0.0,0,14,0.0,16431,347178931914345,58,33.44599914550781,757.9000232684435,0.14999,16,0.0,0.0,1575420030,,,,0,20.608552051227406,1,6.0,33.44599914550781,0.0,0.0,0.0,66.7128,C,27645056000000,
Raw,1732148761000,14386000000,,702476.498758351,-1416183964614000128,0.0,104.08194441253268,2131.1246365944316,0.0,0,13,0.0,16431,347178930766445,235,28.39299964904785,620.283550899311,0.14999,16,0.0,0.0,1575420030,,,,0,14.555457189318208,1,6.0,28.39299964904785,0.0,0.0,0.0,66.7128,C,27645056000000,
Raw,1732148761000,14386000000,,702476.498758351,-1416183964614000128,0.0,104.08194441253268,2131.1246365944316,0.0,0,21,0.0,16431,347178919030344,316,26.503999710083008,877.8235976168681,0.14999,16,0.0,0.0,1575420030,,,,0,12.104300212105777,1,6.0,26.503999710083008,0.0,0.0,0.0,66.7128,C,27645056000000,
Raw,1732148761000,14386000000,,702476.498758351,-1416183964614000128,0.0,104.08194441253268,2131.1246365944316,0.0,0,21,0.0,16431,347178920278693,396,18.100000381469727,549.4574630942642,0.14999,16,0.0,0.0,1575420030,,,,0,1.0573227640948248,6,6.0,18.100000381469727,0.0,0.0,36.92439823958354,66.7128,C,27645056000000,
Raw,1732148761000,14386000000,,702476.498758351,-1416183964614000128,0.0,104.08194441253268,2131.1246365944316,0.0,0,16,0.0,17,986127,487,5.0,1134.445346859464,0.14999,16,0.0,0.0,1601437440,,,,0,1.8712685788157755,3,6.0,20.0,0.0,0.0,52.560693690413856,66.7128,C,27645056000000,
Raw,1732148761000,14386000000,,702476.498758351,-1416183964614000128,0.0,104.08194441253268,2131.1246365944316,0.0,0,9,0.0,17,854697,316,5.0,858.9234898543984,0.14999,16,0.0,0.0,1600875010,,,,0,11.633976308608663,3,6.0,26.0,0.0,0.0,52.560693690413856,66.7128,C,27645056000000,
Raw,1732148761000,14386000000,,702476.498758351,-1416183964614000128,0.0,104.08194441253268,2131.1246365944316,0.0,0,8,0.0,17,815870,487,5.0,830.8345972804075,0.14999,16,0.0,0.0,1605374980,,,,0,4.447354227439393,3,6.0,20.0,0.0,0.0,52.560693690413856,66.7128,C,27645056000000,
Raw,1732148761000,14386000000,,702476.498758351,-1416183964614000128,0.0,104.08194441253268,2131.1246365944316,0.0,0,18,0.0,17,485773,797,5.0,1228.0273624024783,0.14999,16,0.0,0.0,1600312450,,,,0,0.0,3,6.0,17.0,0.0,0.0,52.560693690413856,66.7128,C,27645056000000,
Fix,FLP,37.4244245000,-122.1707887000,2.0,0.0101842545,2.583,,1732148761208,2.9,,27645056000000,0.91658676,0,,,
Status,1732148761000,29,0,1,14,1575420030,31.50,15.0,68.0,1,0,0,26.5
Status,1732148761000,29,1,1,22,1575420030,30.20,310.0,68.0,1,0,0,25.2
Status,1732148761000,29,2,1,17,1575420030,0.00,167.0,64.0,0,0,0,0.0
Status,1732148761000,29,3,1,30,1575420030,36.00,109.0,58.0,1,0,0,31.0
Status,1732148761000,29,4,1,13,1575420030,29.10,275.0,56.0,1,0,0,24.1
Status,1732148761000,29,5,2,133,1575420030,35.00,191.0,45.0,0,0,0,30.0
Status,1732148761000,29,6,1,19,1575420030,30.80,194.0,35.0,1,0,0,25.8
Status,1732148761000,29,7,1,15,1575420030,28.20,301.0,27.0,1,0,0,23.2
Status,1732148761000,29,8,1,7,1575420030,33.30,118.0,24.0,1,0,0,28.3
Status,1732148761000,29,9,1,2,1575420030,31.80,70.0,21.0,1,0,0,26.8
Status,1732148761000,29,10,1,21,1575420030,30.50,52.0,13.0,1,0,0,25.5
Status,1732148761000,29,11,3,9,1602000000,29.40,48.0,46.0,1,0,0,24.4
Status,1732148761000,29,12,3,8,1602000000,24.50,275.0,38.0,1,0,0,19.5
Status,1732148761000,29,13,3,19,1602000000,0.00,61.0,35.0,0,0,0,0.0
Status,1732148761000,29,14,3,20,1602000000,0.00,139.0,29.0,0,0,0,0.0
Status,1732148761000,29,15,3,11,1602000000,0.00,288.0,12.0,0,0,0,0.0
Status,1732148761000,29,16,3,18,1602000000,21.90,24.0,10.0,1,0,0,16.9
Status,1732148761000,29,17,3,16,1602000000,23.70,84.0,3.0,0,0,0,18.7
Status,1732148761000,29,18,3,17,1602000000,31.50,0.0,0.0,0,0,0,26.5
Status,1732148761000,29,19,6,21,1575420030,23.90,296.0,64.0,1,0,0,18.9
Status,1732148761000,29,20,6,19,1575420030,0.00,274.0,54.0,0,0,0,0.0
Status,1732148761000,29,21,6,27,1575420030,24.10,48.0,47.0,1,0,0,19.1
Status,1732148761000,29,22,6,29,1575420030,0.00,196.0,45.0,0,0,0,0.0
Status,1732148761000,29,23,6,15,1575420030,0.00,82.0,19.0,0,0,0,0.0
Status,1732148761000,29,24,6,13,1575420030,0.00,133.0,12.0,0,0,0,0.0
Status,1732148761000,29,25,6,4,1575420030,0.00,323.0,11.0,0,0,0,0.0
Status,1732148761000,29,26,6,34,1575420030,0.00,35.0,5.0,0,0,0,0.0
Status,1732148761000,29,27,6,7,1575420030,0.00,162.0,3.0,0,0,0,0.0
Status,1732148761000,29,28,6,30,1575420030,0.00,67.0,1.0,0,0,0,0.0
Fix,GPS,37.4244250000,-122.1707883333,3.1000000000000014,0.36082026,2.7,26.44,1732148762000,2.6,179.9,27646056000000,41.5,0,,,
Raw,1732148762000,15386000000,,702330.1475115828,-1416183964614000128,0.0,114.84321781770514,2133.298726190173,0.0,0,7,0.0,16431,347179922955018,235,28.29800033569336,1129.3000312258744,0.14999,16,0.0,0.0,1575420030,,,,0,14.424247902182843,1,6.0,28.29800033569336,0.0,0.0,0.0,66.7128,C,27646056000000,
Raw,1732148762000,15386000000,,702330.1475115828,-1416183964614000128,0.0,114.84321781770514,2133.298726190173,0.0,0,22,0.0,16431,347179930802100,396,25.18899917602539,620.2098213927848,0.14999,16,0.0,0.0,1575420030,,,,0,10.307406671134064,1,6.0,25.18899917602539,0.0,0.0,0.0,66.7128,C,27646056000000,
Raw,1732148762000,15386000000,,702330.1475115828,-1416183964614000128,0.0,114.84321781770514,2133.298726190173,0.0,0,2,0.0,16431,347179920538271,316,26.78700065612793,645.82044145459,0.14999,16,0.0,0.0,1575420030,,,,0,12.476126579106364,1,6.0,26.78700065612793,0.0,0.0,0.0,66.7128,C,27646056000000,
Raw,1732148762000,15386000000,,702330.1475115828,-1416183964614000128,0.0,114.84321781770514,2133.298726190173,0.0,0,15,0.0,16431,347179924583427,396,23.18899917602539,411.64205578691815,0.14999,16,0.0,0.0,1575420030,,,,0,7.410292918069417,1,6.0,23.18899917602539,0.0,0.0,0.0,66.7128,C,27646056000000,
Raw,1732148762000,15386000000,,702330.1475115828,-1416183964614000128,0.0,114.84321781770514,2133.298726190173,0.0,0,27,0.0,16431,347179917480346,487,19.100000381469727,930.0679449822668,0.14999,16,0.0,0.0,1575420030,,,,0,2.8338625735631364,6,6.0,19.100000381469727,0.0,0.0,38.50310107470905,66.7128,C,27646056000000,
Raw,1732148762000,15386000000,,702330.1475115828,-1416183964614000128,0.0,114.84321781770514,2133.298726190173,0.0,0,14,0.0,16431,347179931911822,316,26.479999542236328,758.795602157734,0.14999,16,0.0,0.0,1575420030,,,,0,12.069695028332141,1,6.0,26.479999542236328,0.0,0.0,0.0,66.7128,C,27646056000000,
Raw,1732148762000,15386000000,,702330.1475115828,-1416183964614000128,0.0,114.84321781770514,2133.298726190173,0.0,0,19,0.0,16431,347179925273255,316,25.757999420166016,18.952246308926995,0.14999,16,0.0,0.0,1575420030,,,,0,11.079090973625956,1,6.0,25.757999420166016,0.0,0.0,0.0,66.7128,C,27646056000000,
Raw,1732148762000,15386000000,,702330.1475115828,-1416183964614000128,0.0,114.84321781770514,2133.298726190173,0.0,0,13,0.0,16431,347179930764378,396,24.076000213623047,621.2548570070246,0.14999,16,0.0,0.0,1575420030,,,,0,8.728028090837181,1,6.0,24.076000213623047,0.0,0.0,0.0,66.7128,C,27646056000000,
Raw,1732148762000,15386000000,,702330.1475115828,-1416183964614000128,0.0,114.84321781770514,2133.298726190173,0.0,0,21,0.0,16431,347179919027412,316,25.489999771118164,878.5106246757896,0.14999,16,0.0,0.0,1575420030,,,,0,10.722086354681712,1,6.0,25.489999771118164,0.0,0.0,0.0,66.7128,C,27646056000000,
Raw,1732148762000,15386000000,,702330.1475115828,-1416183964614000128,0.0,114.84321781770514,2133.298726190173,0.0,0,21,0.0,16431,347179920276858,487,18.899999618530273,549.6165831697854,0.14999,16,0.0,0.0,1575420030,,,,0,2.4226193952653525,6,6.0,18.899999618530273,0.0,0.0,38.50310107470905,66.7128,C,27646056000000,
Raw,1732148762000,15386000000,,702330.1475115828,-1416183964614000128,0.0,114.84321781770514,2133.298726190173,0.0,0,16,0.0,17,982331,487,5.0,1138.5788751907053,0.14999,16,0.0,0.0,1601437440,,,,0,5.0,3,6.0,18.0,0.0,0.0,47.57168759328026,66.7128,C,27646056000000,
Raw,1732148762000,15386000000,,702330.1475115828,-1416183964614000128,0.0,114.84321781770514,2133.298726190173,0.0,0,9,0.0,17,851819,396,5.0,863.052892782021,0.14999,16,0.0,0.0,1600875010,,,,0,10.360594711221118,3,6.0,23.0,0.0,0.0,47.57168759328026,66.7128,C,27646056000000,
Raw,1732148762000,15386000000,,702330.1475115828,-1416183964614000128,0.0,114.84321781770514,2133.298726190173,0.0,0,8,0.0,17,813093,396,5.0,833.0562730106113,0.14999,16,0.0,0.0,1605374980,,,,0,3.3686502906402596,3,6.0,21.0,0.0,0.0,47.57168759328026,66.7128,C,27646056000000,
Raw,1732148762000,15386000000,,702330.1475115828,-1416183964614000128,0.0,114.84321781770514,2133.298726190173,0.0,0,18,0.0,17,481679,487,5.0,1225.9598313635656,0.14999,16,0.0,0.0,1600312450,,,,0,0.0,3,6.0,20.0,0.0,0.0,47.57168759328026,66.7128,C,27646056000000,
Raw,1732148762000,15386000000,,702330.1475115828,-1416183964614000128,0.0,114.84321781770514,2133.298726190173,0.0,0,30,0.0,16431,347179930087795,74,31.027999877929688,906.5897197661092,0.14999,16,0.0,0.0,1575420030,,,,0,17.78146999264726,1,6.0,31.027999877929688,0.0,0.0,0.0,66.7128,C,27646056000000,
Fix,FLP,37.4244249000,-122.1707885000,2.0,0.016845856,2.633,,1732148762209,2.6,,27646056000000,0.92658436,0,,,
Status,1732148762000,29,0,1,14,1575420030,34.20,15.0,68.0,1,0,0,29.2
Status,1732148762000,29,1,1,22,1575420030,29.90,310.0,68.0,1,0,0,24.9
Status,1732148762000,29,2,1,17,1575420030,29.30,167.0,64.0,1,0,0,24.3
Status,1732148762000,29,3,1,30,1575420030,29.70,109.0,58.0,1,0,0,24.7
Status,1732148762000,29,4,1,13,1575420030,30.50,275.0,56.0,1,0,0,25.5
Status,1732148762000,29,5,2,133,1575420030,32.00,191.0,45.0,0,0,0,27.0
Status,1732148762000,29,6,1,19,1575420030,28.40,194.0,35.0,1,0,0,23.4
Status,1732148762000,29,7,1,15,1575420030,29.50,301.0,27.0,1,0,0,24.5
Status,1732148762000,29,8,1,7,1575420030,31.30,118.0,24.0,1,0,0,26.3
Status,1732148762000,29,9,1,2,1575420030,35.50,70.0,21.0,1,0,0,30.5
Status,1732148762000,29,10,1,21,1575420030,29.80,52.0,13.0,1,0,0,24.8
Status,1732148762000,29,11,3,9,1602000000,27.80,48.0,46.0,1,0,0,22.8
Status,1732148762000,29,12,3,8,1602000000,24.50,275.0,38.0,1,0,0,19.5
Status,1732148762000,29,13,3,19,1602000000,0.00,61.0,35.0,0,0,0,0.0
Status,1732148762000,29,14,3,20,1602000000,0.00,139.0,29.0,0,0,0,0.0
Status,1732148762000,29,15,3,11,1602000000,0.00,288.0,12.0,0,0,0,0.0
Status,1732148762000,29,16,3,18,1602000000,23.30,24.0,10.0,1,0,0,18.3
Status,1732148762000,29,17,3,16,1602000000,20.10,84.0,3.0,0,0,0,15.1
Status,1732148762000,29,18,3,17,1602000000,28.10,0.0,0.0,0,0,0,23.1
Status,1732148762000,29,19,6,21,1575420030,24.00,296.0,64.0,1,0,0,19.0
Status,1732148762000,29,20,6,19,1575420030,0.00,274.0,54.0,0,0,0,0.0
Status,1732148762000,29,21,6,27,1575420030,23.30,48.0,47.0,1,0,0,18.3
Status,1732148762000,29,22,6,29,1575420030,0.00,196.0,45.0,0,0,0,0.0
Status,1732148762000,29,23,6,15,1575420030,0.00,82.0,19.0,0,0,0,0.0
Status,1732148762000,29,24,6,13,1575420030,0.00,133.0,12.0,0,0,0,0.0
Status,1732148762000,29,25,6,4,1575420030,0.00,323.0,11.0,0,0,0,0.0
Status,1732148762000,29,26,6,34,1575420030,0.00,35.0,5.0,0,0,0,0.0
Status,1732148762000,29,27,6,7,1575420030,0.00,162.0,3.0,0,0,0,0.0
Status,1732148762000,29,28,6,30,1575420030,0.00,67.0,1.0,0,0,0,0.0
Fix,GPS,37.4244366667,-122.1707750000,3.1999999999999993,0.0,2.7,26.44,1732148763000,2.7,138.7,27647056000000,39.6,0,,,
Fix,FLP,37.4244307000,-122.1707820000,2.0,0.029485404,2.666,,1732148763208,2.7,,27647056000000,0.93658096,0,,,
Raw,1732148763000,16386000000,,702020.0371418283,-1416183964614000128,0.0,103.52323880447145,2136.935360705787,0.0,0,7,0.0,16431,347180922951247,316,26.263999938964844,1130.0346317029955,0.14999,16,0.0,0.0,1575420030,,,,0,11.787775283032502,1,6.0,26.263999938964844,0.0,0.0,0.0,66.7128,C,27647056000000,
Raw,1732148763000,16386000000,,702020.0371418283,-1416183964614000128,0.0,103.52323880447145,2136.935360705787,0.0,0,22,0.0,16431,347180930800032,396,24.875,621.1579447508095,0.14999,16,0.0,0.0,1575420030,,,,0,9.871932537501383,1,6.0,24.875,0.0,0.0,0.0,66.7128,C,27647056000000,
Raw,1732148763000,16386000000,,702020.0371418283,-1416183964614000128,0.0,103.52323880447145,2136.935360705787,0.0,0,2,0.0,16431,347180920536117,235,30.54199981689453,646.3880239254341,0.14999,16,0.0,0.0,1575420030,,,,0,17.205912095091293,1,6.0,30.54199981689453,0.0,0.0,0.0,66.7128,C,27647056000000,
Raw,1732148763000,16386000000,,702020.0371418283,-1416183964614000128,0.0,103.52323880447145,2136.935360705787,0.0,0,15,0.0,16431,347180924582039,316,24.545000076293945,412.52671694839927,0.14999,16,0.0,0.0,1575420030,,,,0,9.413467834168435,1,6.0,24.545000076293945,0.0,0.0,0.0,66.7128,C,27647056000000,
Raw,1732148763000,16386000000,,702020.0371418283,-1416183964614000128,0.0,103.52323880447145,2136.935360705787,0.0,0,27,0.0,16431,347180917477242,487,18.299999237060547,930.7539499560316,0.14999,16,0.0,0.0,1575420030,,,,0,1.4192872059507495,6,6.0,18.299999237060547,0.0,0.0,38.61407345876882,66.7128,C,27647056000000,
Raw,1732148763000,16386000000,,702020.0371418283,-1416183964614000128,0.0,103.52323880447145,2136.935360705787,0.0,0,30,0.0,16431,347180930084734,316,24.667999267578125,907.8463270077718,0.14999,16,0.0,0.0,1575420030,,,,0,9.553565865541605,1,6.0,24.667999267578125,0.0,0.0,0.0,66.7128,C,27647056000000,
Raw,1732148763000,16386000000,,702020.0371418283,-1416183964614000128,0.0,103.52323880447145,2136.935360705787,0.0,0,14,0.0,16431,347180931909289,235,29.224000930786133,758.4153400210507,0.14999,16,0.0,0.0,1575420030,,,,0,15.585739251070594,1,6.0,29.224000930786133,0.0,0.0,0.0,66.7128,C,27647056000000,
Raw,1732148763000,16386000000,,702020.0371418283,-1416183964614000128,0.0,103.52323880447145,2136.935360705787,0.0,0,17,0.0,16431,347180931645035,396,24.332000732421875,387.51492264233985,0.14999,16,0.0,0.0,1575420030,,,,0,9.07750757208911,1,6.0,24.332000732421875,0.0,0.0,0.0,66.7128,C,27647056000000,
Raw,1732148763000,16386000000,,702020.0371418283,-1416183964614000128,0.0,103.52323880447145,2136.935360705787,0.0,0,19,0.0,16431,347180925273188,396,23.402999877929688,20.326300426769873,0.14999,16,0.0,0.0,1575420030,,,,0,7.701793081033328,1,6.0,23.402999877929688,0.0,0.0,0.0,66.7128,C,27647056000000,
Raw,1732148763000,16386000000,,702020.0371418283,-1416183964614000128,0.0,103.52323880447145,2136.935360705787,0.0,0,13,0.0,16431,347180930762300,396,25.516000747680664,621.8104996649027,0.14999,16,0.0,0.0,1575420030,,,,0,10.762485914201859,1,6.0,25.516000747680664,0.0,0.0,0.0,66.7128,C,27647056000000,
Raw,1732148763000,16386000000,,702020.0371418283,-1416183964614000128,0.0,103.52323880447145,2136.935360705787,0.0,0,21,0.0,16431,347180919024478,316,24.816999435424805,879.4872735013674,0.14999,16,0.0,0.0,1575420030,,,,0,9.78215510115724,1,6.0,24.816999435424805,0.0,0.0,0.0,66.7128,C,27647056000000,
Raw,1732148763000,16386000000,,702020.0371418283,-1416183964614000128,0.0,103.52323880447145,2136.935360705787,0.0,0,21,0.0,16431,347180920275016,487,18.959999084472656,550.1671618602965,0.14999,16,0.0,0.0,1575420030,,,,0,4.308017732102313,6,6.0,18.959999084472656,0.0,0.0,38.61407345876882,66.7128,C,27647056000000,
Raw,1732148763000,16386000000,,702020.0371418283,-1416183964614000128,0.0,103.52323880447145,2136.935360705787,0.0,0,16,0.0,17,978528,797,5.0,1140.3561982236467,0.14999,16,0.0,0.0,1601437440,,,,0,0.0,3,6.0,15.0,0.0,0.0,46.785720746119225,66.7128,C,27647056000000,
Raw,1732148763000,16386000000,,702020.0371418283,-1416183964614000128,0.0,103.52323880447145,2136.935360705787,0.0,0,9,0.0,17,848982,396,5.0,862.3055586339374,0.14999,16,0.0,0.0,1600875010,,,,0,8.304666629349459,3,6.0,23.0,0.0,0.0,46.785720746119225,66.7128,C,27647056000000,
Raw,1732148763000,16386000000,,702020.0371418283,-1416183964614000128,0.0,103.52323880447145,2136.935360705787,0.0,0,8,0.0,17,810311,487,5.0,834.149831682162,0.14999,16,0.0,0.0,1605374980,,,,0,3.3686502906402596,3,6.0,19.0,0.0,0.0,46.785720746119225,66.7128,C,27647056000000,
Raw,1732148763000,16386000000,,702020.0371418283,-1416183964614000128,0.0,103.52323880447145,2136.935360705787,0.0,0,18,0.0,17,477568,487,5.0,1227.3782804110556,0.14999,16,0.0,0.0,1600312450,,,,0,1.34636819801137,3,6.0,18.0,0.0,0.0,46.785720746119225,66.7128,C,27647056000000,
Status,1732148763000,29,0,1,14,1575420030,30.40,15.0,68.0,1,0,0,25.4
Status,1732148763000,29,1,1,22,1575420030,29.30,310.0,68.0,1,0,0,24.3
Status,1732148763000,29,2,1,17,1575420030,34.50,167.0,64.0,1,0,0,29.5
Status,1732148763000,29,3,1,30,1575420030,33.60,109.0,58.0,1,0,0,28.599998
Status,1732148763000,29,4,1,13,1575420030,31.50,275.0,56.0,1,0,0,26.5
Status,1732148763000,29,5,2,133,1575420030,31.00,191.0,45.0,0,0,0,26.0
Status,1732148763000,29,6,1,19,1575420030,30.20,194.0,35.0,1,0,0,25.2
Status,1732148763000,29,7,1,15,1575420030,29.20,301.0,27.0,1,0,0,24.2
Status,1732148763000,29,8,1,7,1575420030,36.10,118.0,24.0,1,0,0,31.099998
Status,1732148763000,29,9,1,2,1575420030,30.80,70.0,21.0,1,0,0,25.8
Status,1732148763000,29,10,1,21,1575420030,0.00,52.0,13.0,0,0,0,0.0
Status,1732148763000,29,11,3,9,1602000000,26.50,48.0,46.0,1,0,0,21.5
Status,1732148763000,29,12,3,8,1602000000,23.10,275.0,38.0,1,0,0,18.1
Status,1732148763000,29,13,3,19,1602000000,0.00,61.0,35.0,0,0,0,0.0
Status,1732148763000,29,14,3,20,1602000000,0.00,139.0,29.0,0,0,0,0.0
Status,1732148763000,29,15,3,11,1602000000,0.00,288.0,12.0,0,0,0,0.0
Status,1732148763000,29,16,3,18,1602000000,21.80,24.0,10.0,1,0,0,16.8
Status,1732148763000,29,17,3,16,1602000000,0.00,84.0,3.0,0,0,0,0.0
Status,1732148763000,29,18,3,17,1602000000,29.00,0.0,0.0,0,0,0,24.0
Status,1732148763000,29,19,6,21,1575420030,30.10,296.0,64.0,1,0,0,25.1
Status,1732148763000,29,20,6,19,1575420030,0.00,274.0,54.0,0,0,0,0.0
Status,1732148763000,29,21,6,27,1575420030,24.40,48.0,47.0,1,0,0,19.4
Status,1732148763000,29,22,6,29,1575420030,0.00,196.0,45.0,0,0,0,0.0
Status,1732148763000,29,23,6,15,1575420030,0.00,82.0,19.0,0,0,0,0.0
Status,1732148763000,29,24,6,13,1575420030,0.00,133.0,12.0,0,0,0,0.0
Status,1732148763000,29,25,6,4,1575420030,0.00,323.0,11.0,0,0,0,0.0
Status,1732148763000,29,26,6,34,1575420030,0.00,35.0,5.0,0,0,0,0.0
Status,1732148763000,29,27,6,7,1575420030,0.00,162.0,3.0,0,0,0,0.0
Status,1732148763000,29,28,6,30,1575420030,0.00,67.0,1.0,0,0,0,0.0
Fix,GPS,37.4244433333,-122.1707733333,3.1999999999999993,0.0,2.7,26.44,1732148764000,2.6,160.1,27648056000000,36.4,0,,,
Fix,FLP,37.4244370000,-122.1707778000,2.0,0.043139923,2.7,,1732148764208,2.6,,27648056000000,0.9520039,0,,,
Raw,1732148764000,17386000000,,701592.7102642455,-1416183964614000128,0.0,94.83865459969141,2138.01219512592,0.0,0,7,0.0,16431,347181922947476,235,31.06999969482422,1130.7379192075905,0.14999,16,0.0,0.0,1575420030,,,,0,17.835197316354265,1,6.0,31.06999969482422,0.0,0.0,0.0,66.7128,C,27648056000000,
Raw,1732148764000,17386000000,,701592.7102642455,-1416183964614000128,0.0,94.83865459969141,2138.01219512592,0.0,0,22,0.0,16431,347181930797952,396,24.268999099731445,621.5736546590614,0.14999,16,0.0,0.0,1575420030,,,,0,8.97908284030371,1,6.0,24.268999099731445,0.0,0.0,0.0,66.7128,C,27648056000000,
Raw,1732148764000,17386000000,,701592.7102642455,-1416183964614000128,0.0,94.83865459969141,2138.01219512592,0.0,0,2,0.0,16431,347181920533956,316,25.809999465942383,647.1657378127985,0.14999,16,0.0,0.0,1575420030,,,,0,11.156471348546438,1,6.0,25.809999465942383,0.0,0.0,0.0,66.7128,C,27648056000000,
Raw,1732148764000,17386000000,,701592.7102642455,-1416183964614000128,0.0,94.83865459969141,2138.01219512592,0.0,0,15,0.0,16431,347181924580663,487,24.20599937438965,413.04356682874146,0.14999,16,0.0,0.0,1575420030,,,,0,8.929449050170826,1,6.0,24.20599937438965,0.0,0.0,0.0,66.7128,C,27648056000000,
Raw,1732148764000,17386000000,,701592.7102642455,-1416183964614000128,0.0,94.83865459969141,2138.01219512592,0.0,0,27,0.0,16431,347181917474136,396,19.399999618530273,930.9053114760455,0.14999,16,0.0,0.0,1575420030,,,,0,3.226512008370918,6,6.0,19.399999618530273,0.0,0.0,36.88193857879623,66.7128,C,27648056000000,
Raw,1732148764000,17386000000,,701592.7102642455,-1416183964614000128,0.0,94.83865459969141,2138.01219512592,0.0,0,30,0.0,16431,347181930081702,235,28.56100082397461,908.105193302897,0.14999,16,0.0,0.0,1575420030,,,,0,14.761354584617878,1,6.0,28.56100082397461,0.0,0.0,0.0,66.7128,C,27648056000000,
Raw,1732148764000,17386000000,,701592.7102642455,-1416183964614000128,0.0,94.83865459969141,2138.01219512592,0.0,0,14,0.0,16431,347181931906758,316,25.382999420166016,760.0807813253662,0.14999,16,0.0,0.0,1575420030,,,,0,10.558582427700593,1,6.0,25.382999420166016,0.0,0.0,0.0,66.7128,C,27648056000000,
Raw,1732148764000,17386000000,,701592.7102642455,-1416183964614000128,0.0,94.83865459969141,2138.01219512592,0.0,0,17,0.0,16431,347181931643807,316,29.476999282836914,387.05071014756413,0.14999,16,0.0,0.0,1575420030,,,,0,15.903689664438517,1,6.0,29.476999282836914,0.0,0.0,0.0,66.7128,C,27648056000000,
Raw,1732148764000,17386000000,,701592.7102642455,-1416183964614000128,0.0,94.83865459969141,2138.01219512592,0.0,0,19,0.0,16431,347181925273131,316,25.18899917602539,21.044315249303743,0.14999,16,0.0,0.0,1575420030,,,,0,10.307406671134064,1,6.0,25.18899917602539,0.0,0.0,0.0,66.7128,C,27648056000000,
Raw,1732148764000,17386000000,,701592.7102642455,-1416183964614000128,0.0,94.83865459969141,2138.01219512592,0.0,0,13,0.0,16431,347181930760219,396,26.479999542236328,623.065713154079,0.14999,16,0.0,0.0,1575420030,,,,0,12.069695028332141,1,6.0,26.479999542236328,0.0,0.0,0.0,66.7128,C,27648056000000,
Raw,1732148764000,17386000000,,701592.7102642455,-1416183964614000128,0.0,94.83865459969141,2138.01219512592,0.0,0,21,0.0,16431,347181920273193,316,25.100000381469727,550.515274772962,0.14999,16,0.0,0.0,1575420030,,,,0,11.156471348546438,6,6.0,25.100000381469727,0.0,0.0,36.88193857879623,66.7128,C,27648056000000,
Raw,1732148764000,17386000000,,701592.7102642455,-1416183964614000128,0.0,94.83865459969141,2138.01219512592,0.0,0,9,0.0,17,846102,487,5.0,863.1130599017371,0.14999,16,0.0,0.0,1600875010,,,,0,6.459157637650563,3,6.0,20.0,0.0,0.0,48.72556503132289,66.7128,C,27648056000000,
Raw,1732148764000,17386000000,,701592.7102642455,-1416183964614000128,0.0,94.83865459969141,2138.01219512592,0.0,0,8,0.0,17,807525,487,5.0,834.0175250339156,0.14999,16,0.0,0.0,1605374980,,,,0,1.1085067050061115,3,6.0,19.0,0.0,0.0,48.72556503132289,66.7128,C,27648056000000,
Raw,1732148764000,17386000000,,701592.7102642455,-1416183964614000128,0.0,94.83865459969141,2138.01219512592,0.0,0,18,0.0,17,473465,487,5.0,1227.7223048430935,0.14999,16,0.0,0.0,1600312450,,,,0,0.0,3,6.0,19.0,0.0,0.0,48.72556503132289,66.7128,C,27648056000000,
Status,1732148764000,29,0,1,14,1575420030,32.10,15.0,68.0,1,0,0,27.099998
Status,1732148764000,29,1,1,22,1575420030,42.10,310.0,68.0,1,0,0,37.1
Status,1732148764000,29,2,1,17,1575420030,35.50,167.0,64.0,1,0,0,30.5
Status,1732148764000,29,3,1,30,1575420030,34.10,109.0,58.0,1,0,0,29.099998
Status,1732148764000,29,4,1,13,1575420030,29.70,275.0,56.0,1,0,0,24.7
Status,1732148764000,29,5,2,135,1575420030,0.00,197.0,45.0,0,0,0,0.0
Status,1732148764000,29,6,1,19,1575420030,30.70,194.0,35.0,1,0,0,25.7
Status,1732148764000,29,7,1,15,1575420030,29.50,301.0,27.0,1,0,0,24.5
Status,1732148764000,29,8,1,7,1575420030,37.60,118.0,24.0,1,0,0,32.6
Status,1732148764000,29,9,1,2,1575420030,29.00,70.0,21.0,1,0,0,24.0
Status,1732148764000,29,10,1,21,1575420030,0.00,52.0,13.0,0,0,0,0.0
Status,1732148764000,29,11,3,9,1602000000,26.50,48.0,46.0,1,0,0,21.5
Status,1732148764000,29,12,3,8,1602000000,27.80,275.0,38.0,1,0,0,22.8
Status,1732148764000,29,13,3,19,1602000000,0.00,61.0,35.0,0,0,0,0.0
Status,1732148764000,29,14,3,20,1602000000,0.00,139.0,29.0,0,0,0,0.0
Status,1732148764000,29,15,3,11,1602000000,0.00,288.0,12.0,0,0,0,0.0
Status,1732148764000,29,16,3,18,1602000000,25.00,24.0,10.0,1,0,0,20.0
Status,1732148764000,29,17,3,16,1602000000,0.00,84.0,3.0,0,0,0,0.0
Status,1732148764000,29,18,3,17,1602000000,28.50,0.0,0.0,0,0,0,23.5
Status,1732148764000,29,19,6,21,1575420030,29.20,296.0,64.0,1,0,0,24.2
Status,1732148764000,29,20,6,19,1575420030,0.00,274.0,54.0,0,0,0,0.0
Status,1732148764000,29,21,6,27,1575420030,25.90,48.0,47.0,1,0,0,20.9
Status,1732148764000,29,22,6,29,1575420030,0.00,196.0,45.0,0,0,0,0.0
Status,1732148764000,29,23,6,15,1575420030,0.00,82.0,19.0,0,0,0,0.0
Status,1732148764000,29,24,6,13,1575420030,0.00,133.0,12.0,0,0,0,0.0
Status,1732148764000,29,25,6,4,1575420030,0.00,323.0,11.0,0,0,0,0.0
Status,1732148764000,29,26,6,34,1575420030,0.00,35.0,5.0,0,0,0,0.0
Status,1732148764000,29,27,6,7,1575420030,0.00,162.0,3.0,0,0,0,0.0
Status,1732148764000,29,28,6,30,1575420030,0.00,67.0,1.0,0,0,0,0.0
Fix,GPS,37.4244450000,-122.1707683333,3.400000000000002,0.6650211,2.6,18.33,1732148765000,2.6,148.2,27649056000000,36.0,0,,,
Fix,FLP,37.4244412000,-122.1707732000,2.0,0.06478416,2.7,,1732148765208,2.6,,27649056000000,0.95658714,0,,,
Raw,1732148765000,18386000000,,700986.0926854938,-1416183964614000128,0.0,94.07771277996666,2139.5013876229264,0.0,0,7,0.0,16431,347182922943705,74,32.551998138427734,1130.912324102045,0.14999,16,0.0,0.0,1575420030,,,,0,19.57657760336106,1,6.0,32.551998138427734,0.0,0.0,0.0,66.7128,C,27649056000000,
Raw,1732148765000,18386000000,,700986.0926854938,-1416183964614000128,0.0,94.07771277996666,2139.5013876229264,0.0,0,22,0.0,16431,347182930795878,51,37.055999755859375,621.8976091952975,0.14999,16,0.0,0.0,1575420030,,,,0,24.62829030904181,1,6.0,37.055999755859375,0.0,0.0,0.0,66.7128,C,27649056000000,
Raw,1732148765000,18386000000,,700986.0926854938,-1416183964614000128,0.0,94.07771277996666,2139.5013876229264,0.0,0,2,0.0,16431,347182920531793,396,24.010000228881836,647.7505563560568,0.14999,16,0.0,0.0,1575420030,,,,0,8.625538528414001,1,6.0,24.010000228881836,0.0,0.0,0.0,66.7128,C,27649056000000,
Raw,1732148765000,18386000000,,700986.0926854938,-1416183964614000128,0.0,94.07771277996666,2139.5013876229264,0.0,0,15,0.0,16431,347182924579289,316,24.45400047302246,413.87010851154315,0.14999,16,0.0,0.0,1575420030,,,,0,9.271073011709477,1,6.0,24.45400047302246,0.0,0.0,0.0,66.7128,C,27649056000000,
Raw,1732148765000,18386000000,,700986.0926854938,-1416183964614000128,0.0,94.07771277996666,2139.5013876229264,0.0,0,27,0.0,16431,347182917471030,396,20.899999618530273,931.3386755824574,0.14999,16,0.0,0.0,1575420030,,,,0,5.640898529949982,6,6.0,20.899999618530273,0.0,0.0,30.162700523954253,66.7128,C,27649056000000,
Raw,1732148765000,18386000000,,700986.0926854938,-1416183964614000128,0.0,94.07771277996666,2139.5013876229264,0.0,0,30,0.0,16431,347182930078669,235,29.101999282836914,907.6874392243318,0.14999,16,0.0,0.0,1575420030,,,,0,15.445829278883743,1,6.0,29.101999282836914,0.0,0.0,0.0,66.7128,C,27649056000000,
Raw,1732148765000,18386000000,,700986.0926854938,-1416183964614000128,0.0,94.07771277996666,2139.5013876229264,0.0,0,14,0.0,16431,347182931904221,235,27.079999923706055,760.5370029725536,0.14999,16,0.0,0.0,1575420030,,,,0,12.864387399989065,1,6.0,27.079999923706055,0.0,0.0,0.0,66.7128,C,27649056000000,
Raw,1732148765000,18386000000,,700986.0926854938,-1416183964614000128,0.0,94.07771277996666,2139.5013876229264,0.0,0,19,0.0,16431,347182925273064,316,25.679000854492188,21.455239940685956,0.14999,16,0.0,0.0,1575420030,,,,0,11.001015035448619,1,6.0,25.679000854492188,0.0,0.0,0.0,66.7128,C,27649056000000,
Raw,1732148765000,18386000000,,700986.0926854938,-1416183964614000128,0.0,94.07771277996666,2139.5013876229264,0.0,0,13,0.0,16431,347182930758139,316,24.72800064086914,623.3734537030576,0.14999,16,0.0,0.0,1575420030,,,,0,9.645724710348674,1,6.0,24.72800064086914,0.0,0.0,0.0,66.7128,C,27649056000000,
Raw,1732148765000,18386000000,,700986.0926854938,-1416183964614000128,0.0,94.07771277996666,2139.5013876229264,0.0,0,21,0.0,16431,347182920271385,316,24.200000762939453,550.5936965795254,0.14999,16,0.0,0.0,1575420030,,,,0,10.048750646249527,6,6.0,24.200000762939453,0.0,0.0,30.162700523954253,66.7128,C,27649056000000,
Raw,1732148765000,18386000000,,700986.0926854938,-1416183964614000128,0.0,94.07771277996666,2139.5013876229264,0.0,0,9,0.0,17,843221,396,5.0,863.4799147410998,0.14999,16,0.0,0.0,1600875010,,,,0,6.459157637650563,3,6.0,21.0,0.0,0.0,52.961461109664626,66.7128,C,27649056000000,
Raw,1732148765000,18386000000,,700986.0926854938,-1416183964614000128,0.0,94.07771277996666,2139.5013876229264,0.0,0,8,0.0,17,804740,396,5.0,834.42794007441,0.14999,16,0.0,0.0,1605374980,,,,0,8.277136052773391,3,6.0,21.0,0.0,0.0,52.961461109664626,66.7128,C,27649056000000,
Raw,1732148765000,18386000000,,700986.0926854938,-1416183964614000128,0.0,94.07771277996666,2139.5013876229264,0.0,0,18,0.0,17,469351,396,5.0,1226.417920796069,0.14999,16,0.0,0.0,1600312450,,,,0,4.177377185062286,3,6.0,21.0,0.0,0.0,52.961461109664626,66.7128,C,27649056000000,
Raw,1732148765000,18386000000,,700986.0926854938,-1416183964614000128,0.0,94.07771277996666,2139.5013876229264,0.0,0,17,0.0,16431,347182931642498,74,30.468000411987305,388.0160463487948,0.14999,16,0.0,0.0,1575420030,,,,0,17.109401217305468,1,6.0,30.468000411987305,0.0,0.0,0.0,66.7128,C,27649056000000,
Status,1732148765000,29,0,1,14,1575420030,29.70,15.0,68.0,1,0,0,24.7
Status,1732148765000,29,1,1,22,1575420030,39.50,310.0,68.0,1,0,0,34.5
Status,1732148765000,29,2,1,17,1575420030,32.50,167.0,64.0,1,0,0,27.5
Status,1732148765000,29,3,1,30,1575420030,35.60,109.0,58.0,1,0,0,30.599998
Status,1732148765000,29,4,1,13,1575420030,30.60,275.0,56.0,1,0,0,25.6
Status,1732148765000,29,5,2,135,1575420030,0.00,197.0,45.0,0,0,0,0.0
Status,1732148765000,29,6,1,19,1575420030,31.30,194.0,35.0,1,0,0,26.3
Status,1732148765000,29,7,1,15,1575420030,29.50,301.0,27.0,1,0,0,24.5
Status,1732148765000,29,8,1,7,1575420030,34.30,118.0,24.0,1,0,0,29.3
Status,1732148765000,29,9,1,2,1575420030,30.10,70.0,21.0,1,0,0,25.1
Status,1732148765000,29,10,1,21,1575420030,17.60,52.0,13.0,1,0,0,12.6
Status,1732148765000,29,11,3,9,1602000000,28.10,48.0,46.0,1,0,0,23.1
Status,1732148765000,29,12,3,8,1602000000,25.30,275.0,38.0,1,0,0,20.3
Status,1732148765000,29,13,3,19,1602000000,0.00,61.0,35.0,0,0,0,0.0
Status,1732148765000,29,14,3,20,1602000000,0.00,139.0,29.0,0,0,0,0.0
Status,1732148765000,29,15,3,11,1602000000,0.00,288.0,12.0,0,0,0,0.0
Status,1732148765000,29,16,3,18,1602000000,25.00,24.0,10.0,1,0,0,20.0
Status,1732148765000,29,17,3,16,1602000000,0.00,84.0,3.0,0,0,0,0.0
Status,1732148765000,29,18,3,17,1602000000,30.20,0.0,0.0,0,0,0,25.2
Status,1732148765000,29,19,6,21,1575420030,28.80,296.0,64.0,1,0,0,23.8
Status,1732148765000,29,20,6,19,1575420030,0.00,274.0,54.0,0,0,0,0.0
Status,1732148765000,29,21,6,27,1575420030,23.60,48.0,47.0,1,0,0,18.6
