# 
# Header Description:
# 
# Version: v3.1.0.3 Platform: 13 Manufacturer: samsung Model: SM-S135DL GNSS Hardware Model Name: MediaTek,MT6631,MTK_MNLD_default,MNL_VER_default
# 
# Raw,utcTimeMillis,TimeNanos,LeapSecond,TimeUncertaintyNanos,FullBiasNanos,BiasNanos,BiasUncertaintyNanos,DriftNanosPerSecond,DriftUncertaintyNanosPerSecond,HardwareClockDiscontinuityCount,Svid,TimeOffsetNanos,State,ReceivedSvTimeNanos,ReceivedSvTimeUncertaintyNanos,Cn0DbHz,PseudorangeRateMetersPerSecond,PseudorangeRateUncertaintyMetersPerSecond,AccumulatedDeltaRangeState,AccumulatedDeltaRangeMeters,AccumulatedDeltaRangeUncertaintyMeters,CarrierFrequencyHz,CarrierCycles,CarrierPhase,CarrierPhaseUncertainty,MultipathIndicator,SnrInDb,ConstellationType,AgcDb,BasebandCn0DbHz,FullInterSignalBiasNanos,FullInterSignalBiasUncertaintyNanos,SatelliteInterSignalBiasNanos,SatelliteInterSignalBiasUncertaintyNanos,CodeType,ChipsetElapsedRealtimeNanos,IsFullTracking
# 
# UncalAccel,utcTimeMillis,elapsedRealtimeNanos,UncalAccelXMps2,UncalAccelYMps2,UncalAccelZMps2,BiasXMps2,BiasYMps2,BiasZMps2
# 
# Accel,utcTimeMillis,elapsedRealtimeNanos,AccelXMps2,AccelYMps2,AccelZMps2
# 
# UncalGyro,utcTimeMillis,elapsedRealtimeNanos,UncalGyroXRadPerSec,UncalGyroYRadPerSec,UncalGyroZRadPerSec,DriftXRadPerSec,DriftYRadPerSec,DriftZRadPerSec
# 
# Gyro,utcTimeMillis,elapsedRealtimeNanos,GyroXRadPerSec,GyroYRadPerSec,GyroZRadPerSec
# 
# UncalMag,utcTimeMillis,elapsedRealtimeNanos,UncalMagXMicroT,UncalMagYMicroT,UncalMagZMicroT,BiasXMicroT,BiasYMicroT,BiasZMicroT
# 
# Mag,utcTimeMillis,elapsedRealtimeNanos,MagXMicroT,MagYMicroT,MagZMicroT
# 
# Pressure,utcTimeMillis,elapsedRealtimeNanos,PressureHpa
# 
# OrientationDeg,utcTimeMillis,elapsedRealtimeNanos,yawDeg,rollDeg,pitchDeg
# 
# Fix,Provider,LatitudeDegrees,LongitudeDegrees,AltitudeMeters,SpeedMps,AccuracyMeters,BearingDegrees,UnixTimeMillis,SpeedAccuracyMps,BearingAccuracyDegrees,elapsedRealtimeNanos,VerticalAccuracyMeters,MockLocation,NumberOfUsedSignals,VerticalSpeedAccuracyMps,SolutionType
# 
# Nav,Svid,Type,Status,MessageId,Sub-messageId,Data(Bytes)
# 
# Status,UnixTimeMillis,SignalCount,SignalIndex,ConstellationType,Svid,CarrierFrequencyHz,Cn0DbHz,AzimuthDegrees,ElevationDegrees,UsedInFix,HasAlmanacData,HasEphemerisData,BasebandCn0DbHz
# 
# Agc,utcTimeMillis,TimeNanos,LeapSecond,TimeUncertaintyNanos,FullBiasNanos,BiasNanos,BiasUncertaintyNanos,DriftNanosPerSecond,DriftUncertaintyNanosPerSecond,HardwareClockDiscontinuityCount,AgcDb,CarrierFrequencyHz,ConstellationType
# 
Fix,FLP,37.4244090000,-122.1708188000,2.0,0.11840696,2.6,346.2006,1732148657212,2.8,104.5,27541059000000,0.94334215,0,,,
Status,,29,0,1,14,1575420030,28.50,13.0,68.0,1,0,0,23.5
Status,,29,1,1,22,1575420030,30.50,308.0,68.0,1,0,0,25.5
Status,,29,2,1,17,1575420030,26.30,168.0,64.0,1,0,0,21.3
Status,,29,3,1,30,1575420030,30.00,108.0,58.0,1,0,0,25.0
Status,,29,4,1,13,1575420030,29.70,277.0,56.0,1,0,0,24.7
Status,,29,5,1,19,1575420030,0.00,194.0,34.0,0,0,0,0.0
Status,,29,6,1,15,1575420030,0.00,302.0,27.0,0,0,0,0.0
Status,,29,7,1,7,1575420030,35.90,117.0,24.0,1,0,0,30.900002
Status,,29,8,2,131,1575420030,29.00,3.0,23.0,0,0,0,24.0
Status,,29,9,1,2,1575420030,33.00,71.0,21.0,1,0,0,28.0
Status,,29,10,1,21,1575420030,0.00,52.0,13.0,0,0,0,0.0
Status,,29,11,3,9,1602000000,28.70,46.0,47.0,1,0,0,23.7
Status,,29,12,3,8,1602000000,25.40,277.0,39.0,1,0,0,20.4
Status,,29,13,3,19,1602000000,20.40,62.0,36.0,1,0,0,15.4
Status,,29,14,3,20,1602000000,0.00,140.0,28.0,0,0,0,0.0
Status,,29,15,3,11,1602000000,0.00,287.0,12.0,0,0,0,0.0
Status,,29,16,3,18,1602000000,20.90,25.0,11.0,1,0,0,15.9
Status,,29,17,3,16,1602000000,27.10,83.0,4.0,0,0,0,22.1
Status,,29,18,3,17,1602000000,36.90,0.0,0.0,0,0,0,31.900002
Status,,29,19,6,21,1575420030,22.10,295.0,64.0,1,0,0,17.1
Status,,29,20,6,19,1575420030,20.50,275.0,54.0,1,0,0,15.5
Status,,29,21,6,27,1575420030,23.50,47.0,48.0,1,0,0,18.5
Status,,29,22,6,29,1575420030,0.00,196.0,46.0,0,0,0,0.0
Status,,29,23,6,15,1575420030,0.00,83.0,18.0,0,0,0,0.0
Status,,29,24,6,13,1575420030,0.00,134.0,12.0,0,0,0,0.0
Status,,29,25,6,4,1575420030,0.00,323.0,11.0,0,0,0,0.0
Status,,29,26,6,34,1575420030,0.00,35.0,5.0,0,0,0,0.0
Status,,29,27,6,7,1575420030,0.00,162.0,4.0,0,0,0,0.0
Status,,29,28,6,30,1575420030,0.00,67.0,1.0,0,0,0,0.0
Fix,GPS,37.4244150000,-122.1708133333,2.400000000000002,0.0,2.7,353.51,1732148658000,2.7,75.7,27542059000000,33.9,0,,,
Fix,FLP,37.4244124000,-122.1708162000,2.0,0.12061069,2.65,352.44348,1732148658211,2.7,75.7,27542059000000,0.95233977,0,,,
Raw,1732148657999,18710000000,,692842.49013696,-1416183857289999872,0.0,84.91918696020409,2119.0117821961007,0.0,0,30,0.0,16431,347075930211784,316,25.01799964904785,893.9602780697717,0.14999,16,0.0,0.0,1575420030,,,,0,10.054506321788523,1,6.0,25.01799964904785,0.0,0.0,0.0,66.7128,C,27542059000000,
Raw,1732148657999,18710000000,,692842.49013696,-1416183857289999872,0.0,84.91918696020409,2119.0117821961007,0.0,0,22,0.0,16431,347075930827282,396,25.479999542236328,610.4617306698249,0.14999,16,0.0,0.0,1575420030,,,,0,10.710356589714673,1,6.0,25.479999542236328,0.0,0.0,0.0,66.7128,C,27542059000000,
Raw,1732148657999,18710000000,,692842.49013696,-1416183857289999872,0.0,84.91918696020409,2119.0117821961007,0.0,0,17,0.0,16431,347075931589355,487,21.288000106811523,370.55188634029946,0.14999,16,0.0,0.0,1575420030,,,,0,4.368020278565953,1,6.0,21.288000106811523,0.0,0.0,0.0,66.7128,C,27542059000000,
Raw,1732148657999,18710000000,,692842.49013696,-1416183857289999872,0.0,84.91918696020409,2119.0117821961007,0.0,0,14,0.0,16431,347075931985085,487,23.451000213623047,748.4524255815332,0.14999,16,0.0,0.0,1575420030,,,,0,7.779896021455223,1,6.0,23.451000213623047,0.0,0.0,0.0,66.7128,C,27542059000000,
Raw,1732148657999,18710000000,,692842.49013696,-1416183857289999872,0.0,84.91918696020409,2119.0117821961007,0.0,0,27,0.0,16431,347075917613758,396,18.5,924.0593850969256,0.14999,16,0.0,0.0,1575420030,,,,0,1.7037950270801567,6,6.0,18.5,0.0,0.0,19.882188544049935,66.7128,C,27542059000000,
Raw,1732148657999,18710000000,,692842.49013696,-1416183857289999872,0.0,84.91918696020409,2119.0117821961007,0.0,0,7,0.0,16431,347075923156617,74,30.902000427246094,1118.217283122018,0.14999,16,0.0,0.0,1575420030,,,,0,17.630299413324764,1,6.0,30.902000427246094,0.0,0.0,0.0,66.7128,C,27542059000000,
Raw,1732148657999,18710000000,,692842.49013696,-1416183857289999872,0.0,84.91918696020409,2119.0117821961007,0.0,0,2,0.0,16431,347075920571138,235,28.03499984741211,629.5496820125028,0.14999,16,0.0,0.0,1575420030,,,,0,14.099570192848036,1,6.0,28.03499984741211,0.0,0.0,0.0,66.7128,C,27542059000000,
Raw,1732148657999,18710000000,,692842.49013696,-1416183857289999872,0.0,84.91918696020409,2119.0117821961007,0.0,0,13,0.0,16431,347075930788613,396,24.73699951171875,604.2451764551089,0.14999,16,0.0,0.0,1575420030,,,,0,9.662595200520908,1,6.0,24.73699951171875,0.0,0.0,0.0,66.7128,C,27542059000000,
Raw,1732148657999,18710000000,,692842.49013696,-1416183857289999872,0.0,84.91918696020409,2119.0117821961007,0.0,0,19,0.0,16431,347075920392778,797,15.5,636.4651566406901,0.14999,16,0.0,0.0,1575420030,,,,0,0.0,6,6.0,15.5,0.0,0.0,19.882188544049935,66.7128,C,27542059000000,
Raw,1732148657999,18710000000,,692842.49013696,-1416183857289999872,0.0,84.91918696020409,2119.0117821961007,0.0,0,21,0.0,16431,347075920277827,487,17.100000381469727,542.4434501652944,0.14999,16,0.0,0.0,1575420030,,,,0,0.0,6,6.0,17.100000381469727,0.0,0.0,19.882188544049935,66.7128,C,27542059000000,
Raw,1732148657999,18710000000,,692842.49013696,-1416183857289999872,0.0,84.91918696020409,2119.0117821961007,0.0,0,16,0.0,17,186557,487,5.0,1129.4889702489318,0.14999,16,0.0,0.0,1601437440,,,,0,7.3422679819268675,3,6.0,18.0,0.0,0.0,71.42649772051315,66.7128,C,27542059000000,
Raw,1732148657999,18710000000,,692842.49013696,-1416183857289999872,0.0,84.91918696020409,2119.0117821961007,0.0,0,9,0.0,17,960794,396,5.0,852.5521759219164,0.14999,16,0.0,0.0,1600875010,,,,0,9.44743362048787,3,6.0,22.0,0.0,0.0,71.42649772051315,66.7128,C,27542059000000,
Raw,1732148657999,18710000000,,692842.49013696,-1416183857289999872,0.0,84.91918696020409,2119.0117821961007,0.0,0,8,0.0,17,909475,396,5.0,810.7883620010152,0.14999,16,0.0,0.0,1605374980,,,,0,6.938200260161128,3,6.0,21.0,0.0,0.0,71.42649772051315,66.7128,C,27542059000000,
Raw,1732148657999,18710000000,,692842.49013696,-1416183857289999872,0.0,84.91918696020409,2119.0117821961007,0.0,0,18,0.0,17,715775,487,5.0,1207.4889848968294,0.14999,16,0.0,0.0,1600312450,,,,0,0.0,3,6.0,20.0,0.0,0.0,71.42649772051315,66.7128,C,27542059000000,
Raw,1732148657999,18710000000,,692842.49013696,-1416183857289999872,0.0,84.91918696020409,2119.0117821961007,0.0,0,19,0.0,17,834128,487,19.0,701.299008062845,0.14999,16,0.0,0.0,1603687550,,,,0,0.0,3,6.0,19.0,0.0,0.0,71.42649772051315,66.7128,C,27542059000000,
Status,1732148658000,29,0,1,14,1575420030,27.50,13.0,68.0,1,0,0,22.5
Status,1732148658000,29,1,1,22,1575420030,28.60,308.0,68.0,1,0,0,23.6
Status,1732148658000,29,2,1,17,1575420030,27.50,168.0,64.0,1,0,0,22.5
Status,1732148658000,29,3,1,30,1575420030,31.40,108.0,58.0,1,0,0,26.4
Status,1732148658000,29,4,1,13,1575420030,0.00,277.0,56.0,0,0,0,0.0
Status,1732148658000,29,5,1,19,1575420030,0.00,194.0,34.0,0,0,0,0.0
Status,1732148658000,29,6,1,15,1575420030,0.00,302.0,27.0,0,0,0,0.0
Status,1732148658000,29,7,1,7,1575420030,45.10,117.0,24.0,1,0,0,40.1
Status,1732148658000,29,8,2,131,1575420030,29.00,3.0,23.0,0,0,0,24.0
Status,1732148658000,29,9,1,2,1575420030,33.10,71.0,21.0,1,0,0,28.099998
Status,1732148658000,29,10,1,21,1575420030,0.00,52.0,13.0,0,0,0,0.0
Status,1732148658000,29,11,3,9,1602000000,29.60,46.0,47.0,1,0,0,24.6
Status,1732148658000,29,12,3,8,1602000000,25.40,277.0,39.0,1,0,0,20.4
Status,1732148658000,29,13,3,19,1602000000,25.10,62.0,36.0,1,0,0,20.1
Status,1732148658000,29,14,3,20,1602000000,0.00,140.0,28.0,0,0,0,0.0
Status,1732148658000,29,15,3,11,1602000000,0.00,287.0,12.0,0,0,0,0.0
Status,1732148658000,29,16,3,18,1602000000,24.60,25.0,11.0,1,0,0,19.6
Status,1732148658000,29,17,3,16,1602000000,27.10,83.0,4.0,0,0,0,22.1
Status,1732148658000,29,18,3,17,1602000000,24.50,0.0,0.0,0,0,0,19.5
Status,1732148658000,29,19,6,21,1575420030,20.40,295.0,64.0,1,0,0,15.4
Status,1732148658000,29,20,6,19,1575420030,20.50,275.0,54.0,1,0,0,15.5
Status,1732148658000,29,21,6,27,1575420030,27.30,47.0,48.0,1,0,0,22.3
Status,1732148658000,29,22,6,29,1575420030,0.00,196.0,46.0,0,0,0,0.0
Status,1732148658000,29,23,6,15,1575420030,0.00,83.0,18.0,0,0,0,0.0
Status,1732148658000,29,24,6,13,1575420030,0.00,134.0,12.0,0,0,0,0.0
Status,1732148658000,29,25,6,4,1575420030,0.00,323.0,11.0,0,0,0,0.0
Status,1732148658000,29,26,6,34,1575420030,0.00,35.0,5.0,0,0,0,0.0
Status,1732148658000,29,27,6,7,1575420030,0.00,162.0,4.0,0,0,0,0.0
Status,1732148658000,29,28,6,30,1575420030,0.00,67.0,1.0,0,0,0,0.0
Fix,GPS,37.4244000000,-122.1708033333,2.400000000000002,0.0,2.7,353.51,1732148659000,2.6,166.9,27543059000000,33.4,0,,,
Fix,FLP,37.4244069000,-122.1708101000,2.0,0.09810728,2.683,,1732148659211,2.6,,27543059000000,0.9633364,0,,,
Raw,1732148658999,19710000000,,692544.1587493172,-1416183857289999872,0.0,84.24456787995933,2120.931865380083,0.0,0,30,0.0,16431,347076930208800,316,26.354000091552734,894.6846576953263,0.14999,16,0.0,0.0,1575420030,,,,0,11.889913788901431,1,6.0,26.354000091552734,0.0,0.0,0.0,66.7128,C,27543059000000,
Raw,1732148658999,19710000000,,692544.1587493172,-1416183857289999872,0.0,84.24456787995933,2120.931865380083,0.0,0,22,0.0,16431,347076930825239,396,23.586000442504883,611.2343341314061,0.14999,16,0.0,0.0,1575420030,,,,0,7.998420493907542,1,6.0,23.586000442504883,0.0,0.0,0.0,66.7128,C,27543059000000,
Raw,1732148658999,19710000000,,692544.1587493172,-1416183857289999872,0.0,84.24456787995933,2120.931865380083,0.0,0,17,0.0,16431,347076931588112,396,22.468000411987305,370.92081262342737,0.14999,16,0.0,0.0,1575420030,,,,0,6.273381597387546,1,6.0,22.468000411987305,0.0,0.0,0.0,66.7128,C,27543059000000,
Raw,1732148658999,19710000000,,692544.1587493172,-1416183857289999872,0.0,84.24456787995933,2120.931865380083,0.0,0,14,0.0,16431,347076931982587,396,22.506000518798828,749.6857106982582,0.14999,16,0.0,0.0,1575420030,,,,0,6.338935792612265,1,6.0,22.506000518798828,0.0,0.0,0.0,66.7128,C,27543059000000,
Raw,1732148658999,19710000000,,692544.1587493172,-1416183857289999872,0.0,84.24456787995933,2120.931865380083,0.0,0,27,0.0,16431,347076917610671,316,22.299999237060547,924.7098958407055,0.14999,16,0.0,0.0,1575420030,,,,0,7.612317389999809,6,6.0,22.299999237060547,0.0,0.0,21.761131989326994,66.7128,C,27543059000000,
Raw,1732148658999,19710000000,,692544.1587493172,-1416183857289999872,0.0,84.24456787995933,2120.931865380083,0.0,0,7,0.0,16431,347076923152890,42,40.08700180053711,1119.3084984019713,0.14999,16,0.0,0.0,1575420030,,,,0,27.889845459679577,1,6.0,40.08700180053711,0.0,0.0,0.0,66.7128,C,27543059000000,
Raw,1732148658999,19710000000,,692544.1587493172,-1416183857289999872,0.0,84.24456787995933,2120.931865380083,0.0,0,2,0.0,16431,347076920569042,235,28.05500030517578,630.4674215663258,0.14999,16,0.0,0.0,1575420030,,,,0,14.12625497462933,1,6.0,28.05500030517578,0.0,0.0,0.0,66.7128,C,27543059000000,
Raw,1732148658999,19710000000,,692544.1587493172,-1416183857289999872,0.0,84.24456787995933,2120.931865380083,0.0,0,19,0.0,16431,347076920390654,797,15.5,637.214298602085,0.14999,16,0.0,0.0,1575420030,,,,0,0.0,6,6.0,15.5,0.0,0.0,21.761131989326994,66.7128,C,27543059000000,
Raw,1732148658999,19710000000,,692544.1587493172,-1416183857289999872,0.0,84.24456787995933,2120.931865380083,0.0,0,21,0.0,16431,347076920276017,797,15.399999618530273,542.6016410724914,0.14999,16,0.0,0.0,1575420030,,,,0,0.0,6,6.0,15.399999618530273,0.0,0.0,21.761131989326994,66.7128,C,27543059000000,
Raw,1732148658999,19710000000,,692544.1587493172,-1416183857289999872,0.0,84.24456787995933,2120.931865380083,0.0,0,16,0.0,17,182789,487,5.0,1130.0113628190438,0.14999,16,0.0,0.0,1601437440,,,,0,7.3422679819268675,3,6.0,19.0,0.0,0.0,74.02746738238322,66.7128,C,27543059000000,
Raw,1732148658999,19710000000,,692544.1587493172,-1416183857289999872,0.0,84.24456787995933,2120.931865380083,0.0,0,9,0.0,17,957942,316,5.0,853.5036942315896,0.14999,16,0.0,0.0,1600875010,,,,0,10.619023483553928,3,6.0,24.0,0.0,0.0,74.02746738238322,66.7128,C,27543059000000,
Raw,1732148658999,19710000000,,692544.1587493172,-1416183857289999872,0.0,84.24456787995933,2120.931865380083,0.0,0,8,0.0,17,906769,487,5.0,811.2709940404147,0.14999,16,0.0,0.0,1605374980,,,,0,6.643735123747001,3,6.0,20.0,0.0,0.0,74.02746738238322,66.7128,C,27543059000000,
Raw,1732148658999,19710000000,,692544.1587493172,-1416183857289999872,0.0,84.24456787995933,2120.931865380083,0.0,0,18,0.0,17,711734,487,5.0,1212.442900129561,0.14999,16,0.0,0.0,1600312450,,,,0,3.6256837526108026,3,6.0,19.0,0.0,0.0,74.02746738238322,66.7128,C,27543059000000,
Raw,1732148658999,19710000000,,692544.1587493172,-1416183857289999872,0.0,84.24456787995933,2120.931865380083,0.0,0,19,0.0,17,831854,487,20.0,702.50799878802,0.14999,16,0.0,0.0,1603687550,,,,0,4.439425527995129,3,6.0,20.0,0.0,0.0,74.02746738238322,66.7128,C,27543059000000,
Status,1732148659000,29,0,1,14,1575420030,26.90,13.0,68.0,1,0,0,21.9
Status,1732148659000,29,1,1,22,1575420030,28.40,308.0,68.0,1,0,0,23.4
Status,1732148659000,29,2,1,17,1575420030,27.40,168.0,64.0,1,0,0,22.4
Status,1732148659000,29,3,1,30,1575420030,33.00,108.0,58.0,1,0,0,28.0
Status,1732148659000,29,4,1,13,1575420030,0.00,277.0,56.0,0,0,0,0.0
Status,1732148659000,29,5,1,19,1575420030,0.00,194.0,34.0,0,0,0,0.0
Status,1732148659000,29,6,1,15,1575420030,30.80,302.0,27.0,1,0,0,25.8
Status,1732148659000,29,7,1,7,1575420030,34.60,117.0,24.0,1,0,0,29.599998
Status,1732148659000,29,8,2,131,1575420030,31.00,3.0,23.0,0,0,0,26.0
Status,1732148659000,29,9,1,2,1575420030,32.80,71.0,21.0,1,0,0,27.8
Status,1732148659000,29,10,1,21,1575420030,0.00,52.0,13.0,0,0,0,0.0
Status,1732148659000,29,11,3,9,1602000000,25.70,46.0,47.0,1,0,0,20.7
Status,1732148659000,29,12,3,8,1602000000,25.40,277.0,39.0,1,0,0,20.4
Status,1732148659000,29,13,3,19,1602000000,22.80,62.0,36.0,1,0,0,17.8
Status,1732148659000,29,14,3,20,1602000000,0.00,140.0,28.0,0,0,0,0.0
Status,1732148659000,29,15,3,11,1602000000,0.00,287.0,12.0,0,0,0,0.0
Status,1732148659000,29,16,3,18,1602000000,22.00,25.0,11.0,1,0,0,17.0
Status,1732148659000,29,17,3,16,1602000000,30.70,83.0,4.0,0,0,0,25.7
Status,1732148659000,29,18,3,17,1602000000,27.10,0.0,0.0,0,0,0,22.1
Status,1732148659000,29,19,6,21,1575420030,20.00,295.0,64.0,1,0,0,15.0
Status,1732148659000,29,20,6,19,1575420030,20.50,275.0,54.0,1,0,0,15.5
Status,1732148659000,29,21,6,27,1575420030,23.80,47.0,48.0,1,0,0,18.8
Status,1732148659000,29,22,6,29,1575420030,0.00,196.0,46.0,0,0,0,0.0
Status,1732148659000,29,23,6,15,1575420030,0.00,83.0,18.0,0,0,0,0.0
Status,1732148659000,29,24,6,13,1575420030,0.00,134.0,12.0,0,0,0,0.0
Status,1732148659000,29,25,6,4,1575420030,0.00,323.0,11.0,0,0,0,0.0
Status,1732148659000,29,26,6,34,1575420030,0.00,35.0,5.0,0,0,0,0.0
Status,1732148659000,29,27,6,7,1575420030,0.00,162.0,4.0,0,0,0,0.0
Status,1732148659000,29,28,6,30,1575420030,0.00,67.0,1.0,0,0,0,0.0
Fix,GPS,37.4244033333,-122.1708000000,2.400000000000002,0.0,2.7,353.51,1732148660000,2.4,74.9,27544059000000,31.8,0,,,
Fix,FLP,37.4244055000,-122.1708053000,2.0,0.08890377,2.7,,1732148660212,2.4,,27544059000000,0.9733544,0,,,
Raw,1732148659999,20710000000,,692337.6617266336,-1416183857289999872,0.0,79.77382234964324,2119.1111266688713,0.0,0,30,0.0,16431,347077930205821,396,27.97800064086914,894.420680974418,0.14999,16,0.0,0.0,1575420030,,,,0,14.019020407187167,1,6.0,27.97800064086914,0.0,0.0,0.0,66.7128,C,27544059000000,
Raw,1732148659999,20710000000,,692337.6617266336,-1416183857289999872,0.0,79.77382234964324,2119.1111266688713,0.0,0,22,0.0,16431,347077930823201,396,23.384000778198242,611.0124951940007,0.14999,16,0.0,0.0,1575420030,,,,0,7.668536936676378,1,6.0,23.384000778198242,0.0,0.0,0.0,66.7128,C,27544059000000,
Raw,1732148659999,20710000000,,692337.6617266336,-1416183857289999872,0.0,79.77382234964324,2119.1111266688713,0.0,0,17,0.0,16431,347077931586876,396,22.43000030517578,370.7140959004986,0.14999,16,0.0,0.0,1575420030,,,,0,6.207328886385834,1,6.0,22.43000030517578,0.0,0.0,0.0,66.7128,C,27544059000000,
Raw,1732148659999,20710000000,,692337.6617266336,-1416183857289999872,0.0,79.77382234964324,2119.1111266688713,0.0,0,14,0.0,16431,347077931980083,396,21.944000244140625,749.0900673440229,0.14999,16,0.0,0.0,1575420030,,,,0,5.445527894223044,1,6.0,21.944000244140625,0.0,0.0,0.0,66.7128,C,27544059000000,
Raw,1732148659999,20710000000,,692337.6617266336,-1416183857289999872,0.0,79.77382234964324,2119.1111266688713,0.0,0,27,0.0,16431,347077917607586,487,18.799999237060547,924.590869378374,0.14999,16,0.0,0.0,1575420030,,,,0,2.347488694508181,6,6.0,18.799999237060547,0.0,0.0,21.851482681532637,66.7128,C,27544059000000,
Raw,1732148659999,20710000000,,692337.6617266336,-1416183857289999872,0.0,79.77382234964324,2119.1111266688713,0.0,0,15,0.0,16431,347077924532167,316,25.766000747680664,394.80575804430015,0.14999,16,0.0,0.0,1575420030,,,,0,11.096459693622407,1,6.0,25.766000747680664,0.0,0.0,0.0,66.7128,C,27544059000000,
Raw,1732148659999,20710000000,,692337.6617266336,-1416183857289999872,0.0,79.77382234964324,2119.1111266688713,0.0,0,7,0.0,16431,347077923149162,235,29.61400032043457,1118.6487888917816,0.14999,16,0.0,0.0,1575420030,,,,0,16.075106235068148,1,6.0,29.61400032043457,0.0,0.0,0.0,66.7128,C,27544059000000,
Raw,1732148659999,20710000000,,692337.6617266336,-1416183857289999872,0.0,79.77382234964324,2119.1111266688713,0.0,0,2,0.0,16431,347077920566937,235,27.841999053955078,630.0229538984396,0.14999,16,0.0,0.0,1575420030,,,,0,13.828114049062558,1,6.0,27.841999053955078,0.0,0.0,0.0,66.7128,C,27544059000000,
Raw,1732148659999,20710000000,,692337.6617266336,-1416183857289999872,0.0,79.77382234964324,2119.1111266688713,0.0,0,19,0.0,16431,347077920388531,487,15.539999961853027,638.1450465124469,0.14999,16,0.0,0.0,1575420030,,,,0,0.0,6,6.0,15.539999961853027,0.0,0.0,21.851482681532637,66.7128,C,27544059000000,
Raw,1732148659999,20710000000,,692337.6617266336,-1416183857289999872,0.0,79.77382234964324,2119.1111266688713,0.0,0,21,0.0,16431,347077920274206,487,15.0,542.2047003643885,0.14999,16,0.0,0.0,1575420030,,,,0,0.0,6,6.0,15.0,0.0,0.0,21.851482681532637,66.7128,C,27544059000000,
Raw,1732148659999,20710000000,,692337.6617266336,-1416183857289999872,0.0,79.77382234964324,2119.1111266688713,0.0,0,16,0.0,17,179021,316,5.0,1129.5494818642273,0.14999,16,0.0,0.0,1601437440,,,,0,11.904673163120695,3,6.0,26.0,0.0,0.0,73.58127227374447,66.7128,C,27544059000000,
Raw,1732148659999,20710000000,,692337.6617266336,-1416183857289999872,0.0,79.77382234964324,2119.1111266688713,0.0,0,9,0.0,17,955094,487,5.0,852.9523146998455,0.14999,16,0.0,0.0,1600875010,,,,0,5.257760447041974,3,6.0,20.0,0.0,0.0,73.58127227374447,66.7128,C,27544059000000,
Raw,1732148659999,20710000000,,692337.6617266336,-1416183857289999872,0.0,79.77382234964324,2119.1111266688713,0.0,0,8,0.0,17,904065,487,5.0,809.4495208458097,0.14999,16,0.0,0.0,1605374980,,,,0,3.976949551052374,3,6.0,20.0,0.0,0.0,73.58127227374447,66.7128,C,27544059000000,
Raw,1732148659999,20710000000,,692337.6617266336,-1416183857289999872,0.0,79.77382234964324,2119.1111266688713,0.0,0,18,0.0,17,707700,487,5.0,1208.1615750719886,0.14999,16,0.0,0.0,1600312450,,,,0,0.0,3,6.0,19.0,0.0,0.0,73.58127227374447,66.7128,C,27544059000000,
Raw,1732148659999,20710000000,,692337.6617266336,-1416183857289999872,0.0,79.77382234964324,2119.1111266688713,0.0,0,19,0.0,17,829515,487,19.0,701.9946911743529,0.14999,16,0.0,0.0,1603687550,,,,0,0.581330366688503,3,6.0,19.0,0.0,0.0,73.58127227374447,66.7128,C,27544059000000,
Status,1732148660000,29,0,1,14,1575420030,28.90,13.0,68.0,1,0,0,23.9
Status,1732148660000,29,1,1,22,1575420030,25.70,308.0,68.0,1,0,0,20.7
Status,1732148660000,29,2,1,17,1575420030,28.10,168.0,64.0,1,0,0,23.1
Status,1732148660000,29,3,1,30,1575420030,29.10,108.0,58.0,1,0,0,24.1
Status,1732148660000,29,4,1,13,1575420030,30.70,277.0,56.0,1,0,0,25.7
Status,1732148660000,29,5,1,19,1575420030,0.00,194.0,34.0,0,0,0,0.0
Status,1732148660000,29,6,1,15,1575420030,0.00,302.0,27.0,0,0,0,0.0
Status,1732148660000,29,7,1,7,1575420030,30.40,117.0,24.0,1,0,0,25.4
Status,1732148660000,29,8,2,131,1575420030,28.00,3.0,23.0,0,0,0,23.0
Status,1732148660000,29,9,1,2,1575420030,30.30,71.0,21.0,1,0,0,25.3
Status,1732148660000,29,10,1,21,1575420030,0.00,52.0,13.0,0,0,0,0.0
Status,1732148660000,29,11,3,9,1602000000,26.40,46.0,47.0,1,0,0,21.4
Status,1732148660000,29,12,3,8,1602000000,25.40,277.0,39.0,1,0,0,20.4
Status,1732148660000,29,13,3,19,1602000000,22.80,62.0,36.0,1,0,0,17.8
Status,1732148660000,29,14,3,20,1602000000,0.00,140.0,28.0,0,0,0,0.0
Status,1732148660000,29,15,3,11,1602000000,0.00,287.0,12.0,0,0,0,0.0
Status,1732148660000,29,16,3,18,1602000000,22.10,25.0,11.0,1,0,0,17.1
Status,1732148660000,29,17,3,16,1602000000,27.30,83.0,4.0,0,0,0,22.3
Status,1732148660000,29,18,3,17,1602000000,31.20,0.0,0.0,0,0,0,26.2
Status,1732148660000,29,19,6,21,1575420030,22.30,295.0,64.0,1,0,0,17.3
Status,1732148660000,29,20,6,19,1575420030,20.60,275.0,54.0,1,0,0,15.6
Status,1732148660000,29,21,6,27,1575420030,21.60,47.0,48.0,1,0,0,16.6
Status,1732148660000,29,22,6,29,1575420030,0.00,196.0,46.0,0,0,0,0.0
Status,1732148660000,29,23,6,15,1575420030,0.00,83.0,18.0,0,0,0,0.0
Status,1732148660000,29,24,6,13,1575420030,0.00,134.0,12.0,0,0,0,0.0
Status,1732148660000,29,25,6,4,1575420030,0.00,323.0,11.0,0,0,0,0.0
Status,1732148660000,29,26,6,34,1575420030,0.00,35.0,5.0,0,0,0,0.0
Status,1732148660000,29,27,6,7,1575420030,0.00,162.0,4.0,0,0,0,0.0
Status,1732148660000,29,28,6,30,1575420030,0.00,67.0,1.0,0,0,0,0.0
Fix,GPS,37.4244050000,-122.1707900000,2.400000000000002,0.0,2.8,353.51,1732148661000,2.9,125.8,27545059000000,34.6,0,,,
Raw,1732148660999,21710000000,,692229.6703508132,-1416183857289999872,0.0,87.85808559856292,2116.759353818865,0.0,0,30,0.0,16431,347078930202833,396,24.072999954223633,892.9441395904147,0.14999,16,0.0,0.0,1575420030,,,,0,8.672887938922543,1,6.0,24.072999954223633,0.0,0.0,0.0,66.7128,C,27545059000000,
Raw,1732148660999,21710000000,,692229.6703508132,-1416183857289999872,0.0,87.85808559856292,2116.759353818865,0.0,0,22,0.0,16431,347078930821163,487,20.711999893188477,609.8008132408137,0.14999,16,0.0,0.0,1575420030,,,,0,3.416375079047504,1,6.0,20.711999893188477,0.0,0.0,0.0,66.7128,C,27545059000000,
Raw,1732148660999,21710000000,,692229.6703508132,-1416183857289999872,0.0,87.85808559856292,2116.759353818865,0.0,0,17,0.0,16431,347078931585638,487,23.06599998474121,370.19696726965907,0.14999,16,0.0,0.0,1575420030,,,,0,7.20824966823407,1,6.0,23.06599998474121,0.0,0.0,0.0,66.7128,C,27545059000000,
Raw,1732148660999,21710000000,,692229.6703508132,-1416183857289999872,0.0,87.85808559856292,2116.759353818865,0.0,0,14,0.0,16431,347078931977585,487,23.882999420166016,748.161084853477,0.14999,16,0.0,0.0,1575420030,,,,0,8.419637065544018,1,6.0,23.882999420166016,0.0,0.0,0.0,66.7128,C,27545059000000,
Raw,1732148660999,21710000000,,692229.6703508132,-1416183857289999872,0.0,87.85808559856292,2116.759353818865,0.0,0,27,0.0,16431,347078917604502,487,16.600000381469727,923.7271145041877,0.14999,16,0.0,0.0,1575420030,,,,0,0.0,6,6.0,16.600000381469727,0.0,0.0,20.80448497078074,66.7128,C,27545059000000,
Raw,1732148660999,21710000000,,692229.6703508132,-1416183857289999872,0.0,87.85808559856292,2116.759353818865,0.0,0,7,0.0,16431,347078923145426,316,25.400999069213867,1117.9965127281857,0.14999,16,0.0,0.0,1575420030,,,,0,10.591097650241139,1,6.0,25.400999069213867,0.0,0.0,0.0,66.7128,C,27545059000000,
Raw,1732148660999,21710000000,,692229.6703508132,-1416183857289999872,0.0,87.85808559856292,2116.759353818865,0.0,0,2,0.0,16431,347078920564838,396,25.32200050354004,629.5899614593574,0.14999,16,0.0,0.0,1575420030,,,,0,10.470178440254365,1,6.0,25.32200050354004,0.0,0.0,0.0,66.7128,C,27545059000000,
Raw,1732148660999,21710000000,,692229.6703508132,-1416183857289999872,0.0,87.85808559856292,2116.759353818865,0.0,0,19,0.0,16431,347078920386402,797,15.57800006866455,637.2795726768608,0.14999,16,0.0,0.0,1575420030,,,,0,0.0,6,6.0,15.57800006866455,0.0,0.0,20.80448497078074,66.7128,C,27545059000000,
Raw,1732148660999,21710000000,,692229.6703508132,-1416183857289999872,0.0,87.85808559856292,2116.759353818865,0.0,0,21,0.0,16431,347078920272398,487,17.299999237060547,541.4852917893683,0.14999,16,0.0,0.0,1575420030,,,,0,0.0,6,6.0,17.299999237060547,0.0,0.0,20.80448497078074,66.7128,C,27545059000000,
Raw,1732148660999,21710000000,,692229.6703508132,-1416183857289999872,0.0,87.85808559856292,2116.759353818865,0.0,0,13,0.0,16431,347078930782500,316,25.739999771118164,602.5893055845329,0.14999,16,0.0,0.0,1575420030,,,,0,11.058612620068308,1,6.0,25.739999771118164,0.0,0.0,0.0,66.7128,C,27545059000000,
Raw,1732148660999,21710000000,,692229.6703508132,-1416183857289999872,0.0,87.85808559856292,2116.759353818865,0.0,0,16,0.0,17,175259,396,5.0,1129.0818422511575,0.14999,16,0.0,0.0,1601437440,,,,0,7.575983148430762,3,6.0,21.0,0.0,0.0,71.3093047707242,66.7128,C,27545059000000,
Raw,1732148660999,21710000000,,692229.6703508132,-1416183857289999872,0.0,87.85808559856292,2116.759353818865,0.0,0,9,0.0,17,952248,487,5.0,852.4963978930003,0.14999,16,0.0,0.0,1600875010,,,,0,6.308984419354373,3,6.0,20.0,0.0,0.0,71.3093047707242,66.7128,C,27545059000000,
Raw,1732148660999,21710000000,,692229.6703508132,-1416183857289999872,0.0,87.85808559856292,2116.759353818865,0.0,0,8,0.0,17,901364,396,5.0,808.7083847762387,0.14999,16,0.0,0.0,1605374980,,,,0,5.915149811213503,3,6.0,21.0,0.0,0.0,71.3093047707242,66.7128,C,27545059000000,
Raw,1732148660999,21710000000,,692229.6703508132,-1416183857289999872,0.0,87.85808559856292,2116.759353818865,0.0,0,18,0.0,17,703663,797,5.0,1210.5816373954196,0.14999,16,0.0,0.0,1600312450,,,,0,2.14076318516855,3,6.0,17.0,0.0,0.0,71.3093047707242,66.7128,C,27545059000000,
Raw,1732148660999,21710000000,,692229.6703508132,-1416183857289999872,0.0,87.85808559856292,2116.759353818865,0.0,0,19,0.0,17,827172,797,16.0,699.0703849559737,0.14999,16,0.0,0.0,1603687550,,,,0,0.581330366688503,3,6.0,16.0,0.0,0.0,71.3093047707242,66.7128,C,27545059000000,
Fix,FLP,37.4244057000,-122.1707980000,2.0,0.085232906,2.716,,1732148661211,2.9,,27545059000000,0.9833382,0,,,
Status,1732148661000,29,0,1,14,1575420030,29.20,13.0,68.0,1,0,0,24.2
Status,1732148661000,29,1,1,22,1575420030,25.70,308.0,68.0,1,0,0,20.7
Status,1732148661000,29,2,1,17,1575420030,24.90,168.0,64.0,1,0,0,19.9
Status,1732148661000,29,3,1,30,1575420030,27.60,108.0,58.0,1,0,0,22.6
Status,1732148661000,29,4,1,13,1575420030,29.60,277.0,56.0,1,0,0,24.6
Status,1732148661000,29,5,1,19,1575420030,0.00,194.0,34.0,0,0,0,0.0
Status,1732148661000,29,6,1,15,1575420030,0.00,302.0,27.0,0,0,0,0.0
Status,1732148661000,29,7,1,7,1575420030,31.30,117.0,24.0,1,0,0,26.3
Status,1732148661000,29,8,2,131,1575420030,28.00,3.0,23.0,0,0,0,23.0
Status,1732148661000,29,9,1,2,1575420030,36.00,71.0,21.0,1,0,0,31.0
Status,1732148661000,29,10,1,21,1575420030,0.00,52.0,13.0,0,0,0,0.0
Status,1732148661000,29,11,3,9,1602000000,26.30,46.0,47.0,1,0,0,21.3
Status,1732148661000,29,12,3,8,1602000000,25.50,277.0,39.0,1,0,0,20.5
Status,1732148661000,29,13,3,19,1602000000,0.00,62.0,36.0,0,0,0,0.0
Status,1732148661000,29,14,3,20,1602000000,0.00,140.0,28.0,0,0,0,0.0
Status,1732148661000,29,15,3,11,1602000000,0.00,287.0,12.0,0,0,0,0.0
Status,1732148661000,29,16,3,18,1602000000,22.20,25.0,11.0,1,0,0,17.2
Status,1732148661000,29,17,3,16,1602000000,26.00,83.0,4.0,0,0,0,21.0
Status,1732148661000,29,18,3,17,1602000000,27.10,0.0,0.0,0,0,0,22.1
Status,1732148661000,29,19,6,21,1575420030,25.60,295.0,64.0,1,0,0,20.6
Status,1732148661000,29,20,6,19,1575420030,20.50,275.0,54.0,1,0,0,15.5
Status,1732148661000,29,21,6,27,1575420030,22.10,47.0,48.0,1,0,0,17.1
Status,1732148661000,29,22,6,29,1575420030,0.00,196.0,46.0,0,0,0,0.0
Status,1732148661000,29,23,6,15,1575420030,0.00,83.0,18.0,0,0,0,0.0
Status,1732148661000,29,24,6,13,1575420030,0.00,134.0,12.0,0,0,0,0.0
Status,1732148661000,29,25,6,4,1575420030,0.00,323.0,11.0,0,0,0,0.0
Status,1732148661000,29,26,6,34,1575420030,0.00,35.0,5.0,0,0,0,0.0
Status,1732148661000,29,27,6,7,1575420030,0.00,162.0,4.0,0,0,0,0.0
Status,1732148661000,29,28,6,30,1575420030,0.00,67.0,1.0,0,0,0,0.0
Fix,GPS,37.4244066667,-122.1707816667,2.400000000000002,0.0,2.9,353.51,1732148662000,2.9,118.9,27546059000000,33.7,0,,,
Fix,FLP,37.4244065000,-122.1707902000,2.0,0.084069334,2.75,,1732148662211,2.9,,27546059000000,0.99334854,0,,,
Raw,1732148661999,22710000000,,692032.8675346463,-1416183857289999872,0.0,86.89066395962506,2114.4192734366634,0.0,0,30,0.0,16431,347079930199855,396,22.62299919128418,892.6691057664483,0.14999,16,0.0,0.0,1575420030,,,,0,6.532681140674898,1,6.0,22.62299919128418,0.0,0.0,0.0,66.7128,C,27546059000000,
Raw,1732148661999,22710000000,,692032.8675346463,-1416183857289999872,0.0,86.89066395962506,2114.4192734366634,0.0,0,22,0.0,16431,347079930819130,316,20.711999893188477,609.5482652902932,0.14999,16,0.0,0.0,1575420030,,,,0,3.416375079047504,1,6.0,20.711999893188477,0.0,0.0,0.0,66.7128,C,27546059000000,
Raw,1732148661999,22710000000,,692032.8675346463,-1416183857289999872,0.0,86.89066395962506,2114.4192734366634,0.0,0,17,0.0,16431,347079931584402,487,19.85700035095215,370.24416902052894,0.14999,16,0.0,0.0,1575420030,,,,0,1.923702713109419,1,6.0,19.85700035095215,0.0,0.0,0.0,66.7128,C,27546059000000,
Raw,1732148661999,22710000000,,692032.8675346463,-1416183857289999872,0.0,86.89066395962506,2114.4192734366634,0.0,0,14,0.0,16431,347079931975086,487,24.198999404907227,748.219575999486,0.14999,16,0.0,0.0,1575420030,,,,0,8.870303019448428,1,6.0,24.198999404907227,0.0,0.0,0.0,66.7128,C,27546059000000,
Raw,1732148661999,22710000000,,692032.8675346463,-1416183857289999872,0.0,86.89066395962506,2114.4192734366634,0.0,0,27,0.0,16431,347079917601420,396,17.100000381469727,923.3942864104554,0.14999,16,0.0,0.0,1575420030,,,,0,0.0,6,6.0,17.100000381469727,0.0,0.0,17.060689474944375,66.7128,C,27546059000000,
Raw,1732148661999,22710000000,,692032.8675346463,-1416183857289999872,0.0,86.89066395962506,2114.4192734366634,0.0,0,7,0.0,16431,347079923141694,316,26.283000946044922,1118.031449457176,0.14999,16,0.0,0.0,1575420030,,,,0,11.785889915185274,1,6.0,26.283000946044922,0.0,0.0,0.0,66.7128,C,27546059000000,
Raw,1732148661999,22710000000,,692032.8675346463,-1416183857289999872,0.0,86.89066395962506,2114.4192734366634,0.0,0,2,0.0,16431,347079920562739,74,30.982999801635742,628.723790747528,0.14999,16,0.0,0.0,1575420030,,,,0,17.718841358815148,1,6.0,30.982999801635742,0.0,0.0,0.0,66.7128,C,27546059000000,
Raw,1732148661999,22710000000,,692032.8675346463,-1416183857289999872,0.0,86.89066395962506,2114.4192734366634,0.0,0,19,0.0,16431,347079920384291,797,15.548999786376953,635.2892476679851,0.14999,16,0.0,0.0,1575420030,,,,0,0.0,6,6.0,15.548999786376953,0.0,0.0,17.060689474944375,66.7128,C,27546059000000,
Raw,1732148661999,22710000000,,692032.8675346463,-1416183857289999872,0.0,86.89066395962506,2114.4192734366634,0.0,0,21,0.0,16431,347079920270594,316,20.600000381469727,540.289870281855,0.14999,16,0.0,0.0,1575420030,,,,0,5.151062757808918,6,6.0,20.600000381469727,0.0,0.0,17.060689474944375,66.7128,C,27546059000000,
Raw,1732148661999,22710000000,,692032.8675346463,-1416183857289999872,0.0,86.89066395962506,2114.4192734366634,0.0,0,13,0.0,16431,347079930780505,316,24.6200008392334,602.5310002721886,0.14999,16,0.0,0.0,1575420030,,,,0,9.4825703182251,1,6.0,24.6200008392334,0.0,0.0,0.0,66.7128,C,27546059000000,
Raw,1732148661999,22710000000,,692032.8675346463,-1416183857289999872,0.0,86.89066395962506,2114.4192734366634,0.0,0,16,0.0,17,171495,487,5.0,1128.6005829542823,0.14999,16,0.0,0.0,1601437440,,,,0,5.790170825673473,3,6.0,18.0,0.0,0.0,69.3811717841181,66.7128,C,27546059000000,
Raw,1732148661999,22710000000,,692032.8675346463,-1416183857289999872,0.0,86.89066395962506,2114.4192734366634,0.0,0,9,0.0,17,949405,487,5.0,851.8043845768744,0.14999,16,0.0,0.0,1600875010,,,,0,4.291666855550874,3,6.0,18.0,0.0,0.0,69.3811717841181,66.7128,C,27546059000000,
Raw,1732148661999,22710000000,,692032.8675346463,-1416183857289999872,0.0,86.89066395962506,2114.4192734366634,0.0,0,8,0.0,17,898667,487,5.0,808.932330419308,0.14999,16,0.0,0.0,1605374980,,,,0,5.915149811213503,3,6.0,18.0,0.0,0.0,69.3811717841181,66.7128,C,27546059000000,
Raw,1732148661999,22710000000,,692032.8675346463,-1416183857289999872,0.0,86.89066395962506,2114.4192734366634,0.0,0,18,0.0,17,699628,487,5.0,1208.8186150866995,0.14999,16,0.0,0.0,1600312450,,,,0,2.14076318516855,3,6.0,18.0,0.0,0.0,69.3811717841181,66.7128,C,27546059000000,
Status,1732148662000,29,0,1,14,1575420030,29.20,13.0,68.0,1,0,0,24.2
Status,1732148662000,29,1,1,22,1575420030,33.90,308.0,68.0,1,0,0,28.900002
Status,1732148662000,29,2,1,17,1575420030,27.50,168.0,64.0,1,0,0,22.5
Status,1732148662000,29,3,1,30,1575420030,28.90,108.0,58.0,1,0,0,23.9
Status,1732148662000,29,4,1,13,1575420030,32.90,277.0,56.0,1,0,0,27.900002
Status,1732148662000,29,5,1,19,1575420030,0.00,194.0,34.0,0,0,0,0.0
Status,1732148662000,29,6,1,15,1575420030,0.00,302.0,27.0,0,0,0,0.0
Status,1732148662000,29,7,1,7,1575420030,29.30,117.0,24.0,1,0,0,24.3
Status,1732148662000,29,8,2,131,1575420030,28.00,3.0,23.0,0,0,0,23.0
Status,1732148662000,29,9,1,2,1575420030,33.20,71.0,21.0,1,0,0,28.2
Status,1732148662000,29,10,1,21,1575420030,0.00,52.0,13.0,0,0,0,0.0
Status,1732148662000,29,11,3,9,1602000000,29.60,46.0,47.0,1,0,0,24.6
Status,1732148662000,29,12,3,8,1602000000,25.40,277.0,39.0,1,0,0,20.4
Status,1732148662000,29,13,3,19,1602000000,0.00,62.0,36.0,0,0,0,0.0
Status,1732148662000,29,14,3,20,1602000000,0.00,140.0,28.0,0,0,0,0.0
Status,1732148662000,29,15,3,11,1602000000,0.00,287.0,12.0,0,0,0,0.0
Status,1732148662000,29,16,3,18,1602000000,22.20,25.0,11.0,1,0,0,17.2
Status,1732148662000,29,17,3,16,1602000000,25.90,83.0,4.0,0,0,0,20.9
Status,1732148662000,29,18,3,17,1602000000,30.60,0.0,0.0,0,0,0,25.6
Status,1732148662000,29,19,6,21,1575420030,28.30,295.0,64.0,1,0,0,23.3
Status,1732148662000,29,20,6,19,1575420030,20.50,275.0,54.0,1,0,0,15.5
Status,1732148662000,29,21,6,27,1575420030,27.00,47.0,48.0,1,0,0,22.0
Status,1732148662000,29,22,6,29,1575420030,0.00,196.0,46.0,0,0,0,0.0
Status,1732148662000,29,23,6,15,1575420030,0.00,83.0,18.0,0,0,0,0.0
Status,1732148662000,29,24,6,13,1575420030,0.00,134.0,12.0,0,0,0,0.0
Status,1732148662000,29,25,6,4,1575420030,0.00,323.0,11.0,0,0,0,0.0
Status,1732148662000,29,26,6,34,1575420030,0.00,35.0,5.0,0,0,0,0.0
Status,1732148662000,29,27,6,7,1575420030,0.00,162.0,4.0,0,0,0,0.0
Status,1732148662000,29,28,6,30,1575420030,0.00,67.0,1.0,0,0,0,0.0
Fix,GPS,37.4244166667,-122.1707850000,2.5,0.0,2.8,353.51,1732148663000,2.3,72.1,27547059000000,32.3,0,,,
Raw,1732148662999,23710000000,,691858.684533685,-1416183857289999872,0.0,84.99296974394152,2113.1293390551314,0.0,0,30,0.0,16431,347080930196877,396,23.85099983215332,893.0545247873309,0.14999,16,0.0,0.0,1575420030,,,,0,8.368088607787804,1,6.0,23.85099983215332,0.0,0.0,0.0,66.7128,C,27547059000000,
Raw,1732148662999,23710000000,,691858.684533685,-1416183857289999872,0.0,84.99296974394152,2113.1293390551314,0.0,0,22,0.0,16431,347080930817107,235,28.86199951171875,608.5277597198125,0.14999,16,0.0,0.0,1575420030,,,,0,15.131524681158762,1,6.0,28.86199951171875,0.0,0.0,0.0,66.7128,C,27547059000000,
Raw,1732148662999,23710000000,,691858.684533685,-1416183857289999872,0.0,84.99296974394152,2113.1293390551314,0.0,0,17,0.0,16431,347080931583164,396,22.545000076293945,370.50802959539675,0.14999,16,0.0,0.0,1575420030,,,,0,6.4039989405667015,1,6.0,22.545000076293945,0.0,0.0,0.0,66.7128,C,27547059000000,
Raw,1732148662999,23710000000,,691858.684533685,-1416183857289999872,0.0,84.99296974394152,2113.1293390551314,0.0,0,14,0.0,16431,347080931972589,316,24.18600082397461,748.2584152354381,0.14999,16,0.0,0.0,1575420030,,,,0,8.521825181113625,1,6.0,24.18600082397461,0.0,0.0,0.0,66.7128,C,27547059000000,
Raw,1732148662999,23710000000,,691858.684533685,-1416183857289999872,0.0,84.99296974394152,2113.1293390551314,0.0,0,27,0.0,16431,347080917598338,396,22.0,923.2817641263935,0.14999,16,0.0,0.0,1575420030,,,,0,7.20824966823407,6,6.0,22.0,0.0,0.0,15.950402168406095,66.7128,C,27547059000000,
Raw,1732148662999,23710000000,,691858.684533685,-1416183857289999872,0.0,84.99296974394152,2113.1293390551314,0.0,0,7,0.0,16431,347080923137960,396,24.32200050354004,1118.8477238299952,0.14999,16,0.0,0.0,1575420030,,,,0,9.063330732972045,1,6.0,24.32200050354004,0.0,0.0,0.0,66.7128,C,27547059000000,
Raw,1732148662999,23710000000,,691858.684533685,-1416183857289999872,0.0,84.99296974394152,2113.1293390551314,0.0,0,2,0.0,16431,347080920560637,235,28.246999740600586,629.0929957811533,0.14999,16,0.0,0.0,1575420030,,,,0,14.362799114007453,1,6.0,28.246999740600586,0.0,0.0,0.0,66.7128,C,27547059000000,
Raw,1732148662999,23710000000,,691858.684533685,-1416183857289999872,0.0,84.99296974394152,2113.1293390551314,0.0,0,19,0.0,16431,347080920382171,487,15.520999908447266,635.9270288057234,0.14999,16,0.0,0.0,1575420030,,,,0,0.0,6,6.0,15.520999908447266,0.0,0.0,15.950402168406095,66.7128,C,27547059000000,
Raw,1732148662999,23710000000,,691858.684533685,-1416183857289999872,0.0,84.99296974394152,2113.1293390551314,0.0,0,21,0.0,16431,347080920268794,487,23.299999237060547,540.3071992711015,0.14999,16,0.0,0.0,1575420030,,,,0,8.918963592868412,6,6.0,23.299999237060547,0.0,0.0,15.950402168406095,66.7128,C,27547059000000,
Raw,1732148662999,23710000000,,691858.684533685,-1416183857289999872,0.0,84.99296974394152,2113.1293390551314,0.0,0,13,0.0,16431,347080930778517,235,27.899999618530273,602.2566168660493,0.14999,16,0.0,0.0,1575420030,,,,0,13.910445372959202,1,6.0,27.899999618530273,0.0,0.0,0.0,66.7128,C,27547059000000,
Raw,1732148662999,23710000000,,691858.684533685,-1416183857289999872,0.0,84.99296974394152,2113.1293390551314,0.0,0,16,0.0,17,167730,487,5.0,1128.772977072783,0.14999,16,0.0,0.0,1601437440,,,,0,4.084850188786498,3,6.0,19.0,0.0,0.0,67.4285808063241,66.7128,C,27547059000000,
Raw,1732148662999,23710000000,,691858.684533685,-1416183857289999872,0.0,84.99296974394152,2113.1293390551314,0.0,0,9,0.0,17,946573,396,5.0,852.2832526710276,0.14999,16,0.0,0.0,1600875010,,,,0,10.596813931880861,3,6.0,22.0,0.0,0.0,67.4285808063241,66.7128,C,27547059000000,
Raw,1732148662999,23710000000,,691858.684533685,-1416183857289999872,0.0,84.99296974394152,2113.1293390551314,0.0,0,8,0.0,17,895965,487,5.0,808.9429988396007,0.14999,16,0.0,0.0,1605374980,,,,0,2.660603861259507,3,6.0,19.0,0.0,0.0,67.4285808063241,66.7128,C,27547059000000,
Raw,1732148662999,23710000000,,691858.684533685,-1416183857289999872,0.0,84.99296974394152,2113.1293390551314,0.0,0,18,0.0,17,695602,396,5.0,1208.2114270569555,0.14999,16,0.0,0.0,1600312450,,,,0,0.7031230390460417,3,6.0,21.0,0.0,0.0,67.4285808063241,66.7128,C,27547059000000,
Fix,FLP,37.4244119000,-122.1707877000,2.0,0.09579103,2.766,,1732148663211,2.3,,27547059000000,1.0077031,0,,,
Status,1732148663000,29,0,1,14,1575420030,32.90,13.0,68.0,1,0,0,27.900002
Status,1732148663000,29,1,1,22,1575420030,31.60,308.0,68.0,1,0,0,26.6
Status,1732148663000,29,2,1,17,1575420030,27.60,168.0,64.0,1,0,0,22.6
Status,1732148663000,29,3,1,30,1575420030,34.10,108.0,58.0,1,0,0,29.099998
Status,1732148663000,29,4,1,13,1575420030,33.10,277.0,56.0,1,0,0,28.099998
Status,1732148663000,29,5,1,19,1575420030,0.00,194.0,34.0,0,0,0,0.0
Status,1732148663000,29,6,1,15,1575420030,0.00,302.0,27.0,0,0,0,0.0
Status,1732148663000,29,7,1,7,1575420030,32.50,117.0,24.0,1,0,0,27.5
Status,1732148663000,29,8,2,131,1575420030,30.00,3.0,23.0,0,0,0,25.0
Status,1732148663000,29,9,1,2,1575420030,33.50,71.0,21.0,1,0,0,28.5
Status,1732148663000,29,10,1,21,1575420030,0.00,52.0,13.0,0,0,0,0.0
Status,1732148663000,29,11,3,9,1602000000,29.60,46.0,47.0,1,0,0,24.6
Status,1732148663000,29,12,3,8,1602000000,25.40,277.0,39.0,1,0,0,20.4
Status,1732148663000,29,13,3,19,1602000000,0.00,62.0,36.0,0,0,0,0.0
Status,1732148663000,29,14,3,20,1602000000,0.00,140.0,28.0,0,0,0,0.0
Status,1732148663000,29,15,3,11,1602000000,0.00,287.0,12.0,0,0,0,0.0
Status,1732148663000,29,16,3,18,1602000000,22.20,25.0,11.0,1,0,0,17.2
Status,1732148663000,29,17,3,16,1602000000,25.90,83.0,4.0,0,0,0,20.9
Status,1732148663000,29,18,3,17,1602000000,29.00,0.0,0.0,0,0,0,24.0
Status,1732148663000,29,19,6,21,1575420030,28.30,295.0,64.0,1,0,0,23.3
Status,1732148663000,29,20,6,19,1575420030,20.60,275.0,54.0,1,0,0,15.6
Status,1732148663000,29,21,6,27,1575420030,27.10,47.0,48.0,1,0,0,22.1
Status,1732148663000,29,22,6,29,1575420030,0.00,196.0,46.0,0,0,0,0.0
Status,1732148663000,29,23,6,15,1575420030,0.00,83.0,18.0,0,0,0,0.0
Status,1732148663000,29,24,6,13,1575420030,0.00,134.0,12.0,0,0,0,0.0
Status,1732148663000,29,25,6,4,1575420030,0.00,323.0,11.0,0,0,0,0.0
Status,1732148663000,29,26,6,34,1575420030,0.00,35.0,5.0,0,0,0,0.0
Status,1732148663000,29,27,6,7,1575420030,0.00,162.0,4.0,0,0,0,0.0
Status,1732148663000,29,28,6,30,1575420030,0.00,67.0,1.0,0,0,0,0.0
Fix,GPS,37.4244216667,-122.1707883333,2.6000000000000014,0.0,2.8,353.51,1732148664000,2.6,80.2,27548059000000,32.4,0,,,
Fix,FLP,37.4244171000,-122.1707880000,2.0,0.10722533,2.783,0.8466499,1732148664211,2.6,80.2,27548059000000,1.017684,0,,,
Raw,1732148663999,24710000000,,691659.5884643636,-1416183857289999872,0.0,85.13937102328808,2112.6574685124915,0.0,0,30,0.0,16431,347081930193898,316,29.051000595092773,893.6058932709176,0.14999,16,0.0,0.0,1575420030,,,,0,15.36565987182377,1,6.0,29.051000595092773,0.0,0.0,0.0,66.7128,C,27548059000000,
Raw,1732148663999,24710000000,,691659.5884643636,-1416183857289999872,0.0,85.13937102328808,2112.6574685124915,0.0,0,22,0.0,16431,347081930815075,316,26.608999252319336,609.1818013032245,0.14999,16,0.0,0.0,1575420030,,,,0,12.227928799665458,1,6.0,26.608999252319336,0.0,0.0,0.0,66.7128,C,27548059000000,
Raw,1732148663999,24710000000,,691659.5884643636,-1416183857289999872,0.0,85.13937102328808,2112.6574685124915,0.0,0,17,0.0,16431,347081931581929,396,22.562999725341797,370.31079038937486,0.14999,16,0.0,0.0,1575420030,,,,0,6.968623722571784,1,6.0,22.562999725341797,0.0,0.0,0.0,66.7128,C,27548059000000,
Raw,1732148663999,24710000000,,691659.5884643636,-1416183857289999872,0.0,85.13937102328808,2112.6574685124915,0.0,0,14,0.0,16431,347081931970100,316,27.899999618530273,748.3090549091075,0.14999,16,0.0,0.0,1575420030,,,,0,13.910445372959202,1,6.0,27.899999618530273,0.0,0.0,0.0,66.7128,C,27548059000000,
Raw,1732148663999,24710000000,,691659.5884643636,-1416183857289999872,0.0,85.13937102328808,2112.6574685124915,0.0,0,27,0.0,16431,347081917595259,316,22.05500030517578,923.0207607441228,0.14999,16,0.0,0.0,1575420030,,,,0,8.622825035846457,6,6.0,22.05500030517578,0.0,0.0,15.215528395460973,66.7128,C,27548059000000,
Raw,1732148663999,24710000000,,691659.5884643636,-1416183857289999872,0.0,85.13937102328808,2112.6574685124915,0.0,0,7,0.0,16431,347081923134226,235,27.51799964904785,1118.7610324253462,0.14999,16,0.0,0.0,1575420030,,,,0,13.433232885147415,1,6.0,27.51799964904785,0.0,0.0,0.0,66.7128,C,27548059000000,
Raw,1732148663999,24710000000,,691659.5884643636,-1416183857289999872,0.0,85.13937102328808,2112.6574685124915,0.0,0,2,0.0,16431,347081920558534,235,28.503999710083008,629.9474125136812,0.14999,16,0.0,0.0,1575420030,,,,0,14.693487852202168,1,6.0,28.503999710083008,0.0,0.0,0.0,66.7128,C,27548059000000,
Raw,1732148663999,24710000000,,691659.5884643636,-1416183857289999872,0.0,85.13937102328808,2112.6574685124915,0.0,0,19,0.0,16431,347081920380054,487,15.633999824523926,636.3930531787313,0.14999,16,0.0,0.0,1575420030,,,,0,0.5120812273952744,6,6.0,15.633999824523926,0.0,0.0,15.215528395460973,66.7128,C,27548059000000,
Raw,1732148663999,24710000000,,691659.5884643636,-1416183857289999872,0.0,85.13937102328808,2112.6574685124915,0.0,0,21,0.0,16431,347081920266993,396,23.2549991607666,540.5124990123359,0.14999,16,0.0,0.0,1575420030,,,,0,7.72439494035978,6,6.0,23.2549991607666,0.0,0.0,15.215528395460973,66.7128,C,27548059000000,
Raw,1732148663999,24710000000,,691659.5884643636,-1416183857289999872,0.0,85.13937102328808,2112.6574685124915,0.0,0,13,0.0,16431,347081930776513,235,28.0939998626709,602.8210866230073,0.14999,16,0.0,0.0,1575420030,,,,0,14.15285802647627,1,6.0,28.0939998626709,0.0,0.0,0.0,66.7128,C,27548059000000,
Raw,1732148663999,24710000000,,691659.5884643636,-1416183857289999872,0.0,85.13937102328808,2112.6574685124915,0.0,0,16,0.0,17,163964,797,5.0,1129.3987512696315,0.14999,16,0.0,0.0,1601437440,,,,0,4.084850188786498,3,6.0,17.0,0.0,0.0,65.82453701963922,66.7128,C,27548059000000,
Raw,1732148663999,24710000000,,691659.5884643636,-1416183857289999872,0.0,85.13937102328808,2112.6574685124915,0.0,0,9,0.0,17,943739,396,5.0,851.2530050451303,0.14999,16,0.0,0.0,1600875010,,,,0,10.91657603956347,3,6.0,23.0,0.0,0.0,65.82453701963922,66.7128,C,27548059000000,
Raw,1732148663999,24710000000,,691659.5884643636,-1416183857289999872,0.0,85.13937102328808,2112.6574685124915,0.0,0,8,0.0,17,893264,797,5.0,809.3214998022962,0.14999,16,0.0,0.0,1605374980,,,,0,3.270390304217514,3,6.0,17.0,0.0,0.0,65.82453701963922,66.7128,C,27548059000000,
Raw,1732148663999,24710000000,,691659.5884643636,-1416183857289999872,0.0,85.13937102328808,2112.6574685124915,0.0,0,18,0.0,17,691574,797,5.0,1203.133476426765,0.14999,16,0.0,0.0,1600312450,,,,0,1.2092403443414472,3,6.0,16.0,0.0,0.0,65.82453701963922,66.7128,C,27548059000000,
Status,1732148664000,29,0,1,14,1575420030,33.00,13.0,68.0,1,0,0,28.0
Status,1732148664000,29,1,1,22,1575420030,29.80,308.0,68.0,1,0,0,24.8
Status,1732148664000,29,2,1,17,1575420030,27.50,168.0,64.0,1,0,0,22.5
Status,1732148664000,29,3,1,30,1575420030,31.60,108.0,58.0,1,0,0,26.6
Status,1732148664000,29,4,1,13,1575420030,30.00,277.0,56.0,1,0,0,25.0
Status,1732148664000,29,5,1,19,1575420030,0.00,194.0,34.0,0,0,0,0.0
Status,1732148664000,29,6,1,15,1575420030,0.00,302.0,27.0,0,0,0,0.0
Status,1732148664000,29,7,1,7,1575420030,30.00,117.0,24.0,1,0,0,25.0
Status,1732148664000,29,8,2,131,1575420030,29.00,3.0,23.0,0,0,0,24.0
Status,1732148664000,29,9,1,2,1575420030,32.90,71.0,21.0,1,0,0,27.900002
Status,1732148664000,29,10,1,21,1575420030,0.00,52.0,13.0,0,0,0,0.0
Status,1732148664000,29,11,3,9,1602000000,32.70,46.0,47.0,1,0,0,27.7
Status,1732148664000,29,12,3,8,1602000000,25.30,277.0,39.0,1,0,0,20.3
Status,1732148664000,29,13,3,19,1602000000,0.00,62.0,36.0,0,0,0,0.0
Status,1732148664000,29,14,3,20,1602000000,0.00,140.0,28.0,0,0,0,0.0
Status,1732148664000,29,15,3,11,1602000000,0.00,287.0,12.0,0,0,0,0.0
Status,1732148664000,29,16,3,18,1602000000,22.30,25.0,11.0,1,0,0,17.3
Status,1732148664000,29,17,3,16,1602000000,25.80,83.0,4.0,0,0,0,20.8
Status,1732148664000,29,18,3,17,1602000000,25.70,0.0,0.0,0,0,0,20.7
Status,1732148664000,29,19,6,21,1575420030,28.20,295.0,64.0,1,0,0,23.2
Status,1732148664000,29,20,6,19,1575420030,20.70,275.0,54.0,1,0,0,15.700001
Status,1732148664000,29,21,6,27,1575420030,26.10,47.0,48.0,1,0,0,21.1
Status,1732148664000,29,22,6,29,1575420030,0.00,196.0,46.0,0,0,0,0.0
Status,1732148664000,29,23,6,15,1575420030,0.00,83.0,18.0,0,0,0,0.0
Status,1732148664000,29,24,6,13,1575420030,0.00,134.0,12.0,0,0,0,0.0
Status,1732148664000,29,25,6,4,1575420030,0.00,323.0,11.0,0,0,0,0.0
Status,1732148664000,29,26,6,34,1575420030,0.00,35.0,5.0,0,0,0,0.0
Status,1732148664000,29,27,6,7,1575420030,0.00,162.0,4.0,0,0,0,0.0
Status,1732148664000,29,28,6,30,1575420030,0.00,67.0,1.0,0,0,0,0.0
Fix,GPS,37.4244283333,-122.1708016667,2.6000000000000014,0.0,2.8,353.51,1732148665000,2.6,77.2,27549059000000,32.6,0,,,
Raw,1732148664999,25710000000,,691479.2032560072,-1416183857289999872,0.0,85.59726709368272,2112.255664172691,0.0,0,30,0.0,16431,347082930190918,316,26.631999969482422,894.0204881771805,0.14999,16,0.0,0.0,1575420030,,,,0,12.261017943065706,1,6.0,26.631999969482422,0.0,0.0,0.0,66.7128,C,27549059000000,
Raw,1732148664999,25710000000,,691479.2032560072,-1416183857289999872,0.0,85.59726709368272,2112.255664172691,0.0,0,22,0.0,16431,347082930813045,487,24.766000747680664,609.1728812873121,0.14999,16,0.0,0.0,1575420030,,,,0,9.70702440040007,1,6.0,24.766000747680664,0.0,0.0,0.0,66.7128,C,27549059000000,
Raw,1732148664999,25710000000,,691479.2032560072,-1416183857289999872,0.0,85.59726709368272,2112.255664172691,0.0,0,17,0.0,16431,347082931580695,396,22.540000915527344,370.1600095995636,0.14999,16,0.0,0.0,1575420030,,,,0,5.73033667651525,1,6.0,22.540000915527344,0.0,0.0,0.0,66.7128,C,27549059000000,
Raw,1732148664999,25710000000,,691479.2032560072,-1416183857289999872,0.0,85.59726709368272,2112.255664172691,0.0,0,14,0.0,16431,347082931967601,235,28.016000747680664,748.8331058439624,0.14999,16,0.0,0.0,1575420030,,,,0,14.07280317740279,1,6.0,28.016000747680664,0.0,0.0,0.0,66.7128,C,27549059000000,
Raw,1732148664999,25710000000,,691479.2032560072,-1416183857289999872,0.0,85.59726709368272,2112.255664172691,0.0,0,27,0.0,16431,347082917592180,316,21.100000381469727,923.7136415634867,0.14999,16,0.0,0.0,1575420030,,,,0,5.937977392389685,6,6.0,21.100000381469727,0.0,0.0,16.68957372570184,66.7128,C,27549059000000,
Raw,1732148664999,25710000000,,691479.2032560072,-1416183857289999872,0.0,85.59726709368272,2112.255664172691,0.0,0,7,0.0,16431,347082923130493,396,24.96299934387207,1119.1267530777557,0.14999,16,0.0,0.0,1575420030,,,,0,9.968930362203023,1,6.0,24.96299934387207,0.0,0.0,0.0,66.7128,C,27549059000000,
Raw,1732148664999,25710000000,,691479.2032560072,-1416183857289999872,0.0,85.59726709368272,2112.255664172691,0.0,0,2,0.0,16431,347082920556433,235,27.899999618530273,630.0354976708164,0.14999,16,0.0,0.0,1575420030,,,,0,13.910445372959202,1,6.0,27.899999618530273,0.0,0.0,0.0,66.7128,C,27549059000000,
Raw,1732148664999,25710000000,,691479.2032560072,-1416183857289999872,0.0,85.59726709368272,2112.255664172691,0.0,0,19,0.0,16431,347082920377920,487,15.67199993133545,636.5316850927036,0.14999,16,0.0,0.0,1575420030,,,,0,0.0,6,6.0,15.67199993133545,0.0,0.0,16.68957372570184,66.7128,C,27549059000000,
Raw,1732148664999,25710000000,,691479.2032560072,-1416183857289999872,0.0,85.59726709368272,2112.255664172691,0.0,0,21,0.0,16431,347082920265187,487,23.172000885009766,541.1359244994651,0.14999,16,0.0,0.0,1575420030,,,,0,6.596314316398683,6,6.0,23.172000885009766,0.0,0.0,16.68957372570184,66.7128,C,27549059000000,
Raw,1732148664999,25710000000,,691479.2032560072,-1416183857289999872,0.0,85.59726709368272,2112.255664172691,0.0,0,13,0.0,16431,347082930774508,316,25.047000885009766,602.9130742871041,0.14999,16,0.0,0.0,1575420030,,,,0,10.096980194385633,1,6.0,25.047000885009766,0.0,0.0,0.0,66.7128,C,27549059000000,
Raw,1732148664999,25710000000,,691479.2032560072,-1416183857289999872,0.0,85.59726709368272,2112.255664172691,0.0,0,16,0.0,17,160198,487,5.0,1128.8284612880163,0.14999,16,0.0,0.0,1601437440,,,,0,4.084850188786498,3,6.0,18.0,0.0,0.0,61.33751382219779,66.7128,C,27549059000000,
Raw,1732148664999,25710000000,,691479.2032560072,-1416183857289999872,0.0,85.59726709368272,2112.255664172691,0.0,0,9,0.0,17,940897,235,5.0,851.2077425462558,0.14999,16,0.0,0.0,1600875010,,,,0,14.333116420829949,3,6.0,28.0,0.0,0.0,61.33751382219779,66.7128,C,27549059000000,
Raw,1732148664999,25710000000,,691479.2032560072,-1416183857289999872,0.0,85.59726709368272,2112.255664172691,0.0,0,8,0.0,17,890565,797,5.0,809.2491916203118,0.14999,16,0.0,0.0,1605374980,,,,0,3.270390304217514,3,6.0,16.0,0.0,0.0,61.33751382219779,66.7128,C,27549059000000,
Raw,1732148664999,25710000000,,691479.2032560072,-1416183857289999872,0.0,85.59726709368272,2112.255664172691,0.0,0,18,0.0,17,687547,797,5.0,1207.0059237360763,0.14999,16,0.0,0.0,1600312450,,,,0,2.84732243200341,3,6.0,17.0,0.0,0.0,61.33751382219779,66.7128,C,27549059000000,
Fix,FLP,37.4244231000,-122.1707945000,2.0,0.12048262,2.8,359.68344,1732148665211,2.6,77.2,27549059000000,1.0276846,0,,,
Status,1732148665000,29,0,1,14,1575420030,33.70,13.0,68.0,1,0,0,28.7
Status,1732148665000,29,1,1,22,1575420030,29.70,308.0,68.0,1,0,0,24.7
Status,1732148665000,29,2,1,17,1575420030,30.10,168.0,64.0,1,0,0,25.1
Status,1732148665000,29,3,1,30,1575420030,32.10,108.0,58.0,1,0,0,27.099998
Status,1732148665000,29,4,1,13,1575420030,27.10,277.0,56.0,1,0,0,22.1
Status,1732148665000,29,5,1,19,1575420030,0.00,194.0,34.0,0,0,0,0.0
Status,1732148665000,29,6,1,15,1575420030,0.00,302.0,27.0,0,0,0,0.0
Status,1732148665000,29,7,1,7,1575420030,30.30,117.0,24.0,1,0,0,25.3
Status,1732148665000,29,8,2,131,1575420030,29.00,3.0,23.0,0,0,0,24.0
Status,1732148665000,29,9,1,2,1575420030,39.60,71.0,21.0,1,0,0,34.6
Status,1732148665000,29,10,1,21,1575420030,0.00,52.0,13.0,0,0,0,0.0
Status,1732148665000,29,11,3,9,1602000000,28.00,46.0,47.0,1,0,0,23.0
Status,1732148665000,29,12,3,8,1602000000,21.50,277.0,39.0,1,0,0,16.5
Status,1732148665000,29,13,3,19,1602000000,0.00,62.0,36.0,0,0,0,0.0
Status,1732148665000,29,14,3,20,1602000000,0.00,140.0,28.0,0,0,0,0.0
Status,1732148665000,29,15,3,11,1602000000,0.00,287.0,12.0,0,0,0,0.0
Status,1732148665000,29,16,3,18,1602000000,22.40,25.0,11.0,1,0,0,17.4
Status,1732148665000,29,17,3,16,1602000000,25.70,83.0,4.0,0,0,0,20.7
Status,1732148665000,29,18,3,17,1602000000,27.30,0.0,0.0,0,0,0,22.3
Status,1732148665000,29,19,6,21,1575420030,0.00,295.0,64.0,0,0,0,0.0
Status,1732148665000,29,20,6,19,1575420030,20.70,275.0,54.0,1,0,0,15.700001
Status,1732148665000,29,21,6,27,1575420030,25.20,47.0,48.0,1,0,0,20.2
Status,1732148665000,29,22,6,29,1575420030,0.00,196.0,46.0,0,0,0,0.0
Status,1732148665000,29,23,6,15,1575420030,0.00,83.0,18.0,0,0,0,0.0
Status,1732148665000,29,24,6,13,1575420030,0.00,134.0,12.0,0,0,0,0.0
Status,1732148665000,29,25,6,4,1575420030,0.00,323.0,11.0,0,0,0,0.0
Status,1732148665000,29,26,6,34,1575420030,0.00,35.0,5.0,0,0,0,0.0
Status,1732148665000,29,27,6,7,1575420030,0.00,162.0,4.0,0,0,0,0.0
Status,1732148665000,29,28,6,30,1575420030,0.00,67.0,1.0,0,0,0,0.0
Fix,GPS,37.4244300000,-122.1708100000,2.6999999999999993,0.0,2.8,353.51,1732148666000,2.6,143.5,27550059000000,32.8,0,,,
Raw,1732148665999,26710000000,,691266.5561453183,-1416183857289999872,0.0,86.00007897492509,2116.9661309905277,0.0,0,30,0.0,16431,347083930187935,316,27.142000198364258,895.7922263377856,0.14999,16,0.0,0.0,1575420030,,,,0,12.928269774211303,1,6.0,27.142000198364258,0.0,0.0,0.0,66.7128,C,27550059000000,
Raw,1732148665999,26710000000,,691266.5561453183,-1416183857289999872,0.0,86.00007897492509,2116.9661309905277,0.0,0,22,0.0,16431,347083930811006,396,24.73699951171875,611.3747314651944,0.14999,16,0.0,0.0,1575420030,,,,0,9.662595200520908,1,6.0,24.73699951171875,0.0,0.0,0.0,66.7128,C,27550059000000,
Raw,1732148665999,26710000000,,691266.5561453183,-1416183857289999872,0.0,86.00007897492509,2116.9661309905277,0.0,0,17,0.0,16431,347083931579460,396,25.10300064086914,371.51810525143816,0.14999,16,0.0,0.0,1575420030,,,,0,10.181309882408904,1,6.0,25.10300064086914,0.0,0.0,0.0,66.7128,C,27550059000000,
Raw,1732148665999,26710000000,,691266.5561453183,-1416183857289999872,0.0,86.00007897492509,2116.9661309905277,0.0,0,14,0.0,16431,347083931965100,235,28.722000122070312,749.8104050873673,0.14999,16,0.0,0.0,1575420030,,,,0,14.963791944836931,1,6.0,28.722000122070312,0.0,0.0,0.0,66.7128,C,27550059000000,
Raw,1732148665999,26710000000,,691266.5561453183,-1416183857289999872,0.0,86.00007897492509,2116.9661309905277,0.0,0,27,0.0,16431,347083917589099,396,20.200000762939453,925.1722499988327,0.14999,16,0.0,0.0,1575420030,,,,0,4.530378083009541,6,6.0,20.200000762939453,0.0,0.0,17.917744290950218,66.7128,C,27550059000000,
Raw,1732148665999,26710000000,,691266.5561453183,-1416183857289999872,0.0,86.00007897492509,2116.9661309905277,0.0,0,7,0.0,16431,347083923126761,396,25.295000076293945,1119.90446696512,0.14999,16,0.0,0.0,1575420030,,,,0,10.429495042045303,1,6.0,25.295000076293945,0.0,0.0,0.0,66.7128,C,27550059000000,
Raw,1732148665999,26710000000,,691266.5561453183,-1416183857289999872,0.0,86.00007897492509,2116.9661309905277,0.0,0,2,0.0,16431,347083920554334,58,34.637001037597656,631.5000527834374,0.14999,16,0.0,0.0,1575420030,,,,0,21.945390338953818,1,6.0,34.637001037597656,0.0,0.0,0.0,66.7128,C,27550059000000,
Raw,1732148665999,26710000000,,691266.5561453183,-1416183857289999872,0.0,86.00007897492509,2116.9661309905277,0.0,0,19,0.0,16431,347083920375792,797,15.697999954223633,637.9774710051755,0.14999,16,0.0,0.0,1575420030,,,,0,0.0,6,6.0,15.697999954223633,0.0,0.0,17.917744290950218,66.7128,C,27550059000000,
Raw,1732148665999,26710000000,,691266.5561453183,-1416183857289999872,0.0,86.00007897492509,2116.9661309905277,0.0,0,13,0.0,16431,347083930772489,487,22.110000610351562,605.4951866016696,0.14999,16,0.0,0.0,1575420030,,,,0,5.73033667651525,1,6.0,22.110000610351562,0.0,0.0,0.0,66.7128,C,27550059000000,
Raw,1732148665999,26710000000,,691266.5561453183,-1416183857289999872,0.0,86.00007897492509,2116.9661309905277,0.0,0,16,0.0,17,156430,487,5.0,1130.6165703792735,0.14999,16,0.0,0.0,1601437440,,,,0,1.6049783795067558,3,6.0,18.0,0.0,0.0,54.294024474873,66.7128,C,27550059000000,
Raw,1732148665999,26710000000,,691266.5561453183,-1416183857289999872,0.0,86.00007897492509,2116.9661309905277,0.0,0,9,0.0,17,938047,396,5.0,853.4571515812318,0.14999,16,0.0,0.0,1600875010,,,,0,8.452614538923495,3,6.0,23.0,0.0,0.0,54.294024474873,66.7128,C,27550059000000,
Raw,1732148665999,26710000000,,691266.5561453183,-1416183857289999872,0.0,86.00007897492509,2116.9661309905277,0.0,0,8,0.0,17,887872,797,5.0,811.4081333918708,0.14999,16,0.0,0.0,1605374980,,,,0,0.0,3,6.0,17.0,0.0,0.0,54.294024474873,66.7128,C,27550059000000,
Raw,1732148665999,26710000000,,691266.5561453183,-1416183857289999872,0.0,86.00007897492509,2116.9661309905277,0.0,0,18,0.0,17,683507,487,5.0,1212.2032447155914,0.14999,16,0.0,0.0,1600312450,,,,0,1.9922828235844117,3,6.0,18.0,0.0,0.0,54.294024474873,66.7128,C,27550059000000,
Fix,FLP,37.4244270000,-122.1708020000,2.0,0.12671241,2.816,358.85187,1732148666211,2.6,143.5,27550059000000,1.037682,0,,,
