# 
# Header Description:
# 
# Version: v3.1.0.3 Platform: 13 Manufacturer: samsung Model: SM-S135DL GNSS Hardware Model Name: MediaTek,MT6631,MTK_MNLD_default,MNL_VER_default
# 
# Raw,utcTimeMillis,TimeNanos,LeapSecond,TimeUncertaintyNanos,FullBiasNanos,BiasNanos,BiasUncertaintyNanos,DriftNanosPerSecond,DriftUncertaintyNanosPerSecond,HardwareClockDiscontinuityCount,Svid,TimeOffsetNanos,State,ReceivedSvTimeNanos,ReceivedSvTimeUncertaintyNanos,Cn0DbHz,PseudorangeRateMetersPerSecond,PseudorangeRateUncertaintyMetersPerSecond,AccumulatedDeltaRangeState,AccumulatedDeltaRangeMeters,AccumulatedDeltaRangeUncertaintyMeters,CarrierFrequencyHz,CarrierCycles,CarrierPhase,CarrierPhaseUncertainty,MultipathIndicator,SnrInDb,ConstellationType,AgcDb,BasebandCn0DbHz,FullInterSignalBiasNanos,FullInterSignalBiasUncertaintyNanos,SatelliteInterSignalBiasNanos,SatelliteInterSignalBiasUncertaintyNanos,CodeType,ChipsetElapsedRealtimeNanos,IsFullTracking
# 
# UncalAccel,utcTimeMillis,elapsedRealtimeNanos,UncalAccelXMps2,UncalAccelYMps2,UncalAccelZMps2,BiasXMps2,BiasYMps2,BiasZMps2
# 
# Accel,utcTimeMillis,elapsedRealtimeNanos,AccelXMps2,AccelYMps2,AccelZMps2
# 
# UncalGyro,utcTimeMillis,elapsedRealtimeNanos,UncalGyroXRadPerSec,UncalGyroYRadPerSec,UncalGyroZRadPerSec,DriftXRadPerSec,DriftYRadPerSec,DriftZRadPerSec
# 
# Gyro,utcTimeMillis,elapsedRealtimeNanos,GyroXRadPerSec,GyroYRadPerSec,GyroZRadPerSec
# 
# UncalMag,utcTimeMillis,elapsedRealtimeNanos,UncalMagXMicroT,UncalMagYMicroT,UncalMagZMicroT,BiasXMicroT,BiasYMicroT,BiasZMicroT
# 
# Mag,utcTimeMillis,elapsedRealtimeNanos,MagXMicroT,MagYMicroT,MagZMicroT
# 
# Pressure,utcTimeMillis,elapsedRealtimeNanos,PressureHpa
# 
# OrientationDeg,utcTimeMillis,elapsedRealtimeNanos,yawDeg,rollDeg,pitchDeg
# 
# Fix,Provider,LatitudeDegrees,LongitudeDegrees,AltitudeMeters,SpeedMps,AccuracyMeters,BearingDegrees,UnixTimeMillis,SpeedAccuracyMps,BearingAccuracyDegrees,elapsedRealtimeNanos,VerticalAccuracyMeters,MockLocation,NumberOfUsedSignals,VerticalSpeedAccuracyMps,SolutionType
# 
# Nav,Svid,Type,Status,MessageId,Sub-messageId,Data(Bytes)
# 
# Status,UnixTimeMillis,SignalCount,SignalIndex,ConstellationType,Svid,CarrierFrequencyHz,Cn0DbHz,AzimuthDegrees,ElevationDegrees,UsedInFix,HasAlmanacData,HasEphemerisData,BasebandCn0DbHz
# 
# Agc,utcTimeMillis,TimeNanos,LeapSecond,TimeUncertaintyNanos,FullBiasNanos,BiasNanos,BiasUncertaintyNanos,DriftNanosPerSecond,DriftUncertaintyNanosPerSecond,HardwareClockDiscontinuityCount,AgcDb,CarrierFrequencyHz,ConstellationType
# 
Fix,FLP,37.4244034000,-122.1712282000,2.0999999046325684,0.5383324,1.55,279.20532,1732146282197,0.8,49.8,25166044000000,0.8990717,0,,,
Status,,30,0,1,14,1575420030,45.00,317.0,74.0,1,0,0,40.0
Status,,30,1,1,30,1575420030,44.30,72.0,70.0,1,0,0,39.3
Status,,30,2,1,22,1575420030,46.30,269.0,59.0,1,0,0,41.3
Status,,30,3,1,13,1575420030,43.80,304.0,47.0,1,0,0,38.8
Status,,30,4,1,17,1575420030,46.80,176.0,44.0,1,0,0,41.8
Status,,30,5,1,7,1575420030,31.20,102.0,38.0,1,0,0,26.2
Status,,30,6,2,131,1575420030,39.00,3.0,23.0,0,0,0,34.0
Status,,30,7,1,19,1575420030,36.80,193.0,17.0,1,0,0,31.8
Status,,30,8,1,15,1575420030,33.90,316.0,17.0,1,0,0,28.900002
Status,,30,9,1,2,1575420030,26.00,88.0,16.0,1,0,0,21.0
Status,,30,10,1,21,1575420030,21.10,70.0,13.0,1,0,0,16.1
Status,,30,11,1,8,1575420030,23.40,39.0,10.0,1,0,0,18.4
Status,,30,12,1,5,1575420030,19.90,263.0,7.0,1,0,0,14.9
Status,,30,13,1,9,1575420030,0.00,159.0,1.0,0,0,0,0.0
Status,,30,14,3,9,1602000000,31.20,15.0,54.0,1,0,0,26.2
Status,,30,15,3,8,1602000000,43.80,305.0,38.0,1,0,0,38.8
Status,,30,16,3,19,1602000000,22.30,88.0,32.0,1,0,0,17.3
Status,,30,17,3,16,1602000000,0.00,66.0,15.0,0,0,0,0.0
Status,,30,18,3,20,1602000000,0.00,150.0,9.0,0,0,0,0.0
Status,,30,19,3,11,1602000000,0.00,271.0,1.0,0,0,0,0.0
Status,,30,20,3,17,1602000000,50.40,0.0,0.0,0,0,0,45.4
Status,,30,21,6,29,1575420030,30.60,205.0,62.0,1,0,0,25.6
Status,,30,22,6,27,1575420030,26.20,36.0,59.0,1,0,0,21.2
Status,,30,23,6,21,1575420030,47.50,267.0,56.0,1,0,0,42.5
Status,,30,24,6,19,1575420030,39.90,298.0,50.0,1,0,0,34.9
Status,,30,25,6,7,1575420030,0.00,161.0,17.0,0,0,0,0.0
Status,,30,26,6,30,1575420030,0.00,58.0,11.0,0,0,0,0.0
Status,,30,27,6,15,1575420030,0.00,95.0,10.0,0,0,0,0.0
Status,,30,28,6,34,1575420030,0.00,48.0,6.0,0,0,0,0.0
Status,,30,29,6,13,1575420030,0.00,143.0,1.0,0,0,0,0.0
Fix,GPS,37.4243983333,-122.1712300000,15.500000000000004,0.30265668,1.6,244.09,1732146283000,0.8,101.8,25167044000000,34.7,0,,,
Raw,1732146283000,11751000000,,674965.6957681037,-1416181489249999872,0.0,91.78582750497436,2017.1480598859898,0.0,0,30,0.0,16431,344700932027078,42,39.33700180053711,679.118582105169,0.14999,16,0.0,0.0,1575420030,,,,0,27.089263017970048,1,6.0,39.33700180053711,0.0,0.0,0.0,66.7128,C,25167044000000,
Raw,1732146283000,11751000000,,674965.6957681037,-1416181489249999872,0.0,91.78582750497436,2017.1480598859898,0.0,0,22,0.0,16431,344700930572232,31,41.29899978637695,431.3828407941866,0.14999,16,0.0,0.0,1575420030,,,,0,29.17712130762276,1,6.0,41.29899978637695,0.0,0.0,0.0,66.7128,C,25167044000000,
Raw,1732146283000,11751000000,,674965.6957681037,-1416181489249999872,0.0,91.78582750497436,2017.1480598859898,0.0,0,19,0.0,16431,344700920283771,74,31.763999938964844,-94.29488196271359,0.14999,16,0.0,0.0,1575420030,,,,0,18.653349862272385,1,6.0,31.763999938964844,0.0,0.0,0.0,66.7128,C,25167044000000,
Raw,1732146283000,11751000000,,674965.6957681037,-1416181489249999872,0.0,91.78582750497436,2017.1480598859898,0.0,0,13,0.0,16431,344700929860617,42,38.81100082397461,282.4389238430168,0.14999,16,0.0,0.0,1575420030,,,,0,26.526292107920433,1,6.0,38.81100082397461,0.0,0.0,0.0,66.7128,C,25167044000000,
Raw,1732146283000,11751000000,,674965.6957681037,-1416181489249999872,0.0,91.78582750497436,2017.1480598859898,0.0,0,17,0.0,16431,344700929016456,31,41.803001403808594,102.81117423826736,0.14999,16,0.0,0.0,1575420030,,,,0,29.70702440040007,1,6.0,41.803001403808594,0.0,0.0,0.0,66.7128,C,25167044000000,
Raw,1732146283000,11751000000,,674965.6957681037,-1416181489249999872,0.0,91.78582750497436,2017.1480598859898,0.0,0,19,0.0,16431,344700920080210,51,34.900001525878906,401.0626381642868,0.14999,16,0.0,0.0,1575420030,,,,0,22.326783345876077,6,6.0,34.900001525878906,0.0,0.0,3.087393322661984,66.7128,C,25167044000000,
Raw,1732146283000,11751000000,,674965.6957681037,-1416181489249999872,0.0,91.78582750497436,2017.1480598859898,0.0,0,21,0.0,16431,344700919698916,31,42.5,420.71487343025797,0.14999,16,0.0,0.0,1575420030,,,,0,30.27313657717528,6,6.0,42.5,0.0,0.0,3.087393322661984,66.7128,C,25167044000000,
Raw,1732146283000,11751000000,,674965.6957681037,-1416181489249999872,0.0,91.78582750497436,2017.1480598859898,0.0,0,27,0.0,16431,344700920247426,316,21.200000762939453,846.8231973152298,0.14999,16,0.0,0.0,1575420030,,,,0,6.073697179255527,6,6.0,21.200000762939453,0.0,0.0,3.087393322661984,66.7128,C,25167044000000,
Raw,1732146283000,11751000000,,674965.6957681037,-1416181489249999872,0.0,91.78582750497436,2017.1480598859898,0.0,0,29,0.0,16431,344700921150915,74,25.600000381469727,878.3760811024438,0.14999,16,0.0,0.0,1575420030,,,,0,11.8207031467113,6,6.0,25.600000381469727,0.0,0.0,3.087393322661984,66.7128,C,25167044000000,
Raw,1732146283000,11751000000,,674965.6957681037,-1416181489249999872,0.0,91.78582750497436,2017.1480598859898,0.0,0,8,0.0,17,247505,42,5.0,386.5173687147482,0.14999,16,0.0,0.0,1605374980,,,,0,26.431503876253686,3,6.0,39.0,0.0,0.0,21.481584493997442,66.7128,C,25167044000000,
Raw,1732146283000,11751000000,,674965.6957681037,-1416181489249999872,0.0,91.78582750497436,2017.1480598859898,0.0,0,19,0.0,17,306898,797,17.0,288.4041898163314,0.14999,16,0.0,0.0,1603687550,,,,0,0.0,3,6.0,17.0,0.0,0.0,21.481584493997442,66.7128,C,25167044000000,
Raw,1732146283000,11751000000,,674965.6957681037,-1416181489249999872,0.0,91.78582750497436,2017.1480598859898,0.0,0,9,0.0,17,816312,235,5.0,727.2782891126952,0.14999,16,0.0,0.0,1600875010,,,,0,12.617296152933864,3,6.0,27.0,0.0,0.0,21.481584493997442,66.7128,C,25167044000000,
Raw,1732146283000,11751000000,,674965.6957681037,-1416181489249999872,0.0,91.78582750497436,2017.1480598859898,0.0,0,21,0.0,16431,344700920406238,797,16.059999465942383,567.001136682104,0.14999,16,0.0,0.0,1575420030,,,,0,0.0,1,6.0,16.059999465942383,0.0,0.0,0.0,66.7128,C,25167044000000,
Raw,1732146283000,11751000000,,674965.6957681037,-1416181489249999872,0.0,91.78582750497436,2017.1480598859898,0.0,0,5,0.0,16431,344700916946562,797,14.899999618530273,1033.3046783130228,0.14999,16,0.0,0.0,1575420030,,,,0,0.0,1,6.0,14.899999618530273,0.0,0.0,0.0,66.7128,C,25167044000000,
Raw,1732146283000,11751000000,,674965.6957681037,-1416181489249999872,0.0,91.78582750497436,2017.1480598859898,0.0,0,15,0.0,16431,344700922050418,74,28.86199951171875,103.66127033808779,0.14999,16,0.0,0.0,1575420030,,,,0,15.131524681158762,1,6.0,28.86199951171875,0.0,0.0,0.0,66.7128,C,25167044000000,
Raw,1732146283000,11751000000,,674965.6957681037,-1416181489249999872,0.0,91.78582750497436,2017.1480598859898,0.0,0,14,0.0,16431,344700932866546,42,39.972999572753906,580.1485432607728,0.14999,16,0.0,0.0,1575420030,,,,0,27.76882414023894,1,6.0,39.972999572753906,0.0,0.0,0.0,66.7128,C,25167044000000,
Raw,1732146283000,11751000000,,674965.6957681037,-1416181489249999872,0.0,91.78582750497436,2017.1480598859898,0.0,0,7,0.0,16431,344700926940011,316,26.211000442504883,947.2330289364069,0.14999,16,0.0,0.0,1575420030,,,,0,11.680605115338132,1,6.0,26.211000442504883,0.0,0.0,0.0,66.7128,C,25167044000000,
Raw,1732146283000,11751000000,,674965.6957681037,-1416181489249999872,0.0,91.78582750497436,2017.1480598859898,0.0,0,8,0.0,16431,344700918656334,797,18.354999542236328,1276.907339542667,0.14999,16,0.0,0.0,1575420030,,,,0,1.0085529018959165,1,6.0,18.354999542236328,0.0,0.0,0.0,66.7128,C,25167044000000,
Raw,1732146283000,11751000000,,674965.6957681037,-1416181489249999872,0.0,91.78582750497436,2017.1480598859898,0.0,0,2,0.0,16431,344700920095908,487,20.95599937438965,371.8027095091439,0.14999,16,0.0,0.0,1575420030,,,,0,3.8619029732705474,1,6.0,20.95599937438965,0.0,0.0,0.0,66.7128,C,25167044000000,
Fix,FLP,37.4244013000,-122.1712318000,2.0999999046325684,0.36189505,1.55,257.7954,1732146283196,0.8,101.8,25167044000000,0.9101897,0,,,
Status,1732146283000,30,0,1,14,1575420030,38.70,317.0,74.0,1,0,0,33.7
Status,1732146283000,30,1,1,30,1575420030,42.40,72.0,70.0,1,0,0,37.4
Status,1732146283000,30,2,1,22,1575420030,43.30,269.0,59.0,1,0,0,38.3
Status,1732146283000,30,3,1,13,1575420030,39.70,304.0,47.0,1,0,0,34.7
Status,1732146283000,30,4,1,17,1575420030,44.30,176.0,44.0,1,0,0,39.3
Status,1732146283000,30,5,1,7,1575420030,38.30,102.0,38.0,1,0,0,33.3
Status,1732146283000,30,6,2,131,1575420030,39.00,3.0,23.0,0,0,0,34.0
Status,1732146283000,30,7,1,19,1575420030,38.10,193.0,17.0,1,0,0,33.1
Status,1732146283000,30,8,1,15,1575420030,45.60,316.0,17.0,1,0,0,40.6
Status,1732146283000,30,9,1,2,1575420030,25.60,88.0,16.0,1,0,0,20.6
Status,1732146283000,30,10,1,21,1575420030,0.00,70.0,13.0,0,0,0,0.0
Status,1732146283000,30,11,1,8,1575420030,23.40,39.0,10.0,1,0,0,18.4
Status,1732146283000,30,12,1,5,1575420030,21.50,263.0,7.0,1,0,0,16.5
Status,1732146283000,30,13,1,9,1575420030,0.00,159.0,1.0,0,0,0,0.0
Status,1732146283000,30,14,3,9,1602000000,31.10,15.0,54.0,1,0,0,26.1
Status,1732146283000,30,15,3,8,1602000000,39.60,305.0,38.0,1,0,0,34.6
Status,1732146283000,30,16,3,19,1602000000,22.30,88.0,32.0,1,0,0,17.3
Status,1732146283000,30,17,3,16,1602000000,25.70,66.0,15.0,1,0,0,20.7
Status,1732146283000,30,18,3,20,1602000000,24.80,150.0,9.0,1,0,0,19.8
Status,1732146283000,30,19,3,11,1602000000,0.00,271.0,1.0,0,0,0,0.0
Status,1732146283000,30,20,3,17,1602000000,38.90,0.0,0.0,0,0,0,33.9
Status,1732146283000,30,21,6,29,1575420030,35.80,205.0,62.0,1,0,0,30.8
Status,1732146283000,30,22,6,27,1575420030,40.40,36.0,59.0,1,0,0,35.4
Status,1732146283000,30,23,6,21,1575420030,43.40,267.0,56.0,1,0,0,38.4
Status,1732146283000,30,24,6,19,1575420030,35.80,298.0,50.0,1,0,0,30.8
Status,1732146283000,30,25,6,7,1575420030,0.00,161.0,17.0,0,0,0,0.0
Status,1732146283000,30,26,6,30,1575420030,0.00,58.0,11.0,0,0,0,0.0
Status,1732146283000,30,27,6,15,1575420030,0.00,95.0,10.0,0,0,0,0.0
Status,1732146283000,30,28,6,34,1575420030,0.00,48.0,6.0,0,0,0,0.0
Status,1732146283000,30,29,6,13,1575420030,0.00,143.0,1.0,0,0,0,0.0
Fix,GPS,37.4243916667,-122.1712400000,15.500000000000004,0.4997953,1.6,232.56,1732146284000,0.8,62.1,25168044000000,32.8,0,,,
Raw,1732146284000,12751000000,,85.7385658644014,-1416181489249999872,0.0,85.7385658644014,2017.2470220479993,0.0,0,30,0.0,16431,344701932024810,51,37.41600036621094,679.8107660482899,0.14999,16,0.0,0.0,1575420030,,,,0,25.015225051467134,1,6.0,37.41600036621094,0.0,0.0,0.0,66.7128,C,25168044000000,
Raw,1732146284000,12751000000,,85.7385658644014,-1416181489249999872,0.0,85.7385658644014,2017.2470220479993,0.0,0,22,0.0,16431,344701930570795,51,38.297000885009766,431.4180562736742,0.14999,16,0.0,0.0,1575420030,,,,0,25.97210666867003,1,6.0,38.297000885009766,0.0,0.0,0.0,66.7128,C,25168044000000,
Raw,1732146284000,12751000000,,85.7385658644014,-1416181489249999872,0.0,85.7385658644014,2017.2470220479993,0.0,0,19,0.0,16431,344701920284088,58,33.09400177001953,-94.73516837314085,0.14999,16,0.0,0.0,1575420030,,,,0,20.199979760783755,1,6.0,33.09400177001953,0.0,0.0,0.0,66.7128,C,25168044000000,
Raw,1732146284000,12751000000,,85.7385658644014,-1416181489249999872,0.0,85.7385658644014,2017.2470220479993,0.0,0,13,0.0,16431,344701929859679,58,34.654998779296875,282.1182910835398,0.14999,16,0.0,0.0,1575420030,,,,0,21.96702394823957,1,6.0,34.654998779296875,0.0,0.0,0.0,66.7128,C,25168044000000,
Raw,1732146284000,12751000000,,85.7385658644014,-1416181489249999872,0.0,85.7385658644014,2017.2470220479993,0.0,0,17,0.0,16431,344701929016109,42,39.263999938964844,102.99617165161773,0.14999,16,0.0,0.0,1575420030,,,,0,27.011038335955064,1,6.0,39.263999938964844,0.0,0.0,0.0,66.7128,C,25168044000000,
Raw,1732146284000,12751000000,,85.7385658644014,-1416181489249999872,0.0,85.7385658644014,2017.2470220479993,0.0,0,19,0.0,16431,344701920078872,74,30.799999237060547,400.96786299521733,0.14999,16,0.0,0.0,1575420030,,,,0,17.893262674389096,6,6.0,30.799999237060547,0.0,0.0,3.3838729135397356,66.7128,C,25168044000000,
Raw,1732146284000,12751000000,,85.7385658644014,-1416181489249999872,0.0,85.7385658644014,2017.2470220479993,0.0,0,21,0.0,16431,344701919697517,42,38.400001525878906,420.56783254295163,0.14999,16,0.0,0.0,1575420030,,,,0,26.012885568164275,6,6.0,38.400001525878906,0.0,0.0,3.3838729135397356,66.7128,C,25168044000000,
Raw,1732146284000,12751000000,,85.7385658644014,-1416181489249999872,0.0,85.7385658644014,2017.2470220479993,0.0,0,27,0.0,16431,344701920244598,51,35.400001525878906,846.8698415651052,0.14999,16,0.0,0.0,1575420030,,,,0,22.908063166513053,6,6.0,35.400001525878906,0.0,0.0,3.3838729135397356,66.7128,C,25168044000000,
Raw,1732146284000,12751000000,,85.7385658644014,-1416181489249999872,0.0,85.7385658644014,2017.2470220479993,0.0,0,29,0.0,16431,344701921147984,74,30.799999237060547,878.1933136930716,0.14999,16,0.0,0.0,1575420030,,,,0,17.875977316170935,6,6.0,30.799999237060547,0.0,0.0,3.3838729135397356,66.7128,C,25168044000000,
Raw,1732146284000,12751000000,,85.7385658644014,-1416181489249999872,0.0,85.7385658644014,2017.2470220479993,0.0,0,8,0.0,17,246210,58,5.0,385.8302130281972,0.14999,16,0.0,0.0,1605374980,,,,0,22.055697373610958,3,6.0,35.0,0.0,0.0,22.064487497640496,66.7128,C,25168044000000,
Raw,1732146284000,12751000000,,85.7385658644014,-1416181489249999872,0.0,85.7385658644014,2017.2470220479993,0.0,0,19,0.0,17,305909,797,16.0,288.09181016293536,0.14999,16,0.0,0.0,1603687550,,,,0,0.0,3,6.0,16.0,0.0,0.0,22.064487497640496,66.7128,C,25168044000000,
Raw,1732146284000,12751000000,,85.7385658644014,-1416181489249999872,0.0,85.7385658644014,2017.2470220479993,0.0,0,20,0.0,17,626303,797,5.0,-177.1327646206183,0.14999,16,0.0,0.0,1603124990,,,,0,3.9164204584486177,3,6.0,17.0,0.0,0.0,22.064487497640496,66.7128,C,25168044000000,
Raw,1732146284000,12751000000,,85.7385658644014,-1416181489249999872,0.0,85.7385658644014,2017.2470220479993,0.0,0,16,0.0,17,566110,487,5.0,1089.0661143441953,0.14999,16,0.0,0.0,1601437440,,,,0,5.264029132099046,3,6.0,20.0,0.0,0.0,22.064487497640496,66.7128,C,25168044000000,
Raw,1732146284000,12751000000,,85.7385658644014,-1416181489249999872,0.0,85.7385658644014,2017.2470220479993,0.0,0,9,0.0,17,813883,316,5.0,727.395697291594,0.14999,16,0.0,0.0,1600875010,,,,0,12.479757550930188,3,6.0,24.0,0.0,0.0,22.064487497640496,66.7128,C,25168044000000,
Raw,1732146284000,12751000000,,85.7385658644014,-1416181489249999872,0.0,85.7385658644014,2017.2470220479993,0.0,0,5,0.0,16431,344701916943100,487,16.486000061035156,1032.4279150822974,0.14999,16,0.0,0.0,1575420030,,,,0,0.0,1,6.0,16.486000061035156,0.0,0.0,0.0,66.7128,C,25168044000000,
Raw,1732146284000,12751000000,,85.7385658644014,-1416181489249999872,0.0,85.7385658644014,2017.2470220479993,0.0,0,15,0.0,16431,344701922050072,42,40.55699920654297,103.36746731397234,0.14999,16,0.0,0.0,1575420030,,,,0,28.38874471654316,1,6.0,40.55699920654297,0.0,0.0,0.0,66.7128,C,25168044000000,
Raw,1732146284000,12751000000,,85.7385658644014,-1416181489249999872,0.0,85.7385658644014,2017.2470220479993,0.0,0,14,0.0,16431,344701932864609,58,33.68000030517578,579.809861406598,0.14999,16,0.0,0.0,1575420030,,,,0,20.862568127065927,1,6.0,33.68000030517578,0.0,0.0,0.0,66.7128,C,25168044000000,
Raw,1732146284000,12751000000,,85.7385658644014,-1416181489249999872,0.0,85.7385658644014,2017.2470220479993,0.0,0,7,0.0,16431,344701926936855,58,33.34600067138672,946.021393441636,0.14999,16,0.0,0.0,1575420030,,,,0,20.486496850611815,1,6.0,33.34600067138672,0.0,0.0,0.0,66.7128,C,25168044000000,
Raw,1732146284000,12751000000,,85.7385658644014,-1416181489249999872,0.0,85.7385658644014,2017.2470220479993,0.0,0,8,0.0,16431,344701918652073,797,18.402999877929688,1278.1347708989495,0.14999,16,0.0,0.0,1575420030,,,,0,1.0085529018959165,1,6.0,18.402999877929688,0.0,0.0,0.0,66.7128,C,25168044000000,
Raw,1732146284000,12751000000,,85.7385658644014,-1416181489249999872,0.0,85.7385658644014,2017.2470220479993,0.0,0,2,0.0,16431,344701920094662,487,20.55699920654297,371.5791051519226,0.14999,16,0.0,0.0,1575420030,,,,0,3.1376595201816526,1,6.0,20.55699920654297,0.0,0.0,0.0,66.7128,C,25168044000000,
Fix,FLP,37.4243963000,-122.1712378000,2.0999999046325684,0.45579898,1.55,237.44954,1732146284197,0.8,62.1,25168044000000,0.91675913,0,,,
Status,1732146284000,30,0,1,14,1575420030,39.60,317.0,74.0,1,0,0,34.6
Status,1732146284000,30,1,1,30,1575420030,34.90,72.0,70.0,1,0,0,29.900002
Status,1732146284000,30,2,1,22,1575420030,43.40,269.0,59.0,1,0,0,38.4
Status,1732146284000,30,3,1,13,1575420030,39.70,304.0,47.0,1,0,0,34.7
Status,1732146284000,30,4,1,17,1575420030,42.80,176.0,44.0,1,0,0,37.8
Status,1732146284000,30,5,1,7,1575420030,37.10,102.0,38.0,1,0,0,32.1
Status,1732146284000,30,6,2,131,1575420030,40.00,3.0,23.0,0,0,0,35.0
Status,1732146284000,30,7,1,19,1575420030,42.20,193.0,17.0,1,0,0,37.2
Status,1732146284000,30,8,1,15,1575420030,34.30,316.0,17.0,1,0,0,29.3
Status,1732146284000,30,9,1,2,1575420030,25.70,88.0,16.0,1,0,0,20.7
Status,1732146284000,30,10,1,21,1575420030,0.00,70.0,13.0,0,0,0,0.0
Status,1732146284000,30,11,1,8,1575420030,26.00,39.0,10.0,1,0,0,21.0
Status,1732146284000,30,12,1,5,1575420030,20.90,263.0,7.0,1,0,0,15.9
Status,1732146284000,30,13,1,9,1575420030,0.00,159.0,1.0,0,0,0,0.0
Status,1732146284000,30,14,3,9,1602000000,29.20,15.0,54.0,1,0,0,24.2
Status,1732146284000,30,15,3,8,1602000000,29.50,305.0,38.0,1,0,0,24.5
Status,1732146284000,30,16,3,19,1602000000,27.50,88.0,32.0,1,0,0,22.5
Status,1732146284000,30,17,3,16,1602000000,23.00,66.0,15.0,1,0,0,18.0
Status,1732146284000,30,18,3,20,1602000000,0.00,150.0,9.0,0,0,0,0.0
Status,1732146284000,30,19,3,11,1602000000,0.00,271.0,1.0,0,0,0,0.0
Status,1732146284000,30,20,3,17,1602000000,34.60,0.0,0.0,0,0,0,29.599998
Status,1732146284000,30,21,6,29,1575420030,33.40,205.0,62.0,1,0,0,28.400002
Status,1732146284000,30,22,6,27,1575420030,34.30,36.0,59.0,1,0,0,29.3
Status,1732146284000,30,23,6,21,1575420030,43.30,267.0,56.0,1,0,0,38.3
Status,1732146284000,30,24,6,19,1575420030,33.40,298.0,50.0,1,0,0,28.400002
Status,1732146284000,30,25,6,7,1575420030,0.00,161.0,17.0,0,0,0,0.0
Status,1732146284000,30,26,6,30,1575420030,0.00,58.0,11.0,0,0,0,0.0
Status,1732146284000,30,27,6,15,1575420030,0.00,95.0,10.0,0,0,0,0.0
Status,1732146284000,30,28,6,34,1575420030,0.00,48.0,6.0,0,0,0,0.0
Status,1732146284000,30,29,6,13,1575420030,0.00,143.0,1.0,0,0,0,0.0
Fix,GPS,37.4243900000,-122.1712466667,15.500000000000004,0.5049425,1.7,240.58,1732146285000,0.8,65.3,25169044000000,32.4,0,,,
Raw,1732146285000,13751000000,,84.55634897136684,-1416181489249999872,0.0,84.55634897136684,2016.2426178215426,0.0,0,30,0.0,16431,344702932022544,74,29.89699935913086,679.3281560206948,0.14999,16,0.0,0.0,1575420030,,,,0,16.4092201051252,1,6.0,29.89699935913086,0.0,0.0,0.0,66.7128,C,25169044000000,
Raw,1732146285000,13751000000,,84.55634897136684,-1416181489249999872,0.0,84.55634897136684,2016.2426178215426,0.0,0,22,0.0,16431,344702930569350,42,38.36600112915039,431.1365182714384,0.14999,17,5923.997471553195,0.00022499999613501132,1575420030,,,,0,27.458681533734286,1,6.0,38.36600112915039,0.0,0.0,0.0,66.7128,C,25169044000000,
Raw,1732146285000,13751000000,,84.55634897136684,-1416181489249999872,0.0,84.55634897136684,2016.2426178215426,0.0,0,19,0.0,16431,344702920284400,51,37.17499923706055,-94.74929173166886,0.14999,16,0.0,0.0,1575420030,,,,0,24.752698181118767,1,6.0,37.17499923706055,0.0,0.0,0.0,66.7128,C,25169044000000,
Raw,1732146285000,13751000000,,84.55634897136684,-1416181489249999872,0.0,84.55634897136684,2016.2426178215426,0.0,0,13,0.0,16431,344702929858739,58,34.72600173950195,281.63839887329306,0.14999,16,0.0,0.0,1575420030,,,,0,22.04232005749367,1,6.0,34.72600173950195,0.0,0.0,0.0,66.7128,C,25169044000000,
Raw,1732146285000,13751000000,,84.55634897136684,-1416181489249999872,0.0,84.55634897136684,2016.2426178215426,0.0,0,17,0.0,16431,344702929015765,51,37.79999923706055,102.80002421837683,0.14999,17,4181.481724432159,0.00022499999613501132,1575420030,,,,0,25.438286635247522,1,6.0,37.79999923706055,0.0,0.0,0.0,66.7128,C,25169044000000,
Raw,1732146285000,13751000000,,84.55634897136684,-1416181489249999872,0.0,84.55634897136684,2016.2426178215426,0.0,0,19,0.0,16431,344702920077533,235,28.399999618530273,400.6640714116166,0.14999,16,0.0,0.0,1575420030,,,,0,15.1788593467409,6,6.0,28.399999618530273,0.0,0.0,3.551666387099732,66.7128,C,25169044000000,
Raw,1732146285000,13751000000,,84.55634897136684,-1416181489249999872,0.0,84.55634897136684,2016.2426178215426,0.0,0,21,0.0,16431,344702919696114,51,38.314998626708984,420.33591212922863,0.14999,16,0.0,0.0,1575420030,,,,0,24.235912946595416,6,6.0,38.314998626708984,0.0,0.0,3.551666387099732,66.7128,C,25169044000000,
Raw,1732146285000,13751000000,,84.55634897136684,-1416181489249999872,0.0,84.55634897136684,2016.2426178215426,0.0,0,27,0.0,16431,344702920241780,74,29.299999237060547,846.4757812788074,0.14999,17,11215.88229345639,0.0006249999860301614,1575420030,,,,0,16.13873941079193,6,6.0,29.299999237060547,0.0,0.0,3.551666387099732,66.7128,C,25169044000000,
Raw,1732146285000,13751000000,,84.55634897136684,-1416181489249999872,0.0,84.55634897136684,2016.2426178215426,0.0,0,29,0.0,16431,344702921145051,235,28.399999618530273,877.9419736613726,0.14999,16,0.0,0.0,1575420030,,,,0,15.202430296451757,6,6.0,28.399999618530273,0.0,0.0,3.551666387099732,66.7128,C,25169044000000,
Raw,1732146285000,13751000000,,84.55634897136684,-1416181489249999872,0.0,84.55634897136684,2016.2426178215426,0.0,0,8,0.0,17,244919,396,5.0,385.8547868681024,0.14999,16,0.0,0.0,1605374980,,,,0,10.395446038670784,3,6.0,23.0,0.0,0.0,22.283163116919514,66.7128,C,25169044000000,
Raw,1732146285000,13751000000,,84.55634897136684,-1416181489249999872,0.0,84.55634897136684,2016.2426178215426,0.0,0,19,0.0,17,304923,487,20.0,287.24572203312573,0.14999,16,0.0,0.0,1603687550,,,,0,7.826583055929386,3,6.0,20.0,0.0,0.0,22.283163116919514,66.7128,C,25169044000000,
Raw,1732146285000,13751000000,,84.55634897136684,-1416181489249999872,0.0,84.55634897136684,2016.2426178215426,0.0,0,16,0.0,17,562470,487,5.0,1092.778894993857,0.14999,16,0.0,0.0,1601437440,,,,0,0.8961271848002319,3,6.0,20.0,0.0,0.0,22.283163116919514,66.7128,C,25169044000000,
Raw,1732146285000,13751000000,,84.55634897136684,-1416181489249999872,0.0,84.55634897136684,2016.2426178215426,0.0,0,9,0.0,17,811447,316,5.0,727.2479769543581,0.14999,16,0.0,0.0,1600875010,,,,0,10.070069647289188,3,6.0,24.0,0.0,0.0,22.283163116919514,66.7128,C,25169044000000,
Raw,1732146285000,13751000000,,84.55634897136684,-1416181489249999872,0.0,84.55634897136684,2016.2426178215426,0.0,0,5,0.0,16431,344702916939651,487,15.949000358581543,1034.7954359723865,0.14999,16,0.0,0.0,1575420030,,,,0,0.0,1,6.0,15.949000358581543,0.0,0.0,0.0,66.7128,C,25169044000000,
Raw,1732146285000,13751000000,,84.55634897136684,-1416181489249999872,0.0,84.55634897136684,2016.2426178215426,0.0,0,15,0.0,16431,344702922049730,235,29.2549991607666,103.3685823159614,0.14999,16,0.0,0.0,1575420030,,,,0,15.616122273648775,1,6.0,29.2549991607666,0.0,0.0,0.0,66.7128,C,25169044000000,
Raw,1732146285000,13751000000,,84.55634897136684,-1416181489249999872,0.0,84.55634897136684,2016.2426178215426,0.0,0,14,0.0,16431,344702932862669,58,34.57500076293945,579.6902774432721,0.14999,16,0.0,0.0,1575420030,,,,0,21.88016432802393,1,6.0,34.57500076293945,0.0,0.0,0.0,66.7128,C,25169044000000,
Raw,1732146285000,13751000000,,84.55634897136684,-1416181489249999872,0.0,84.55634897136684,2016.2426178215426,0.0,0,7,0.0,16431,344702926933698,235,32.09199905395508,945.9979783998659,0.14999,16,0.0,0.0,1575420030,,,,0,19.04014082123002,1,6.0,32.09199905395508,0.0,0.0,0.0,66.7128,C,25169044000000,
Raw,1732146285000,13751000000,,84.55634897136684,-1416181489249999872,0.0,84.55634897136684,2016.2426178215426,0.0,0,8,0.0,16431,344702918647802,487,20.95599937438965,1277.9211551012133,0.14999,16,0.0,0.0,1575420030,,,,0,3.8619029732705474,1,6.0,20.95599937438965,0.0,0.0,0.0,66.7128,C,25169044000000,
Raw,1732146285000,13751000000,,84.55634897136684,-1416181489249999872,0.0,84.55634897136684,2016.2426178215426,0.0,0,2,0.0,16431,344702920093416,487,20.67799949645996,372.243181753236,0.14999,16,0.0,0.0,1575420030,,,,0,7.089263017970046,1,6.0,20.67799949645996,0.0,0.0,0.0,66.7128,C,25169044000000,
Fix,FLP,37.4243922000,-122.1712444000,2.0999999046325684,0.49224117,1.583,239.1217,1732146285196,0.8,65.3,25169044000000,0.92503136,0,,,
Status,1732146285000,30,0,1,14,1575420030,46.50,317.0,74.0,1,0,0,41.5
Status,1732146285000,30,1,1,30,1575420030,48.50,72.0,70.0,1,0,0,43.5
Status,1732146285000,30,2,1,22,1575420030,42.10,269.0,59.0,1,0,0,37.1
Status,1732146285000,30,3,1,13,1575420030,45.60,304.0,47.0,1,0,0,40.6
Status,1732146285000,30,4,1,17,1575420030,33.70,176.0,44.0,1,0,0,28.7
Status,1732146285000,30,5,1,7,1575420030,40.20,102.0,38.0,1,0,0,35.2
Status,1732146285000,30,6,2,131,1575420030,38.00,3.0,23.0,0,0,0,33.0
Status,1732146285000,30,7,1,19,1575420030,42.80,193.0,17.0,1,0,0,37.8
Status,1732146285000,30,8,1,15,1575420030,44.00,316.0,17.0,1,0,0,39.0
Status,1732146285000,30,9,1,2,1575420030,25.70,88.0,16.0,1,0,0,20.7
Status,1732146285000,30,10,1,21,1575420030,0.00,70.0,13.0,0,0,0,0.0
Status,1732146285000,30,11,1,8,1575420030,26.00,39.0,10.0,1,0,0,21.0
Status,1732146285000,30,12,1,5,1575420030,0.00,263.0,7.0,0,0,0,0.0
Status,1732146285000,30,13,1,9,1575420030,0.00,159.0,1.0,0,0,0,0.0
Status,1732146285000,30,14,3,9,1602000000,33.00,15.0,54.0,1,0,0,28.0
Status,1732146285000,30,15,3,8,1602000000,33.30,305.0,38.0,1,0,0,28.3
Status,1732146285000,30,16,3,19,1602000000,27.40,88.0,32.0,1,0,0,22.4
Status,1732146285000,30,17,3,16,1602000000,23.80,66.0,15.0,1,0,0,18.8
Status,1732146285000,30,18,3,20,1602000000,0.00,150.0,9.0,0,0,0,0.0
Status,1732146285000,30,19,3,11,1602000000,0.00,271.0,1.0,0,0,0,0.0
Status,1732146285000,30,20,3,17,1602000000,39.80,0.0,0.0,0,0,0,34.8
Status,1732146285000,30,21,6,29,1575420030,38.50,205.0,62.0,1,0,0,33.5
Status,1732146285000,30,22,6,27,1575420030,38.70,36.0,59.0,1,0,0,33.7
Status,1732146285000,30,23,6,21,1575420030,37.50,267.0,56.0,1,0,0,32.5
Status,1732146285000,30,24,6,19,1575420030,37.10,298.0,50.0,1,0,0,32.1
Status,1732146285000,30,25,6,7,1575420030,0.00,161.0,17.0,0,0,0,0.0
Status,1732146285000,30,26,6,30,1575420030,0.00,58.0,11.0,0,0,0,0.0
Status,1732146285000,30,27,6,15,1575420030,0.00,95.0,10.0,0,0,0,0.0
Status,1732146285000,30,28,6,34,1575420030,0.00,48.0,6.0,0,0,0,0.0
Status,1732146285000,30,29,6,13,1575420030,0.00,143.0,1.0,0,0,0,0.0
Fix,GPS,37.4243900000,-122.1712500000,15.500000000000004,0.34126082,1.7,231.53,1732146286000,0.8,97.9,25170044000000,31.0,0,,,
Fix,FLP,37.4243900000,-122.1712493000,2.0999999046325684,0.38728672,1.616,234.30055,1732146286196,0.8,97.9,25170044000000,0.93502754,0,,,
Raw,1732146286000,14751000000,,83.10534057644912,-1416181489249999872,0.0,83.10534057644912,2015.0704128620773,0.0,0,30,0.0,16431,344703932020282,31,43.53799819946289,679.2608842340219,0.14999,16,0.0,0.0,1575420030,,,,0,31.52384157225243,1,6.0,43.53799819946289,0.0,0.0,0.0,66.7128,C,25170044000000,
Raw,1732146286000,14751000000,,83.10534057644912,-1416181489249999872,0.0,83.10534057644912,2015.0704128620773,0.0,0,22,0.0,16431,344703930567912,51,37.05400085449219,430.5464963855645,0.14999,17,6354.90095150527,0.00022499999613501132,1575420030,,,,0,24.626355740644918,1,6.0,37.05400085449219,0.0,0.0,0.0,66.7128,C,25170044000000,
Raw,1732146286000,14751000000,,83.10534057644912,-1416181489249999872,0.0,83.10534057644912,2015.0704128620773,0.0,0,19,0.0,16431,344703920284713,51,37.76900100708008,-95.17424686474665,0.14999,16,0.0,0.0,1575420030,,,,0,25.401989509137554,1,6.0,37.76900100708008,0.0,0.0,0.0,66.7128,C,25170044000000,
Raw,1732146286000,14751000000,,83.10534057644912,-1416181489249999872,0.0,83.10534057644912,2015.0704128620773,0.0,0,13,0.0,16431,344703929857798,42,40.56999969482422,281.9427711870964,0.14999,17,4245.228795273005,0.00022499999613501132,1575420030,,,,0,28.40420462505305,1,6.0,40.56999969482422,0.0,0.0,0.0,66.7128,C,25170044000000,
Raw,1732146286000,14751000000,,83.10534057644912,-1416181489249999872,0.0,83.10534057644912,2015.0704128620773,0.0,0,17,0.0,16431,344703929015425,235,28.73900032043457,103.27329610431359,0.14999,16,0.0,0.0,1575420030,,,,0,14.987952988616293,1,6.0,28.73900032043457,0.0,0.0,0.0,66.7128,C,25170044000000,
Raw,1732146286000,14751000000,,83.10534057644912,-1416181489249999872,0.0,83.10534057644912,2015.0704128620773,0.0,0,7,0.0,16431,344703926930523,235,35.17100143432617,946.2371463265177,0.14999,16,0.0,0.0,1575420030,,,,0,22.541766249895396,1,6.0,35.17100143432617,0.0,0.0,0.0,66.7128,C,25170044000000,
Raw,1732146286000,14751000000,,83.10534057644912,-1416181489249999872,0.0,83.10534057644912,2015.0704128620773,0.0,0,14,0.0,16431,344703932860744,31,41.50600051879883,579.4505984740418,0.14999,16,0.0,0.0,1575420030,,,,0,29.395733550171343,1,6.0,41.50600051879883,0.0,0.0,0.0,66.7128,C,25170044000000,
Raw,1732146286000,14751000000,,83.10534057644912,-1416181489249999872,0.0,83.10534057644912,2015.0704128620773,0.0,0,15,0.0,16431,344703922049408,42,39.01599884033203,103.5405249143566,0.14999,16,0.0,0.0,1575420030,,,,0,26.747158448510362,1,6.0,39.01599884033203,0.0,0.0,0.0,66.7128,C,25170044000000,
Raw,1732146286000,14751000000,,83.10534057644912,-1416181489249999872,0.0,83.10534057644912,2015.0704128620773,0.0,0,19,0.0,16431,344703920076199,58,32.099998474121094,400.57765875746503,0.14999,16,0.0,0.0,1575420030,,,,0,19.33763187289442,6,6.0,32.099998474121094,0.0,0.0,4.032316462396028,66.7128,C,25170044000000,
Raw,1732146286000,14751000000,,83.10534057644912,-1416181489249999872,0.0,83.10534057644912,2015.0704128620773,0.0,0,21,0.0,16431,344703919694710,74,32.5,420.08062313215174,0.14999,16,0.0,0.0,1575420030,,,,0,19.709736763235625,6,6.0,32.5,0.0,0.0,4.032316462396028,66.7128,C,25170044000000,
Raw,1732146286000,14751000000,,83.10534057644912,-1416181489249999872,0.0,83.10534057644912,2015.0704128620773,0.0,0,27,0.0,16431,344703920238955,58,33.70000076293945,846.1508511158308,0.14999,16,0.0,0.0,1575420030,,,,0,21.068663104690422,6,6.0,33.70000076293945,0.0,0.0,4.032316462396028,66.7128,C,25170044000000,
Raw,1732146286000,14751000000,,83.10534057644912,-1416181489249999872,0.0,83.10534057644912,2015.0704128620773,0.0,0,29,0.0,16431,344703921142123,58,33.5,877.5624084009324,0.14999,16,0.0,0.0,1575420030,,,,0,20.87482767693188,6,6.0,33.5,0.0,0.0,4.032316462396028,66.7128,C,25170044000000,
Raw,1732146286000,14751000000,,83.10534057644912,-1416181489249999872,0.0,83.10534057644912,2015.0704128620773,0.0,0,8,0.0,17,243632,235,5.0,386.1138379967504,0.14999,16,0.0,0.0,1605374980,,,,0,15.087906791726489,3,6.0,29.0,0.0,0.0,23.10889038126145,66.7128,C,25170044000000,
Raw,1732146286000,14751000000,,83.10534057644912,-1416181489249999872,0.0,83.10534057644912,2015.0704128620773,0.0,0,19,0.0,17,303961,487,20.0,288.0771826987066,0.14999,16,0.0,0.0,1603687550,,,,0,4.183274920571898,3,6.0,20.0,0.0,0.0,23.10889038126145,66.7128,C,25170044000000,
Raw,1732146286000,14751000000,,83.10534057644912,-1416181489249999872,0.0,83.10534057644912,2015.0704128620773,0.0,0,16,0.0,17,558821,797,5.0,1095.6423192548077,0.14999,16,0.0,0.0,1601437440,,,,0,2.3206389369979967,3,6.0,17.0,0.0,0.0,23.10889038126145,66.7128,C,25170044000000,
Raw,1732146286000,14751000000,,83.10534057644912,-1416181489249999872,0.0,83.10534057644912,2015.0704128620773,0.0,0,9,0.0,17,809017,235,5.0,727.0745621480642,0.14999,16,0.0,0.0,1600875010,,,,0,14.647709894240393,3,6.0,28.0,0.0,0.0,23.10889038126145,66.7128,C,25170044000000,
Raw,1732146286000,14751000000,,83.10534057644912,-1416181489249999872,0.0,83.10534057644912,2015.0704128620773,0.0,0,8,0.0,16431,344703918643536,797,20.95599937438965,1279.5008341692042,0.14999,16,0.0,0.0,1575420030,,,,0,3.8619029732705474,1,6.0,20.95599937438965,0.0,0.0,0.0,66.7128,C,25170044000000,
Raw,1732146286000,14751000000,,83.10534057644912,-1416181489249999872,0.0,83.10534057644912,2015.0704128620773,0.0,0,2,0.0,16431,344703920092172,797,20.709999084472656,371.75541484144156,0.14999,16,0.0,0.0,1575420030,,,,0,4.449578526974741,1,6.0,20.709999084472656,0.0,0.0,0.0,66.7128,C,25170044000000,
Status,1732146286000,30,0,1,14,1575420030,43.20,317.0,74.0,1,0,0,38.2
Status,1732146286000,30,1,1,30,1575420030,47.20,72.0,70.0,1,0,0,42.2
Status,1732146286000,30,2,1,22,1575420030,45.70,269.0,59.0,1,0,0,40.7
Status,1732146286000,30,3,1,13,1575420030,40.50,304.0,47.0,1,0,0,35.5
Status,1732146286000,30,4,1,17,1575420030,34.10,176.0,44.0,1,0,0,29.099998
Status,1732146286000,30,5,1,7,1575420030,41.10,102.0,38.0,1,0,0,36.1
Status,1732146286000,30,6,2,131,1575420030,43.00,3.0,23.0,0,0,0,38.0
Status,1732146286000,30,7,1,19,1575420030,38.30,193.0,17.0,1,0,0,33.3
Status,1732146286000,30,8,1,15,1575420030,35.00,316.0,17.0,1,0,0,30.0
Status,1732146286000,30,9,1,2,1575420030,25.70,88.0,16.0,1,0,0,20.7
Status,1732146286000,30,10,1,21,1575420030,0.00,70.0,13.0,0,0,0,0.0
Status,1732146286000,30,11,1,8,1575420030,26.00,39.0,10.0,1,0,0,21.0
Status,1732146286000,30,12,1,5,1575420030,26.60,263.0,7.0,1,0,0,21.6
Status,1732146286000,30,13,1,9,1575420030,0.00,159.0,1.0,0,0,0,0.0
Status,1732146286000,30,14,3,9,1602000000,35.90,15.0,54.0,1,0,0,30.900002
Status,1732146286000,30,15,3,8,1602000000,41.30,305.0,38.0,1,0,0,36.3
Status,1732146286000,30,16,3,19,1602000000,29.00,88.0,32.0,1,0,0,24.0
Status,1732146286000,30,17,3,16,1602000000,23.20,66.0,15.0,1,0,0,18.2
Status,1732146286000,30,18,3,20,1602000000,0.00,150.0,9.0,0,0,0,0.0
Status,1732146286000,30,19,3,11,1602000000,0.00,271.0,1.0,0,0,0,0.0
Status,1732146286000,30,20,3,17,1602000000,34.30,0.0,0.0,0,0,0,29.3
Status,1732146286000,30,21,6,29,1575420030,39.10,205.0,62.0,1,0,0,34.1
Status,1732146286000,30,22,6,27,1575420030,46.10,36.0,59.0,1,0,0,41.1
Status,1732146286000,30,23,6,21,1575420030,41.70,267.0,56.0,1,0,0,36.7
Status,1732146286000,30,24,6,19,1575420030,28.50,298.0,50.0,1,0,0,23.5
Status,1732146286000,30,25,6,7,1575420030,0.00,161.0,17.0,0,0,0,0.0
Status,1732146286000,30,26,6,30,1575420030,0.00,58.0,11.0,0,0,0,0.0
Status,1732146286000,30,27,6,15,1575420030,0.00,95.0,10.0,0,0,0,0.0
Status,1732146286000,30,28,6,34,1575420030,0.00,48.0,6.0,0,0,0,0.0
Status,1732146286000,30,29,6,13,1575420030,0.00,143.0,1.0,0,0,0,0.0
Fix,GPS,37.4243916667,-122.1712533333,15.400000000000002,0.17860861,1.6,251.33,1732146287000,0.8,179.9,25171044000000,34.8,0,,,
Fix,FLP,37.4243899000,-122.1712528000,2.0999999046325684,0.23989622,1.633,246.27086,1732146287196,0.8,179.9,25171044000000,0.9450174,0,,,
Raw,1732146287000,15751000000,,91.80068967474332,-1416181489249999872,0.0,91.80068967474332,2014.402537854046,0.0,0,30,0.0,16431,344704932018017,31,42.18199920654297,679.4129890886952,0.14999,17,10648.363421280386,0.00022499999613501132,1575420030,,,,0,30.105450102066122,1,6.0,42.18199920654297,0.0,0.0,0.0,66.7128,C,25171044000000,
Raw,1732146287000,15751000000,,91.80068967474332,-1416181489249999872,0.0,91.80068967474332,2014.402537854046,0.0,0,22,0.0,16431,344704930566474,42,40.680999755859375,431.36040137915694,0.14999,16,0.0,0.0,1575420030,,,,0,28.521825181113627,1,6.0,40.680999755859375,0.0,0.0,0.0,66.7128,C,25171044000000,
Raw,1732146287000,15751000000,,91.80068967474332,-1416181489249999872,0.0,91.80068967474332,2014.402537854046,0.0,0,19,0.0,16431,344704920285028,58,33.30500030517578,-94.61196065335051,0.14999,16,0.0,0.0,1575420030,,,,0,20.435100903976945,1,6.0,33.30500030517578,0.0,0.0,0.0,66.7128,C,25171044000000,
Raw,1732146287000,15751000000,,91.80068967474332,-1416181489249999872,0.0,91.80068967474332,2014.402537854046,0.0,0,13,0.0,16431,344704929856854,51,35.45899963378906,282.4281222612479,0.14999,16,0.0,0.0,1575420030,,,,0,22.86920006079301,1,6.0,35.45899963378906,0.0,0.0,0.0,66.7128,C,25171044000000,
Raw,1732146287000,15751000000,,91.80068967474332,-1416181489249999872,0.0,91.80068967474332,2014.402537854046,0.0,0,14,0.0,16431,344704932858804,51,38.150001525878906,579.7732986330403,0.14999,16,0.0,0.0,1575420030,,,,0,25.813989550758766,1,6.0,38.150001525878906,0.0,0.0,0.0,66.7128,C,25171044000000,
Raw,1732146287000,15751000000,,91.80068967474332,-1416181489249999872,0.0,91.80068967474332,2014.402537854046,0.0,0,15,0.0,16431,344704922049049,74,30.018999099731445,103.40361196178415,0.14999,16,0.0,0.0,1575420030,,,,0,16.571577909568788,1,6.0,30.018999099731445,0.0,0.0,0.0,66.7128,C,25171044000000,
Raw,1732146287000,15751000000,,91.80068967474332,-1416181489249999872,0.0,91.80068967474332,2014.402537854046,0.0,0,19,0.0,16431,344704920074862,235,23.5,400.9362712721942,0.14999,16,0.0,0.0,1575420030,,,,0,9.110924767879139,6,6.0,23.5,0.0,0.0,4.523525813368383,66.7128,C,25171044000000,
Raw,1732146287000,15751000000,,91.80068967474332,-1416181489249999872,0.0,91.80068967474332,2014.402537854046,0.0,0,21,0.0,16431,344704919693306,51,36.70000076293945,420.3308946202779,0.14999,16,0.0,0.0,1575420030,,,,0,24.227589141801168,6,6.0,36.70000076293945,0.0,0.0,4.523525813368383,66.7128,C,25171044000000,
Raw,1732146287000,15751000000,,91.80068967474332,-1416181489249999872,0.0,91.80068967474332,2014.402537854046,0.0,0,27,0.0,16431,344704920236132,31,41.099998474121094,846.4534812390264,0.14999,16,0.0,0.0,1575420030,,,,0,28.826274197072046,6,6.0,41.099998474121094,0.0,0.0,4.523525813368383,66.7128,C,25171044000000,
Raw,1732146287000,15751000000,,91.80068967474332,-1416181489249999872,0.0,91.80068967474332,2014.402537854046,0.0,0,29,0.0,16431,344704921139193,58,34.099998474121094,878.0108250341966,0.14999,16,0.0,0.0,1575420030,,,,0,21.443820563272006,6,6.0,34.099998474121094,0.0,0.0,4.523525813368383,66.7128,C,25171044000000,
Raw,1732146287000,15751000000,,91.80068967474332,-1416181489249999872,0.0,91.80068967474332,2014.402537854046,0.0,0,8,0.0,17,242343,51,5.0,386.3620383389468,0.14999,16,0.0,0.0,1605374980,,,,0,23.871562181909724,3,6.0,36.0,0.0,0.0,24.102751485787156,66.7128,C,25171044000000,
Raw,1732146287000,15751000000,,91.80068967474332,-1416181489249999872,0.0,91.80068967474332,2014.402537854046,0.0,0,19,0.0,17,303048,396,22.0,287.9840096309284,0.14999,16,0.0,0.0,1603687550,,,,0,9.764783316090515,3,6.0,22.0,0.0,0.0,24.102751485787156,66.7128,C,25171044000000,
Raw,1732146287000,15751000000,,91.80068967474332,-1416181489249999872,0.0,91.80068967474332,2014.402537854046,0.0,0,16,0.0,17,555183,487,5.0,1090.1876815944622,0.14999,16,0.0,0.0,1601437440,,,,0,1.233485690546142,3,6.0,20.0,0.0,0.0,24.102751485787156,66.7128,C,25171044000000,
Raw,1732146287000,15751000000,,91.80068967474332,-1416181489249999872,0.0,91.80068967474332,2014.402537854046,0.0,0,9,0.0,17,806587,74,5.0,726.5795092815861,0.14999,16,0.0,0.0,1600875010,,,,0,18.01704423736745,3,6.0,31.0,0.0,0.0,24.102751485787156,66.7128,C,25171044000000,
Raw,1732146287000,15751000000,,91.80068967474332,-1416181489249999872,0.0,91.80068967474332,2014.402537854046,0.0,0,5,0.0,16431,344704916932956,396,21.645999908447266,1033.9155135693588,0.14999,16,0.0,0.0,1575420030,,,,0,5.0,1,6.0,21.645999908447266,0.0,0.0,0.0,66.7128,C,25171044000000,
Raw,1732146287000,15751000000,,91.80068967474332,-1416181489249999872,0.0,91.80068967474332,2014.402537854046,0.0,0,17,0.0,16431,344704929015076,235,29.10300064086914,103.32955724634455,0.14999,16,0.0,0.0,1575420030,,,,0,15.434687172631996,1,6.0,29.10300064086914,0.0,0.0,0.0,66.7128,C,25171044000000,
Raw,1732146287000,15751000000,,91.80068967474332,-1416181489249999872,0.0,91.80068967474332,2014.402537854046,0.0,0,7,0.0,16431,344704926927377,51,36.13399887084961,946.6629841695035,0.14999,16,0.0,0.0,1575420030,,,,0,23.615228271796042,1,6.0,36.13399887084961,0.0,0.0,0.0,66.7128,C,25171044000000,
Raw,1732146287000,15751000000,,91.80068967474332,-1416181489249999872,0.0,91.80068967474332,2014.402537854046,0.0,0,8,0.0,16431,344704918639271,797,20.95599937438965,1278.1575355228927,0.14999,16,0.0,0.0,1575420030,,,,0,3.8619029732705474,1,6.0,20.95599937438965,0.0,0.0,0.0,66.7128,C,25171044000000,
Raw,1732146287000,15751000000,,91.80068967474332,-1416181489249999872,0.0,91.80068967474332,2014.402537854046,0.0,0,2,0.0,16431,344704920090934,487,20.740999221801758,371.9671723025292,0.14999,16,0.0,0.0,1575420030,,,,0,4.449578526974741,1,6.0,20.740999221801758,0.0,0.0,0.0,66.7128,C,25171044000000,
Status,1732146287000,30,0,1,14,1575420030,43.50,317.0,74.0,1,0,0,38.5
Status,1732146287000,30,1,1,30,1575420030,49.60,72.0,70.0,1,0,0,44.6
Status,1732146287000,30,2,1,22,1575420030,39.50,269.0,59.0,1,0,0,34.5
Status,1732146287000,30,3,1,13,1575420030,43.50,304.0,47.0,1,0,0,38.5
Status,1732146287000,30,4,1,17,1575420030,40.00,176.0,44.0,1,0,0,35.0
Status,1732146287000,30,5,1,7,1575420030,33.30,102.0,38.0,1,0,0,28.3
Status,1732146287000,30,6,2,131,1575420030,37.00,3.0,23.0,0,0,0,32.0
Status,1732146287000,30,7,1,19,1575420030,40.40,193.0,17.0,1,0,0,35.4
Status,1732146287000,30,8,1,15,1575420030,34.10,316.0,17.0,1,0,0,29.099998
Status,1732146287000,30,9,1,2,1575420030,25.70,88.0,16.0,1,0,0,20.7
Status,1732146287000,30,10,1,21,1575420030,0.00,70.0,13.0,0,0,0,0.0
Status,1732146287000,30,11,1,8,1575420030,21.20,39.0,10.0,1,0,0,16.2
Status,1732146287000,30,12,1,5,1575420030,0.00,263.0,7.0,0,0,0,0.0
Status,1732146287000,30,13,1,9,1575420030,0.00,159.0,1.0,0,0,0,0.0
Status,1732146287000,30,14,3,9,1602000000,40.20,15.0,54.0,1,0,0,35.2
Status,1732146287000,30,15,3,8,1602000000,32.60,305.0,38.0,1,0,0,27.599998
Status,1732146287000,30,16,3,19,1602000000,28.90,88.0,32.0,1,0,0,23.9
Status,1732146287000,30,17,3,16,1602000000,23.20,66.0,15.0,1,0,0,18.2
Status,1732146287000,30,18,3,20,1602000000,0.00,150.0,9.0,0,0,0,0.0
Status,1732146287000,30,19,3,11,1602000000,0.00,271.0,1.0,0,0,0,0.0
Status,1732146287000,30,20,3,17,1602000000,41.50,0.0,0.0,0,0,0,36.5
Status,1732146287000,30,21,6,29,1575420030,42.50,205.0,62.0,1,0,0,37.5
Status,1732146287000,30,22,6,27,1575420030,46.00,36.0,59.0,1,0,0,41.0
Status,1732146287000,30,23,6,21,1575420030,36.10,267.0,56.0,1,0,0,31.099998
Status,1732146287000,30,24,6,19,1575420030,33.70,298.0,50.0,1,0,0,28.7
Status,1732146287000,30,25,6,7,1575420030,0.00,161.0,17.0,0,0,0,0.0
Status,1732146287000,30,26,6,30,1575420030,0.00,58.0,11.0,0,0,0,0.0
Status,1732146287000,30,27,6,15,1575420030,0.00,95.0,10.0,0,0,0,0.0
Status,1732146287000,30,28,6,34,1575420030,0.00,48.0,6.0,0,0,0,0.0
Status,1732146287000,30,29,6,13,1575420030,0.00,143.0,1.0,0,0,0,0.0
Fix,GPS,37.4243933333,-122.1712483333,15.400000000000002,0.08132611,1.6,46.74,1732146288000,0.8,179.9,25172044000000,33.4,0,,,
Raw,1732146288000,16751000000,,86.96246172753717,-1416181489249999872,0.0,86.96246172753717,2015.382416729264,0.0,0,30,0.0,16431,344705932015752,28,44.59199905395508,679.5907389891167,0.14999,17,11327.722446015001,0.00022499999613501132,1575420030,,,,0,32.62325198234043,1,6.0,44.59199905395508,0.0,0.0,0.0,66.7128,C,25172044000000,
Raw,1732146288000,16751000000,,86.96246172753717,-1416181489249999872,0.0,86.96246172753717,2015.382416729264,0.0,0,22,0.0,16431,344705930565033,58,34.54800033569336,432.3044828549713,0.14999,16,0.0,0.0,1575420030,,,,0,21.847366719622624,1,6.0,34.54800033569336,0.0,0.0,0.0,66.7128,C,25172044000000,
Raw,1732146288000,16751000000,,86.96246172753717,-1416181489249999872,0.0,86.96246172753717,2015.382416729264,0.0,0,19,0.0,16431,344705920285345,51,35.44200134277344,-94.49758003264016,0.14999,17,-1385.9725840726803,0.00022499999613501132,1575420030,,,,0,22.849703106168803,1,6.0,35.44200134277344,0.0,0.0,0.0,66.7128,C,25172044000000,
Raw,1732146288000,16751000000,,86.96246172753717,-1416181489249999872,0.0,86.96246172753717,2015.382416729264,0.0,0,13,0.0,16431,344705929855909,42,38.4640007019043,282.6506580748964,0.14999,16,0.0,0.0,1575420030,,,,0,26.15412265791401,1,6.0,38.4640007019043,0.0,0.0,0.0,66.7128,C,25172044000000,
Raw,1732146288000,16751000000,,86.96246172753717,-1416181489249999872,0.0,86.96246172753717,2015.382416729264,0.0,0,14,0.0,16431,344705932856866,42,38.45800018310547,580.3174196036981,0.14999,17,10052.219497935963,0.00022499999613501132,1575420030,,,,0,26.147448904502273,1,6.0,38.45800018310547,0.0,0.0,0.0,66.7128,C,25172044000000,
Raw,1732146288000,16751000000,,86.96246172753717,-1416181489249999872,0.0,86.96246172753717,2015.382416729264,0.0,0,15,0.0,16431,344705922048701,235,29.10300064086914,103.62614777543263,0.14999,16,0.0,0.0,1575420030,,,,0,15.434687172631996,1,6.0,29.10300064086914,0.0,0.0,0.0,66.7128,C,25172044000000,
Raw,1732146288000,16751000000,,86.96246172753717,-1416181489249999872,0.0,86.96246172753717,2015.382416729264,0.0,0,19,0.0,16431,344705920073522,235,28.700000762939453,401.36615099739026,0.14999,16,0.0,0.0,1575420030,,,,0,15.457574905606752,6,6.0,28.700000762939453,0.0,0.0,4.857754319351019,66.7128,C,25172044000000,
Raw,1732146288000,16751000000,,86.96246172753717,-1416181489249999872,0.0,86.96246172753717,2015.382416729264,0.0,0,21,0.0,16431,344705919691903,74,31.100000381469727,420.80760442901425,0.14999,16,0.0,0.0,1575420030,,,,0,18.19865743926104,6,6.0,31.100000381469727,0.0,0.0,4.857754319351019,66.7128,C,25172044000000,
Raw,1732146288000,16751000000,,86.96246172753717,-1416181489249999872,0.0,86.96246172753717,2015.382416729264,0.0,0,27,0.0,16431,344705920233309,42,41.025001525878906,846.7029629340769,0.14999,16,0.0,0.0,1575420030,,,,0,27.313961597467745,6,6.0,41.025001525878906,0.0,0.0,4.857754319351019,66.7128,C,25172044000000,
Raw,1732146288000,16751000000,,86.96246172753717,-1416181489249999872,0.0,86.96246172753717,2015.382416729264,0.0,0,29,0.0,16431,344705921136263,42,37.5,878.4806125389175,0.14999,16,0.0,0.0,1575420030,,,,0,25.136074161098897,6,6.0,37.5,0.0,0.0,4.857754319351019,66.7128,C,25172044000000,
Raw,1732146288000,16751000000,,86.96246172753717,-1416181489249999872,0.0,86.96246172753717,2015.382416729264,0.0,0,8,0.0,17,241058,316,5.0,386.23574977394236,0.14999,16,0.0,0.0,1605374980,,,,0,14.231069549860255,3,6.0,25.0,0.0,0.0,24.925050547962503,66.7128,C,25172044000000,
Raw,1732146288000,16751000000,,86.96246172753717,-1416181489249999872,0.0,86.96246172753717,2015.382416729264,0.0,0,19,0.0,17,302064,316,24.0,287.8878243552279,0.14999,16,0.0,0.0,1603687550,,,,0,9.648700553065897,3,6.0,24.0,0.0,0.0,24.925050547962503,66.7128,C,25172044000000,
Raw,1732146288000,16751000000,,86.96246172753717,-1416181489249999872,0.0,86.96246172753717,2015.382416729264,0.0,0,16,0.0,17,551546,487,5.0,1090.7752475508369,0.14999,16,0.0,0.0,1601437440,,,,0,1.233485690546142,3,6.0,19.0,0.0,0.0,24.925050547962503,66.7128,C,25172044000000,
Raw,1732146288000,16751000000,,86.96246172753717,-1416181489249999872,0.0,86.96246172753717,2015.382416729264,0.0,0,9,0.0,17,804169,58,5.0,727.1560346460383,0.14999,16,0.0,0.0,1600875010,,,,0,22.627414745974146,3,6.0,35.0,0.0,0.0,24.925050547962503,66.7128,C,25172044000000,
Raw,1732146288000,16751000000,,86.96246172753717,-1416181489249999872,0.0,86.96246172753717,2015.382416729264,0.0,0,17,0.0,16431,344705929014730,58,35.01100158691406,103.40180008355193,0.14999,16,0.0,0.0,1575420030,,,,0,22.36814480326354,1,6.0,35.01100158691406,0.0,0.0,0.0,66.7128,C,25172044000000,
Raw,1732146288000,16751000000,,86.96246172753717,-1416181489249999872,0.0,86.96246172753717,2015.382416729264,0.0,0,7,0.0,16431,344705926924245,235,28.34000015258789,946.2867639150306,0.14999,16,0.0,0.0,1575420030,,,,0,14.465896937332193,1,6.0,28.34000015258789,0.0,0.0,0.0,66.7128,C,25172044000000,
Raw,1732146288000,16751000000,,86.96246172753717,-1416181489249999872,0.0,86.96246172753717,2015.382416729264,0.0,0,8,0.0,16431,344705918635010,797,16.17300033569336,1276.2101845490117,0.14999,16,0.0,0.0,1575420030,,,,0,0.0,1,6.0,16.17300033569336,0.0,0.0,0.0,66.7128,C,25172044000000,
Raw,1732146288000,16751000000,,86.96246172753717,-1416181489249999872,0.0,86.96246172753717,2015.382416729264,0.0,0,2,0.0,16431,344705920089673,487,20.742000579833984,371.2559868671783,0.14999,16,0.0,0.0,1575420030,,,,0,3.507327634061916,1,6.0,20.742000579833984,0.0,0.0,0.0,66.7128,C,25172044000000,
Fix,FLP,37.4243912000,-122.1712515000,2.0999999046325684,0.021028006,1.633,,1732146288196,0.8,,25172044000000,0.9550257,0,,,
Status,1732146288000,30,0,1,14,1575420030,45.20,317.0,74.0,1,0,0,40.2
Status,1732146288000,30,1,1,30,1575420030,45.60,72.0,70.0,1,0,0,40.6
Status,1732146288000,30,2,1,22,1575420030,43.20,269.0,59.0,1,0,0,38.2
Status,1732146288000,30,3,1,13,1575420030,42.00,304.0,47.0,1,0,0,37.0
Status,1732146288000,30,4,1,17,1575420030,35.60,176.0,44.0,1,0,0,30.599998
Status,1732146288000,30,5,1,7,1575420030,36.80,102.0,38.0,1,0,0,31.8
Status,1732146288000,30,6,2,131,1575420030,36.00,3.0,23.0,0,0,0,31.0
Status,1732146288000,30,7,1,19,1575420030,36.10,193.0,17.0,1,0,0,31.099998
Status,1732146288000,30,8,1,15,1575420030,36.40,316.0,17.0,1,0,0,31.400002
Status,1732146288000,30,9,1,2,1575420030,25.80,88.0,16.0,1,0,0,20.8
Status,1732146288000,30,10,1,21,1575420030,0.00,69.0,13.0,0,0,0,0.0
Status,1732146288000,30,11,1,8,1575420030,21.20,39.0,10.0,1,0,0,16.2
Status,1732146288000,30,12,1,5,1575420030,0.00,263.0,7.0,0,0,0,0.0
Status,1732146288000,30,13,1,9,1575420030,0.00,159.0,1.0,0,0,0,0.0
Status,1732146288000,30,14,3,9,1602000000,43.70,15.0,54.0,1,0,0,38.7
Status,1732146288000,30,15,3,8,1602000000,36.80,305.0,38.0,1,0,0,31.8
Status,1732146288000,30,16,3,19,1602000000,33.40,88.0,32.0,1,0,0,28.400002
Status,1732146288000,30,17,3,16,1602000000,24.60,66.0,15.0,1,0,0,19.6
Status,1732146288000,30,18,3,20,1602000000,0.00,150.0,9.0,0,0,0,0.0
Status,1732146288000,30,19,3,11,1602000000,0.00,271.0,1.0,0,0,0,0.0
Status,1732146288000,30,20,3,17,1602000000,37.60,0.0,0.0,0,0,0,32.6
Status,1732146288000,30,21,6,29,1575420030,39.60,205.0,62.0,1,0,0,34.6
Status,1732146288000,30,22,6,27,1575420030,45.90,36.0,59.0,1,0,0,40.9
Status,1732146288000,30,23,6,21,1575420030,33.30,267.0,56.0,1,0,0,28.3
Status,1732146288000,30,24,6,19,1575420030,34.00,298.0,50.0,1,0,0,29.0
Status,1732146288000,30,25,6,7,1575420030,0.00,161.0,17.0,0,0,0,0.0
Status,1732146288000,30,26,6,30,1575420030,0.00,58.0,11.0,0,0,0,0.0
Status,1732146288000,30,27,6,15,1575420030,0.00,95.0,10.0,0,0,0,0.0
Status,1732146288000,30,28,6,34,1575420030,0.00,48.0,6.0,0,0,0,0.0
Status,1732146288000,30,29,6,13,1575420030,0.00,143.0,1.0,0,0,0,0.0
Fix,GPS,37.4243916667,-122.1712416667,15.400000000000002,0.24655195,1.6,90.84,1732146289000,0.8,130.8,25173044000000,32.3,0,,,
Raw,1732146289000,17751000000,,84.77877890171472,-1416181489249999872,0.0,84.77877890171472,2015.0708156509907,0.0,0,30,0.0,16431,344706932013484,42,40.5880012512207,679.4637216791972,0.14999,17,12007.10953453666,0.00022499999613501132,1575420030,,,,0,28.424775125225384,1,6.0,40.5880012512207,0.0,0.0,0.0,66.7128,C,25173044000000,
Raw,1732146289000,17751000000,,84.77877890171472,-1416181489249999872,0.0,84.77877890171472,2015.0708156509907,0.0,0,22,0.0,16431,344706930563595,51,38.25,431.84519495231393,0.14999,16,0.0,0.0,1575420030,,,,0,25.924288044184824,1,6.0,38.25,0.0,0.0,0.0,66.7128,C,25173044000000,
Raw,1732146289000,17751000000,,84.77877890171472,-1416181489249999872,0.0,84.77877890171472,2015.0708156509907,0.0,0,19,0.0,16431,344706920285653,74,31.118999481201172,-94.56880078469092,0.14999,16,0.0,0.0,1575420030,,,,0,17.893262674389096,1,6.0,31.118999481201172,0.0,0.0,0.0,66.7128,C,25173044000000,
Raw,1732146289000,17751000000,,84.77877890171472,-1416181489249999872,0.0,84.77877890171472,2015.0708156509907,0.0,0,13,0.0,16431,344706929854966,51,37.047000885009766,282.82759495303424,0.14999,16,0.0,0.0,1575420030,,,,0,24.618397985037387,1,6.0,37.047000885009766,0.0,0.0,0.0,66.7128,C,25173044000000,
Raw,1732146289000,17751000000,,84.77877890171472,-1416181489249999872,0.0,84.77877890171472,2015.0708156509907,0.0,0,14,0.0,16431,344706932854931,42,40.233001708984375,580.0382974391052,0.14999,17,10632.112636053618,0.00022499999613501132,1575420030,,,,0,28.04683994833802,1,6.0,40.233001708984375,0.0,0.0,0.0,66.7128,C,25173044000000,
Raw,1732146289000,17751000000,,84.77877890171472,-1416181489249999872,0.0,84.77877890171472,2015.0708156509907,0.0,0,15,0.0,16431,344706922048353,74,31.382999420166016,104.03228724994514,0.14999,16,0.0,0.0,1575420030,,,,0,18.19865743926104,1,6.0,31.382999420166016,0.0,0.0,0.0,66.7128,C,25173044000000,
Raw,1732146289000,17751000000,,84.77877890171472,-1416181489249999872,0.0,84.77877890171472,2015.0708156509907,0.0,0,19,0.0,16431,344706920072183,235,29.0,400.9541577624352,0.14999,16,0.0,0.0,1575420030,,,,0,15.815806691780793,6,6.0,29.0,0.0,0.0,4.952887248662978,66.7128,C,25173044000000,
Raw,1732146289000,17751000000,,84.77877890171472,-1416181489249999872,0.0,84.77877890171472,2015.0708156509907,0.0,0,21,0.0,16431,344706919690503,235,28.299999237060547,420.6743616913224,0.14999,16,0.0,0.0,1575420030,,,,0,15.08393064625167,6,6.0,28.299999237060547,0.0,0.0,4.952887248662978,66.7128,C,25173044000000,
Raw,1732146289000,17751000000,,84.77877890171472,-1416181489249999872,0.0,84.77877890171472,2015.0708156509907,0.0,0,27,0.0,16431,344706920230486,42,40.91299819946289,846.6606857753253,0.14999,16,0.0,0.0,1575420030,,,,0,26.449254887730262,6,6.0,40.91299819946289,0.0,0.0,4.952887248662978,66.7128,C,25173044000000,
Raw,1732146289000,17751000000,,84.77877890171472,-1416181489249999872,0.0,84.77877890171472,2015.0708156509907,0.0,0,29,0.0,16431,344706921133336,51,34.599998474121094,878.2751734224345,0.14999,16,0.0,0.0,1575420030,,,,0,22.020873405515996,6,6.0,34.599998474121094,0.0,0.0,4.952887248662978,66.7128,C,25173044000000,
Raw,1732146289000,17751000000,,84.77877890171472,-1416181489249999872,0.0,84.77877890171472,2015.0708156509907,0.0,0,8,0.0,17,239773,74,5.0,387.01618575074576,0.14999,16,0.0,0.0,1605374980,,,,0,19.01602370937618,3,6.0,31.0,0.0,0.0,25.90269240432146,66.7128,C,25173044000000,
Raw,1732146289000,17751000000,,84.77877890171472,-1416181489249999872,0.0,84.77877890171472,2015.0708156509907,0.0,0,19,0.0,17,301095,235,29.0,288.19150968121187,0.14999,16,0.0,0.0,1603687550,,,,0,15.17671335793738,3,6.0,29.0,0.0,0.0,25.90269240432146,66.7128,C,25173044000000,
Raw,1732146289000,17751000000,,84.77877890171472,-1416181489249999872,0.0,84.77877890171472,2015.0708156509907,0.0,0,16,0.0,17,547895,487,5.0,1087.6276380754541,0.14999,16,0.0,0.0,1601437440,,,,0,3.5441110522755164,3,6.0,20.0,0.0,0.0,25.90269240432146,66.7128,C,25173044000000,
Raw,1732146289000,17751000000,,84.77877890171472,-1416181489249999872,0.0,84.77877890171472,2015.0708156509907,0.0,0,9,0.0,17,801752,42,5.0,727.1310259724177,0.14999,17,12731.891565049642,0.00022499999613501132,1600875010,,,,0,26.323790384000596,3,6.0,39.0,0.0,0.0,25.90269240432146,66.7128,C,25173044000000,
Raw,1732146289000,17751000000,,84.77877890171472,-1416181489249999872,0.0,84.77877890171472,2015.0708156509907,0.0,0,17,0.0,16431,344706929014395,74,30.636999130249023,103.17601218076872,0.14999,16,0.0,0.0,1575420030,,,,0,17.303860131984898,1,6.0,30.636999130249023,0.0,0.0,0.0,66.7128,C,25173044000000,
Raw,1732146289000,17751000000,,84.77877890171472,-1416181489249999872,0.0,84.77877890171472,2015.0708156509907,0.0,0,7,0.0,16431,344706926921083,235,31.775999069213867,947.0936536877753,0.14999,16,0.0,0.0,1575420030,,,,0,18.669156763155428,1,6.0,31.775999069213867,0.0,0.0,0.0,66.7128,C,25173044000000,
Raw,1732146289000,17751000000,,84.77877890171472,-1416181489249999872,0.0,84.77877890171472,2015.0708156509907,0.0,0,8,0.0,16431,344706918630746,797,16.17300033569336,1277.5427048427623,0.14999,16,0.0,0.0,1575420030,,,,0,0.0,1,6.0,16.17300033569336,0.0,0.0,0.0,66.7128,C,25173044000000,
Raw,1732146289000,17751000000,,84.77877890171472,-1416181489249999872,0.0,84.77877890171472,2015.0708156509907,0.0,0,2,0.0,16431,344706920088428,396,20.808000564575195,372.07855635539397,0.14999,16,0.0,0.0,1575420030,,,,0,5.660005202058507,1,6.0,20.808000564575195,0.0,0.0,0.0,66.7128,C,25173044000000,
Fix,FLP,37.4243915000,-122.1712467000,2.0999999046325684,0.15804847,1.633,88.20624,1732146289196,0.8,130.8,25173044000000,0.9660515,0,,,
Status,1732146289000,30,0,1,14,1575420030,45.60,317.0,74.0,1,0,0,40.6
Status,1732146289000,30,1,1,30,1575420030,49.00,72.0,70.0,1,0,0,44.0
Status,1732146289000,30,2,1,22,1575420030,44.40,269.0,59.0,1,0,0,39.4
Status,1732146289000,30,3,1,13,1575420030,43.20,304.0,47.0,1,0,0,38.2
Status,1732146289000,30,4,1,17,1575420030,39.70,176.0,44.0,1,0,0,34.7
Status,1732146289000,30,5,1,7,1575420030,38.50,102.0,38.0,1,0,0,33.5
Status,1732146289000,30,6,2,131,1575420030,39.00,3.0,23.0,0,0,0,34.0
Status,1732146289000,30,7,1,19,1575420030,38.60,193.0,17.0,1,0,0,33.6
Status,1732146289000,30,8,1,15,1575420030,0.00,316.0,17.0,0,0,0,0.0
Status,1732146289000,30,9,1,2,1575420030,25.90,88.0,16.0,1,0,0,20.9
Status,1732146289000,30,10,1,21,1575420030,0.00,69.0,13.0,0,0,0,0.0
Status,1732146289000,30,11,1,8,1575420030,21.20,39.0,10.0,1,0,0,16.2
Status,1732146289000,30,12,1,5,1575420030,25.80,263.0,7.0,1,0,0,20.8
Status,1732146289000,30,13,1,9,1575420030,0.00,159.0,1.0,0,0,0,0.0
Status,1732146289000,30,14,3,9,1602000000,45.80,15.0,54.0,1,0,0,40.8
Status,1732146289000,30,15,3,8,1602000000,35.50,305.0,38.0,1,0,0,30.5
Status,1732146289000,30,16,3,19,1602000000,33.60,88.0,32.0,1,0,0,28.599998
Status,1732146289000,30,17,3,16,1602000000,24.70,66.0,15.0,1,0,0,19.7
Status,1732146289000,30,18,3,20,1602000000,0.00,150.0,9.0,0,0,0,0.0
Status,1732146289000,30,19,3,11,1602000000,0.00,271.0,1.0,0,0,0,0.0
Status,1732146289000,30,20,3,17,1602000000,41.00,0.0,0.0,0,0,0,36.0
Status,1732146289000,30,21,6,29,1575420030,43.90,205.0,62.0,1,0,0,38.9
Status,1732146289000,30,22,6,27,1575420030,43.20,36.0,59.0,1,0,0,38.2
Status,1732146289000,30,23,6,21,1575420030,37.10,267.0,56.0,1,0,0,32.1
Status,1732146289000,30,24,6,19,1575420030,31.20,298.0,50.0,1,0,0,26.2
Status,1732146289000,30,25,6,7,1575420030,0.00,161.0,17.0,0,0,0,0.0
Status,1732146289000,30,26,6,30,1575420030,0.00,58.0,11.0,0,0,0,0.0
Status,1732146289000,30,27,6,15,1575420030,0.00,95.0,10.0,0,0,0,0.0
Status,1732146289000,30,28,6,34,1575420030,0.00,48.0,6.0,0,0,0,0.0
