# 
# Header Description:
# 
# Version: v3.1.0.3 Platform: 13 Manufacturer: samsung Model: SM-S135DL GNSS Hardware Model Name: MediaTek,MT6631,MTK_MNLD_default,MNL_VER_default
# 
# Raw,utcTimeMillis,TimeNanos,LeapSecond,TimeUncertaintyNanos,FullBiasNanos,BiasNanos,BiasUncertaintyNanos,DriftNanosPerSecond,DriftUncertaintyNanosPerSecond,HardwareClockDiscontinuityCount,Svid,TimeOffsetNanos,State,ReceivedSvTimeNanos,ReceivedSvTimeUncertaintyNanos,Cn0DbHz,PseudorangeRateMetersPerSecond,PseudorangeRateUncertaintyMetersPerSecond,AccumulatedDeltaRangeState,AccumulatedDeltaRangeMeters,AccumulatedDeltaRangeUncertaintyMeters,CarrierFrequencyHz,CarrierCycles,CarrierPhase,CarrierPhaseUncertainty,MultipathIndicator,SnrInDb,ConstellationType,AgcDb,BasebandCn0DbHz,FullInterSignalBiasNanos,FullInterSignalBiasUncertaintyNanos,SatelliteInterSignalBiasNanos,SatelliteInterSignalBiasUncertaintyNanos,CodeType,ChipsetElapsedRealtimeNanos,IsFullTracking
# 
# UncalAccel,utcTimeMillis,elapsedRealtimeNanos,UncalAccelXMps2,UncalAccelYMps2,UncalAccelZMps2,BiasXMps2,BiasYMps2,BiasZMps2
# 
# Accel,utcTimeMillis,elapsedRealtimeNanos,AccelXMps2,AccelYMps2,AccelZMps2
# 
# UncalGyro,utcTimeMillis,elapsedRealtimeNanos,UncalGyroXRadPerSec,UncalGyroYRadPerSec,UncalGyroZRadPerSec,DriftXRadPerSec,DriftYRadPerSec,DriftZRadPerSec
# 
# Gyro,utcTimeMillis,elapsedRealtimeNanos,GyroXRadPerSec,GyroYRadPerSec,GyroZRadPerSec
# 
# UncalMag,utcTimeMillis,elapsedRealtimeNanos,UncalMagXMicroT,UncalMagYMicroT,UncalMagZMicroT,BiasXMicroT,BiasYMicroT,BiasZMicroT
# 
# Mag,utcTimeMillis,elapsedRealtimeNanos,MagXMicroT,MagYMicroT,MagZMicroT
# 
# Pressure,utcTimeMillis,elapsedRealtimeNanos,PressureHpa
# 
# OrientationDeg,utcTimeMillis,elapsedRealtimeNanos,yawDeg,rollDeg,pitchDeg
# 
# Fix,Provider,LatitudeDegrees,LongitudeDegrees,AltitudeMeters,SpeedMps,AccuracyMeters,BearingDegrees,UnixTimeMillis,SpeedAccuracyMps,BearingAccuracyDegrees,elapsedRealtimeNanos,VerticalAccuracyMeters,MockLocation,NumberOfUsedSignals,VerticalSpeedAccuracyMps,SolutionType
# 
# Nav,Svid,Type,Status,MessageId,Sub-messageId,Data(Bytes)
# 
# Status,UnixTimeMillis,SignalCount,SignalIndex,ConstellationType,Svid,CarrierFrequencyHz,Cn0DbHz,AzimuthDegrees,ElevationDegrees,UsedInFix,HasAlmanacData,HasEphemerisData,BasebandCn0DbHz
# 
# Agc,utcTimeMillis,TimeNanos,LeapSecond,TimeUncertaintyNanos,FullBiasNanos,BiasNanos,BiasUncertaintyNanos,DriftNanosPerSecond,DriftUncertaintyNanosPerSecond,HardwareClockDiscontinuityCount,AgcDb,CarrierFrequencyHz,ConstellationType
# 
Fix,FLP,37.4243914000,-122.1712424000,2.0999999046325684,0.19832048,1.943,234.00163,1732146399196,1.9,55.0,25283044000000,0.80834866,0,,,
Status,,29,0,1,14,1575420030,44.00,320.0,74.0,1,0,0,39.0
Status,,29,1,1,30,1575420030,37.20,74.0,70.0,1,0,0,32.2
Status,,29,2,1,22,1575420030,40.60,271.0,60.0,1,0,0,35.6
Status,,29,3,1,13,1575420030,46.00,303.0,48.0,1,0,0,41.0
Status,,29,4,1,17,1575420030,43.40,175.0,45.0,1,0,0,38.4
Status,,29,5,1,7,1575420030,40.00,103.0,38.0,1,0,0,35.0
Status,,29,6,2,131,1575420030,38.00,3.0,23.0,0,0,0,33.0
Status,,29,7,1,19,1575420030,31.30,193.0,18.0,1,0,0,26.3
Status,,29,8,1,15,1575420030,36.80,316.0,17.0,1,0,0,31.8
Status,,29,9,1,2,1575420030,0.00,87.0,16.0,0,0,0,0.0
Status,,29,10,1,21,1575420030,0.00,69.0,13.0,0,0,0,0.0
Status,,29,11,1,8,1575420030,22.70,39.0,9.0,1,0,0,17.7
Status,,29,12,1,5,1575420030,25.30,262.0,7.0,1,0,0,20.3
Status,,29,13,1,9,1575420030,0.00,159.0,1.0,0,0,0,0.0
Status,,29,14,3,9,1602000000,35.70,17.0,54.0,1,0,0,30.7
Status,,29,15,3,8,1602000000,32.30,303.0,39.0,1,0,0,27.3
Status,,29,16,3,16,1602000000,20.90,67.0,14.0,1,0,0,15.9
Status,,29,17,3,20,1602000000,0.00,149.0,10.0,0,0,0,0.0
Status,,29,18,3,11,1602000000,0.00,271.0,1.0,0,0,0,0.0
Status,,29,19,3,17,1602000000,40.10,0.0,0.0,0,0,0,35.1
Status,,29,20,6,29,1575420030,0.00,204.0,61.0,0,0,0,0.0
Status,,29,21,6,27,1575420030,37.60,36.0,59.0,1,0,0,32.6
Status,,29,22,6,21,1575420030,39.80,268.0,57.0,1,0,0,34.8
Status,,29,23,6,19,1575420030,32.60,298.0,50.0,1,0,0,27.599998
Status,,29,24,6,7,1575420030,31.80,161.0,17.0,1,0,0,26.8
Status,,29,25,6,15,1575420030,0.00,95.0,11.0,0,0,0,0.0
Status,,29,26,6,30,1575420030,0.00,58.0,10.0,0,0,0,0.0
Status,,29,27,6,34,1575420030,0.00,47.0,6.0,0,0,0,0.0
Status,,29,28,6,13,1575420030,0.00,142.0,1.0,0,0,0,0.0
Fix,GPS,37.4243816667,-122.1712466667,14.7,0.50082475,1.7,190.76,1732146400000,1.4,122.1,25284044000000,37.7,0,,,
Raw,1732146400000,12975000000,,100.44404662776701,-1416181605025999872,0.0,100.44404662776701,2118.588372155298,0.0,0,17,0.0,16431,344817929184057,51,38.375999450683594,143.1714587370104,0.14999,16,0.0,0.0,1575420030,,,,0,25.315885343664636,1,6.0,38.375999450683594,0.0,0.0,0.0,66.7128,C,25284044000000,
Raw,1732146400000,12975000000,,100.44404662776701,-1416181605025999872,0.0,100.44404662776701,2118.588372155298,0.0,0,5,0.0,16431,344817916752094,797,20.257999420166016,1068.2178064279126,0.14999,16,0.0,0.0,1575420030,,,,0,2.6078019379353403,1,6.0,20.257999420166016,0.0,0.0,0.0,66.7128,C,25284044000000,
Raw,1732146400000,12975000000,,100.44404662776701,-1416181605025999872,0.0,100.44404662776701,2118.588372155298,0.0,0,19,0.0,16431,344817920530119,316,26.295000076293945,-63.7491237221116,0.14999,16,0.0,0.0,1575420030,,,,0,11.789764949663137,1,6.0,26.295000076293945,0.0,0.0,0.0,66.7128,C,25284044000000,
Raw,1732146400000,12975000000,,100.44404662776701,-1416181605025999872,0.0,100.44404662776701,2118.588372155298,0.0,0,30,0.0,16431,344817931969959,58,32.167999267578125,718.868263639657,0.14999,16,0.0,0.0,1575420030,,,,0,19.12297177926284,1,6.0,32.167999267578125,0.0,0.0,0.0,66.7128,C,25284044000000,
Raw,1732146400000,12975000000,,100.44404662776701,-1416181605025999872,0.0,100.44404662776701,2118.588372155298,0.0,0,21,0.0,16431,344817919743607,51,34.79999923706055,456.0419460335837,0.14999,16,0.0,0.0,1575420030,,,,0,22.184545567807014,6,6.0,34.79999923706055,0.0,0.0,8.030632890232067,66.7128,C,25284044000000,
Raw,1732146400000,12975000000,,100.44404662776701,-1416181605025999872,0.0,100.44404662776701,2118.588372155298,0.0,0,8,0.0,16431,344817918366603,487,17.694000244140625,1313.1192591411386,0.14999,16,0.0,0.0,1575420030,,,,0,0.0,1,6.0,17.694000244140625,0.0,0.0,0.0,66.7128,C,25284044000000,
Raw,1732146400000,12975000000,,100.44404662776701,-1416181605025999872,0.0,100.44404662776701,2118.588372155298,0.0,0,13,0.0,16431,344817929957823,42,41.03200149536133,325.4048983025522,0.14999,16,0.0,0.0,1575420030,,,,0,28.89439704221584,1,6.0,41.03200149536133,0.0,0.0,0.0,66.7128,C,25284044000000,
Raw,1732146400000,12975000000,,100.44404662776701,-1416181605025999872,0.0,100.44404662776701,2118.588372155298,0.0,0,7,0.0,16431,344817909908574,235,26.799999237060547,1221.5675608219926,0.14999,16,0.0,0.0,1575420030,,,,0,13.27468551710539,6,6.0,26.799999237060547,0.0,0.0,8.030632890232067,66.7128,C,25284044000000,
Raw,1732146400000,12975000000,,100.44404662776701,-1416181605025999872,0.0,100.44404662776701,2118.588372155298,0.0,0,19,0.0,16431,344817920131740,74,27.600000381469727,440.86565396058444,0.14999,16,0.0,0.0,1575420030,,,,0,14.214616770629862,6,6.0,27.600000381469727,0.0,0.0,8.030632890232067,66.7128,C,25284044000000,
Raw,1732146400000,12975000000,,100.44404662776701,-1416181605025999872,0.0,100.44404662776701,2118.588372155298,0.0,0,27,0.0,16431,344817920126024,58,32.599998474121094,880.3217595733412,0.14999,16,0.0,0.0,1575420030,,,,0,19.880061338047234,6,6.0,32.599998474121094,0.0,0.0,8.030632890232067,66.7128,C,25284044000000,
Raw,1732146400000,12975000000,,100.44404662776701,-1416181605025999872,0.0,100.44404662776701,2118.588372155298,0.0,0,8,0.0,32995,9999930302928,235,5.0,435.68251008483645,0.14999,16,0.0,0.0,1605374980,,,,0,13.917271219784407,3,6.0,27.0,0.0,0.0,31.699827053595925,66.7128,C,25284044000000,
Raw,1732146400000,12975000000,,100.44404662776701,-1416181605025999872,0.0,100.44404662776701,2118.588372155298,0.0,0,9,0.0,17,741336,74,5.0,762.1207206705567,0.14999,16,0.0,0.0,1600875010,,,,0,17.760271567891863,3,6.0,31.0,0.0,0.0,31.699827053595925,66.7128,C,25284044000000,
Raw,1732146400000,12975000000,,100.44404662776701,-1416181605025999872,0.0,100.44404662776701,2118.588372155298,0.0,0,16,0.0,17,353751,487,5.0,1120.8773081639958,0.14999,16,0.0,0.0,1601437440,,,,0,0.0,3,6.0,18.0,0.0,0.0,31.699827053595925,66.7128,C,25284044000000,
Raw,1732146400000,12975000000,,100.44404662776701,-1416181605025999872,0.0,100.44404662776701,2118.588372155298,0.0,0,7,0.0,16431,344817926778835,58,34.98699951171875,984.2071453112286,0.14999,16,0.0,0.0,1575420030,,,,0,22.33886746339041,1,6.0,34.98699951171875,0.0,0.0,0.0,66.7128,C,25284044000000,
Raw,1732146400000,12975000000,,100.44404662776701,-1416181605025999872,0.0,100.44404662776701,2118.588372155298,0.0,0,14,0.0,16431,344817932848489,42,39.04899978637695,617.9962636940176,0.14999,16,0.0,0.0,1575420030,,,,0,26.782395371636092,1,6.0,39.04899978637695,0.0,0.0,0.0,66.7128,C,25284044000000,
Raw,1732146400000,12975000000,,100.44404662776701,-1416181605025999872,0.0,100.44404662776701,2118.588372155298,0.0,0,15,0.0,16431,344817922217776,74,31.784000396728516,144.6293238376971,0.14999,16,0.0,0.0,1575420030,,,,0,18.668279356251496,1,6.0,31.784000396728516,0.0,0.0,0.0,66.7128,C,25284044000000,
Raw,1732146400000,12975000000,,100.44404662776701,-1416181605025999872,0.0,100.44404662776701,2118.588372155298,0.0,0,22,0.0,16431,344817930612075,51,35.645999908447266,469.8074818399338,0.14999,16,0.0,0.0,1575420030,,,,0,23.07184703955729,1,6.0,35.645999908447266,0.0,0.0,0.0,66.7128,C,25284044000000,
Fix,FLP,37.4243863000,-122.1712453000,2.0999999046325684,0.2081576,1.929,228.50868,1732146400196,1.4,122.1,25284044000000,0.81862456,0,,,
Status,1732146400000,29,0,1,14,1575420030,45.00,320.0,74.0,1,0,0,40.0
Status,1732146400000,29,1,1,30,1575420030,48.20,74.0,70.0,1,0,0,43.2
Status,1732146400000,29,2,1,22,1575420030,36.00,271.0,60.0,1,0,0,31.0
Status,1732146400000,29,3,1,13,1575420030,31.20,303.0,48.0,1,0,0,26.2
Status,1732146400000,29,4,1,17,1575420030,40.70,175.0,45.0,1,0,0,35.7
Status,1732146400000,29,5,1,7,1575420030,33.40,103.0,38.0,1,0,0,28.400002
Status,1732146400000,29,6,2,131,1575420030,44.00,3.0,23.0,0,0,0,39.0
Status,1732146400000,29,7,1,19,1575420030,34.10,193.0,18.0,1,0,0,29.099998
Status,1732146400000,29,8,1,15,1575420030,39.40,316.0,17.0,1,0,0,34.4
Status,1732146400000,29,9,1,2,1575420030,0.00,87.0,16.0,0,0,0,0.0
Status,1732146400000,29,10,1,21,1575420030,0.00,69.0,13.0,0,0,0,0.0
Status,1732146400000,29,11,1,8,1575420030,0.00,39.0,9.0,0,0,0,0.0
Status,1732146400000,29,12,1,5,1575420030,25.30,262.0,7.0,1,0,0,20.3
Status,1732146400000,29,13,1,9,1575420030,0.00,159.0,1.0,0,0,0,0.0
Status,1732146400000,29,14,3,9,1602000000,31.20,17.0,54.0,1,0,0,26.2
Status,1732146400000,29,15,3,8,1602000000,32.70,303.0,39.0,1,0,0,27.7
Status,1732146400000,29,16,3,16,1602000000,24.70,67.0,14.0,1,0,0,19.7
Status,1732146400000,29,17,3,20,1602000000,23.50,149.0,10.0,1,0,0,18.5
Status,1732146400000,29,18,3,11,1602000000,0.00,271.0,1.0,0,0,0,0.0
Status,1732146400000,29,19,3,17,1602000000,38.10,0.0,0.0,0,0,0,33.1
Status,1732146400000,29,20,6,29,1575420030,0.00,204.0,61.0,0,0,0,0.0
Status,1732146400000,29,21,6,27,1575420030,34.20,36.0,59.0,1,0,0,29.2
Status,1732146400000,29,22,6,21,1575420030,37.20,268.0,57.0,1,0,0,32.2
Status,1732146400000,29,23,6,19,1575420030,28.10,298.0,50.0,1,0,0,23.1
Status,1732146400000,29,24,6,7,1575420030,27.10,161.0,17.0,1,0,0,22.1
Status,1732146400000,29,25,6,15,1575420030,0.00,95.0,11.0,0,0,0,0.0
Status,1732146400000,29,26,6,30,1575420030,0.00,58.0,10.0,0,0,0,0.0
Status,1732146400000,29,27,6,34,1575420030,0.00,47.0,6.0,0,0,0,0.0
Status,1732146400000,29,28,6,13,1575420030,0.00,142.0,1.0,0,0,0,0.0
Fix,GPS,37.4243750000,-122.1712500000,14.900000000000002,0.48023584,1.7,200.81,1732146401000,1.1,98.5,25285044000000,37.2,0,,,
Raw,1732146401000,13975000000,,99.73384995619176,-1416181605025999872,0.0,99.73384995619176,2118.932923641229,0.0,0,17,0.0,16431,344818929183581,51,35.65399932861328,143.51873539818416,0.14999,16,0.0,0.0,1575420030,,,,0,23.081882730607937,1,6.0,35.65399932861328,0.0,0.0,0.0,66.7128,C,25285044000000,
Raw,1732146401000,13975000000,,99.73384995619176,-1416181605025999872,0.0,99.73384995619176,2118.932923641229,0.0,0,5,0.0,16431,344818916748530,797,20.257999420166016,1068.1849138692355,0.14999,16,0.0,0.0,1575420030,,,,0,2.6078019379353403,1,6.0,20.257999420166016,0.0,0.0,0.0,66.7128,C,25285044000000,
Raw,1732146401000,13975000000,,99.73384995619176,-1416181605025999872,0.0,99.73384995619176,2118.932923641229,0.0,0,19,0.0,16431,344818920530326,396,29.136999130249023,-62.54329552936708,0.14999,16,0.0,0.0,1575420030,,,,0,15.481668928374164,1,6.0,29.136999130249023,0.0,0.0,0.0,66.7128,C,25285044000000,
Raw,1732146401000,13975000000,,99.73384995619176,-1416181605025999872,0.0,99.73384995619176,2118.932923641229,0.0,0,30,0.0,16431,344818931967560,31,43.18600082397461,718.6588290993799,0.14999,16,0.0,0.0,1575420030,,,,0,31.156257355034853,1,6.0,43.18600082397461,0.0,0.0,0.0,66.7128,C,25285044000000,
Raw,1732146401000,13975000000,,99.73384995619176,-1416181605025999872,0.0,99.73384995619176,2118.932923641229,0.0,0,21,0.0,16431,344818919742084,58,32.20000076293945,456.0205751621269,0.14999,16,0.0,0.0,1575420030,,,,0,19.449022003710834,6,6.0,32.20000076293945,0.0,0.0,7.1380587089993925,66.7128,C,25285044000000,
Raw,1732146401000,13975000000,,99.73384995619176,-1416181605025999872,0.0,99.73384995619176,2118.932923641229,0.0,0,13,0.0,16431,344818929956739,235,26.167999267578125,325.16041088724427,0.14999,16,0.0,0.0,1575420030,,,,0,11.641284588079,1,6.0,26.167999267578125,0.0,0.0,0.0,66.7128,C,25285044000000,
Raw,1732146401000,13975000000,,99.73384995619176,-1416181605025999872,0.0,99.73384995619176,2118.932923641229,0.0,0,7,0.0,16431,344818909904500,396,22.100000381469727,1222.4998883185056,0.14999,16,0.0,0.0,1575420030,,,,0,7.315907143368604,6,6.0,22.100000381469727,0.0,0.0,7.1380587089993925,66.7128,C,25285044000000,
Raw,1732146401000,13975000000,,99.73384995619176,-1416181605025999872,0.0,99.73384995619176,2118.932923641229,0.0,0,19,0.0,16431,344818920130271,487,23.100000381469727,440.98305437834847,0.14999,16,0.0,0.0,1575420030,,,,0,8.681203774539132,6,6.0,23.100000381469727,0.0,0.0,7.1380587089993925,66.7128,C,25285044000000,
Raw,1732146401000,13975000000,,99.73384995619176,-1416181605025999872,0.0,99.73384995619176,2118.932923641229,0.0,0,27,0.0,16431,344818920123091,74,29.200000762939453,880.3292858367673,0.14999,16,0.0,0.0,1575420030,,,,0,16.108159402145148,6,6.0,29.200000762939453,0.0,0.0,7.1380587089993925,66.7128,C,25285044000000,
Raw,1732146401000,13975000000,,99.73384995619176,-1416181605025999872,0.0,99.73384995619176,2118.932923641229,0.0,0,8,0.0,32995,10000930301470,235,5.0,435.8624143005431,0.14999,16,0.0,0.0,1605374980,,,,0,14.297735966053015,3,6.0,28.0,0.0,0.0,30.296682120019852,66.7128,C,25285044000000,
Raw,1732146401000,13975000000,,99.73384995619176,-1416181605025999872,0.0,99.73384995619176,2118.932923641229,0.0,0,9,0.0,17,738787,396,5.0,762.4401641853408,0.14999,16,0.0,0.0,1600875010,,,,0,12.582909756938921,3,6.0,23.0,0.0,0.0,30.296682120019852,66.7128,C,25285044000000,
Raw,1732146401000,13975000000,,99.73384995619176,-1416181605025999872,0.0,99.73384995619176,2118.932923641229,0.0,0,16,0.0,17,350004,487,5.0,1121.9932081632835,0.14999,16,0.0,0.0,1601437440,,,,0,3.780871481171485,3,6.0,20.0,0.0,0.0,30.296682120019852,66.7128,C,25285044000000,
Raw,1732146401000,13975000000,,99.73384995619176,-1416181605025999872,0.0,99.73384995619176,2118.932923641229,0.0,0,20,0.0,17,905483,487,5.0,-147.22738946466131,0.14999,16,0.0,0.0,1603124990,,,,0,1.7753882197240198,3,6.0,19.0,0.0,0.0,30.296682120019852,66.7128,C,25285044000000,
Raw,1732146401000,13975000000,,99.73384995619176,-1416181605025999872,0.0,99.73384995619176,2118.932923641229,0.0,0,7,0.0,16431,344818926775548,235,28.351999282836914,984.8597931421542,0.14999,16,0.0,0.0,1575420030,,,,0,14.488642324177624,1,6.0,28.351999282836914,0.0,0.0,0.0,66.7128,C,25285044000000,
Raw,1732146401000,13975000000,,99.73384995619176,-1416181605025999872,0.0,99.73384995619176,2118.932923641229,0.0,0,14,0.0,16431,344818932846431,42,40.03200149536133,618.1284378881364,0.14999,16,0.0,0.0,1575420030,,,,0,27.835960897122053,1,6.0,40.03200149536133,0.0,0.0,0.0,66.7128,C,25285044000000,
Raw,1732146401000,13975000000,,99.73384995619176,-1416181605025999872,0.0,99.73384995619176,2118.932923641229,0.0,0,15,0.0,16431,344818922217293,58,34.42900085449219,144.56702310155876,0.14999,16,0.0,0.0,1575420030,,,,0,21.71615928488053,1,6.0,34.42900085449219,0.0,0.0,0.0,66.7128,C,25285044000000,
Raw,1732146401000,13975000000,,99.73384995619176,-1416181605025999872,0.0,99.73384995619176,2118.932923641229,0.0,0,22,0.0,16431,344818930610505,74,31.031999588012695,470.05775332805996,0.14999,16,0.0,0.0,1575420030,,,,0,17.79194303283893,1,6.0,31.031999588012695,0.0,0.0,0.0,66.7128,C,25285044000000,
Fix,FLP,37.4243801000,-122.1712485000,2.0999999046325684,0.23109984,1.914,223.45564,1732146401197,1.1,98.5,25285044000000,0.83220714,0,,,
Status,1732146401000,29,0,1,14,1575420030,39.00,320.0,74.0,1,0,0,34.0
Status,1732146401000,29,1,1,30,1575420030,44.10,74.0,70.0,1,0,0,39.1
Status,1732146401000,29,2,1,22,1575420030,41.90,271.0,60.0,1,0,0,36.9
Status,1732146401000,29,3,1,13,1575420030,39.30,303.0,48.0,1,0,0,34.3
Status,1732146401000,29,4,1,17,1575420030,35.00,175.0,45.0,1,0,0,30.0
Status,1732146401000,29,5,1,7,1575420030,37.90,103.0,38.0,1,0,0,32.9
Status,1732146401000,29,6,2,131,1575420030,39.00,3.0,23.0,0,0,0,34.0
Status,1732146401000,29,7,1,19,1575420030,44.60,193.0,18.0,1,0,0,39.6
Status,1732146401000,29,8,1,15,1575420030,41.60,316.0,17.0,1,0,0,36.6
Status,1732146401000,29,9,1,2,1575420030,0.00,87.0,16.0,0,0,0,0.0
Status,1732146401000,29,10,1,21,1575420030,0.00,69.0,13.0,0,0,0,0.0
Status,1732146401000,29,11,1,8,1575420030,0.00,39.0,9.0,0,0,0,0.0
Status,1732146401000,29,12,1,5,1575420030,23.40,262.0,7.0,1,0,0,18.4
Status,1732146401000,29,13,1,9,1575420030,0.00,159.0,1.0,0,0,0,0.0
Status,1732146401000,29,14,3,9,1602000000,30.40,17.0,54.0,1,0,0,25.4
Status,1732146401000,29,15,3,8,1602000000,32.20,303.0,39.0,1,0,0,27.2
Status,1732146401000,29,16,3,16,1602000000,24.70,67.0,14.0,1,0,0,19.7
Status,1732146401000,29,17,3,20,1602000000,23.50,149.0,10.0,1,0,0,18.5
Status,1732146401000,29,18,3,11,1602000000,0.00,271.0,1.0,0,0,0,0.0
Status,1732146401000,29,19,3,17,1602000000,40.50,0.0,0.0,0,0,0,35.5
Status,1732146401000,29,20,6,29,1575420030,0.00,204.0,61.0,0,0,0,0.0
Status,1732146401000,29,21,6,27,1575420030,32.30,36.0,59.0,1,0,0,27.3
Status,1732146401000,29,22,6,21,1575420030,23.60,268.0,57.0,1,0,0,18.6
Status,1732146401000,29,23,6,19,1575420030,23.50,298.0,50.0,1,0,0,18.5
Status,1732146401000,29,24,6,7,1575420030,28.10,161.0,17.0,1,0,0,23.1
Status,1732146401000,29,25,6,15,1575420030,0.00,95.0,11.0,0,0,0,0.0
Status,1732146401000,29,26,6,30,1575420030,0.00,58.0,10.0,0,0,0,0.0
Status,1732146401000,29,27,6,34,1575420030,0.00,47.0,6.0,0,0,0,0.0
Status,1732146401000,29,28,6,13,1575420030,0.00,142.0,1.0,0,0,0,0.0
Fix,GPS,37.4243700000,-122.1712483333,15.099999999999998,0.44317582,1.7,192.73,1732146402000,1.0,96.1,25286044000000,35.8,0,,,
Raw,1732146402000,14975000000,,96.16203029438005,-1416181605025999872,0.0,96.16203029438005,2119.239684896516,0.0,0,17,0.0,16431,344819929183099,235,29.985000610351562,144.54305055879414,0.14999,16,0.0,0.0,1575420030,,,,0,16.523413074765408,1,6.0,29.985000610351562,0.0,0.0,0.0,66.7128,C,25286044000000,
Raw,1732146402000,14975000000,,96.16203029438005,-1416181605025999872,0.0,96.16203029438005,2119.239684896516,0.0,0,5,0.0,16431,344819916744964,797,18.424999237060547,1067.9262334077753,0.14999,16,0.0,0.0,1575420030,,,,0,0.0,1,6.0,18.424999237060547,0.0,0.0,0.0,66.7128,C,25286044000000,
Raw,1732146402000,14975000000,,96.16203029438005,-1416181605025999872,0.0,96.16203029438005,2119.239684896516,0.0,0,19,0.0,16431,344819920530537,42,39.637001037597656,-62.097759317908015,0.14999,16,0.0,0.0,1575420030,,,,0,27.41391540057794,1,6.0,39.637001037597656,0.0,0.0,0.0,66.7128,C,25286044000000,
Raw,1732146402000,14975000000,,96.16203029438005,-1416181605025999872,0.0,96.16203029438005,2119.239684896516,0.0,0,30,0.0,16431,344819931965161,42,39.132999420166016,719.1404170418183,0.14999,17,10543.810513120456,0.00022499999613501132,1575420030,,,,0,26.873620857557157,1,6.0,39.132999420166016,0.0,0.0,0.0,66.7128,C,25286044000000,
Raw,1732146402000,14975000000,,96.16203029438005,-1416181605025999872,0.0,96.16203029438005,2119.239684896516,0.0,0,21,0.0,16431,344819919740562,487,18.600000381469727,455.9058228740869,0.14999,16,0.0,0.0,1575420030,,,,0,1.9477967358768336,6,6.0,18.600000381469727,0.0,0.0,6.29462088941288,66.7128,C,25286044000000,
Raw,1732146402000,14975000000,,96.16203029438005,-1416181605025999872,0.0,96.16203029438005,2119.239684896516,0.0,0,13,0.0,16431,344819929955646,58,34.26499938964844,325.83951678620184,0.14999,16,0.0,0.0,1575420030,,,,0,21.526296214203946,1,6.0,34.26499938964844,0.0,0.0,0.0,66.7128,C,25286044000000,
Raw,1732146402000,14975000000,,96.16203029438005,-1416181605025999872,0.0,96.16203029438005,2119.239684896516,0.0,0,7,0.0,16431,344819909900424,316,23.100000381469727,1222.0432950039885,0.14999,16,0.0,0.0,1575420030,,,,0,8.628401851214964,6,6.0,23.100000381469727,0.0,0.0,6.29462088941288,66.7128,C,25286044000000,
Raw,1732146402000,14975000000,,96.16203029438005,-1416181605025999872,0.0,96.16203029438005,2119.239684896516,0.0,0,19,0.0,16431,344819920128801,396,18.5,440.54564838972624,0.14999,16,0.0,0.0,1575420030,,,,0,1.8327501580950067,6,6.0,18.5,0.0,0.0,6.29462088941288,66.7128,C,25286044000000,
Raw,1732146402000,14975000000,,96.16203029438005,-1416181605025999872,0.0,96.16203029438005,2119.239684896516,0.0,0,27,0.0,16431,344819920120150,74,27.299999237060547,881.1360826926795,0.14999,16,0.0,0.0,1575420030,,,,0,13.873949984654255,6,6.0,27.299999237060547,0.0,0.0,6.29462088941288,66.7128,C,25286044000000,
Raw,1732146402000,14975000000,,96.16203029438005,-1416181605025999872,0.0,96.16203029438005,2119.239684896516,0.0,0,8,0.0,32995,10001930300010,235,5.0,436.6482756705723,0.14999,16,0.0,0.0,1605374980,,,,0,13.698471498504151,3,6.0,27.0,0.0,0.0,28.351416615786945,66.7128,C,25286044000000,
Raw,1732146402000,14975000000,,96.16203029438005,-1416181605025999872,0.0,96.16203029438005,2119.239684896516,0.0,0,9,0.0,17,736243,316,5.0,762.6235001656305,0.14999,16,0.0,0.0,1600875010,,,,0,11.589154073156772,3,6.0,25.0,0.0,0.0,28.351416615786945,66.7128,C,25286044000000,
Raw,1732146402000,14975000000,,96.16203029438005,-1416181605025999872,0.0,96.16203029438005,2119.239684896516,0.0,0,16,0.0,17,346246,487,5.0,1121.8400095722934,0.14999,16,0.0,0.0,1601437440,,,,0,4.684114656335362,3,6.0,20.0,0.0,0.0,28.351416615786945,66.7128,C,25286044000000,
Raw,1732146402000,14975000000,,96.16203029438005,-1416181605025999872,0.0,96.16203029438005,2119.239684896516,0.0,0,20,0.0,17,905976,487,5.0,-148.2603001264839,0.14999,16,0.0,0.0,1603124990,,,,0,1.7753882197240198,3,6.0,19.0,0.0,0.0,28.351416615786945,66.7128,C,25286044000000,
Raw,1732146402000,14975000000,,96.16203029438005,-1416181605025999872,0.0,96.16203029438005,2119.239684896516,0.0,0,7,0.0,16431,344819926772258,58,32.887001037597656,984.6168156253731,0.14999,16,0.0,0.0,1575420030,,,,0,19.95226366268364,1,6.0,32.887001037597656,0.0,0.0,0.0,66.7128,C,25286044000000,
Raw,1732146402000,14975000000,,96.16203029438005,-1416181605025999872,0.0,96.16203029438005,2119.239684896516,0.0,0,14,0.0,16431,344819932844370,58,34.04600143432617,618.661223005239,0.14999,17,9314.67070375126,0.00039999998989515007,1575420030,,,,0,21.282978073103248,1,6.0,34.04600143432617,0.0,0.0,0.0,66.7128,C,25286044000000,
Raw,1732146402000,14975000000,,96.16203029438005,-1416181605025999872,0.0,96.16203029438005,2119.239684896516,0.0,0,15,0.0,16431,344819922216815,51,36.5629997253418,144.78272952802428,0.14999,17,5496.360416873932,0.00022499999613501132,1575420030,,,,0,24.084850188786497,1,6.0,36.5629997253418,0.0,0.0,0.0,66.7128,C,25286044000000,
Raw,1732146402000,14975000000,,96.16203029438005,-1416181605025999872,0.0,96.16203029438005,2119.239684896516,0.0,0,22,0.0,16431,344819930608929,51,36.90800094604492,470.40372915357983,0.14999,16,0.0,0.0,1575420030,,,,0,24.46084573524564,1,6.0,36.90800094604492,0.0,0.0,0.0,66.7128,C,25286044000000,
Fix,FLP,37.4243743000,-122.1712492000,2.0999999046325684,0.24603975,1.9,216.8689,1732146402196,1.0,96.1,25286044000000,0.8374342,0,,,
Status,1732146402000,29,0,1,14,1575420030,42.10,320.0,74.0,1,0,0,37.1
Status,1732146402000,29,1,1,30,1575420030,40.70,74.0,70.0,1,0,0,35.7
Status,1732146402000,29,2,1,22,1575420030,40.10,271.0,60.0,1,0,0,35.1
Status,1732146402000,29,3,1,13,1575420030,35.50,303.0,48.0,1,0,0,30.5
Status,1732146402000,29,4,1,17,1575420030,44.20,175.0,45.0,1,0,0,39.2
Status,1732146402000,29,5,1,7,1575420030,37.30,103.0,38.0,1,0,0,32.3
Status,1732146402000,29,6,2,131,1575420030,41.00,3.0,23.0,0,0,0,36.0
Status,1732146402000,29,7,1,19,1575420030,43.50,193.0,18.0,1,0,0,38.5
Status,1732146402000,29,8,1,15,1575420030,37.30,316.0,17.0,1,0,0,32.3
Status,1732146402000,29,9,1,2,1575420030,0.00,87.0,16.0,0,0,0,0.0
Status,1732146402000,29,10,1,21,1575420030,0.00,69.0,13.0,0,0,0,0.0
Status,1732146402000,29,11,1,8,1575420030,0.00,39.0,9.0,0,0,0,0.0
Status,1732146402000,29,12,1,5,1575420030,23.40,262.0,7.0,1,0,0,18.4
Status,1732146402000,29,13,1,9,1575420030,0.00,159.0,1.0,0,0,0,0.0
Status,1732146402000,29,14,3,9,1602000000,34.00,17.0,54.0,1,0,0,29.0
Status,1732146402000,29,15,3,8,1602000000,28.00,303.0,39.0,1,0,0,23.0
Status,1732146402000,29,16,3,16,1602000000,23.90,67.0,14.0,1,0,0,18.9
Status,1732146402000,29,17,3,20,1602000000,23.50,149.0,10.0,1,0,0,18.5
Status,1732146402000,29,18,3,11,1602000000,0.00,271.0,1.0,0,0,0,0.0
Status,1732146402000,29,19,3,17,1602000000,41.60,0.0,0.0,0,0,0,36.6
Status,1732146402000,29,20,6,29,1575420030,0.00,204.0,61.0,0,0,0,0.0
Status,1732146402000,29,21,6,27,1575420030,31.50,36.0,59.0,1,0,0,26.5
Status,1732146402000,29,22,6,21,1575420030,28.50,268.0,57.0,1,0,0,23.5
Status,1732146402000,29,23,6,19,1575420030,23.00,298.0,50.0,1,0,0,18.0
Status,1732146402000,29,24,6,7,1575420030,28.90,161.0,17.0,1,0,0,23.9
Status,1732146402000,29,25,6,15,1575420030,0.00,95.0,11.0,0,0,0,0.0
Status,1732146402000,29,26,6,30,1575420030,0.00,58.0,10.0,0,0,0,0.0
Status,1732146402000,29,27,6,34,1575420030,0.00,47.0,6.0,0,0,0,0.0
Status,1732146402000,29,28,6,13,1575420030,0.00,142.0,1.0,0,0,0,0.0
Fix,GPS,37.4243700000,-122.1712450000,15.3,0.2897886,1.7,170.21,1732146403000,0.9,134.8,25287044000000,35.4,0,,,
Raw,1732146403000,15975000000,,94.92392757118685,-1416181605025999872,0.0,94.92392757118685,2122.8486078013457,0.0,0,17,0.0,16431,344820929182619,42,39.23899841308594,145.32712924917936,0.14999,16,0.0,0.0,1575420030,,,,0,26.98312184345575,1,6.0,39.23899841308594,0.0,0.0,0.0,66.7128,C,25287044000000,
Raw,1732146403000,15975000000,,94.92392757118685,-1416181605025999872,0.0,94.92392757118685,2122.8486078013457,0.0,0,5,0.0,16431,344820916741396,797,18.424999237060547,1070.778965996767,0.14999,16,0.0,0.0,1575420030,,,,0,0.0,1,6.0,18.424999237060547,0.0,0.0,0.0,66.7128,C,25287044000000,
Raw,1732146403000,15975000000,,94.92392757118685,-1416181605025999872,0.0,94.92392757118685,2122.8486078013457,0.0,0,19,0.0,16431,344820920530744,42,38.46699905395508,-61.044686397663746,0.14999,17,-571.0774940338171,0.00022499999613501132,1575420030,,,,0,26.157828084205462,1,6.0,38.46699905395508,0.0,0.0,0.0,66.7128,C,25287044000000,
Raw,1732146403000,15975000000,,94.92392757118685,-1416181605025999872,0.0,94.92392757118685,2122.8486078013457,0.0,0,30,0.0,16431,344820931962762,51,35.67900085449219,719.9146000895507,0.14999,17,11263.894346702005,0.00022499999613501132,1575420030,,,,0,23.111920419234334,1,6.0,35.67900085449219,0.0,0.0,0.0,66.7128,C,25287044000000,
Raw,1732146403000,15975000000,,94.92392757118685,-1416181605025999872,0.0,94.92392757118685,2122.8486078013457,0.0,0,21,0.0,16431,344820919739038,316,23.5,457.61586425796435,0.14999,16,0.0,0.0,1575420030,,,,0,9.142509855913001,6,6.0,23.5,0.0,0.0,6.182970644807637,66.7128,C,25287044000000,
Raw,1732146403000,15975000000,,94.92392757118685,-1416181605025999872,0.0,94.92392757118685,2122.8486078013457,0.0,0,13,0.0,16431,344820929954558,74,30.547000885009766,326.98850310671276,0.14999,16,0.0,0.0,1575420030,,,,0,17.200578419984755,1,6.0,30.547000885009766,0.0,0.0,0.0,66.7128,C,25287044000000,
Raw,1732146403000,15975000000,,94.92392757118685,-1416181605025999872,0.0,94.92392757118685,2122.8486078013457,0.0,0,7,0.0,16431,344820909896351,316,23.899999618530273,1223.214047092494,0.14999,16,0.0,0.0,1575420030,,,,0,9.674959458321283,6,6.0,23.899999618530273,0.0,0.0,6.182970644807637,66.7128,C,25287044000000,
Raw,1732146403000,15975000000,,94.92392757118685,-1416181605025999872,0.0,94.92392757118685,2122.8486078013457,0.0,0,19,0.0,16431,344820920127326,396,18.0,442.3758312379242,0.14999,16,0.0,0.0,1575420030,,,,0,0.9817031443857331,6,6.0,18.0,0.0,0.0,6.182970644807637,66.7128,C,25287044000000,
Raw,1732146403000,15975000000,,94.92392757118685,-1416181605025999872,0.0,94.92392757118685,2122.8486078013457,0.0,0,27,0.0,16431,344820920117208,235,26.5,881.9512420635095,0.14999,16,0.0,0.0,1575420030,,,,0,12.958800173440752,6,6.0,26.5,0.0,0.0,6.182970644807637,66.7128,C,25287044000000,
Raw,1732146403000,15975000000,,94.92392757118685,-1416181605025999872,0.0,94.92392757118685,2122.8486078013457,0.0,0,8,0.0,32995,10002930298552,396,5.0,437.4215537756408,0.14999,16,0.0,0.0,1605374980,,,,0,8.521825181113625,3,6.0,22.0,0.0,0.0,32.10063444087558,66.7128,C,25287044000000,
Raw,1732146403000,15975000000,,94.92392757118685,-1416181605025999872,0.0,94.92392757118685,2122.8486078013457,0.0,0,9,0.0,17,733693,235,5.0,763.7870207048805,0.14999,16,0.0,0.0,1600875010,,,,0,15.881360887005513,3,6.0,29.0,0.0,0.0,32.10063444087558,66.7128,C,25287044000000,
Raw,1732146403000,15975000000,,94.92392757118685,-1416181605025999872,0.0,94.92392757118685,2122.8486078013457,0.0,0,16,0.0,17,342503,797,5.0,1124.5199794346065,0.14999,16,0.0,0.0,1601437440,,,,0,2.501225267834001,3,6.0,17.0,0.0,0.0,32.10063444087558,66.7128,C,25287044000000,
Raw,1732146403000,15975000000,,94.92392757118685,-1416181605025999872,0.0,94.92392757118685,2122.8486078013457,0.0,0,20,0.0,17,906473,797,5.0,-149.09972266132615,0.14999,16,0.0,0.0,1603124990,,,,0,1.7753882197240198,3,6.0,16.0,0.0,0.0,32.10063444087558,66.7128,C,25287044000000,
Raw,1732146403000,15975000000,,94.92392757118685,-1416181605025999872,0.0,94.92392757118685,2122.8486078013457,0.0,0,7,0.0,16431,344820926768969,74,32.255001068115234,985.9996039254636,0.14999,17,13362.32662375584,0.0006249999860301614,1575420030,,,,0,19.21738455271453,1,6.0,32.255001068115234,0.0,0.0,0.0,66.7128,C,25287044000000,
Raw,1732146403000,15975000000,,94.92392757118685,-1416181605025999872,0.0,94.92392757118685,2122.8486078013457,0.0,0,14,0.0,16431,344820932842303,51,37.08700180053711,619.3762644891353,0.14999,16,0.0,0.0,1575420030,,,,0,24.655471960509786,1,6.0,37.08700180053711,0.0,0.0,0.0,66.7128,C,25287044000000,
Raw,1732146403000,15975000000,,94.92392757118685,-1416181605025999872,0.0,94.92392757118685,2122.8486078013457,0.0,0,15,0.0,16431,344820922216329,74,32.29199981689453,146.47372296125548,0.14999,16,0.0,0.0,1575420030,,,,0,19.264208869012585,1,6.0,32.29199981689453,0.0,0.0,0.0,66.7128,C,25287044000000,
Raw,1732146403000,15975000000,,94.92392757118685,-1416181605025999872,0.0,94.92392757118685,2122.8486078013457,0.0,0,22,0.0,16431,344820930607347,58,35.084999084472656,471.59613086403954,0.14999,17,8884.716677029373,0.00039999998989515007,1575420030,,,,0,22.447442497618376,1,6.0,35.084999084472656,0.0,0.0,0.0,66.7128,C,25287044000000,
Fix,FLP,37.4243712000,-122.1712477000,0.3814840785573024,0.23577276,1.886,208.15387,1732146403197,0.9,134.8,25287044000000,0.84759647,0,,,
Status,1732146403000,29,0,1,14,1575420030,47.40,320.0,74.0,1,0,0,42.4
Status,1732146403000,29,1,1,30,1575420030,45.50,74.0,70.0,1,0,0,40.5
Status,1732146403000,29,2,1,22,1575420030,43.10,271.0,60.0,1,0,0,38.1
Status,1732146403000,29,3,1,13,1575420030,39.70,303.0,48.0,1,0,0,34.7
Status,1732146403000,29,4,1,17,1575420030,44.40,175.0,45.0,1,0,0,39.4
Status,1732146403000,29,5,1,7,1575420030,46.30,103.0,38.0,1,0,0,41.3
Status,1732146403000,29,6,2,131,1575420030,44.00,3.0,23.0,0,0,0,39.0
Status,1732146403000,29,7,1,19,1575420030,39.70,193.0,18.0,1,0,0,34.7
Status,1732146403000,29,8,1,15,1575420030,35.40,316.0,17.0,1,0,0,30.400002
Status,1732146403000,29,9,1,2,1575420030,0.00,87.0,16.0,0,0,0,0.0
Status,1732146403000,29,10,1,21,1575420030,0.00,69.0,13.0,0,0,0,0.0
Status,1732146403000,29,11,1,8,1575420030,0.00,39.0,9.0,0,0,0,0.0
Status,1732146403000,29,12,1,5,1575420030,25.70,262.0,7.0,1,0,0,20.7
Status,1732146403000,29,13,1,9,1575420030,0.00,159.0,1.0,0,0,0,0.0
Status,1732146403000,29,14,3,9,1602000000,30.00,17.0,54.0,1,0,0,25.0
Status,1732146403000,29,15,3,8,1602000000,28.00,303.0,39.0,1,0,0,23.0
Status,1732146403000,29,16,3,16,1602000000,26.50,67.0,14.0,1,0,0,21.5
Status,1732146403000,29,17,3,20,1602000000,0.00,149.0,10.0,0,0,0,0.0
Status,1732146403000,29,18,3,11,1602000000,0.00,271.0,1.0,0,0,0,0.0
Status,1732146403000,29,19,3,17,1602000000,34.60,0.0,0.0,0,0,0,29.599998
Status,1732146403000,29,20,6,29,1575420030,0.00,204.0,61.0,0,0,0,0.0
Status,1732146403000,29,21,6,27,1575420030,35.30,36.0,59.0,1,0,0,30.3
Status,1732146403000,29,22,6,21,1575420030,37.40,268.0,57.0,1,0,0,32.4
Status,1732146403000,29,23,6,19,1575420030,24.50,298.0,50.0,1,0,0,19.5
Status,1732146403000,29,24,6,7,1575420030,32.30,161.0,17.0,1,0,0,27.3
Status,1732146403000,29,25,6,15,1575420030,0.00,95.0,11.0,0,0,0,0.0
Status,1732146403000,29,26,6,30,1575420030,0.00,58.0,10.0,0,0,0,0.0
Status,1732146403000,29,27,6,34,1575420030,0.00,47.0,6.0,0,0,0,0.0
Status,1732146403000,29,28,6,13,1575420030,0.00,142.0,1.0,0,0,0,0.0
Fix,GPS,37.4243650000,-122.1712433333,15.2,0.27125862,1.7,155.55,1732146404000,0.9,121.6,25288044000000,34.9,0,,,
Raw,1732146404000,16975000000,,93.32666422821741,-1416181605025999872,0.0,93.32666422821741,2126.140230811484,0.0,0,17,0.0,16431,344821929182136,42,39.38600158691406,146.07599246007703,0.14999,17,2685.0570392355576,0.00022499999613501132,1575420030,,,,0,27.141685751024596,1,6.0,39.38600158691406,0.0,0.0,0.0,66.7128,C,25288044000000,
Raw,1732146404000,16975000000,,93.32666422821741,-1416181605025999872,0.0,93.32666422821741,2126.140230811484,0.0,0,5,0.0,16431,344821916737803,487,20.695999145507812,1071.3666649618303,0.14999,16,0.0,0.0,1575420030,,,,0,3.416375079047504,1,6.0,20.695999145507812,0.0,0.0,0.0,66.7128,C,25288044000000,
Raw,1732146404000,16975000000,,93.32666422821741,-1416181605025999872,0.0,93.32666422821741,2126.140230811484,0.0,0,19,0.0,16431,344821920530947,58,34.685001373291016,-60.22511347729364,0.14999,16,0.0,0.0,1575420030,,,,0,22.00475359333336,1,6.0,34.685001373291016,0.0,0.0,0.0,66.7128,C,25288044000000,
Raw,1732146404000,16975000000,,93.32666422821741,-1416181605025999872,0.0,93.32666422821741,2126.140230811484,0.0,0,30,0.0,16431,344821931960355,42,40.54399871826172,721.1452835349679,0.14999,17,11985.268374056488,0.00022499999613501132,1575420030,,,,0,28.375840406283636,1,6.0,40.54399871826172,0.0,0.0,0.0,66.7128,C,25288044000000,
Raw,1732146404000,16975000000,,93.32666422821741,-1416181605025999872,0.0,93.32666422821741,2126.140230811484,0.0,0,21,0.0,16431,344821919737506,58,32.400001525878906,458.62884356501894,0.14999,16,0.0,0.0,1575420030,,,,0,19.659781832508997,6,6.0,32.400001525878906,0.0,0.0,5.916902283020417,66.7128,C,25288044000000,
Raw,1732146404000,16975000000,,93.32666422821741,-1416181605025999872,0.0,93.32666422821741,2126.140230811484,0.0,0,13,0.0,16431,344821929953454,58,34.685001373291016,328.0140726445604,0.14999,16,0.0,0.0,1575420030,,,,0,22.00475359333336,1,6.0,34.685001373291016,0.0,0.0,0.0,66.7128,C,25288044000000,
Raw,1732146404000,16975000000,,93.32666422821741,-1416181605025999872,0.0,93.32666422821741,2126.140230811484,0.0,0,7,0.0,16431,344821909892270,235,27.299999237060547,1224.277015655391,0.14999,16,0.0,0.0,1575420030,,,,0,13.8449486567496,6,6.0,27.299999237060547,0.0,0.0,5.916902283020417,66.7128,C,25288044000000,
Raw,1732146404000,16975000000,,93.32666422821741,-1416181605025999872,0.0,93.32666422821741,2126.140230811484,0.0,0,19,0.0,16431,344821920125847,316,19.5,443.24976050526067,0.14999,16,0.0,0.0,1575420030,,,,0,3.416375079047504,6,6.0,19.5,0.0,0.0,5.916902283020417,66.7128,C,25288044000000,
Raw,1732146404000,16975000000,,93.32666422821741,-1416181605025999872,0.0,93.32666422821741,2126.140230811484,0.0,0,27,0.0,16431,344821920114261,74,30.299999237060547,883.1029462013688,0.14999,16,0.0,0.0,1575420030,,,,0,17.298725109879637,6,6.0,30.299999237060547,0.0,0.0,5.916902283020417,66.7128,C,25288044000000,
Raw,1732146404000,16975000000,,93.32666422821741,-1416181605025999872,0.0,93.32666422821741,2126.140230811484,0.0,0,8,0.0,32995,10003930297088,316,5.0,439.772846253248,0.14999,16,0.0,0.0,1605374980,,,,0,8.521825181113625,3,6.0,24.0,0.0,0.0,33.128181044236044,66.7128,C,25288044000000,
Raw,1732146404000,16975000000,,93.32666422821741,-1416181605025999872,0.0,93.32666422821741,2126.140230811484,0.0,0,9,0.0,17,731138,316,5.0,764.874692268744,0.14999,16,0.0,0.0,1600875010,,,,0,11.123392706327845,3,6.0,26.0,0.0,0.0,33.128181044236044,66.7128,C,25288044000000,
Raw,1732146404000,16975000000,,93.32666422821741,-1416181605025999872,0.0,93.32666422821741,2126.140230811484,0.0,0,16,0.0,17,338725,396,5.0,1123.1429288538995,0.14999,16,0.0,0.0,1601437440,,,,0,6.427118170713365,3,6.0,21.0,0.0,0.0,33.128181044236044,66.7128,C,25288044000000,
Raw,1732146404000,16975000000,,93.32666422821741,-1416181605025999872,0.0,93.32666422821741,2126.140230811484,0.0,0,7,0.0,16431,344821926765678,31,41.257999420166016,986.9892611075804,0.14999,17,14349.556231672383,0.00022499999613501132,1575420030,,,,0,29.13252033251396,1,6.0,41.257999420166016,0.0,0.0,0.0,66.7128,C,25288044000000,
Raw,1732146404000,16975000000,,93.32666422821741,-1416181605025999872,0.0,93.32666422821741,2126.140230811484,0.0,0,14,0.0,16431,344821932840232,31,42.42300033569336,620.5308955072159,0.14999,17,10554.938232971204,0.00022499999613501132,1575420030,,,,0,30.360806353127003,1,6.0,42.42300033569336,0.0,0.0,0.0,66.7128,C,25288044000000,
Raw,1732146404000,16975000000,,93.32666422821741,-1416181605025999872,0.0,93.32666422821741,2126.140230811484,0.0,0,15,0.0,16431,344821922215843,74,30.44099998474121,147.19271341052976,0.14999,16,0.0,0.0,1575420030,,,,0,17.08131948051122,1,6.0,30.44099998474121,0.0,0.0,0.0,66.7128,C,25288044000000,
Raw,1732146404000,16975000000,,93.32666422821741,-1416181605025999872,0.0,93.32666422821741,2126.140230811484,0.0,0,22,0.0,16431,344821930605770,51,38.141998291015625,472.4335438162345,0.14999,17,9357.426192548852,0.00022499999613501132,1575420030,,,,0,25.805891897183457,1,6.0,38.141998291015625,0.0,0.0,0.0,66.7128,C,25288044000000,
Fix,FLP,37.4243672000,-122.1712458000,0.3799573613316056,0.22603364,1.716,197.7402,1732146404196,0.9,121.6,25288044000000,0.85757804,0,,,
Status,1732146404000,29,0,1,14,1575420030,49.20,320.0,74.0,1,0,0,44.2
Status,1732146404000,29,1,1,30,1575420030,45.70,74.0,70.0,1,0,0,40.7
Status,1732146404000,29,2,1,22,1575420030,45.50,271.0,60.0,1,0,0,40.5
Status,1732146404000,29,3,1,13,1575420030,36.30,303.0,48.0,1,0,0,31.3
Status,1732146404000,29,4,1,17,1575420030,43.30,175.0,45.0,1,0,0,38.3
Status,1732146404000,29,5,1,7,1575420030,41.40,103.0,38.0,1,0,0,36.4
Status,1732146404000,29,6,2,131,1575420030,42.00,3.0,23.0,0,0,0,37.0
Status,1732146404000,29,7,1,19,1575420030,40.40,193.0,18.0,1,0,0,35.4
Status,1732146404000,29,8,1,15,1575420030,37.60,316.0,17.0,1,0,0,32.6
Status,1732146404000,29,9,1,2,1575420030,0.00,87.0,16.0,0,0,0,0.0
Status,1732146404000,29,10,1,21,1575420030,0.00,69.0,14.0,0,0,0,0.0
Status,1732146404000,29,11,1,8,1575420030,23.90,39.0,9.0,1,0,0,18.9
Status,1732146404000,29,12,1,5,1575420030,25.10,262.0,7.0,1,0,0,20.1
Status,1732146404000,29,13,1,9,1575420030,0.00,159.0,1.0,0,0,0,0.0
Status,1732146404000,29,14,3,9,1602000000,31.10,17.0,54.0,1,0,0,26.1
Status,1732146404000,29,15,3,8,1602000000,31.60,303.0,39.0,1,0,0,26.6
Status,1732146404000,29,16,3,16,1602000000,25.30,67.0,14.0,1,0,0,20.3
Status,1732146404000,29,17,3,20,1602000000,0.00,149.0,10.0,0,0,0,0.0
Status,1732146404000,29,18,3,11,1602000000,0.00,271.0,1.0,0,0,0,0.0
Status,1732146404000,29,19,3,17,1602000000,40.30,0.0,0.0,0,0,0,35.3
Status,1732146404000,29,20,6,29,1575420030,0.00,204.0,61.0,0,0,0,0.0
Status,1732146404000,29,21,6,27,1575420030,33.90,36.0,59.0,1,0,0,28.900002
Status,1732146404000,29,22,6,21,1575420030,36.90,268.0,57.0,1,0,0,31.900002
Status,1732146404000,29,23,6,19,1575420030,29.10,298.0,50.0,1,0,0,24.1
Status,1732146404000,29,24,6,7,1575420030,32.10,161.0,17.0,1,0,0,27.099998
Status,1732146404000,29,25,6,15,1575420030,0.00,95.0,11.0,0,0,0,0.0
Status,1732146404000,29,26,6,30,1575420030,0.00,58.0,10.0,0,0,0,0.0
Status,1732146404000,29,27,6,34,1575420030,0.00,47.0,6.0,0,0,0,0.0
Status,1732146404000,29,28,6,13,1575420030,0.00,142.0,1.0,0,0,0,0.0
Fix,GPS,37.4243650000,-122.1712416667,15.2,0.18890305,1.7,144.68,1732146405000,0.8,161.5,25289044000000,34.3,0,,,
Raw,1732146405000,17975000000,,92.2441307581024,-1416181605025999872,0.0,92.2441307581024,2127.944918524509,0.0,0,17,0.0,16431,344822929181644,51,38.297000885009766,146.84994321572842,0.14999,17,2832.0366333726747,0.00022499999613501132,1575420030,,,,0,25.972863575963267,1,6.0,38.297000885009766,0.0,0.0,0.0,66.7128,C,25289044000000,
Raw,1732146405000,17975000000,,92.2441307581024,-1416181605025999872,0.0,92.2441307581024,2127.944918524509,0.0,0,5,0.0,16431,344822916734211,487,20.08300018310547,1070.9795734379643,0.14999,16,0.0,0.0,1575420030,,,,0,2.3933246300998774,1,6.0,20.08300018310547,0.0,0.0,0.0,66.7128,C,25289044000000,
Raw,1732146405000,17975000000,,92.2441307581024,-1416181605025999872,0.0,92.2441307581024,2127.944918524509,0.0,0,19,0.0,16431,344822920531146,58,35.391998291015625,-59.69223544335876,0.14999,17,-690.3184984276254,0.00039999998989515007,1575420030,,,,0,22.786034050126204,1,6.0,35.391998291015625,0.0,0.0,0.0,66.7128,C,25289044000000,
Raw,1732146405000,17975000000,,92.2441307581024,-1416181605025999872,0.0,92.2441307581024,2127.944918524509,0.0,0,30,0.0,16431,344822931957947,31,40.652000427246094,721.8054576293197,0.14999,17,12707.307395566006,0.00022499999613501132,1575420030,,,,0,30.667699931321447,1,6.0,40.652000427246094,0.0,0.0,0.0,66.7128,C,25289044000000,
Raw,1732146405000,17975000000,,92.2441307581024,-1416181605025999872,0.0,92.2441307581024,2127.944918524509,0.0,0,21,0.0,16431,344822919735973,58,31.899999618530273,459.0811627052447,0.14999,16,0.0,0.0,1575420030,,,,0,19.091271416929622,6,6.0,31.899999618530273,0.0,0.0,5.86808222391397,66.7128,C,25289044000000,
Raw,1732146405000,17975000000,,92.2441307581024,-1416181605025999872,0.0,92.2441307581024,2127.944918524509,0.0,0,13,0.0,16431,344822929952345,74,31.285999298095703,328.7247702665411,0.14999,17,7532.454021588946,0.0006249999860301614,1575420030,,,,0,18.082104114553694,1,6.0,31.285999298095703,0.0,0.0,0.0,66.7128,C,25289044000000,
Raw,1732146405000,17975000000,,92.2441307581024,-1416181605025999872,0.0,92.2441307581024,2127.944918524509,0.0,0,7,0.0,16431,344822909888186,235,27.100000381469727,1224.796885332787,0.14999,16,0.0,0.0,1575420030,,,,0,13.579484848240128,6,6.0,27.100000381469727,0.0,0.0,5.86808222391397,66.7128,C,25289044000000,
Raw,1732146405000,17975000000,,92.2441307581024,-1416181605025999872,0.0,92.2441307581024,2127.944918524509,0.0,0,19,0.0,16431,344822920124374,316,24.100000381469727,443.84847011496583,0.14999,16,0.0,0.0,1575420030,,,,0,9.997549464331998,6,6.0,24.100000381469727,0.0,0.0,5.86808222391397,66.7128,C,25289044000000,
Raw,1732146405000,17975000000,,92.2441307581024,-1416181605025999872,0.0,92.2441307581024,2127.944918524509,0.0,0,27,0.0,16431,344822920111311,74,28.899999618530273,883.6677876256565,0.14999,16,0.0,0.0,1575420030,,,,0,15.695559371600908,6,6.0,28.899999618530273,0.0,0.0,5.86808222391397,66.7128,C,25289044000000,
Raw,1732146405000,17975000000,,92.2441307581024,-1416181605025999872,0.0,92.2441307581024,2127.944918524509,0.0,0,8,0.0,32995,10004930295637,316,5.0,439.8747433445061,0.14999,16,0.0,0.0,1605374980,,,,0,13.00692156875832,3,6.0,25.0,0.0,0.0,32.36099256482467,66.7128,C,25289044000000,
Raw,1732146405000,17975000000,,92.2441307581024,-1416181605025999872,0.0,92.2441307581024,2127.944918524509,0.0,0,9,0.0,17,728579,396,5.0,765.4633790722877,0.14999,16,0.0,0.0,1600875010,,,,0,12.403738801994226,3,6.0,23.0,0.0,0.0,32.36099256482467,66.7128,C,25289044000000,
Raw,1732146405000,17975000000,,92.2441307581024,-1416181605025999872,0.0,92.2441307581024,2127.944918524509,0.0,0,16,0.0,17,334964,487,5.0,1125.5975797861468,0.14999,16,0.0,0.0,1601437440,,,,0,4.684114656335362,3,6.0,20.0,0.0,0.0,32.36099256482467,66.7128,C,25289044000000,
Raw,1732146405000,17975000000,,92.2441307581024,-1416181605025999872,0.0,92.2441307581024,2127.944918524509,0.0,0,8,0.0,16431,344822918344818,797,18.93600082397461,1316.758997300737,0.14999,16,0.0,0.0,1575420030,,,,0,0.31833587933264074,1,6.0,18.93600082397461,0.0,0.0,0.0,66.7128,C,25289044000000,
Raw,1732146405000,17975000000,,92.2441307581024,-1416181605025999872,0.0,92.2441307581024,2127.944918524509,0.0,0,7,0.0,16431,344822926762385,51,36.40399932861328,987.6111534669748,0.14999,17,15337.472129120491,0.00022499999613501132,1575420030,,,,0,23.913382903027532,1,6.0,36.40399932861328,0.0,0.0,0.0,66.7128,C,25289044000000,
Raw,1732146405000,17975000000,,92.2441307581024,-1416181605025999872,0.0,92.2441307581024,2127.944918524509,0.0,0,14,0.0,16431,344822932838160,31,44.21900177001953,621.1276538634402,0.14999,17,11176.30111160322,0.00022499999613501132,1575420030,,,,0,32.23455672035186,1,6.0,44.21900177001953,0.0,0.0,0.0,66.7128,C,25289044000000,
Raw,1732146405000,17975000000,,92.2441307581024,-1416181605025999872,0.0,92.2441307581024,2127.944918524509,0.0,0,15,0.0,16431,344822922215356,74,32.56999969482422,147.69999285713263,0.14999,16,0.0,0.0,1575420030,,,,0,19.58509616480973,1,6.0,32.56999969482422,0.0,0.0,0.0,66.7128,C,25289044000000,
Raw,1732146405000,17975000000,,92.2441307581024,-1416181605025999872,0.0,92.2441307581024,2127.944918524509,0.0,0,22,0.0,16431,344822930604193,42,40.54399871826172,473.05548263404495,0.14999,17,9830.756000516016,0.00022499999613501132,1575420030,,,,0,28.375840406283636,1,6.0,40.54399871826172,0.0,0.0,0.0,66.7128,C,25289044000000,
Fix,FLP,37.4243652000,-122.1712439000,0.3814840785573024,0.20934448,1.7,190.00624,1732146405196,0.8,161.5,25289044000000,0.86769444,0,,,
Status,1732146405000,29,0,1,14,1575420030,49.10,320.0,74.0,1,0,0,44.1
Status,1732146405000,29,1,1,30,1575420030,45.70,74.0,70.0,1,0,0,40.7
Status,1732146405000,29,2,1,22,1575420030,45.40,271.0,60.0,1,0,0,40.4
Status,1732146405000,29,3,1,13,1575420030,32.10,303.0,48.0,1,0,0,27.099998
Status,1732146405000,29,4,1,17,1575420030,36.90,175.0,45.0,1,0,0,31.900002
Status,1732146405000,29,5,1,7,1575420030,42.00,103.0,38.0,1,0,0,37.0
Status,1732146405000,29,6,2,131,1575420030,44.00,3.0,23.0,0,0,0,39.0
Status,1732146405000,29,7,1,19,1575420030,35.40,193.0,18.0,1,0,0,30.400002
Status,1732146405000,29,8,1,15,1575420030,37.90,316.0,17.0,1,0,0,32.9
Status,1732146405000,29,9,1,2,1575420030,26.40,87.0,16.0,1,0,0,21.4
Status,1732146405000,29,10,1,21,1575420030,0.00,69.0,14.0,0,0,0,0.0
Status,1732146405000,29,11,1,8,1575420030,21.80,39.0,9.0,1,0,0,16.8
Status,1732146405000,29,12,1,5,1575420030,25.30,262.0,7.0,1,0,0,20.3
Status,1732146405000,29,13,1,9,1575420030,0.00,159.0,1.0,0,0,0,0.0
Status,1732146405000,29,14,3,9,1602000000,30.10,17.0,54.0,1,0,0,25.1
Status,1732146405000,29,15,3,8,1602000000,31.60,303.0,39.0,1,0,0,26.6
Status,1732146405000,29,16,3,16,1602000000,24.00,67.0,14.0,1,0,0,19.0
Status,1732146405000,29,17,3,20,1602000000,0.00,149.0,10.0,0,0,0,0.0
Status,1732146405000,29,18,3,11,1602000000,0.00,271.0,1.0,0,0,0,0.0
Status,1732146405000,29,19,3,17,1602000000,36.20,0.0,0.0,0,0,0,31.2
Status,1732146405000,29,20,6,29,1575420030,0.00,204.0,61.0,0,0,0,0.0
Status,1732146405000,29,21,6,27,1575420030,32.60,36.0,59.0,1,0,0,27.599998
Status,1732146405000,29,22,6,21,1575420030,37.70,268.0,57.0,1,0,0,32.7
Status,1732146405000,29,23,6,19,1575420030,28.10,298.0,50.0,1,0,0,23.1
Status,1732146405000,29,24,6,7,1575420030,0.00,161.0,17.0,0,0,0,0.0
Status,1732146405000,29,25,6,15,1575420030,0.00,95.0,11.0,0,0,0,0.0
Status,1732146405000,29,26,6,30,1575420030,0.00,58.0,10.0,0,0,0,0.0
Status,1732146405000,29,27,6,34,1575420030,0.00,47.0,6.0,0,0,0,0.0
Status,1732146405000,29,28,6,13,1575420030,0.00,142.0,1.0,0,0,0,0.0
Fix,GPS,37.4243600000,-122.1712383333,15.2,0.15132834,1.7,140.98,1732146406000,0.7,179.9,25290044000000,34.1,0,,,
Fix,FLP,37.4243619000,-122.1712412000,2.0999999046325684,0.19178087,1.7,182.59396,1732146406196,0.7,179.9,25290044000000,0.87769186,0,,,
Raw,1732146406000,18975000000,,92.0835671543099,-1416181605025999872,0.0,92.0835671543099,2130.3377289797522,0.0,0,17,0.0,16431,344823929181159,74,31.927000045776367,147.73720604851727,0.14999,16,0.0,0.0,1575420030,,,,0,18.833415311890388,1,6.0,31.927000045776367,0.0,0.0,0.0,66.7128,C,25290044000000,
Raw,1732146406000,18975000000,,92.0835671543099,-1416181605025999872,0.0,92.0835671543099,2130.3377289797522,0.0,0,5,0.0,16431,344823916730616,487,20.31399917602539,1073.5013362698724,0.14999,16,0.0,0.0,1575420030,,,,0,2.7130867377824837,1,6.0,20.31399917602539,0.0,0.0,0.0,66.7128,C,25290044000000,
Raw,1732146406000,18975000000,,92.0835671543099,-1416181605025999872,0.0,92.0835671543099,2130.3377289797522,0.0,0,19,0.0,16431,344823920531357,74,30.426000595092773,-58.50229602895825,0.14999,16,0.0,0.0,1575420030,,,,0,17.061282817328316,1,6.0,30.426000595092773,0.0,0.0,0.0,66.7128,C,25290044000000,
Raw,1732146406000,18975000000,,92.0835671543099,-1416181605025999872,0.0,92.0835671543099,2130.3377289797522,0.0,0,30,0.0,16431,344823931955540,31,40.702999114990234,722.6808271075586,0.14999,17,13430.027755882109,0.00022499999613501132,1575420030,,,,0,29.575798999789345,1,6.0,40.702999114990234,0.0,0.0,0.0,66.7128,C,25290044000000,
Raw,1732146406000,18975000000,,92.0835671543099,-1416181605025999872,0.0,92.0835671543099,2130.3377289797522,0.0,0,21,0.0,16431,344823919734439,58,32.70000076293945,459.83072279238553,0.14999,16,0.0,0.0,1575420030,,,,0,19.980977373586732,6,6.0,32.70000076293945,0.0,0.0,4.848019189873296,66.7128,C,25290044000000,
Raw,1732146406000,18975000000,,92.0835671543099,-1416181605025999872,0.0,92.0835671543099,2130.3377289797522,0.0,0,13,0.0,16431,344823929951244,235,27.10700035095215,329.50898833217497,0.14999,16,0.0,0.0,1575420030,,,,0,12.894220770836782,1,6.0,27.10700035095215,0.0,0.0,0.0,66.7128,C,25290044000000,
Raw,1732146406000,18975000000,,92.0835671543099,-1416181605025999872,0.0,92.0835671543099,2130.3377289797522,0.0,0,19,0.0,16431,344823920122893,316,23.100000381469727,444.71152811290904,0.14999,16,0.0,0.0,1575420030,,,,0,8.575276978340163,6,6.0,23.100000381469727,0.0,0.0,4.848019189873296,66.7128,C,25290044000000,
Raw,1732146406000,18975000000,,92.0835671543099,-1416181605025999872,0.0,92.0835671543099,2130.3377289797522,0.0,0,27,0.0,16431,344823920108371,235,27.600000381469727,884.4084276968849,0.14999,16,0.0,0.0,1575420030,,,,0,14.186732670797756,6,6.0,27.600000381469727,0.0,0.0,4.848019189873296,66.7128,C,25290044000000,
Raw,1732146406000,18975000000,,92.0835671543099,-1416181605025999872,0.0,92.0835671543099,2130.3377289797522,0.0,0,8,0.0,32995,10005930294175,487,5.0,439.5759363932285,0.14999,16,0.0,0.0,1605374980,,,,0,13.00692156875832,3,6.0,18.0,0.0,0.0,33.18439235761778,66.7128,C,25290044000000,
Raw,1732146406000,18975000000,,92.0835671543099,-1416181605025999872,0.0,92.0835671543099,2130.3377289797522,0.0,0,9,0.0,17,726030,316,5.0,766.5358716971346,0.14999,16,0.0,0.0,1600875010,,,,0,11.174336486605442,3,6.0,25.0,0.0,0.0,33.18439235761778,66.7128,C,25290044000000,
Raw,1732146406000,18975000000,,92.0835671543099,-1416181605025999872,0.0,92.0835671543099,2130.3377289797522,0.0,0,16,0.0,17,331197,487,5.0,1124.8199781074163,0.14999,16,0.0,0.0,1601437440,,,,0,2.6380137584401098,3,6.0,20.0,0.0,0.0,33.18439235761778,66.7128,C,25290044000000,
Raw,1732146406000,18975000000,,92.0835671543099,-1416181605025999872,0.0,92.0835671543099,2130.3377289797522,0.0,0,8,0.0,16431,344823918340368,797,16.750999450683594,1317.0059702413123,0.14999,16,0.0,0.0,1575420030,,,,0,0.0,1,6.0,16.750999450683594,0.0,0.0,0.0,66.7128,C,25290044000000,
Raw,1732146406000,18975000000,,92.0835671543099,-1416181605025999872,0.0,92.0835671543099,2130.3377289797522,0.0,0,7,0.0,16431,344823926759093,51,36.95899963378906,988.4487057944183,0.14999,17,16326.068195203827,0.00022499999613501132,1575420030,,,,0,24.520542806234886,1,6.0,36.95899963378906,0.0,0.0,0.0,66.7128,C,25290044000000,
Raw,1732146406000,18975000000,,92.0835671543099,-1416181605025999872,0.0,92.0835671543099,2130.3377289797522,0.0,0,14,0.0,16431,344823932836087,31,44.14099884033203,622.0282502616815,0.14999,17,11798.370402068322,0.00022499999613501132,1575420030,,,,0,30.617298109210964,1,6.0,44.14099884033203,0.0,0.0,0.0,66.7128,C,25290044000000,
Raw,1732146406000,18975000000,,92.0835671543099,-1416181605025999872,0.0,92.0835671543099,2130.3377289797522,0.0,0,15,0.0,16431,344823922214858,58,32.93199920654297,148.70488839976656,0.14999,16,0.0,0.0,1575420030,,,,0,20.009596475715703,1,6.0,32.93199920654297,0.0,0.0,0.0,66.7128,C,25290044000000,
Raw,1732146406000,18975000000,,92.0835671543099,-1416181605025999872,0.0,92.0835671543099,2130.3377289797522,0.0,0,22,0.0,16431,344823930602614,42,40.39699935913086,473.98167761961827,0.14999,17,10304.798405092923,0.00022499999613501132,1575420030,,,,0,28.221811727910353,1,6.0,40.39699935913086,0.0,0.0,0.0,66.7128,C,25290044000000,
Raw,1732146406000,18975000000,,92.0835671543099,-1416181605025999872,0.0,92.0835671543099,2130.3377289797522,0.0,0,2,0.0,16431,344823920150332,487,21.44499969482422,417.1961129864718,0.14999,16,0.0,0.0,1575420030,,,,0,4.672191676236612,1,6.0,21.44499969482422,0.0,0.0,0.0,66.7128,C,25290044000000,
Status,1732146406000,29,0,1,14,1575420030,49.10,320.0,74.0,1,0,0,44.1
Status,1732146406000,29,1,1,30,1575420030,45.80,74.0,70.0,1,0,0,40.8
Status,1732146406000,29,2,1,22,1575420030,45.40,271.0,60.0,1,0,0,40.4
Status,1732146406000,29,3,1,13,1575420030,34.00,303.0,48.0,1,0,0,29.0
Status,1732146406000,29,4,1,17,1575420030,42.10,175.0,45.0,1,0,0,37.1
Status,1732146406000,29,5,1,7,1575420030,41.80,103.0,38.0,1,0,0,36.8
Status,1732146406000,29,6,2,131,1575420030,44.00,3.0,23.0,0,0,0,39.0
Status,1732146406000,29,7,1,19,1575420030,37.40,193.0,18.0,1,0,0,32.4
Status,1732146406000,29,8,1,15,1575420030,31.70,316.0,17.0,1,0,0,26.7
Status,1732146406000,29,9,1,2,1575420030,25.70,87.0,16.0,1,0,0,20.7
Status,1732146406000,29,10,1,21,1575420030,0.00,69.0,14.0,0,0,0,0.0
Status,1732146406000,29,11,1,8,1575420030,23.10,39.0,9.0,1,0,0,18.1
Status,1732146406000,29,12,1,5,1575420030,25.30,262.0,7.0,1,0,0,20.3
Status,1732146406000,29,13,1,9,1575420030,0.00,159.0,1.0,0,0,0,0.0
Status,1732146406000,29,14,3,9,1602000000,25.50,17.0,54.0,1,0,0,20.5
Status,1732146406000,29,15,3,8,1602000000,22.10,303.0,39.0,1,0,0,17.1
Status,1732146406000,29,16,3,16,1602000000,22.40,67.0,14.0,1,0,0,17.4
Status,1732146406000,29,17,3,20,1602000000,0.00,149.0,10.0,0,0,0,0.0
Status,1732146406000,29,18,3,11,1602000000,0.00,271.0,1.0,0,0,0,0.0
Status,1732146406000,29,19,3,17,1602000000,38.90,0.0,0.0,0,0,0,33.9
Status,1732146406000,29,20,6,29,1575420030,0.00,204.0,61.0,0,0,0,0.0
Status,1732146406000,29,21,6,27,1575420030,32.70,36.0,59.0,1,0,0,27.7
Status,1732146406000,29,22,6,21,1575420030,39.10,268.0,57.0,1,0,0,34.1
Status,1732146406000,29,23,6,19,1575420030,27.60,298.0,50.0,1,0,0,22.6
Status,1732146406000,29,24,6,7,1575420030,25.80,161.0,17.0,1,0,0,20.8
Status,1732146406000,29,25,6,15,1575420030,0.00,95.0,11.0,0,0,0,0.0
Status,1732146406000,29,26,6,30,1575420030,0.00,58.0,10.0,0,0,0,0.0
Status,1732146406000,29,27,6,34,1575420030,0.00,47.0,6.0,0,0,0,0.0
Status,1732146406000,29,28,6,13,1575420030,0.00,142.0,1.0,0,0,0,0.0
Fix,GPS,37.4243600000,-122.1712333333,15.099999999999998,0.10397389,1.7,121.57,1732146407000,0.7,179.9,25291044000000,36.4,0,,,
Raw,1732146407000,19975000000,,99.83583014421689,-1416181605025999872,0.0,99.83583014421689,2133.263749287633,0.0,0,17,0.0,16431,344824929180660,51,37.12900161743164,148.65099663696233,0.14999,17,3128.2683379794994,0.00022499999613501132,1575420030,,,,0,24.70553486358587,1,6.0,37.12900161743164,0.0,0.0,0.0,66.7128,C,25291044000000,
Raw,1732146407000,19975000000,,99.83583014421689,-1416181605025999872,0.0,99.83583014421689,2133.263749287633,0.0,0,5,0.0,16431,344824916727032,797,20.31399917602539,1073.8996707304614,0.14999,16,0.0,0.0,1575420030,,,,0,2.7130867377824837,1,6.0,20.31399917602539,0.0,0.0,0.0,66.7128,C,25291044000000,
Raw,1732146407000,19975000000,,99.83583014421689,-1416181605025999872,0.0,99.83583014421689,2133.263749287633,0.0,0,19,0.0,16431,344824920531551,74,32.402000427246094,-57.924817915461254,0.14999,16,0.0,0.0,1575420030,,,,0,19.387853514026432,1,6.0,32.402000427246094,0.0,0.0,0.0,66.7128,C,25291044000000,
Raw,1732146407000,19975000000,,99.83583014421689,-1416181605025999872,0.0,99.83583014421689,2133.263749287633,0.0,0,30,0.0,16431,344824931953128,31,40.76100158691406,723.6194264902601,0.14999,17,14153.607451715556,0.00022499999613501132,1575420030,,,,0,29.79155033153576,1,6.0,40.76100158691406,0.0,0.0,0.0,66.7128,C,25291044000000,
Raw,1732146407000,19975000000,,99.83583014421689,-1416181605025999872,0.0,99.83583014421689,2133.263749287633,0.0,0,21,0.0,16431,344824919732904,58,34.099998474121094,460.71961166974177,0.14999,17,9326.607093312825,0.00039999998989515007,1575420030,,,,0,21.478174818886377,6,6.0,34.099998474121094,0.0,0.0,2.7430596498675155,66.7128,C,25291044000000,
Raw,1732146407000,19975000000,,99.83583014421689,-1416181605025999872,0.0,99.83583014421689,2133.263749287633,0.0,0,13,0.0,16431,344824929950142,235,28.974000930786133,330.84201966850395,0.14999,16,0.0,0.0,1575420030,,,,0,15.287018998017457,1,6.0,28.974000930786133,0.0,0.0,0.0,66.7128,C,25291044000000,
Raw,1732146407000,19975000000,,99.83583014421689,-1416181605025999872,0.0,99.83583014421689,2133.263749287633,0.0,0,7,0.0,16431,344824909880016,487,20.799999237060547,1226.6008656342422,0.14999,16,0.0,0.0,1575420030,,,,0,5.393093759929401,6,6.0,20.799999237060547,0.0,0.0,2.7430596498675155,66.7128,C,25291044000000,
Raw,1732146407000,19975000000,,99.83583014421689,-1416181605025999872,0.0,99.83583014421689,2133.263749287633,0.0,0,19,0.0,16431,344824920121411,316,22.600000381469727,445.72334595955834,0.14999,16,0.0,0.0,1575420030,,,,0,7.911063836124395,6,6.0,22.600000381469727,0.0,0.0,2.7430596498675155,66.7128,C,25291044000000,
Raw,1732146407000,19975000000,,99.83583014421689,-1416181605025999872,0.0,99.83583014421689,2133.263749287633,0.0,0,27,0.0,16431,344824920105425,74,27.65999984741211,885.249603780793,0.14999,16,0.0,0.0,1575420030,,,,0,15.601146598149217,6,6.0,27.65999984741211,0.0,0.0,2.7430596498675155,66.7128,C,25291044000000,
Raw,1732146407000,19975000000,,99.83583014421689,-1416181605025999872,0.0,99.83583014421689,2133.263749287633,0.0,0,8,0.0,32995,10006930292704,797,5.0,441.384963097492,0.14999,16,0.0,0.0,1605374980,,,,0,0.0,3,6.0,17.0,0.0,0.0,32.54636822409202,66.7128,C,25291044000000,
Raw,1732146407000,19975000000,,99.83583014421689,-1416181605025999872,0.0,99.83583014421689,2133.263749287633,0.0,0,9,0.0,17,723483,487,5.0,764.8710346930774,0.14999,16,0.0,0.0,1600875010,,,,0,5.050943780277598,3,6.0,20.0,0.0,0.0,32.54636822409202,66.7128,C,25291044000000,
Raw,1732146407000,19975000000,,99.83583014421689,-1416181605025999872,0.0,99.83583014421689,2133.263749287633,0.0,0,16,0.0,17,327443,487,5.0,1124.6851523784724,0.14999,16,0.0,0.0,1601437440,,,,0,0.0,3,6.0,20.0,0.0,0.0,32.54636822409202,66.7128,C,25291044000000,
