# 
# Header Description:
# 
# Version: v3.1.0.3 Platform: 13 Manufacturer: samsung Model: SM-S135DL GNSS Hardware Model Name: MediaTek,MT6631,MTK_MNLD_default,MNL_VER_default
# 
# Raw,utcTimeMillis,TimeNanos,LeapSecond,TimeUncertaintyNanos,FullBiasNanos,BiasNanos,BiasUncertaintyNanos,DriftNanosPerSecond,DriftUncertaintyNanosPerSecond,HardwareClockDiscontinuityCount,Svid,TimeOffsetNanos,State,ReceivedSvTimeNanos,ReceivedSvTimeUncertaintyNanos,Cn0DbHz,PseudorangeRateMetersPerSecond,PseudorangeRateUncertaintyMetersPerSecond,AccumulatedDeltaRangeState,AccumulatedDeltaRangeMeters,AccumulatedDeltaRangeUncertaintyMeters,CarrierFrequencyHz,CarrierCycles,CarrierPhase,CarrierPhaseUncertainty,MultipathIndicator,SnrInDb,ConstellationType,AgcDb,BasebandCn0DbHz,FullInterSignalBiasNanos,FullInterSignalBiasUncertaintyNanos,SatelliteInterSignalBiasNanos,SatelliteInterSignalBiasUncertaintyNanos,CodeType,ChipsetElapsedRealtimeNanos,IsFullTracking
# 
# UncalAccel,utcTimeMillis,elapsedRealtimeNanos,UncalAccelXMps2,UncalAccelYMps2,UncalAccelZMps2,BiasXMps2,BiasYMps2,BiasZMps2
# 
# Accel,utcTimeMillis,elapsedRealtimeNanos,AccelXMps2,AccelYMps2,AccelZMps2
# 
# UncalGyro,utcTimeMillis,elapsedRealtimeNanos,UncalGyroXRadPerSec,UncalGyroYRadPerSec,UncalGyroZRadPerSec,DriftXRadPerSec,DriftYRadPerSec,DriftZRadPerSec
# 
# Gyro,utcTimeMillis,elapsedRealtimeNanos,GyroXRadPerSec,GyroYRadPerSec,GyroZRadPerSec
# 
# UncalMag,utcTimeMillis,elapsedRealtimeNanos,UncalMagXMicroT,UncalMagYMicroT,UncalMagZMicroT,BiasXMicroT,BiasYMicroT,BiasZMicroT
# 
# Mag,utcTimeMillis,elapsedRealtimeNanos,MagXMicroT,MagYMicroT,MagZMicroT
# 
# Pressure,utcTimeMillis,elapsedRealtimeNanos,PressureHpa
# 
# OrientationDeg,utcTimeMillis,elapsedRealtimeNanos,yawDeg,rollDeg,pitchDeg
# 
# Fix,Provider,LatitudeDegrees,LongitudeDegrees,AltitudeMeters,SpeedMps,AccuracyMeters,BearingDegrees,UnixTimeMillis,SpeedAccuracyMps,BearingAccuracyDegrees,elapsedRealtimeNanos,VerticalAccuracyMeters,MockLocation,NumberOfUsedSignals,VerticalSpeedAccuracyMps,SolutionType
# 
# Nav,Svid,Type,Status,MessageId,Sub-messageId,Data(Bytes)
# 
# Status,UnixTimeMillis,SignalCount,SignalIndex,ConstellationType,Svid,CarrierFrequencyHz,Cn0DbHz,AzimuthDegrees,ElevationDegrees,UsedInFix,HasAlmanacData,HasEphemerisData,BasebandCn0DbHz
# 
# Agc,utcTimeMillis,TimeNanos,LeapSecond,TimeUncertaintyNanos,FullBiasNanos,BiasNanos,BiasUncertaintyNanos,DriftNanosPerSecond,DriftUncertaintyNanosPerSecond,HardwareClockDiscontinuityCount,AgcDb,CarrierFrequencyHz,ConstellationType
# 
Fix,FLP,37.4244098000,-122.1712147000,2.0,0.2405762,1.916,335.00537,1732146996197,2.6,100.9,25880045000000,0.88496447,0,,,
Status,,29,0,1,14,1575420030,40.90,337.0,73.0,1,0,0,35.9
Status,,29,1,1,30,1575420030,37.20,85.0,67.0,1,0,0,32.2
Status,,29,2,1,22,1575420030,43.20,279.0,62.0,1,0,0,38.2
Status,,29,3,1,13,1575420030,43.50,297.0,51.0,1,0,0,38.5
Status,,29,4,1,17,1575420030,39.60,174.0,50.0,1,0,0,34.6
Status,,29,5,1,7,1575420030,37.30,107.0,34.0,1,0,0,32.3
Status,,29,6,2,131,1575420030,37.00,3.0,23.0,0,0,0,32.0
Status,,29,7,1,19,1575420030,39.40,193.0,22.0,1,0,0,34.4
Status,,29,8,1,15,1575420030,38.40,313.0,20.0,1,0,0,33.4
Status,,29,9,1,2,1575420030,27.00,83.0,18.0,1,0,0,22.0
Status,,29,10,1,21,1575420030,0.00,64.0,14.0,0,0,0,0.0
Status,,29,11,1,8,1575420030,0.00,38.0,5.0,0,0,0,0.0
Status,,29,12,1,5,1575420030,0.00,259.0,4.0,0,0,0,0.0
Status,,29,13,3,9,1602000000,32.40,25.0,52.0,1,0,0,27.400002
Status,,29,14,3,8,1602000000,37.50,296.0,40.0,1,0,0,32.5
Status,,29,15,3,20,1602000000,22.20,147.0,15.0,1,0,0,17.2
Status,,29,16,3,16,1602000000,21.90,71.0,11.0,1,0,0,16.9
Status,,29,17,3,11,1602000000,0.00,275.0,4.0,0,0,0,0.0
Status,,29,18,3,17,1602000000,41.20,0.0,0.0,0,0,0,36.2
Status,,29,19,6,21,1575420030,44.10,275.0,59.0,1,0,0,39.1
Status,,29,20,6,29,1575420030,36.80,201.0,57.0,1,0,0,31.8
Status,,29,21,6,27,1575420030,0.00,39.0,56.0,0,0,0,0.0
Status,,29,22,6,19,1575420030,37.20,292.0,52.0,1,0,0,32.2
Status,,29,23,6,7,1575420030,0.00,161.0,13.0,0,0,0,0.0
Status,,29,24,6,15,1575420030,0.00,92.0,13.0,0,0,0,0.0
Status,,29,25,6,30,1575420030,0.00,60.0,8.0,0,0,0,0.0
Status,,29,26,6,34,1575420030,0.00,44.0,6.0,0,0,0,0.0
Status,,29,27,6,13,1575420030,0.00,140.0,4.0,0,0,0,0.0
Status,,29,28,6,4,1575420030,0.00,325.0,3.0,0,0,0,0.0
Fix,GPS,37.4243983333,-122.1712400000,12.599999999999998,0.68200696,2.0,264.64,1732146997000,2.0,125.4,25881045000000,37.2,0,,,
Fix,FLP,37.4244051000,-122.1712277000,0.0028666516607094294,0.23595347,1.95,325.0727,1732146997197,2.0,125.4,25881045000000,0.8950419,0,,,
Raw,1732146997000,14064000000,,97.58191465911378,-1416182200936000000,0.0,97.58191465911378,2135.772624821704,0.0,0,15,0.0,16431,345414922709939,58,33.35599899291992,207.9191596571513,0.14999,16,0.0,0.0,1575420030,,,,0,20.49815622492735,1,6.0,33.35599899291992,0.0,0.0,0.0,66.7128,C,25881045000000,
Raw,1732146997000,14064000000,,97.58191465911378,-1416182200936000000,0.0,97.58191465911378,2135.772624821704,0.0,0,13,0.0,16431,345414930079580,42,38.45100021362305,398.7813440946845,0.14999,17,5575.61228757401,0.00022499999613501132,1575420030,,,,0,26.139457491864672,1,6.0,38.45100021362305,0.0,0.0,0.0,66.7128,C,25881045000000,
Raw,1732146997000,14064000000,,97.58191465911378,-1416182200936000000,0.0,97.58191465911378,2135.772624821704,0.0,0,17,0.0,16431,345414929683325,58,34.56800079345703,201.45614354443848,0.14999,17,2843.6300991711423,0.00039999998989515007,1575420030,,,,0,21.868660224142374,1,6.0,34.56800079345703,0.0,0.0,0.0,66.7128,C,25881045000000,
Raw,1732146997000,14064000000,,97.58191465911378,-1416182200936000000,0.0,97.58191465911378,2135.772624821704,0.0,0,2,0.0,16431,345414920124645,487,22.042999267578125,469.22749497196145,0.14999,16,0.0,0.0,1575420030,,,,0,5.599264467548864,1,6.0,22.042999267578125,0.0,0.0,0.0,66.7128,C,25881045000000,
Raw,1732146997000,14064000000,,97.58191465911378,-1416182200936000000,0.0,97.58191465911378,2135.772624821704,0.0,0,19,0.0,16431,345414921483001,58,34.3650016784668,-47.469676556193086,0.14999,16,0.0,0.0,1575420030,,,,0,21.643332682007824,1,6.0,34.3650016784668,0.0,0.0,0.0,66.7128,C,25881045000000,
Raw,1732146997000,14064000000,,97.58191465911378,-1416182200936000000,0.0,97.58191465911378,2135.772624821704,0.0,0,21,0.0,16431,345414919648685,42,39.099998474121094,485.4802750069751,0.14999,16,0.0,0.0,1575420030,,,,0,26.76905029133147,6,6.0,39.099998474121094,0.0,0.0,7.520705654666276,66.7128,C,25881045000000,
Raw,1732146997000,14064000000,,97.58191465911378,-1416182200936000000,0.0,97.58191465911378,2135.772624821704,0.0,0,19,0.0,16431,345414920043338,58,32.20000076293945,494.90984682839564,0.14999,16,0.0,0.0,1575420030,,,,0,19.37359186695818,6,6.0,32.20000076293945,0.0,0.0,7.520705654666276,66.7128,C,25881045000000,
Raw,1732146997000,14064000000,,97.58191465911378,-1416182200936000000,0.0,97.58191465911378,2135.772624821704,0.0,0,29,0.0,16431,345414919981042,58,31.799999237060547,967.7278804971885,0.14999,16,0.0,0.0,1575420030,,,,0,19.01036585797759,6,6.0,31.799999237060547,0.0,0.0,7.520705654666276,66.7128,C,25881045000000,
Raw,1732146997000,14064000000,,97.58191465911378,-1416182200936000000,0.0,97.58191465911378,2135.772624821704,0.0,0,20,0.0,17,34270,487,5.0,-136.62745425529607,0.14999,16,0.0,0.0,1603124990,,,,0,0.0,3,6.0,18.0,0.0,0.0,39.72618807451,66.7128,C,25881045000000,
Raw,1732146997000,14064000000,,97.58191465911378,-1416182200936000000,0.0,97.58191465911378,2135.772624821704,0.0,0,8,0.0,17,175114,58,5.0,539.6307191230409,0.14999,16,0.0,0.0,1605374980,,,,0,19.785291983903832,3,6.0,33.0,0.0,0.0,39.72618807451,66.7128,C,25881045000000,
Raw,1732146997000,14064000000,,97.58191465911378,-1416182200936000000,0.0,97.58191465911378,2135.772624821704,0.0,0,9,0.0,17,36453,316,5.0,791.47642297091,0.14999,16,0.0,0.0,1600875010,,,,0,14.021295093500562,3,6.0,25.0,0.0,0.0,39.72618807451,66.7128,C,25881045000000,
Raw,1732146997000,14064000000,,97.58191465911378,-1416182200936000000,0.0,97.58191465911378,2135.772624821704,0.0,0,16,0.0,17,956771,487,5.0,1128.8872361651086,0.14999,16,0.0,0.0,1601437440,,,,0,0.0,3,6.0,18.0,0.0,0.0,39.72618807451,66.7128,C,25881045000000,
Raw,1732146997000,14064000000,,97.58191465911378,-1416182200936000000,0.0,97.58191465911378,2135.772624821704,0.0,0,7,0.0,16431,345414925620117,74,32.26100158691406,1025.0949186676262,0.14999,16,0.0,0.0,1575420030,,,,0,19.22408921506061,1,6.0,32.26100158691406,0.0,0.0,0.0,66.7128,C,25881045000000,
Raw,1732146997000,14064000000,,97.58191465911378,-1416182200936000000,0.0,97.58191465911378,2135.772624821704,0.0,0,22,0.0,16431,345414930473714,51,38.18600082397461,514.622803244354,0.14999,17,8522.021251826305,0.00022499999613501132,1575420030,,,,0,25.856008961652307,1,6.0,38.18600082397461,0.0,0.0,0.0,66.7128,C,25881045000000,
Raw,1732146997000,14064000000,,97.58191465911378,-1416182200936000000,0.0,97.58191465911378,2135.772624821704,0.0,0,30,0.0,16431,345414931332710,74,32.20100021362305,767.6112260089322,0.14999,17,9289.712374696515,0.0006249999860301614,1575420030,,,,0,19.16356012245685,1,6.0,32.20100021362305,0.0,0.0,0.0,66.7128,C,25881045000000,
Raw,1732146997000,14064000000,,97.58191465911378,-1416182200936000000,0.0,97.58191465911378,2135.772624821704,0.0,0,14,0.0,16431,345414932417866,51,35.875999450683594,659.7081628955738,0.14999,17,8953.38397031897,0.00022499999613501132,1575420030,,,,0,23.329078970998502,1,6.0,35.875999450683594,0.0,0.0,0.0,66.7128,C,25881045000000,
Status,1732146997000,29,0,1,14,1575420030,36.50,337.0,73.0,1,0,0,31.5
Status,1732146997000,29,1,1,30,1575420030,46.70,85.0,67.0,1,0,0,41.7
Status,1732146997000,29,2,1,22,1575420030,43.90,279.0,62.0,1,0,0,38.9
Status,1732146997000,29,3,1,13,1575420030,45.50,297.0,51.0,1,0,0,40.5
Status,1732146997000,29,4,1,17,1575420030,34.60,174.0,50.0,1,0,0,29.599998
Status,1732146997000,29,5,1,7,1575420030,41.70,107.0,34.0,1,0,0,36.7
Status,1732146997000,29,6,2,131,1575420030,44.00,3.0,23.0,0,0,0,39.0
Status,1732146997000,29,7,1,19,1575420030,42.70,193.0,22.0,1,0,0,37.7
Status,1732146997000,29,8,1,15,1575420030,33.10,313.0,20.0,1,0,0,28.099998
Status,1732146997000,29,9,1,2,1575420030,29.80,83.0,18.0,1,0,0,24.8
Status,1732146997000,29,10,1,21,1575420030,0.00,64.0,14.0,0,0,0,0.0
Status,1732146997000,29,11,1,8,1575420030,0.00,38.0,5.0,0,0,0,0.0
Status,1732146997000,29,12,1,5,1575420030,0.00,259.0,4.0,0,0,0,0.0
Status,1732146997000,29,13,3,9,1602000000,32.30,25.0,52.0,1,0,0,27.3
Status,1732146997000,29,14,3,8,1602000000,35.10,296.0,40.0,1,0,0,30.099998
Status,1732146997000,29,15,3,20,1602000000,27.80,147.0,15.0,1,0,0,22.8
Status,1732146997000,29,16,3,16,1602000000,22.00,71.0,11.0,1,0,0,17.0
Status,1732146997000,29,17,3,11,1602000000,0.00,275.0,4.0,0,0,0,0.0
Status,1732146997000,29,18,3,17,1602000000,41.20,0.0,0.0,0,0,0,36.2
Status,1732146997000,29,19,6,21,1575420030,38.20,275.0,59.0,1,0,0,33.2
Status,1732146997000,29,20,6,29,1575420030,30.70,201.0,57.0,1,0,0,25.7
Status,1732146997000,29,21,6,27,1575420030,0.00,39.0,56.0,0,0,0,0.0
Status,1732146997000,29,22,6,19,1575420030,25.80,292.0,52.0,1,0,0,20.8
Status,1732146997000,29,23,6,7,1575420030,0.00,161.0,13.0,0,0,0,0.0
Status,1732146997000,29,24,6,15,1575420030,0.00,92.0,13.0,0,0,0,0.0
Status,1732146997000,29,25,6,30,1575420030,0.00,60.0,8.0,0,0,0,0.0
Status,1732146997000,29,26,6,34,1575420030,0.00,44.0,6.0,0,0,0,0.0
Status,1732146997000,29,27,6,13,1575420030,0.00,140.0,4.0,0,0,0,0.0
Status,1732146997000,29,28,6,4,1575420030,0.00,325.0,3.0,0,0,0,0.0
Fix,GPS,37.4243966667,-122.1712433333,12.599999999999998,0.09985611,1.9,352.42,1732146998000,1.7,179.9,25882045000000,36.9,0,,,
Raw,1732146998000,15064000000,,97.1508990113535,-1416182200936000000,0.0,97.1508990113535,2133.6099162441355,0.0,0,15,0.0,16431,345415922709252,316,28.100000381469727,208.03354027786165,0.14999,16,0.0,0.0,1575420030,,,,0,14.172756980512986,1,6.0,28.100000381469727,0.0,0.0,0.0,66.7128,C,25882045000000,
Raw,1732146998000,15064000000,,97.1508990113535,-1416182200936000000,0.0,97.1508990113535,2133.6099162441355,0.0,0,13,0.0,16431,345415930078247,42,40.53900146484375,398.8736569676949,0.14999,16,0.0,0.0,1575420030,,,,0,28.37058101185224,1,6.0,40.53900146484375,0.0,0.0,0.0,66.7128,C,25882045000000,
Raw,1732146998000,15064000000,,97.1508990113535,-1416182200936000000,0.0,97.1508990113535,2133.6099162441355,0.0,0,17,0.0,16431,345415929682649,235,29.562000274658203,202.2619647736103,0.14999,16,0.0,0.0,1575420030,,,,0,16.013300988070124,1,6.0,29.562000274658203,0.0,0.0,0.0,66.7128,C,25882045000000,
Raw,1732146998000,15064000000,,97.1508990113535,-1416182200936000000,0.0,97.1508990113535,2133.6099162441355,0.0,0,2,0.0,16431,345415920123079,487,24.790000915527344,468.41842165365495,0.14999,16,0.0,0.0,1575420030,,,,0,9.726785726751844,1,6.0,24.790000915527344,0.0,0.0,0.0,66.7128,C,25882045000000,
Raw,1732146998000,15064000000,,97.1508990113535,-1416182200936000000,0.0,97.1508990113535,2133.6099162441355,0.0,0,19,0.0,16431,345415921483155,51,37.67300033569336,-47.7893569181378,0.14999,16,0.0,0.0,1575420030,,,,0,25.29730826586829,1,6.0,37.67300033569336,0.0,0.0,0.0,66.7128,C,25882045000000,
Raw,1732146998000,15064000000,,97.1508990113535,-1416182200936000000,0.0,97.1508990113535,2133.6099162441355,0.0,0,21,0.0,16431,345415919647065,58,33.20000076293945,485.1172954011222,0.14999,16,0.0,0.0,1575420030,,,,0,20.51116879610728,6,6.0,33.20000076293945,0.0,0.0,7.07467558068014,66.7128,C,25882045000000,
Raw,1732146998000,15064000000,,97.1508990113535,-1416182200936000000,0.0,97.1508990113535,2133.6099162441355,0.0,0,19,0.0,16431,345415920041689,316,20.799999237060547,494.3700464904454,0.14999,16,0.0,0.0,1575420030,,,,0,5.453279692718875,6,6.0,20.799999237060547,0.0,0.0,7.07467558068014,66.7128,C,25882045000000,
Raw,1732146998000,15064000000,,97.1508990113535,-1416182200936000000,0.0,97.1508990113535,2133.6099162441355,0.0,0,29,0.0,16431,345415919977813,235,25.700000762939453,967.2047587306579,0.14999,16,0.0,0.0,1575420030,,,,0,11.97443972003712,6,6.0,25.700000762939453,0.0,0.0,7.07467558068014,66.7128,C,25882045000000,
Raw,1732146998000,15064000000,,97.1508990113535,-1416182200936000000,0.0,97.1508990113535,2133.6099162441355,0.0,0,20,0.0,17,34727,396,5.0,-137.50038794757188,0.14999,16,0.0,0.0,1603124990,,,,0,8.293235945497988,3,6.0,21.0,0.0,0.0,38.77705752257953,66.7128,C,25882045000000,
Raw,1732146998000,15064000000,,97.1508990113535,-1416182200936000000,0.0,97.1508990113535,2133.6099162441355,0.0,0,8,0.0,17,173320,74,5.0,539.3734916559814,0.14999,16,0.0,0.0,1605374980,,,,0,17.101310029353755,3,6.0,30.0,0.0,0.0,38.77705752257953,66.7128,C,25882045000000,
Raw,1732146998000,15064000000,,97.1508990113535,-1416182200936000000,0.0,97.1508990113535,2133.6099162441355,0.0,0,9,0.0,17,33809,235,5.0,791.2028363110463,0.14999,16,0.0,0.0,1600875010,,,,0,13.909458059557961,3,6.0,28.0,0.0,0.0,38.77705752257953,66.7128,C,25882045000000,
Raw,1732146998000,15064000000,,97.1508990113535,-1416182200936000000,0.0,97.1508990113535,2133.6099162441355,0.0,0,16,0.0,17,953008,487,5.0,1129.2885140973558,0.14999,16,0.0,0.0,1601437440,,,,0,1.5309767422105436,3,6.0,18.0,0.0,0.0,38.77705752257953,66.7128,C,25882045000000,
Raw,1732146998000,15064000000,,97.1508990113535,-1416182200936000000,0.0,97.1508990113535,2133.6099162441355,0.0,0,7,0.0,16431,345415925616695,51,36.70500183105469,1024.8465519745646,0.14999,16,0.0,0.0,1575420030,,,,0,24.238586762112316,1,6.0,36.70500183105469,0.0,0.0,0.0,66.7128,C,25882045000000,
Raw,1732146998000,15064000000,,97.1508990113535,-1416182200936000000,0.0,97.1508990113535,2133.6099162441355,0.0,0,22,0.0,16431,345415930471997,42,38.87699890136719,514.4604310796982,0.14999,16,0.0,0.0,1575420030,,,,0,26.59654074435553,1,6.0,38.87699890136719,0.0,0.0,0.0,66.7128,C,25882045000000,
Raw,1732146998000,15064000000,,97.1508990113535,-1416182200936000000,0.0,97.1508990113535,2133.6099162441355,0.0,0,30,0.0,16431,345415931330150,31,41.7130012512207,767.1957483927615,0.14999,16,0.0,0.0,1575420030,,,,0,29.61353914682913,1,6.0,41.7130012512207,0.0,0.0,0.0,66.7128,C,25882045000000,
Raw,1732146998000,15064000000,,97.1508990113535,-1416182200936000000,0.0,97.1508990113535,2133.6099162441355,0.0,0,14,0.0,16431,345415932415664,74,31.461000442504883,659.7888147061152,0.14999,16,0.0,0.0,1575420030,,,,0,18.28545040847522,1,6.0,31.461000442504883,0.0,0.0,0.0,66.7128,C,25882045000000,
Fix,FLP,37.4244019000,-122.1712355000,-0.05412805160359291,0.2017299,1.966,333.50757,1732146998197,1.7,179.9,25882045000000,0.90504324,0,,,
Status,1732146998000,29,0,1,14,1575420030,42.90,337.0,73.0,1,0,0,37.9
Status,1732146998000,29,1,1,30,1575420030,45.40,85.0,67.0,1,0,0,40.4
Status,1732146998000,29,2,1,22,1575420030,35.70,279.0,62.0,1,0,0,30.7
Status,1732146998000,29,3,1,13,1575420030,36.70,297.0,51.0,1,0,0,31.7
Status,1732146998000,29,4,1,17,1575420030,41.80,174.0,50.0,1,0,0,36.8
Status,1732146998000,29,5,1,7,1575420030,37.20,107.0,34.0,1,0,0,32.2
Status,1732146998000,29,6,2,131,1575420030,41.00,3.0,23.0,0,0,0,36.0
Status,1732146998000,29,7,1,19,1575420030,38.50,193.0,22.0,1,0,0,33.5
Status,1732146998000,29,8,1,15,1575420030,34.40,313.0,20.0,1,0,0,29.400002
Status,1732146998000,29,9,1,2,1575420030,27.40,83.0,18.0,1,0,0,22.4
Status,1732146998000,29,10,1,21,1575420030,0.00,64.0,14.0,0,0,0,0.0
Status,1732146998000,29,11,1,8,1575420030,0.00,38.0,5.0,0,0,0,0.0
Status,1732146998000,29,12,1,5,1575420030,0.00,259.0,4.0,0,0,0,0.0
Status,1732146998000,29,13,3,9,1602000000,29.10,25.0,52.0,1,0,0,24.1
Status,1732146998000,29,14,3,8,1602000000,36.90,296.0,40.0,1,0,0,31.900002
Status,1732146998000,29,15,3,20,1602000000,27.80,147.0,15.0,1,0,0,22.8
Status,1732146998000,29,16,3,16,1602000000,24.70,71.0,11.0,1,0,0,19.7
Status,1732146998000,29,17,3,11,1602000000,0.00,275.0,4.0,0,0,0,0.0
Status,1732146998000,29,18,3,17,1602000000,38.30,0.0,0.0,0,0,0,33.3
Status,1732146998000,29,19,6,21,1575420030,41.20,275.0,59.0,1,0,0,36.2
Status,1732146998000,29,20,6,29,1575420030,32.60,201.0,57.0,1,0,0,27.599998
Status,1732146998000,29,21,6,27,1575420030,0.00,39.0,56.0,0,0,0,0.0
Status,1732146998000,29,22,6,19,1575420030,33.50,292.0,52.0,1,0,0,28.5
Status,1732146998000,29,23,6,7,1575420030,0.00,161.0,13.0,0,0,0,0.0
Status,1732146998000,29,24,6,15,1575420030,0.00,92.0,13.0,0,0,0,0.0
Status,1732146998000,29,25,6,30,1575420030,0.00,60.0,8.0,0,0,0,0.0
Status,1732146998000,29,26,6,34,1575420030,0.00,44.0,6.0,0,0,0,0.0
Status,1732146998000,29,27,6,13,1575420030,0.00,140.0,4.0,0,0,0,0.0
Status,1732146998000,29,28,6,4,1575420030,0.00,325.0,3.0,0,0,0,0.0
Fix,GPS,37.4243933333,-122.1712400000,12.7,0.36236444,1.9,111.4,1732146999000,1.5,173.8,25883045000000,36.7,0,,,
Raw,1732146999000,16064000000,,96.9001698810346,-1416182200936000000,0.0,96.9001698810346,2130.036063302861,0.0,0,15,0.0,16431,345416922708557,235,29.413999557495117,207.543078777927,0.14999,16,0.0,0.0,1575420030,,,,0,15.814631573110523,1,6.0,29.413999557495117,0.0,0.0,0.0,66.7128,C,25883045000000,
Raw,1732146999000,16064000000,,96.9001698810346,-1416182200936000000,0.0,96.9001698810346,2130.036063302861,0.0,0,13,0.0,16431,345416930076921,74,31.719999313354492,398.5157413292089,0.14999,16,0.0,0.0,1575420030,,,,0,18.598935340451767,1,6.0,31.719999313354492,0.0,0.0,0.0,66.7128,C,25883045000000,
Raw,1732146999000,16064000000,,96.9001698810346,-1416182200936000000,0.0,96.9001698810346,2130.036063302861,0.0,0,17,0.0,16431,345416929681978,51,36.76900100708008,201.14858882912472,0.14999,16,0.0,0.0,1575420030,,,,0,24.314446542455098,1,6.0,36.76900100708008,0.0,0.0,0.0,66.7128,C,25883045000000,
Raw,1732146999000,16064000000,,96.9001698810346,-1416182200936000000,0.0,96.9001698810346,2130.036063302861,0.0,0,2,0.0,16431,345416920121511,396,22.413999557495117,468.67371065073183,0.14999,16,0.0,0.0,1575420030,,,,0,6.159838939553735,1,6.0,22.413999557495117,0.0,0.0,0.0,66.7128,C,25883045000000,
Raw,1732146999000,16064000000,,96.9001698810346,-1416182200936000000,0.0,96.9001698810346,2130.036063302861,0.0,0,19,0.0,16431,345416921483315,58,33.47100067138672,-48.398426754657955,0.14999,16,6035.111128862894,0.00039999998989515007,1575420030,,,,0,20.627412920299253,1,6.0,33.47100067138672,0.0,0.0,0.0,66.7128,C,25883045000000,
Raw,1732146999000,16064000000,,96.9001698810346,-1416182200936000000,0.0,96.9001698810346,2130.036063302861,0.0,0,21,0.0,16431,345416919645448,51,36.20000076293945,484.0599947650027,0.14999,16,0.0,0.0,1575420030,,,,0,23.76896484512186,6,6.0,36.20000076293945,0.0,0.0,6.50081501050575,66.7128,C,25883045000000,
Raw,1732146999000,16064000000,,96.9001698810346,-1416182200936000000,0.0,96.9001698810346,2130.036063302861,0.0,0,19,0.0,16431,345416920040042,74,28.5,493.7902919145541,0.14999,16,0.0,0.0,1575420030,,,,0,15.261496835725863,6,6.0,28.5,0.0,0.0,6.50081501050575,66.7128,C,25883045000000,
Raw,1732146999000,16064000000,,96.9001698810346,-1416182200936000000,0.0,96.9001698810346,2130.036063302861,0.0,0,29,0.0,16431,345416919974588,235,27.600000381469727,966.3293892524189,0.14999,16,0.0,0.0,1575420030,,,,0,14.253306766173855,6,6.0,27.600000381469727,0.0,0.0,6.50081501050575,66.7128,C,25883045000000,
Raw,1732146999000,16064000000,,96.9001698810346,-1416182200936000000,0.0,96.9001698810346,2130.036063302861,0.0,0,20,0.0,17,35190,487,5.0,-139.99678655426385,0.14999,16,0.0,0.0,1603124990,,,,0,8.293235945497988,3,6.0,19.0,0.0,0.0,36.63762289312388,66.7128,C,25883045000000,
Raw,1732146999000,16064000000,,96.9001698810346,-1416182200936000000,0.0,96.9001698810346,2130.036063302861,0.0,0,8,0.0,17,171521,74,5.0,538.4830432938511,0.14999,16,0.0,0.0,1605374980,,,,0,19.075377744355748,3,6.0,32.0,0.0,0.0,36.63762289312388,66.7128,C,25883045000000,
Raw,1732146999000,16064000000,,96.9001698810346,-1416182200936000000,0.0,96.9001698810346,2130.036063302861,0.0,0,9,0.0,17,31175,316,5.0,789.8503562689191,0.14999,16,0.0,0.0,1600875010,,,,0,9.994278558762158,3,6.0,25.0,0.0,0.0,36.63762289312388,66.7128,C,25883045000000,
Raw,1732146999000,16064000000,,96.9001698810346,-1416182200936000000,0.0,96.9001698810346,2130.036063302861,0.0,0,16,0.0,17,949233,487,5.0,1128.2527782772436,0.14999,16,0.0,0.0,1601437440,,,,0,3.7488899267071716,3,6.0,20.0,0.0,0.0,36.63762289312388,66.7128,C,25883045000000,
Raw,1732146999000,16064000000,,96.9001698810346,-1416182200936000000,0.0,96.9001698810346,2130.036063302861,0.0,0,7,0.0,16431,345416925613280,58,32.23699951171875,1024.1439148877964,0.14999,16,0.0,0.0,1575420030,,,,0,19.208996440388976,1,6.0,32.23699951171875,0.0,0.0,0.0,66.7128,C,25883045000000,
Raw,1732146999000,16064000000,,96.9001698810346,-1416182200936000000,0.0,96.9001698810346,2130.036063302861,0.0,0,22,0.0,16431,345416930470281,74,30.738000869750977,514.4134151624932,0.14999,17,9550.821894122802,0.0006249999860301614,1575420030,,,,0,17.439096400898034,1,6.0,30.738000869750977,0.0,0.0,0.0,66.7128,C,25883045000000,
Raw,1732146999000,16064000000,,96.9001698810346,-1416182200936000000,0.0,96.9001698810346,2130.036063302861,0.0,0,30,0.0,16431,345416931327591,42,40.36399841308594,766.5995475375316,0.14999,17,10823.648338000141,0.00022499999613501132,1575420030,,,,0,28.184466675367716,1,6.0,40.36399841308594,0.0,0.0,0.0,66.7128,C,25883045000000,
Raw,1732146999000,16064000000,,96.9001698810346,-1416182200936000000,0.0,96.9001698810346,2130.036063302861,0.0,0,14,0.0,16431,345416932413465,51,37.86199951171875,659.4715037233973,0.14999,17,10272.676228909628,0.00022499999613501132,1575420030,,,,0,25.504653925688192,1,6.0,37.86199951171875,0.0,0.0,0.0,66.7128,C,25883045000000,
Fix,FLP,37.4243984000,-122.1712381000,0.2467162734863333,0.16616598,1.966,332.326,1732146999197,1.5,173.8,25883045000000,0.9153385,0,,,
Status,1732146999000,29,0,1,14,1575420030,44.60,337.0,73.0,1,0,0,39.6
Status,1732146999000,29,1,1,30,1575420030,45.30,85.0,67.0,1,0,0,40.3
Status,1732146999000,29,2,1,22,1575420030,39.70,279.0,62.0,1,0,0,34.7
Status,1732146999000,29,3,1,13,1575420030,37.10,297.0,51.0,1,0,0,32.1
Status,1732146999000,29,4,1,17,1575420030,42.10,174.0,50.0,1,0,0,37.1
Status,1732146999000,29,5,1,7,1575420030,36.90,107.0,34.0,1,0,0,31.900002
Status,1732146999000,29,6,2,131,1575420030,44.00,3.0,23.0,0,0,0,39.0
Status,1732146999000,29,7,1,19,1575420030,39.00,193.0,22.0,1,0,0,34.0
Status,1732146999000,29,8,1,15,1575420030,43.30,313.0,20.0,1,0,0,38.3
Status,1732146999000,29,9,1,2,1575420030,28.80,83.0,18.0,1,0,0,23.8
Status,1732146999000,29,10,1,21,1575420030,0.00,64.0,14.0,0,0,0,0.0
Status,1732146999000,29,11,1,8,1575420030,0.00,38.0,5.0,0,0,0,0.0
Status,1732146999000,29,12,1,5,1575420030,0.00,259.0,4.0,0,0,0,0.0
Status,1732146999000,29,13,3,9,1602000000,35.90,25.0,52.0,1,0,0,30.900002
Status,1732146999000,29,14,3,8,1602000000,33.40,296.0,40.0,1,0,0,28.400002
Status,1732146999000,29,15,3,20,1602000000,23.70,147.0,15.0,1,0,0,18.7
Status,1732146999000,29,16,3,16,1602000000,24.80,71.0,11.0,1,0,0,19.8
Status,1732146999000,29,17,3,11,1602000000,0.00,275.0,4.0,0,0,0,0.0
Status,1732146999000,29,18,3,17,1602000000,32.60,0.0,0.0,0,0,0,27.599998
Status,1732146999000,29,19,6,21,1575420030,43.70,275.0,59.0,1,0,0,38.7
Status,1732146999000,29,20,6,29,1575420030,41.00,201.0,57.0,1,0,0,36.0
Status,1732146999000,29,21,6,27,1575420030,0.00,39.0,56.0,0,0,0,0.0
Status,1732146999000,29,22,6,19,1575420030,30.80,292.0,52.0,1,0,0,25.8
Status,1732146999000,29,23,6,7,1575420030,0.00,161.0,13.0,0,0,0,0.0
Status,1732146999000,29,24,6,15,1575420030,0.00,92.0,13.0,0,0,0,0.0
Status,1732146999000,29,25,6,30,1575420030,0.00,60.0,8.0,0,0,0,0.0
Status,1732146999000,29,26,6,34,1575420030,0.00,44.0,6.0,0,0,0,0.0
Status,1732146999000,29,27,6,13,1575420030,0.00,140.0,4.0,0,0,0,0.0
Status,1732146999000,29,28,6,4,1575420030,0.00,325.0,3.0,0,0,0,0.0
Fix,GPS,37.4243900000,-122.1712366667,12.900000000000002,0.2892739,1.8,113.0,1732147000000,1.2,177.0,25884045000000,33.9,0,,,
Raw,1732147000000,17064000000,,88.9901872042387,-1416182200936000000,0.0,88.9901872042387,2128.812596156561,0.0,0,15,0.0,16431,345417922707862,51,38.29899978637695,207.2314357219867,0.14999,16,0.0,0.0,1575420030,,,,0,25.974660966479366,1,6.0,38.29899978637695,0.0,0.0,0.0,66.7128,C,25884045000000,
Raw,1732147000000,17064000000,,88.9901872042387,-1416182200936000000,0.0,88.9901872042387,2128.812596156561,0.0,0,13,0.0,16431,345417930075592,74,32.12900161743164,398.6335598727188,0.14999,16,0.0,0.0,1575420030,,,,0,19.0719681703618,1,6.0,32.12900161743164,0.0,0.0,0.0,66.7128,C,25884045000000,
Raw,1732147000000,17064000000,,88.9901872042387,-1416182200936000000,0.0,88.9901872042387,2128.812596156561,0.0,0,17,0.0,16431,345417929681309,51,37.053001403808594,201.00094398240762,0.14999,16,0.0,0.0,1575420030,,,,0,24.619535253731392,1,6.0,37.053001403808594,0.0,0.0,0.0,66.7128,C,25884045000000,
Raw,1732147000000,17064000000,,88.9901872042387,-1416182200936000000,0.0,88.9901872042387,2128.812596156561,0.0,0,2,0.0,16431,345417920119944,487,23.795000076293945,466.92413315465916,0.14999,16,0.0,0.0,1575420030,,,,0,8.259391634675524,1,6.0,23.795000076293945,0.0,0.0,0.0,66.7128,C,25884045000000,
Raw,1732147000000,17064000000,,88.9901872042387,-1416182200936000000,0.0,88.9901872042387,2128.812596156561,0.0,0,19,0.0,16431,345417921483474,74,33.95399856567383,-48.21435850963181,0.14999,16,0.0,0.0,1575420030,,,,0,21.17434484098495,1,6.0,33.95399856567383,0.0,0.0,0.0,66.7128,C,25884045000000,
Raw,1732147000000,17064000000,,88.9901872042387,-1416182200936000000,0.0,88.9901872042387,2128.812596156561,0.0,0,21,0.0,16431,345417919643831,42,38.70000076293945,483.95987687806905,0.14999,16,0.0,0.0,1575420030,,,,0,26.32784978008236,6,6.0,38.70000076293945,0.0,0.0,6.480920955352515,66.7128,C,25884045000000,
Raw,1732147000000,17064000000,,88.9901872042387,-1416182200936000000,0.0,88.9901872042387,2128.812596156561,0.0,0,19,0.0,16431,345417920038393,235,25.799999237060547,493.0518818473038,0.14999,16,0.0,0.0,1575420030,,,,0,12.04365036222725,6,6.0,25.799999237060547,0.0,0.0,6.480920955352515,66.7128,C,25884045000000,
Raw,1732147000000,17064000000,,88.9901872042387,-1416182200936000000,0.0,88.9901872042387,2128.812596156561,0.0,0,29,0.0,16431,345417919971364,51,36.0,965.9004851539632,0.14999,16,0.0,0.0,1575420030,,,,0,23.524275716781627,6,6.0,36.0,0.0,0.0,6.480920955352515,66.7128,C,25884045000000,
Raw,1732147000000,17064000000,,88.9901872042387,-1416182200936000000,0.0,88.9901872042387,2128.812596156561,0.0,0,20,0.0,17,35652,487,5.0,-140.36655067422942,0.14999,16,0.0,0.0,1603124990,,,,0,2.1909819442690504,3,6.0,18.0,0.0,0.0,36.26815218909251,66.7128,C,25884045000000,
Raw,1732147000000,17064000000,,88.9901872042387,-1416182200936000000,0.0,88.9901872042387,2128.812596156561,0.0,0,8,0.0,17,169725,235,5.0,537.909228175026,0.14999,16,0.0,0.0,1605374980,,,,0,15.152557113735874,3,6.0,29.0,0.0,0.0,36.26815218909251,66.7128,C,25884045000000,
Raw,1732147000000,17064000000,,88.9901872042387,-1416182200936000000,0.0,88.9901872042387,2128.812596156561,0.0,0,9,0.0,17,28544,74,5.0,790.1959971694154,0.14999,16,0.0,0.0,1600875010,,,,0,17.970727007095412,3,6.0,31.0,0.0,0.0,36.26815218909251,66.7128,C,25884045000000,
Raw,1732147000000,17064000000,,88.9901872042387,-1416182200936000000,0.0,88.9901872042387,2128.812596156561,0.0,0,16,0.0,17,945460,487,5.0,1127.2661281631945,0.14999,16,0.0,0.0,1601437440,,,,0,6.574899767393031,3,6.0,20.0,0.0,0.0,36.26815218909251,66.7128,C,25884045000000,
Raw,1732147000000,17064000000,,88.9901872042387,-1416182200936000000,0.0,88.9901872042387,2128.812596156561,0.0,0,7,0.0,16431,345417925609861,74,31.857999801635742,1024.130163196598,0.14999,17,13163.3310082723,0.0006249999860301614,1575420030,,,,0,18.759492400691116,1,6.0,31.857999801635742,0.0,0.0,0.0,66.7128,C,25884045000000,
Raw,1732147000000,17064000000,,88.9901872042387,-1416182200936000000,0.0,88.9901872042387,2128.812596156561,0.0,0,22,0.0,16431,345417930468569,58,34.7130012512207,513.6994422221695,0.14999,16,0.0,0.0,1575420030,,,,0,22.033900901349746,1,6.0,34.7130012512207,0.0,0.0,0.0,66.7128,C,25884045000000,
Raw,1732147000000,17064000000,,88.9901872042387,-1416182200936000000,0.0,88.9901872042387,2128.812596156561,0.0,0,30,0.0,16431,345417931325037,42,40.305999755859375,766.5067236219429,0.14999,16,0.0,0.0,1575420030,,,,0,26.9629817024721,1,6.0,40.305999755859375,0.0,0.0,0.0,66.7128,C,25884045000000,
Raw,1732147000000,17064000000,,88.9901872042387,-1416182200936000000,0.0,88.9901872042387,2128.812596156561,0.0,0,14,0.0,16431,345417932411268,42,39.60900115966797,658.9768609660036,0.14999,17,10931.18198411335,0.00022499999613501132,1575420030,,,,0,27.379694483448986,1,6.0,39.60900115966797,0.0,0.0,0.0,66.7128,C,25884045000000,
Fix,FLP,37.4243947000,-122.1712377000,0.33017349658437656,0.12338296,1.933,332.76398,1732147000197,1.2,177.0,25884045000000,0.9253263,0,,,
Status,1732147000000,29,0,1,14,1575420030,45.10,337.0,73.0,1,0,0,40.1
Status,1732147000000,29,1,1,30,1575420030,40.80,85.0,67.0,1,0,0,35.8
Status,1732147000000,29,2,1,22,1575420030,34.20,279.0,62.0,1,0,0,29.2
Status,1732147000000,29,3,1,13,1575420030,33.70,297.0,51.0,1,0,0,28.7
Status,1732147000000,29,4,1,17,1575420030,42.40,174.0,50.0,1,0,0,37.4
Status,1732147000000,29,5,1,7,1575420030,41.60,107.0,34.0,1,0,0,36.6
Status,1732147000000,29,6,2,131,1575420030,44.00,3.0,23.0,0,0,0,39.0
Status,1732147000000,29,7,1,19,1575420030,36.00,193.0,22.0,1,0,0,31.0
Status,1732147000000,29,8,1,15,1575420030,36.90,313.0,20.0,1,0,0,31.900002
Status,1732147000000,29,9,1,2,1575420030,28.80,83.0,18.0,1,0,0,23.8
Status,1732147000000,29,10,1,21,1575420030,0.00,64.0,14.0,0,0,0,0.0
Status,1732147000000,29,11,1,8,1575420030,0.00,38.0,5.0,0,0,0,0.0
Status,1732147000000,29,12,1,5,1575420030,0.00,259.0,4.0,0,0,0,0.0
Status,1732147000000,29,13,3,9,1602000000,35.80,25.0,52.0,1,0,0,30.8
Status,1732147000000,29,14,3,8,1602000000,34.00,296.0,40.0,1,0,0,29.0
Status,1732147000000,29,15,3,20,1602000000,23.70,147.0,15.0,1,0,0,18.7
Status,1732147000000,29,16,3,16,1602000000,24.70,71.0,11.0,1,0,0,19.7
Status,1732147000000,29,17,3,11,1602000000,0.00,275.0,4.0,0,0,0,0.0
Status,1732147000000,29,18,3,17,1602000000,43.00,0.0,0.0,0,0,0,38.0
Status,1732147000000,29,19,6,21,1575420030,36.80,275.0,59.0,1,0,0,31.8
Status,1732147000000,29,20,6,29,1575420030,30.50,201.0,57.0,1,0,0,25.5
Status,1732147000000,29,21,6,27,1575420030,0.00,39.0,56.0,0,0,0,0.0
Status,1732147000000,29,22,6,19,1575420030,30.70,292.0,52.0,1,0,0,25.7
Status,1732147000000,29,23,6,7,1575420030,0.00,161.0,13.0,0,0,0,0.0
Status,1732147000000,29,24,6,15,1575420030,0.00,92.0,13.0,0,0,0,0.0
Status,1732147000000,29,25,6,30,1575420030,0.00,60.0,8.0,0,0,0,0.0
Status,1732147000000,29,26,6,34,1575420030,0.00,44.0,6.0,0,0,0,0.0
Status,1732147000000,29,27,6,13,1575420030,0.00,140.0,4.0,0,0,0,0.0
Status,1732147000000,29,28,6,4,1575420030,0.00,325.0,3.0,0,0,0,0.0
Fix,GPS,37.4243883333,-122.1712300000,13.000000000000004,0.32221612,1.8,102.94,1732147001000,1.1,147.1,25885045000000,34.0,0,,,
Fix,FLP,37.4243919000,-122.1712340000,2.0,0.08454587,1.9,,1732147001198,1.1,,25885045000000,0.9343286,0,,,
Raw,1732147001000,18064000000,,89.095577547656,-1416182200936000000,0.0,89.095577547656,2129.625630825295,0.0,0,15,0.0,16431,345418922707171,74,31.920000076293945,208.72256504868014,0.14999,16,0.0,0.0,1575420030,,,,0,18.83867152363207,1,6.0,31.920000076293945,0.0,0.0,0.0,66.7128,C,25885045000000,
Raw,1732147001000,18064000000,,89.095577547656,-1416182200936000000,0.0,89.095577547656,2129.625630825295,0.0,0,13,0.0,16431,345418930074253,235,28.719999313354492,397.7290145090996,0.14999,16,0.0,0.0,1575420030,,,,0,14.946492816158989,1,6.0,28.719999313354492,0.0,0.0,0.0,66.7128,C,25885045000000,
Raw,1732147001000,18064000000,,89.095577547656,-1416182200936000000,0.0,89.095577547656,2129.625630825295,0.0,0,17,0.0,16431,345418929680637,51,37.36899948120117,201.45609708602228,0.14999,16,0.0,0.0,1575420030,,,,0,24.968923438627566,1,6.0,37.36899948120117,0.0,0.0,0.0,66.7128,C,25885045000000,
Raw,1732147001000,18064000000,,89.095577547656,-1416182200936000000,0.0,89.095577547656,2129.625630825295,0.0,0,2,0.0,16431,345418920118379,396,23.777000427246094,468.63408162170424,0.14999,16,0.0,0.0,1575420030,,,,0,7.766053963325629,1,6.0,23.777000427246094,0.0,0.0,0.0,66.7128,C,25885045000000,
Raw,1732147001000,18064000000,,89.095577547656,-1416182200936000000,0.0,89.095577547656,2129.625630825295,0.0,0,19,0.0,16431,345418921483632,74,30.961999893188477,-47.958000968982056,0.14999,16,0.0,0.0,1575420030,,,,0,17.694582161626613,1,6.0,30.961999893188477,0.0,0.0,0.0,66.7128,C,25885045000000,
Raw,1732147001000,18064000000,,89.095577547656,-1416182200936000000,0.0,89.095577547656,2129.625630825295,0.0,0,21,0.0,16431,345418919642213,74,31.799999237060547,484.39245119140537,0.14999,16,0.0,0.0,1575420030,,,,0,18.979400086720375,6,6.0,31.799999237060547,0.0,0.0,6.228813592588805,66.7128,C,25885045000000,
Raw,1732147001000,18064000000,,89.095577547656,-1416182200936000000,0.0,89.095577547656,2129.625630825295,0.0,0,19,0.0,16431,345418920036742,316,25.700000762939453,494.59778564670944,0.14999,16,0.0,0.0,1575420030,,,,0,11.97443972003712,6,6.0,25.700000762939453,0.0,0.0,6.228813592588805,66.7128,C,25885045000000,
Raw,1732147001000,18064000000,,89.095577547656,-1416182200936000000,0.0,89.095577547656,2129.625630825295,0.0,0,29,0.0,16431,345418919968140,316,25.5,966.7617312736742,0.14999,16,0.0,0.0,1575420030,,,,0,11.691946866204994,6,6.0,25.5,0.0,0.0,6.228813592588805,66.7128,C,25885045000000,
Raw,1732147001000,18064000000,,89.095577547656,-1416182200936000000,0.0,89.095577547656,2129.625630825295,0.0,0,20,0.0,17,36117,487,5.0,-138.00666209577517,0.14999,16,0.0,0.0,1603124990,,,,0,2.9467531620570457,3,6.0,19.0,0.0,0.0,35.96688309608653,66.7128,C,25885045000000,
Raw,1732147001000,18064000000,,89.095577547656,-1416182200936000000,0.0,89.095577547656,2129.625630825295,0.0,0,8,0.0,17,167929,235,5.0,539.0414484722533,0.14999,16,0.0,0.0,1605374980,,,,0,15.846337091010245,3,6.0,29.0,0.0,0.0,35.96688309608653,66.7128,C,25885045000000,
Raw,1732147001000,18064000000,,89.095577547656,-1416182200936000000,0.0,89.095577547656,2129.625630825295,0.0,0,9,0.0,17,25907,74,5.0,790.0178732344506,0.14999,16,0.0,0.0,1600875010,,,,0,17.876185778356106,3,6.0,31.0,0.0,0.0,35.96688309608653,66.7128,C,25885045000000,
Raw,1732147001000,18064000000,,89.095577547656,-1416182200936000000,0.0,89.095577547656,2129.625630825295,0.0,0,16,0.0,17,941715,487,5.0,1126.5425481833156,0.14999,16,0.0,0.0,1601437440,,,,0,0.854582733302343,3,6.0,19.0,0.0,0.0,35.96688309608653,66.7128,C,25885045000000,
Raw,1732147001000,18064000000,,89.095577547656,-1416182200936000000,0.0,89.095577547656,2129.625630825295,0.0,0,7,0.0,16431,345418925606451,51,36.632999420166016,1024.2393404746929,0.14999,16,0.0,0.0,1575420030,,,,0,24.16205860505126,1,6.0,36.632999420166016,0.0,0.0,0.0,66.7128,C,25885045000000,
Raw,1732147001000,18064000000,,89.095577547656,-1416182200936000000,0.0,89.095577547656,2129.625630825295,0.0,0,22,0.0,16431,345418930466854,235,29.19499969482422,514.1387530058564,0.14999,16,0.0,0.0,1575420030,,,,0,15.542466550712223,1,6.0,29.19499969482422,0.0,0.0,0.0,66.7128,C,25885045000000,
Raw,1732147001000,18064000000,,89.095577547656,-1416182200936000000,0.0,89.095577547656,2129.625630825295,0.0,0,30,0.0,16431,345418931322482,51,35.78200149536133,766.6841947718672,0.14999,16,0.0,0.0,1575420030,,,,0,23.225055097282347,1,6.0,35.78200149536133,0.0,0.0,0.0,66.7128,C,25885045000000,
Raw,1732147001000,18064000000,,89.095577547656,-1416182200936000000,0.0,89.095577547656,2129.625630825295,0.0,0,14,0.0,16431,345418932409069,42,40.14699935913086,659.2939861150568,0.14999,17,11590.47869966036,0.00022499999613501132,1575420030,,,,0,27.955734107057282,1,6.0,40.14699935913086,0.0,0.0,0.0,66.7128,C,25885045000000,
Status,1732147001000,29,0,1,14,1575420030,41.10,337.0,73.0,1,0,0,36.1
Status,1732147001000,29,1,1,30,1575420030,44.90,85.0,67.0,1,0,0,39.9
Status,1732147001000,29,2,1,22,1575420030,42.20,279.0,62.0,1,0,0,37.2
Status,1732147001000,29,3,1,13,1575420030,39.40,297.0,51.0,1,0,0,34.4
Status,1732147001000,29,4,1,17,1575420030,35.20,174.0,50.0,1,0,0,30.2
Status,1732147001000,29,5,1,7,1575420030,41.60,107.0,34.0,1,0,0,36.6
Status,1732147001000,29,6,2,131,1575420030,35.00,3.0,23.0,0,0,0,30.0
Status,1732147001000,29,7,1,19,1575420030,35.50,193.0,22.0,1,0,0,30.5
Status,1732147001000,29,8,1,15,1575420030,36.20,313.0,20.0,1,0,0,31.2
Status,1732147001000,29,9,1,2,1575420030,28.60,83.0,18.0,1,0,0,23.6
Status,1732147001000,29,10,1,21,1575420030,0.00,64.0,14.0,0,0,0,0.0
Status,1732147001000,29,11,1,8,1575420030,0.00,38.0,5.0,0,0,0,0.0
Status,1732147001000,29,12,1,5,1575420030,0.00,259.0,4.0,0,0,0,0.0
Status,1732147001000,29,13,3,9,1602000000,40.70,25.0,52.0,1,0,0,35.7
Status,1732147001000,29,14,3,8,1602000000,34.80,296.0,40.0,1,0,0,29.8
Status,1732147001000,29,15,3,20,1602000000,23.70,147.0,15.0,1,0,0,18.7
Status,1732147001000,29,16,3,16,1602000000,24.60,71.0,11.0,1,0,0,19.6
Status,1732147001000,29,17,3,11,1602000000,0.00,275.0,4.0,0,0,0,0.0
Status,1732147001000,29,18,3,17,1602000000,36.70,0.0,0.0,0,0,0,31.7
Status,1732147001000,29,19,6,21,1575420030,41.70,275.0,59.0,1,0,0,36.7
Status,1732147001000,29,20,6,29,1575420030,39.60,201.0,57.0,1,0,0,34.6
Status,1732147001000,29,21,6,27,1575420030,0.00,39.0,56.0,0,0,0,0.0
Status,1732147001000,29,22,6,19,1575420030,35.20,292.0,52.0,1,0,0,30.2
Status,1732147001000,29,23,6,7,1575420030,0.00,161.0,13.0,0,0,0,0.0
Status,1732147001000,29,24,6,15,1575420030,0.00,92.0,13.0,0,0,0,0.0
Status,1732147001000,29,25,6,30,1575420030,0.00,60.0,8.0,0,0,0,0.0
Status,1732147001000,29,26,6,34,1575420030,0.00,44.0,6.0,0,0,0,0.0
Status,1732147001000,29,27,6,13,1575420030,0.00,140.0,4.0,0,0,0,0.0
Status,1732147001000,29,28,6,4,1575420030,0.00,325.0,3.0,0,0,0,0.0
Fix,GPS,37.4243883333,-122.1712183333,13.099999999999998,0.5219283,1.8,98.37,1732147002000,0.9,81.2,25886045000000,33.7,0,,,
Fix,FLP,37.4243903000,-122.1712261000,2.200000047683716,0.06394798,1.866,,1732147002197,0.9,,25886045000000,0.9389713,0,,,
Raw,1732147002000,19064000000,,88.84466391266103,-1416182200936000000,0.0,88.84466391266103,2127.429744725974,0.0,0,15,0.0,16431,345419922706477,74,31.25,207.86559310326055,0.14999,16,0.0,0.0,1575420030,,,,0,18.046999247714915,1,6.0,31.25,0.0,0.0,0.0,66.7128,C,25886045000000,
Raw,1732147002000,19064000000,,88.84466391266103,-1416182200936000000,0.0,88.84466391266103,2127.429744725974,0.0,0,13,0.0,16431,345419930072921,58,34.42100143432617,398.36177813788714,0.14999,16,0.0,0.0,1575420030,,,,0,21.700214939248447,1,6.0,34.42100143432617,0.0,0.0,0.0,66.7128,C,25886045000000,
Raw,1732147002000,19064000000,,88.84466391266103,-1416182200936000000,0.0,88.84466391266103,2127.429744725974,0.0,0,17,0.0,16431,345419929679963,74,30.208999633789062,200.4294125461856,0.14999,16,0.0,0.0,1575420030,,,,0,16.785424685689115,1,6.0,30.208999633789062,0.0,0.0,0.0,66.7128,C,25886045000000,
Raw,1732147002000,19064000000,,88.84466391266103,-1416182200936000000,0.0,88.84466391266103,2127.429744725974,0.0,0,2,0.0,16431,345419920116814,396,23.625999450683594,468.12355008596666,0.14999,16,0.0,0.0,1575420030,,,,0,8.043582033005398,1,6.0,23.625999450683594,0.0,0.0,0.0,66.7128,C,25886045000000,
Raw,1732147002000,19064000000,,88.84466391266103,-1416182200936000000,0.0,88.84466391266103,2127.429744725974,0.0,0,19,0.0,16431,345419921483795,74,30.461999893188477,-49.515705206105196,0.14999,16,0.0,0.0,1575420030,,,,0,17.099170384155578,1,6.0,30.461999893188477,0.0,0.0,0.0,66.7128,C,25886045000000,
Raw,1732147002000,19064000000,,88.84466391266103,-1416182200936000000,0.0,88.84466391266103,2127.429744725974,0.0,0,21,0.0,16431,345419919640598,51,36.70000076293945,483.9036621944543,0.14999,16,0.0,0.0,1575420030,,,,0,24.255501839781505,6,6.0,36.70000076293945,0.0,0.0,6.09327481794058,66.7128,C,25886045000000,
Raw,1732147002000,19064000000,,88.84466391266103,-1416182200936000000,0.0,88.84466391266103,2127.429744725974,0.0,0,19,0.0,16431,345419920035094,235,30.200000762939453,493.654772714468,0.14999,16,0.0,0.0,1575420030,,,,0,17.194936399885066,6,6.0,30.200000762939453,0.0,0.0,6.09327481794058,66.7128,C,25886045000000,
Raw,1732147002000,19064000000,,88.84466391266103,-1416182200936000000,0.0,88.84466391266103,2127.429744725974,0.0,0,29,0.0,16431,345419919964918,51,34.599998474121094,966.3517822090324,0.14999,16,0.0,0.0,1575420030,,,,0,22.055697373610958,6,6.0,34.599998474121094,0.0,0.0,6.09327481794058,66.7128,C,25886045000000,
Raw,1732147002000,19064000000,,88.84466391266103,-1416182200936000000,0.0,88.84466391266103,2127.429744725974,0.0,0,20,0.0,17,36581,487,5.0,-140.19470326744457,0.14999,16,0.0,0.0,1603124990,,,,0,2.9467531620570457,3,6.0,19.0,0.0,0.0,35.895747290507146,66.7128,C,25886045000000,
Raw,1732147002000,19064000000,,88.84466391266103,-1416182200936000000,0.0,88.84466391266103,2127.429744725974,0.0,0,8,0.0,17,166125,74,5.0,539.2155625624164,0.14999,16,0.0,0.0,1605374980,,,,0,16.777265089374573,3,6.0,30.0,0.0,0.0,35.895747290507146,66.7128,C,25886045000000,
Raw,1732147002000,19064000000,,88.84466391266103,-1416182200936000000,0.0,88.84466391266103,2127.429744725974,0.0,0,9,0.0,17,23282,51,5.0,789.5009663533644,0.14999,16,0.0,0.0,1600875010,,,,0,23.198077232636983,3,6.0,36.0,0.0,0.0,35.895747290507146,66.7128,C,25886045000000,
Raw,1732147002000,19064000000,,88.84466391266103,-1416182200936000000,0.0,88.84466391266103,2127.429744725974,0.0,0,16,0.0,17,937954,797,5.0,1127.4617397292557,0.14999,16,0.0,0.0,1601437440,,,,0,0.854582733302343,3,6.0,16.0,0.0,0.0,35.895747290507146,66.7128,C,25886045000000,
Raw,1732147002000,19064000000,,88.84466391266103,-1416182200936000000,0.0,88.84466391266103,2127.429744725974,0.0,0,7,0.0,16431,345419925603038,51,36.61899948120117,1023.1739560741528,0.14999,17,15210.956701085457,0.00022499999613501132,1575420030,,,,0,23.857869302335363,1,6.0,36.61899948120117,0.0,0.0,0.0,66.7128,C,25886045000000,
Raw,1732147002000,19064000000,,88.84466391266103,-1416182200936000000,0.0,88.84466391266103,2127.429744725974,0.0,0,22,0.0,16431,345419930465142,51,37.18199920654297,513.8108959626586,0.14999,16,0.0,0.0,1575420030,,,,0,24.76416950540884,1,6.0,37.18199920654297,0.0,0.0,0.0,66.7128,C,25886045000000,
Raw,1732147002000,19064000000,,88.84466391266103,-1416182200936000000,0.0,88.84466391266103,2127.429744725974,0.0,0,30,0.0,16431,345419931319922,42,39.909000396728516,766.1765436579346,0.14999,17,13122.429942001565,0.00022499999613501132,1575420030,,,,0,27.703789254842768,1,6.0,39.909000396728516,0.0,0.0,0.0,66.7128,C,25886045000000,
Raw,1732147002000,19064000000,,88.84466391266103,-1416182200936000000,0.0,88.84466391266103,2127.429744725974,0.0,0,14,0.0,16431,345419932406874,51,36.10100173950195,658.5959948699096,0.14999,17,12249.495813940359,0.00022499999613501132,1575420030,,,,0,23.579249885344645,1,6.0,36.10100173950195,0.0,0.0,0.0,66.7128,C,25886045000000,
Status,1732147002000,29,0,1,14,1575420030,37.90,337.0,73.0,1,0,0,32.9
Status,1732147002000,29,1,1,30,1575420030,40.10,85.0,67.0,1,0,0,35.1
Status,1732147002000,29,2,1,22,1575420030,36.20,279.0,62.0,1,0,0,31.2
Status,1732147002000,29,3,1,13,1575420030,37.30,297.0,51.0,1,0,0,32.3
Status,1732147002000,29,4,1,17,1575420030,35.20,174.0,50.0,1,0,0,30.2
Status,1732147002000,29,5,1,7,1575420030,40.40,107.0,34.0,1,0,0,35.4
Status,1732147002000,29,6,2,131,1575420030,36.00,3.0,23.0,0,0,0,31.0
Status,1732147002000,29,7,1,19,1575420030,44.60,193.0,22.0,1,0,0,39.6
Status,1732147002000,29,8,1,15,1575420030,34.40,313.0,20.0,1,0,0,29.400002
Status,1732147002000,29,9,1,2,1575420030,33.50,83.0,18.0,1,0,0,28.5
Status,1732147002000,29,10,1,21,1575420030,0.00,64.0,14.0,0,0,0,0.0
Status,1732147002000,29,11,1,8,1575420030,0.00,38.0,5.0,0,0,0,0.0
Status,1732147002000,29,12,1,5,1575420030,0.00,259.0,4.0,0,0,0,0.0
Status,1732147002000,29,13,3,9,1602000000,40.70,25.0,52.0,1,0,0,35.7
Status,1732147002000,29,14,3,8,1602000000,32.90,296.0,40.0,1,0,0,27.900002
Status,1732147002000,29,15,3,20,1602000000,23.80,147.0,15.0,1,0,0,18.8
Status,1732147002000,29,16,3,16,1602000000,20.50,71.0,11.0,1,0,0,15.5
Status,1732147002000,29,17,3,11,1602000000,0.00,275.0,4.0,0,0,0,0.0
Status,1732147002000,29,18,3,17,1602000000,34.60,0.0,0.0,0,0,0,29.599998
Status,1732147002000,29,19,6,21,1575420030,41.00,275.0,59.0,1,0,0,36.0
Status,1732147002000,29,20,6,29,1575420030,39.40,201.0,57.0,1,0,0,34.4
Status,1732147002000,29,21,6,27,1575420030,0.00,39.0,56.0,0,0,0,0.0
Status,1732147002000,29,22,6,19,1575420030,31.10,292.0,52.0,1,0,0,26.1
Status,1732147002000,29,23,6,7,1575420030,0.00,161.0,13.0,0,0,0,0.0
Status,1732147002000,29,24,6,15,1575420030,0.00,92.0,13.0,0,0,0,0.0
Status,1732147002000,29,25,6,30,1575420030,0.00,60.0,8.0,0,0,0,0.0
Status,1732147002000,29,26,6,34,1575420030,0.00,44.0,6.0,0,0,0,0.0
Status,1732147002000,29,27,6,13,1575420030,0.00,140.0,4.0,0,0,0,0.0
Status,1732147002000,29,28,6,4,1575420030,0.00,325.0,3.0,0,0,0,0.0
Fix,GPS,37.4243883333,-122.1712083333,13.2,0.6238433,1.8,94.87,1732147003000,0.9,63.7,25887045000000,33.8,0,,,
Raw,1732147003000,20064000000,,89.14698436774728,-1416182200936000000,0.0,89.14698436774728,2128.2917906606094,0.0,0,15,0.0,16431,345420922705784,235,29.413999557495117,207.58261489012216,0.14999,16,0.0,0.0,1575420030,,,,0,15.814631573110523,1,6.0,29.413999557495117,0.0,0.0,0.0,66.7128,C,25887045000000,
Raw,1732147003000,20064000000,,89.14698436774728,-1416182200936000000,0.0,89.14698436774728,2128.2917906606094,0.0,0,13,0.0,16431,345420930071587,74,32.31999969482422,398.72852087545317,0.14999,16,0.0,0.0,1575420030,,,,0,19.29916219440298,1,6.0,32.31999969482422,0.0,0.0,0.0,66.7128,C,25887045000000,
Raw,1732147003000,20064000000,,89.14698436774728,-1416182200936000000,0.0,89.14698436774728,2128.2917906606094,0.0,0,17,0.0,16431,345420929679295,74,30.208999633789062,201.2502863022096,0.14999,16,0.0,0.0,1575420030,,,,0,16.785424685689115,1,6.0,30.208999633789062,0.0,0.0,0.0,66.7128,C,25887045000000,
Raw,1732147003000,20064000000,,89.14698436774728,-1416182200936000000,0.0,89.14698436774728,2128.2917906606094,0.0,0,2,0.0,16431,345420920115255,235,28.517000198364258,467.676341371524,0.14999,16,0.0,0.0,1575420030,,,,0,14.696161667719068,1,6.0,28.517000198364258,0.0,0.0,0.0,66.7128,C,25887045000000,
Raw,1732147003000,20064000000,,89.14698436774728,-1416182200936000000,0.0,89.14698436774728,2128.2917906606094,0.0,0,19,0.0,16431,345420921483952,42,39.61899948120117,-48.47986835827503,0.14999,16,0.0,0.0,1575420030,,,,0,27.391479952880005,1,6.0,39.61899948120117,0.0,0.0,0.0,66.7128,C,25887045000000,
Raw,1732147003000,20064000000,,89.14698436774728,-1416182200936000000,0.0,89.14698436774728,2128.2917906606094,0.0,0,21,0.0,16431,345420919638981,51,36.0,484.2136792058272,0.14999,16,0.0,0.0,1575420030,,,,0,23.515079432557748,6,6.0,36.0,0.0,0.0,5.8653103650703695,66.7128,C,25887045000000,
Raw,1732147003000,20064000000,,89.14698436774728,-1416182200936000000,0.0,89.14698436774728,2128.2917906606094,0.0,0,19,0.0,16431,345420920033445,235,26.100000381469727,493.4666625872315,0.14999,16,0.0,0.0,1575420030,,,,0,12.480557025332523,6,6.0,26.100000381469727,0.0,0.0,5.8653103650703695,66.7128,C,25887045000000,
Raw,1732147003000,20064000000,,89.14698436774728,-1416182200936000000,0.0,89.14698436774728,2128.2917906606094,0.0,0,29,0.0,16431,345420919961693,51,34.400001525878906,966.1928944255924,0.14999,16,0.0,0.0,1575420030,,,,0,21.779229424962868,6,6.0,34.400001525878906,0.0,0.0,5.8653103650703695,66.7128,C,25887045000000,
Raw,1732147003000,20064000000,,89.14698436774728,-1416182200936000000,0.0,89.14698436774728,2128.2917906606094,0.0,0,20,0.0,17,37056,487,5.0,-140.76822800815424,0.14999,16,0.0,0.0,1603124990,,,,0,4.595932278234261,3,6.0,19.0,0.0,0.0,35.85000592148135,66.7128,C,25887045000000,
Raw,1732147003000,20064000000,,89.14698436774728,-1416182200936000000,0.0,89.14698436774728,2128.2917906606094,0.0,0,8,0.0,17,164326,316,5.0,538.7576411375412,0.14999,16,0.0,0.0,1605374980,,,,0,14.624756418289891,3,6.0,26.0,0.0,0.0,35.85000592148135,66.7128,C,25887045000000,
Raw,1732147003000,20064000000,,89.14698436774728,-1416182200936000000,0.0,89.14698436774728,2128.2917906606094,0.0,0,9,0.0,17,20646,51,5.0,790.037441264267,0.14999,17,15729.621586004158,0.00022499999613501132,1600875010,,,,0,23.18519015365861,3,6.0,36.0,0.0,0.0,35.85000592148135,66.7128,C,25887045000000,
Raw,1732147003000,20064000000,,89.14698436774728,-1416182200936000000,0.0,89.14698436774728,2128.2917906606094,0.0,0,16,0.0,17,934198,797,5.0,1127.2970238217592,0.14999,16,0.0,0.0,1601437440,,,,0,0.0,3,6.0,16.0,0.0,0.0,35.85000592148135,66.7128,C,25887045000000,
Raw,1732147003000,20064000000,,89.14698436774728,-1416182200936000000,0.0,89.14698436774728,2128.2917906606094,0.0,0,7,0.0,16431,345420925599622,58,35.42599868774414,1023.8065338692754,0.14999,16,0.0,0.0,1575420030,,,,0,22.825969245247713,1,6.0,35.42599868774414,0.0,0.0,0.0,66.7128,C,25887045000000,
Raw,1732147003000,20064000000,,89.14698436774728,-1416182200936000000,0.0,89.14698436774728,2128.2917906606094,0.0,0,22,0.0,16431,345420930463423,74,31.18199920654297,513.4697053540084,0.14999,16,0.0,0.0,1575420030,,,,0,17.960226401790717,1,6.0,31.18199920654297,0.0,0.0,0.0,66.7128,C,25887045000000,
Raw,1732147003000,20064000000,,89.14698436774728,-1416182200936000000,0.0,89.14698436774728,2128.2917906606094,0.0,0,30,0.0,16431,345420931317361,58,35.14099884033203,766.4297884846983,0.14999,16,0.0,0.0,1575420030,,,,0,22.51155946255461,1,6.0,35.14099884033203,0.0,0.0,0.0,66.7128,C,25887045000000,
Raw,1732147003000,20064000000,,89.14698436774728,-1416182200936000000,0.0,89.14698436774728,2128.2917906606094,0.0,0,14,0.0,16431,345420932404672,58,32.88199996948242,659.2935679893109,0.14999,17,12908.399738096563,0.00039999998989515007,1575420030,,,,0,19.94712621080496,1,6.0,32.88199996948242,0.0,0.0,0.0,66.7128,C,25887045000000,
Fix,FLP,37.4243895000,-122.1712167000,2.299999952316284,0.109353684,1.833,71.12462,1732147003198,0.9,63.7,25887045000000,0.94898367,0,,,
Status,1732147003000,29,0,1,14,1575420030,43.30,337.0,73.0,1,0,0,38.3
Status,1732147003000,29,1,1,30,1575420030,44.60,85.0,67.0,1,0,0,39.6
Status,1732147003000,29,2,1,22,1575420030,39.70,279.0,62.0,1,0,0,34.7
Status,1732147003000,29,3,1,13,1575420030,39.30,297.0,51.0,1,0,0,34.3
Status,1732147003000,29,4,1,17,1575420030,38.60,174.0,50.0,1,0,0,33.6
Status,1732147003000,29,5,1,7,1575420030,37.90,107.0,34.0,1,0,0,32.9
Status,1732147003000,29,6,2,131,1575420030,35.00,3.0,23.0,0,0,0,30.0
Status,1732147003000,29,7,1,19,1575420030,37.40,193.0,22.0,1,0,0,32.4
Status,1732147003000,29,8,1,15,1575420030,34.70,313.0,20.0,1,0,0,29.7
Status,1732147003000,29,9,1,2,1575420030,34.60,83.0,18.0,1,0,0,29.599998
Status,1732147003000,29,10,1,21,1575420030,0.00,64.0,14.0,0,0,0,0.0
Status,1732147003000,29,11,1,8,1575420030,0.00,38.0,5.0,0,0,0,0.0
Status,1732147003000,29,12,1,5,1575420030,0.00,259.0,4.0,0,0,0,0.0
Status,1732147003000,29,13,3,9,1602000000,44.40,25.0,52.0,1,0,0,39.4
Status,1732147003000,29,14,3,8,1602000000,35.00,296.0,40.0,1,0,0,30.0
Status,1732147003000,29,15,3,20,1602000000,26.60,147.0,15.0,1,0,0,21.6
Status,1732147003000,29,16,3,16,1602000000,24.60,71.0,11.0,1,0,0,19.6
Status,1732147003000,29,17,3,11,1602000000,0.00,275.0,4.0,0,0,0,0.0
Status,1732147003000,29,18,3,17,1602000000,37.70,0.0,0.0,0,0,0,32.7
Status,1732147003000,29,19,6,21,1575420030,38.70,275.0,59.0,1,0,0,33.7
Status,1732147003000,29,20,6,29,1575420030,33.60,201.0,57.0,1,0,0,28.599998
Status,1732147003000,29,21,6,27,1575420030,0.00,39.0,56.0,0,0,0,0.0
Status,1732147003000,29,22,6,19,1575420030,28.80,292.0,52.0,1,0,0,23.8
Status,1732147003000,29,23,6,7,1575420030,0.00,161.0,13.0,0,0,0,0.0
Status,1732147003000,29,24,6,15,1575420030,0.00,92.0,13.0,0,0,0,0.0
Status,1732147003000,29,25,6,30,1575420030,0.00,60.0,8.0,0,0,0,0.0
Status,1732147003000,29,26,6,34,1575420030,0.00,44.0,6.0,0,0,0,0.0
Status,1732147003000,29,27,6,13,1575420030,0.00,140.0,4.0,0,0,0,0.0
Status,1732147003000,29,28,6,4,1575420030,0.00,325.0,3.0,0,0,0,0.0
Fix,GPS,37.4243883333,-122.1712000000,13.3,0.56928277,1.8,97.42,1732147004000,0.9,59.8,25888045000000,34.0,0,,,
Raw,1732147004000,21064000000,,89.89280952849468,-1416182200936000000,0.0,89.89280952849468,2130.5848008464814,0.0,0,15,0.0,16431,345421922705090,74,29.740999221801758,208.65673347290982,0.14999,16,0.0,0.0,1575420030,,,,0,16.228842808393967,1,6.0,29.740999221801758,0.0,0.0,0.0,66.7128,C,25888045000000,
Raw,1732147004000,21064000000,,89.89280952849468,-1416182200936000000,0.0,89.89280952849468,2130.5848008464814,0.0,0,13,0.0,16431,345421930070253,58,34.25299835205078,399.5799178109275,0.14999,16,0.0,0.0,1575420030,,,,0,21.516864814430367,1,6.0,34.25299835205078,0.0,0.0,0.0,66.7128,C,25888045000000,
Raw,1732147004000,21064000000,,89.89280952849468,-1416182200936000000,0.0,89.89280952849468,2130.5848008464814,0.0,0,17,0.0,16431,345421929678619,58,33.58399963378906,203.2513896636461,0.14999,16,0.0,0.0,1575420030,,,,0,20.754774287787377,1,6.0,33.58399963378906,0.0,0.0,0.0,66.7128,C,25888045000000,
Raw,1732147004000,21064000000,,89.89280952849468,-1416182200936000000,0.0,89.89280952849468,2130.5848008464814,0.0,0,2,0.0,16431,345421920113688,235,29.594999313354492,469.1474471208307,0.14999,16,0.0,0.0,1575420030,,,,0,16.035097460331333,1,6.0,29.594999313354492,0.0,0.0,0.0,66.7128,C,25888045000000,
Raw,1732147004000,21064000000,,89.89280952849468,-1416182200936000000,0.0,89.89280952849468,2130.5848008464814,0.0,0,19,0.0,16431,345421921484113,74,32.37900161743164,-48.34026081756236,0.14999,16,5792.3670365867265,0.0006249999860301614,1575420030,,,,0,19.37359186695818,1,6.0,32.37900161743164,0.0,0.0,0.0,66.7128,C,25888045000000,
Raw,1732147004000,21064000000,,89.89280952849468,-1416182200936000000,0.0,89.89280952849468,2130.5848008464814,0.0,0,21,0.0,16431,345421919637362,58,33.70000076293945,484.8658159941745,0.14999,16,0.0,0.0,1575420030,,,,0,21.089603782119855,6,6.0,33.70000076293945,0.0,0.0,5.637461292127993,66.7128,C,25888045000000,
Raw,1732147004000,21064000000,,89.89280952849468,-1416182200936000000,0.0,89.89280952849468,2130.5848008464814,0.0,0,19,0.0,16431,345421920031792,316,23.799999237060547,494.55406827705536,0.14999,16,0.0,0.0,1575420030,,,,0,9.590711565652946,6,6.0,23.799999237060547,0.0,0.0,5.637461292127993,66.7128,C,25888045000000,
Raw,1732147004000,21064000000,,89.89280952849468,-1416182200936000000,0.0,89.89280952849468,2130.5848008464814,0.0,0,29,0.0,16431,345421919958469,74,28.600000381469727,967.0434551095749,0.14999,16,0.0,0.0,1575420030,,,,0,15.426498344234318,6,6.0,28.600000381469727,0.0,0.0,5.637461292127993,66.7128,C,25888045000000,
Raw,1732147004000,21064000000,,89.89280952849468,-1416182200936000000,0.0,89.89280952849468,2130.5848008464814,0.0,0,20,0.0,17,37520,396,5.0,-138.73947897311405,0.14999,16,0.0,0.0,1603124990,,,,0,6.5930201513310145,3,6.0,22.0,0.0,0.0,35.95770993385671,66.7128,C,25888045000000,
Raw,1732147004000,21064000000,,89.89280952849468,-1416182200936000000,0.0,89.89280952849468,2130.5848008464814,0.0,0,8,0.0,17,162531,235,5.0,539.6708396779882,0.14999,16,0.0,0.0,1605374980,,,,0,16.978935118076386,3,6.0,29.0,0.0,0.0,35.95770993385671,66.7128,C,25888045000000,
Raw,1732147004000,21064000000,,89.89280952849468,-1416182200936000000,0.0,89.89280952849468,2130.5848008464814,0.0,0,9,0.0,17,18010,42,5.0,790.8111099571505,0.14999,16,0.0,0.0,1600875010,,,,0,27.0711289513609,3,6.0,39.0,0.0,0.0,35.95770993385671,66.7128,C,25888045000000,
Raw,1732147004000,21064000000,,89.89280952849468,-1416182200936000000,0.0,89.89280952849468,2130.5848008464814,0.0,0,16,0.0,17,930437,487,5.0,1126.9484878865296,0.14999,16,0.0,0.0,1601437440,,,,0,3.5822204923064964,3,6.0,19.0,0.0,0.0,35.95770993385671,66.7128,C,25888045000000,
Raw,1732147004000,21064000000,,89.89280952849468,-1416182200936000000,0.0,89.89280952849468,2130.5848008464814,0.0,0,7,0.0,16431,345421925596203,58,32.893001556396484,1024.856122408304,0.14999,16,0.0,0.0,1575420030,,,,0,19.960990363210698,1,6.0,32.893001556396484,0.0,0.0,0.0,66.7128,C,25888045000000,
Raw,1732147004000,21064000000,,89.89280952849468,-1416182200936000000,0.0,89.89280952849468,2130.5848008464814,0.0,0,22,0.0,16431,345421930461710,58,34.68600082397461,514.6771595913203,0.14999,16,0.0,0.0,1575420030,,,,0,22.001103292948446,1,6.0,34.68600082397461,0.0,0.0,0.0,66.7128,C,25888045000000,
Raw,1732147004000,21064000000,,89.89280952849468,-1416182200936000000,0.0,89.89280952849468,2130.5848008464814,0.0,0,30,0.0,16431,345421931314800,42,39.573001861572266,767.5024203981673,0.14999,16,0.0,0.0,1575420030,,,,0,27.344241823462024,1,6.0,39.573001861572266,0.0,0.0,0.0,66.7128,C,25888045000000,
Raw,1732147004000,21064000000,,89.89280952849468,-1416182200936000000,0.0,89.89280952849468,2130.5848008464814,0.0,0,14,0.0,16431,345421932402472,51,38.33399963378906,659.9758562897789,0.14999,16,0.0,0.0,1575420030,,,,0,26.016154148753618,1,6.0,38.33399963378906,0.0,0.0,0.0,66.7128,C,25888045000000,
Fix,FLP,37.4243889000,-122.1712075000,2.299999952316284,0.15872622,1.816,84.99613,1732147004197,0.9,59.8,25888045000000,0.9596449,0,,,
Status,1732147004000,29,0,1,14,1575420030,43.30,337.0,73.0,1,0,0,38.3
Status,1732147004000,29,1,1,30,1575420030,42.30,85.0,67.0,1,0,0,37.3
Status,1732147004000,29,2,1,22,1575420030,43.80,279.0,62.0,1,0,0,38.8
Status,1732147004000,29,3,1,13,1575420030,38.90,297.0,51.0,1,0,0,33.9
Status,1732147004000,29,4,1,17,1575420030,37.20,174.0,50.0,1,0,0,32.2
Status,1732147004000,29,5,1,7,1575420030,42.70,107.0,34.0,1,0,0,37.7
Status,1732147004000,29,6,2,131,1575420030,36.00,3.0,23.0,0,0,0,31.0
Status,1732147004000,29,7,1,19,1575420030,47.80,193.0,22.0,1,0,0,42.8
Status,1732147004000,29,8,1,15,1575420030,40.20,313.0,20.0,1,0,0,35.2
Status,1732147004000,29,9,1,2,1575420030,32.40,83.0,18.0,1,0,0,27.400002
Status,1732147004000,29,10,1,21,1575420030,0.00,64.0,14.0,0,0,0,0.0
Status,1732147004000,29,11,1,8,1575420030,0.00,38.0,5.0,0,0,0,0.0
Status,1732147004000,29,12,1,5,1575420030,0.00,259.0,4.0,0,0,0,0.0
Status,1732147004000,29,13,3,9,1602000000,46.50,25.0,52.0,1,0,0,41.5
Status,1732147004000,29,14,3,8,1602000000,34.60,296.0,40.0,1,0,0,29.599998
Status,1732147004000,29,15,3,20,1602000000,26.60,147.0,15.0,1,0,0,21.6
Status,1732147004000,29,16,3,16,1602000000,21.50,71.0,11.0,1,0,0,16.5
Status,1732147004000,29,17,3,11,1602000000,0.00,275.0,4.0,0,0,0,0.0
Status,1732147004000,29,18,3,17,1602000000,40.90,0.0,0.0,0,0,0,35.9
