# 
# Header Description:
# 
# Version: v3.1.0.3 Platform: 13 Manufacturer: samsung Model: SM-S135DL GNSS Hardware Model Name: MediaTek,MT6631,MTK_MNLD_default,MNL_VER_default
# 
# Raw,utcTimeMillis,TimeNanos,LeapSecond,TimeUncertaintyNanos,FullBiasNanos,BiasNanos,BiasUncertaintyNanos,DriftNanosPerSecond,DriftUncertaintyNanosPerSecond,HardwareClockDiscontinuityCount,Svid,TimeOffsetNanos,State,ReceivedSvTimeNanos,ReceivedSvTimeUncertaintyNanos,Cn0DbHz,PseudorangeRateMetersPerSecond,PseudorangeRateUncertaintyMetersPerSecond,AccumulatedDeltaRangeState,AccumulatedDeltaRangeMeters,AccumulatedDeltaRangeUncertaintyMeters,CarrierFrequencyHz,CarrierCycles,CarrierPhase,CarrierPhaseUncertainty,MultipathIndicator,SnrInDb,ConstellationType,AgcDb,BasebandCn0DbHz,FullInterSignalBiasNanos,FullInterSignalBiasUncertaintyNanos,SatelliteInterSignalBiasNanos,SatelliteInterSignalBiasUncertaintyNanos,CodeType,ChipsetElapsedRealtimeNanos,IsFullTracking
# 
# UncalAccel,utcTimeMillis,elapsedRealtimeNanos,UncalAccelXMps2,UncalAccelYMps2,UncalAccelZMps2,BiasXMps2,BiasYMps2,BiasZMps2
# 
# Accel,utcTimeMillis,elapsedRealtimeNanos,AccelXMps2,AccelYMps2,AccelZMps2
# 
# UncalGyro,utcTimeMillis,elapsedRealtimeNanos,UncalGyroXRadPerSec,UncalGyroYRadPerSec,UncalGyroZRadPerSec,DriftXRadPerSec,DriftYRadPerSec,DriftZRadPerSec
# 
# Gyro,utcTimeMillis,elapsedRealtimeNanos,GyroXRadPerSec,GyroYRadPerSec,GyroZRadPerSec
# 
# UncalMag,utcTimeMillis,elapsedRealtimeNanos,UncalMagXMicroT,UncalMagYMicroT,UncalMagZMicroT,BiasXMicroT,BiasYMicroT,BiasZMicroT
# 
# Mag,utcTimeMillis,elapsedRealtimeNanos,MagXMicroT,MagYMicroT,MagZMicroT
# 
# Pressure,utcTimeMillis,elapsedRealtimeNanos,PressureHpa
# 
# OrientationDeg,utcTimeMillis,elapsedRealtimeNanos,yawDeg,rollDeg,pitchDeg
# 
# Fix,Provider,LatitudeDegrees,LongitudeDegrees,AltitudeMeters,SpeedMps,AccuracyMeters,BearingDegrees,UnixTimeMillis,SpeedAccuracyMps,BearingAccuracyDegrees,elapsedRealtimeNanos,VerticalAccuracyMeters,MockLocation,NumberOfUsedSignals,VerticalSpeedAccuracyMps,SolutionType
# 
# Nav,Svid,Type,Status,MessageId,Sub-messageId,Data(Bytes)
# 
# Status,UnixTimeMillis,SignalCount,SignalIndex,ConstellationType,Svid,CarrierFrequencyHz,Cn0DbHz,AzimuthDegrees,ElevationDegrees,UsedInFix,HasAlmanacData,HasEphemerisData,BasebandCn0DbHz
# 
# Agc,utcTimeMillis,TimeNanos,LeapSecond,TimeUncertaintyNanos,FullBiasNanos,BiasNanos,BiasUncertaintyNanos,DriftNanosPerSecond,DriftUncertaintyNanosPerSecond,HardwareClockDiscontinuityCount,AgcDb,CarrierFrequencyHz,ConstellationType
# 
Status,,29,0,1,14,1575420030,36.40,332.0,74.0,1,0,0,31.400002
Status,,29,1,1,30,1575420030,35.50,82.0,68.0,1,0,0,30.5
Status,,29,2,1,22,1575420030,46.60,276.0,62.0,1,0,0,41.6
Status,,29,3,1,13,1575420030,42.00,299.0,50.0,1,0,0,37.0
Status,,29,4,1,17,1575420030,46.40,175.0,48.0,1,0,0,41.4
Status,,29,5,1,7,1575420030,44.30,106.0,35.0,1,0,0,39.3
Status,,29,6,2,131,1575420030,46.00,3.0,23.0,0,0,0,41.0
Status,,29,7,1,19,1575420030,45.20,193.0,21.0,1,0,0,40.2
Status,,29,8,1,15,1575420030,32.90,313.0,19.0,1,0,0,27.900002
Status,,29,9,1,2,1575420030,32.50,84.0,17.0,1,0,0,27.5
Status,,29,10,1,21,1575420030,26.20,65.0,14.0,1,0,0,21.2
Status,,29,11,1,8,1575420030,0.00,39.0,6.0,0,0,0,0.0
Status,,29,12,1,5,1575420030,0.00,260.0,5.0,0,0,0,0.0
Status,,29,13,3,9,1602000000,30.70,23.0,53.0,1,0,0,25.7
Status,,29,14,3,8,1602000000,38.00,298.0,40.0,1,0,0,33.0
Status,,29,15,3,20,1602000000,25.20,148.0,13.0,1,0,0,20.2
Status,,29,16,3,16,1602000000,22.90,70.0,12.0,1,0,0,17.9
Status,,29,17,3,11,1602000000,0.00,274.0,3.0,0,0,0,0.0
Status,,29,18,3,17,1602000000,39.10,0.0,0.0,0,0,0,34.1
Status,,29,19,6,21,1575420030,44.70,273.0,58.0,1,0,0,39.7
Status,,29,20,6,29,1575420030,38.00,202.0,58.0,1,0,0,33.0
Status,,29,21,6,27,1575420030,29.10,38.0,57.0,1,0,0,24.1
Status,,29,22,6,19,1575420030,34.80,294.0,52.0,1,0,0,29.8
Status,,29,23,6,7,1575420030,0.00,161.0,14.0,0,0,0,0.0
Status,,29,24,6,15,1575420030,0.00,93.0,12.0,0,0,0,0.0
Status,,29,25,6,30,1575420030,0.00,60.0,9.0,0,0,0,0.0
Status,,29,26,6,34,1575420030,0.00,45.0,6.0,0,0,0,0.0
Status,,29,27,6,13,1575420030,0.00,141.0,3.0,0,0,0,0.0
Status,,29,28,6,4,1575420030,0.00,325.0,2.0,0,0,0,0.0
Fix,GPS,37.4243850000,-122.1712316667,12.7,1.2476866,1.9,257.31,1732146831000,2.1,62.9,25715044000000,38.7,0,,,
Raw,1732146831000,14588000000,,673006.1109475943,-1416182034412000000,0.0,103.06643703767281,2112.602605549112,0.0,0,2,0.0,16431,345248920165423,235,27.472999572753906,447.2035111000261,0.14999,16,0.0,0.0,1575420030,,,,0,13.352991953678556,1,6.0,27.472999572753906,0.0,0.0,0.0,66.7128,C,25715044000000,
Raw,1732146831000,14588000000,,673006.1109475943,-1416182034412000000,0.0,103.06643703767281,2112.602605549112,0.0,0,15,0.0,16431,345248922605879,235,27.902999877929688,184.6222616394634,0.14999,16,0.0,0.0,1575420030,,,,0,13.926526297525339,1,6.0,27.902999877929688,0.0,0.0,0.0,66.7128,C,25715044000000,
Raw,1732146831000,14588000000,,673006.1109475943,-1416182034412000000,0.0,103.06643703767281,2112.602605549112,0.0,0,14,0.0,16431,345248932565965,74,31.434999465942383,642.8683343133237,0.14999,16,0.0,0.0,1575420030,,,,0,18.268633579140594,1,6.0,31.434999465942383,0.0,0.0,0.0,66.7128,C,25715044000000,
Raw,1732146831000,14588000000,,673006.1109475943,-1416182034412000000,0.0,103.06643703767281,2112.602605549112,0.0,0,13,0.0,16431,345248930080483,51,37.01900100708008,372.490990945303,0.14999,17,5403.2215883233985,0.00022499999613501132,1575420030,,,,0,24.58706460044712,1,6.0,37.01900100708008,0.0,0.0,0.0,66.7128,C,25715044000000,
Raw,1732146831000,14588000000,,673006.1109475943,-1416182034412000000,0.0,103.06643703767281,2112.602605549112,0.0,0,17,0.0,16431,345248929576252,31,41.358001708984375,179.5012433374082,0.14999,16,0.0,0.0,1575420030,,,,0,29.24089692244624,1,6.0,41.358001708984375,0.0,0.0,0.0,66.7128,C,25715044000000,
Raw,1732146831000,14588000000,,673006.1109475943,-1416182034412000000,0.0,103.06643703767281,2112.602605549112,0.0,0,22,0.0,16431,345248930541109,31,41.58000183105469,496.66425599975423,0.14999,16,0.0,0.0,1575420030,,,,0,29.47103127763156,1,6.0,41.58000183105469,0.0,0.0,0.0,66.7128,C,25715044000000,
Raw,1732146831000,14588000000,,673006.1109475943,-1416182034412000000,0.0,103.06643703767281,2112.602605549112,0.0,0,21,0.0,16431,345248919700854,42,39.70000076293945,471.5422391012353,0.14999,16,0.0,0.0,1575420030,,,,0,27.379694483448986,6,6.0,39.70000076293945,0.0,0.0,5.912936974757665,66.7128,C,25715044000000,
Raw,1732146831000,14588000000,,673006.1109475943,-1416182034412000000,0.0,103.06643703767281,2112.602605549112,0.0,0,19,0.0,16431,345248920098699,74,29.799999237060547,473.69103376780515,0.14999,16,0.0,0.0,1575420030,,,,0,16.785424685689115,6,6.0,29.799999237060547,0.0,0.0,5.912936974757665,66.7128,C,25715044000000,
Raw,1732146831000,14588000000,,673006.1109475943,-1416182034412000000,0.0,103.06643703767281,2112.602605549112,0.0,0,29,0.0,16431,345248920298697,58,33.0,948.4991136949765,0.14999,16,0.0,0.0,1575420030,,,,0,20.300591461234774,6,6.0,33.0,0.0,0.0,5.912936974757665,66.7128,C,25715044000000,
Raw,1732146831000,14588000000,,673006.1109475943,-1416182034412000000,0.0,103.06643703767281,2112.602605549112,0.0,0,27,0.0,16431,345248919477852,316,24.100000381469727,888.8836740136137,0.14999,16,0.0,0.0,1575420030,,,,0,9.94894335182699,6,6.0,24.100000381469727,0.0,0.0,5.912936974757665,66.7128,C,25715044000000,
Raw,1732146831000,14588000000,,673006.1109475943,-1416182034412000000,0.0,103.06643703767281,2112.602605549112,0.0,0,19,0.0,16431,345248921241078,42,40.1510009765625,-57.89782557564293,0.14999,16,0.0,0.0,1575420030,,,,0,27.961250709108754,1,6.0,40.1510009765625,0.0,0.0,0.0,66.7128,C,25715044000000,
Raw,1732146831000,14588000000,,673006.1109475943,-1416182034412000000,0.0,103.06643703767281,2112.602605549112,0.0,0,9,0.0,17,258167,316,5.0,778.20426958881,0.14999,16,0.0,0.0,1600875010,,,,0,11.972744746934257,3,6.0,25.0,0.0,0.0,41.310370206339364,66.7128,C,25715044000000,
Raw,1732146831000,14588000000,,673006.1109475943,-1416182034412000000,0.0,103.06643703767281,2112.602605549112,0.0,0,8,0.0,17,251381,58,5.0,504.4443541527489,0.14999,16,0.0,0.0,1605374980,,,,0,20.247139664008234,3,6.0,33.0,0.0,0.0,41.310370206339364,66.7128,C,25715044000000,
Raw,1732146831000,14588000000,,673006.1109475943,-1416182034412000000,0.0,103.06643703767281,2112.602605549112,0.0,0,20,0.0,17,742235,487,5.0,-146.64007675454437,0.14999,16,0.0,0.0,1603124990,,,,0,4.595932278234261,3,6.0,19.0,0.0,0.0,41.310370206339364,66.7128,C,25715044000000,
Raw,1732146831000,14588000000,,673006.1109475943,-1416182034412000000,0.0,103.06643703767281,2112.602605549112,0.0,0,16,0.0,17,366333,487,5.0,1123.259930164441,0.14999,16,0.0,0.0,1601437440,,,,0,0.7224036010983799,3,6.0,18.0,0.0,0.0,41.310370206339364,66.7128,C,25715044000000,
Raw,1732146831000,14588000000,,673006.1109475943,-1416182034412000000,0.0,103.06643703767281,2112.602605549112,0.0,0,7,0.0,16431,345248925970399,42,39.25600051879883,1008.0907666672393,0.14999,16,0.0,0.0,1575420030,,,,0,27.006179821683325,1,6.0,39.25600051879883,0.0,0.0,0.0,66.7128,C,25715044000000,
Raw,1732146831000,14588000000,,673006.1109475943,-1416182034412000000,0.0,103.06643703767281,2112.602605549112,0.0,0,30,0.0,16431,345248931539700,74,30.461999893188477,748.3448743480059,0.14999,16,0.0,0.0,1575420030,,,,0,17.099170384155578,1,6.0,30.461999893188477,0.0,0.0,0.0,66.7128,C,25715044000000,
Raw,1732146831000,14588000000,,673006.1109475943,-1416182034412000000,0.0,103.06643703767281,2112.602605549112,0.0,0,21,0.0,16431,345248920103097,487,21.176000595092773,656.5942410906462,0.14999,16,0.0,0.0,1575420030,,,,0,3.4781966185903412,1,6.0,21.176000595092773,0.0,0.0,0.0,66.7128,C,25715044000000,
Fix,FLP,37.4243904000,-122.1712102000,-0.40163313983667503,0.15602458,1.85,270.90854,1732146831196,2.1,62.9,25715044000000,0.9280187,0,,,
Status,1732146831000,29,0,1,14,1575420030,41.50,332.0,74.0,1,0,0,36.5
Status,1732146831000,29,1,1,30,1575420030,46.00,82.0,68.0,1,0,0,41.0
Status,1732146831000,29,2,1,22,1575420030,46.90,276.0,62.0,1,0,0,41.9
Status,1732146831000,29,3,1,13,1575420030,49.80,299.0,50.0,1,0,0,44.8
Status,1732146831000,29,4,1,17,1575420030,44.20,175.0,48.0,1,0,0,39.2
Status,1732146831000,29,5,1,7,1575420030,44.90,106.0,35.0,1,0,0,39.9
Status,1732146831000,29,6,2,131,1575420030,44.00,3.0,23.0,0,0,0,39.0
Status,1732146831000,29,7,1,19,1575420030,42.80,193.0,21.0,1,0,0,37.8
Status,1732146831000,29,8,1,15,1575420030,41.40,313.0,19.0,1,0,0,36.4
Status,1732146831000,29,9,1,2,1575420030,30.50,84.0,17.0,1,0,0,25.5
Status,1732146831000,29,10,1,21,1575420030,26.10,65.0,14.0,1,0,0,21.1
Status,1732146831000,29,11,1,8,1575420030,0.00,39.0,6.0,0,0,0,0.0
Status,1732146831000,29,12,1,5,1575420030,0.00,260.0,5.0,0,0,0,0.0
Status,1732146831000,29,13,3,9,1602000000,29.30,23.0,53.0,1,0,0,24.3
Status,1732146831000,29,14,3,8,1602000000,44.50,298.0,40.0,1,0,0,39.5
Status,1732146831000,29,15,3,20,1602000000,25.20,148.0,13.0,1,0,0,20.2
Status,1732146831000,29,16,3,16,1602000000,23.20,70.0,12.0,1,0,0,18.2
Status,1732146831000,29,17,3,11,1602000000,0.00,274.0,3.0,0,0,0,0.0
Status,1732146831000,29,18,3,17,1602000000,44.10,0.0,0.0,0,0,0,39.1
Status,1732146831000,29,19,6,21,1575420030,41.40,273.0,58.0,1,0,0,36.4
Status,1732146831000,29,20,6,29,1575420030,38.10,202.0,58.0,1,0,0,33.1
Status,1732146831000,29,21,6,27,1575420030,32.80,38.0,57.0,1,0,0,27.8
Status,1732146831000,29,22,6,19,1575420030,40.50,294.0,52.0,1,0,0,35.5
Status,1732146831000,29,23,6,7,1575420030,0.00,161.0,14.0,0,0,0,0.0
Status,1732146831000,29,24,6,15,1575420030,0.00,93.0,12.0,0,0,0,0.0
Status,1732146831000,29,25,6,30,1575420030,0.00,60.0,9.0,0,0,0,0.0
Status,1732146831000,29,26,6,34,1575420030,0.00,45.0,6.0,0,0,0,0.0
Status,1732146831000,29,27,6,13,1575420030,0.00,141.0,3.0,0,0,0,0.0
Status,1732146831000,29,28,6,4,1575420030,0.00,325.0,2.0,0,0,0,0.0
Fix,GPS,37.4243816667,-122.1712466667,12.7,0.9702514,1.8,226.74,1732146832000,1.5,59.3,25716044000000,39.7,0,,,
Fix,FLP,37.4243859000,-122.1712292000,-0.6519791437167948,0.22110109,1.866,258.61957,1732146832197,1.5,59.3,25716044000000,0.9324731,0,,,
Raw,1732146832000,15588000000,,670794.8937127697,-1416182034412000000,0.0,106.51422502155394,2110.455671202054,0.0,0,2,0.0,16431,345249920163927,396,25.48699951171875,445.13713366381376,0.14999,16,0.0,0.0,1575420030,,,,0,10.704714569614985,1,6.0,25.48699951171875,0.0,0.0,0.0,66.7128,C,25716044000000,
Raw,1732146832000,15588000000,,670794.8937127697,-1416182034412000000,0.0,106.51422502155394,2110.455671202054,0.0,0,15,0.0,16431,345249922605267,51,36.37099838256836,183.83720732233772,0.14999,16,0.0,0.0,1575420030,,,,0,23.8755415152232,1,6.0,36.37099838256836,0.0,0.0,0.0,66.7128,C,25716044000000,
Raw,1732146832000,15588000000,,670794.8937127697,-1416182034412000000,0.0,106.51422502155394,2110.455671202054,0.0,0,14,0.0,16431,345249932563822,51,36.53200149536133,642.7162759170666,0.14999,17,9961.920946124597,0.00022499999613501132,1575420030,,,,0,24.050313802776376,1,6.0,36.53200149536133,0.0,0.0,0.0,66.7128,C,25716044000000,
Raw,1732146832000,15588000000,,670794.8937127697,-1416182034412000000,0.0,106.51422502155394,2110.455671202054,0.0,0,13,0.0,16431,345249930079240,28,44.7859992980957,372.187129674078,0.14999,17,5775.992244416034,0.00022499999613501132,1575420030,,,,0,32.82437486871184,1,6.0,44.7859992980957,0.0,0.0,0.0,66.7128,C,25716044000000,
Raw,1732146832000,15588000000,,670794.8937127697,-1416182034412000000,0.0,106.51422502155394,2110.455671202054,0.0,0,21,0.0,16431,345249919699281,51,36.400001525878906,471.4400770439883,0.14999,16,0.0,0.0,1575420030,,,,0,23.972101161510878,6,6.0,36.400001525878906,0.0,0.0,5.8035602656789305,66.7128,C,25716044000000,
Raw,1732146832000,15588000000,,670794.8937127697,-1416182034412000000,0.0,106.51422502155394,2110.455671202054,0.0,0,19,0.0,16431,345249920097118,51,35.5,473.7899901943336,0.14999,16,0.0,0.0,1575420030,,,,0,22.99367476600064,6,6.0,35.5,0.0,0.0,5.8035602656789305,66.7128,C,25716044000000,
Raw,1732146832000,15588000000,,670794.8937127697,-1416182034412000000,0.0,106.51422502155394,2110.455671202054,0.0,0,29,0.0,16431,345249920295534,51,33.07500076293945,947.5892720719092,0.14999,16,0.0,0.0,1575420030,,,,0,21.868660224142374,6,6.0,33.07500076293945,0.0,0.0,5.8035602656789305,66.7128,C,25716044000000,
Raw,1732146832000,15588000000,,670794.8937127697,-1416182034412000000,0.0,106.51422502155394,2110.455671202054,0.0,0,27,0.0,16431,345249919474881,235,27.799999237060547,888.6653194574242,0.14999,16,0.0,0.0,1575420030,,,,0,14.438401220677093,6,6.0,27.799999237060547,0.0,0.0,5.8035602656789305,66.7128,C,25716044000000,
Raw,1732146832000,15588000000,,670794.8937127697,-1416182034412000000,0.0,106.51422502155394,2110.455671202054,0.0,0,9,0.0,17,255569,316,5.0,776.4467130416037,0.14999,16,0.0,0.0,1600875010,,,,0,10.245548133439293,3,6.0,24.0,0.0,0.0,40.72885892276883,66.7128,C,25716044000000,
Raw,1732146832000,15588000000,,670794.8937127697,-1416182034412000000,0.0,106.51422502155394,2110.455671202054,0.0,0,8,0.0,17,249697,42,5.0,504.3836718133912,0.14999,16,0.0,0.0,1605374980,,,,0,27.226954484101032,3,6.0,40.0,0.0,0.0,40.72885892276883,66.7128,C,25716044000000,
Raw,1732146832000,15588000000,,670794.8937127697,-1416182034412000000,0.0,106.51422502155394,2110.455671202054,0.0,0,20,0.0,17,742726,487,5.0,-147.82036346023028,0.14999,16,0.0,0.0,1603124990,,,,0,4.595932278234261,3,6.0,20.0,0.0,0.0,40.72885892276883,66.7128,C,25716044000000,
Raw,1732146832000,15588000000,,670794.8937127697,-1416182034412000000,0.0,106.51422502155394,2110.455671202054,0.0,0,16,0.0,17,362575,487,5.0,1122.3600255532854,0.14999,16,0.0,0.0,1601437440,,,,0,1.233485690546142,3,6.0,19.0,0.0,0.0,40.72885892276883,66.7128,C,25716044000000,
Raw,1732146832000,15588000000,,670794.8937127697,-1416182034412000000,0.0,106.51422502155394,2110.455671202054,0.0,0,19,0.0,16431,345249921241303,51,37.8120002746582,-58.77263755288737,0.14999,16,0.0,0.0,1575420030,,,,0,25.44591564849815,1,6.0,37.8120002746582,0.0,0.0,0.0,66.7128,C,25716044000000,
Raw,1732146832000,15588000000,,670794.8937127697,-1416182034412000000,0.0,106.51422502155394,2110.455671202054,0.0,0,17,0.0,16431,345249929575629,42,39.17599868774414,179.10179387482998,0.14999,16,0.0,0.0,1575420030,,,,0,26.919567668880006,1,6.0,39.17599868774414,0.0,0.0,0.0,66.7128,C,25716044000000,
Raw,1732146832000,15588000000,,670794.8937127697,-1416182034412000000,0.0,106.51422502155394,2110.455671202054,0.0,0,22,0.0,16431,345249930539418,31,41.862998962402344,496.5396545274775,0.14999,16,0.0,0.0,1575420030,,,,0,29.77167414520089,1,6.0,41.862998962402344,0.0,0.0,0.0,66.7128,C,25716044000000,
Raw,1732146832000,15588000000,,670794.8937127697,-1416182034412000000,0.0,106.51422502155394,2110.455671202054,0.0,0,7,0.0,16431,345249925967036,42,39.888999938964844,1007.7378685377041,0.14999,16,0.0,0.0,1575420030,,,,0,27.68103642025246,1,6.0,39.888999938964844,0.0,0.0,0.0,66.7128,C,25716044000000,
Raw,1732146832000,15588000000,,670794.8937127697,-1416182034412000000,0.0,106.51422502155394,2110.455671202054,0.0,0,30,0.0,16431,345249931537205,42,40.95800018310547,747.7338067995887,0.14999,16,0.0,0.0,1575420030,,,,0,28.816634988849323,1,6.0,40.95800018310547,0.0,0.0,0.0,66.7128,C,25716044000000,
Raw,1732146832000,15588000000,,670794.8937127697,-1416182034412000000,0.0,106.51422502155394,2110.455671202054,0.0,0,21,0.0,16431,345249920100902,487,21.09000015258789,656.0592259695657,0.14999,16,0.0,0.0,1575420030,,,,0,1.2820967490054858,1,6.0,21.09000015258789,0.0,0.0,0.0,66.7128,C,25716044000000,
Status,1732146832000,29,0,1,14,1575420030,41.20,332.0,74.0,1,0,0,36.2
Status,1732146832000,29,1,1,30,1575420030,32.90,82.0,68.0,1,0,0,27.900002
Status,1732146832000,29,2,1,22,1575420030,49.80,276.0,62.0,1,0,0,44.8
Status,1732146832000,29,3,1,13,1575420030,33.40,299.0,50.0,1,0,0,28.400002
Status,1732146832000,29,4,1,17,1575420030,45.80,175.0,48.0,1,0,0,40.8
Status,1732146832000,29,5,1,7,1575420030,37.90,106.0,35.0,1,0,0,32.9
Status,1732146832000,29,6,2,131,1575420030,33.00,3.0,23.0,0,0,0,28.0
Status,1732146832000,29,7,1,19,1575420030,36.20,193.0,21.0,1,0,0,31.2
Status,1732146832000,29,8,1,15,1575420030,40.60,313.0,19.0,1,0,0,35.6
Status,1732146832000,29,9,1,2,1575420030,29.20,84.0,17.0,1,0,0,24.2
Status,1732146832000,29,10,1,21,1575420030,26.00,65.0,14.0,1,0,0,21.0
Status,1732146832000,29,11,1,8,1575420030,0.00,39.0,6.0,0,0,0,0.0
Status,1732146832000,29,12,1,5,1575420030,0.00,260.0,5.0,0,0,0,0.0
Status,1732146832000,29,13,3,9,1602000000,29.00,23.0,53.0,1,0,0,24.0
Status,1732146832000,29,14,3,8,1602000000,40.50,298.0,40.0,1,0,0,35.5
Status,1732146832000,29,15,3,20,1602000000,25.20,148.0,13.0,1,0,0,20.2
Status,1732146832000,29,16,3,16,1602000000,21.70,70.0,12.0,1,0,0,16.7
Status,1732146832000,29,17,3,11,1602000000,0.00,274.0,3.0,0,0,0,0.0
Status,1732146832000,29,18,3,17,1602000000,37.50,0.0,0.0,0,0,0,32.5
Status,1732146832000,29,19,6,21,1575420030,40.30,273.0,58.0,1,0,0,35.3
Status,1732146832000,29,20,6,29,1575420030,38.00,202.0,58.0,1,0,0,33.0
Status,1732146832000,29,21,6,27,1575420030,36.10,38.0,57.0,1,0,0,31.099998
Status,1732146832000,29,22,6,19,1575420030,34.00,294.0,52.0,1,0,0,29.0
Status,1732146832000,29,23,6,7,1575420030,0.00,161.0,14.0,0,0,0,0.0
Status,1732146832000,29,24,6,15,1575420030,0.00,93.0,12.0,0,0,0,0.0
Status,1732146832000,29,25,6,30,1575420030,0.00,60.0,9.0,0,0,0,0.0
Status,1732146832000,29,26,6,34,1575420030,0.00,45.0,6.0,0,0,0,0.0
Status,1732146832000,29,27,6,13,1575420030,0.00,141.0,3.0,0,0,0,0.0
Status,1732146832000,29,28,6,4,1575420030,0.00,325.0,2.0,0,0,0,0.0
Fix,GPS,37.4243783333,-122.1712566667,12.8,1.1787139,1.8,252.32,1732146833000,2.0,68.0,25717044000000,38.5,0,,,
Fix,FLP,37.4243819000,-122.1712441000,-0.8183635450486078,0.27053487,1.866,256.26834,1732146833197,2.0,68.0,25717044000000,0.94701767,0,,,
Raw,1732146833000,16588000000,,669042.2749894529,-1416182034412000000,0.0,103.41908273371475,2107.0917098648765,0.0,0,2,0.0,16431,345250920162441,487,24.246000289916992,444.5328955025795,0.14999,16,0.0,0.0,1575420030,,,,0,8.925892902879363,1,6.0,24.246000289916992,0.0,0.0,0.0,66.7128,C,25717044000000,
Raw,1732146833000,16588000000,,669042.2749894529,-1416182034412000000,0.0,103.41908273371475,2107.0917098648765,0.0,0,15,0.0,16431,345250922604651,51,35.59000015258789,182.62208744635112,0.14999,16,0.0,0.0,1575420030,,,,0,23.013193627333862,1,6.0,35.59000015258789,0.0,0.0,0.0,66.7128,C,25717044000000,
Raw,1732146833000,16588000000,,669042.2749894529,-1416182034412000000,0.0,103.41908273371475,2107.0917098648765,0.0,0,14,0.0,16431,345250932561685,51,36.244998931884766,641.574653255525,0.14999,17,10603.360742212468,0.00022499999613501132,1575420030,,,,0,23.73314669276424,1,6.0,36.244998931884766,0.0,0.0,0.0,66.7128,C,25717044000000,
Raw,1732146833000,16588000000,,669042.2749894529,-1416182034412000000,0.0,103.41908273371475,2107.0917098648765,0.0,0,13,0.0,16431,345250930078001,235,28.4060001373291,371.3239555300943,0.14999,16,0.0,0.0,1575420030,,,,0,14.568237564023141,1,6.0,28.4060001373291,0.0,0.0,0.0,66.7128,C,25717044000000,
Raw,1732146833000,16588000000,,669042.2749894529,-1416182034412000000,0.0,103.41908273371475,2107.0917098648765,0.0,0,21,0.0,16431,345250919697710,51,35.29999923706055,469.70369373811945,0.14999,16,0.0,0.0,1575420030,,,,0,22.745914396174236,6,6.0,35.29999923706055,0.0,0.0,5.559029092590839,66.7128,C,25717044000000,
Raw,1732146833000,16588000000,,669042.2749894529,-1416182034412000000,0.0,103.41908273371475,2107.0917098648765,0.0,0,19,0.0,16431,345250920095542,74,29.0,471.91887748145416,0.14999,16,0.0,0.0,1575420030,,,,0,15.836931687126352,6,6.0,29.0,0.0,0.0,5.559029092590839,66.7128,C,25717044000000,
Raw,1732146833000,16588000000,,669042.2749894529,-1416182034412000000,0.0,103.41908273371475,2107.0917098648765,0.0,0,29,0.0,16431,345250920292376,58,33.0,946.314453131092,0.14999,16,0.0,0.0,1575420030,,,,0,20.247139664008234,6,6.0,33.0,0.0,0.0,5.559029092590839,66.7128,C,25717044000000,
Raw,1732146833000,16588000000,,669042.2749894529,-1416182034412000000,0.0,103.41908273371475,2107.0917098648765,0.0,0,27,0.0,16431,345250919471923,74,31.100000381469727,887.0742116190456,0.14999,16,0.0,0.0,1575420030,,,,0,18.18405754929062,6,6.0,31.100000381469727,0.0,0.0,5.559029092590839,66.7128,C,25717044000000,
Raw,1732146833000,16588000000,,669042.2749894529,-1416182034412000000,0.0,103.41908273371475,2107.0917098648765,0.0,0,9,0.0,17,252977,487,5.0,775.7890809367442,0.14999,16,0.0,0.0,1600875010,,,,0,9.830443701626901,3,6.0,19.0,0.0,0.0,40.60724330241676,66.7128,C,25717044000000,
Raw,1732146833000,16588000000,,669042.2749894529,-1416182034412000000,0.0,103.41908273371475,2107.0917098648765,0.0,0,8,0.0,17,248015,51,5.0,503.06416147102385,0.14999,17,8309.183534501426,0.00022499999613501132,1605374980,,,,0,22.961828237568024,3,6.0,36.0,0.0,0.0,40.60724330241676,66.7128,C,25717044000000,
Raw,1732146833000,16588000000,,669042.2749894529,-1416182034412000000,0.0,103.41908273371475,2107.0917098648765,0.0,0,20,0.0,17,743220,487,5.0,-148.83300306769252,0.14999,16,0.0,0.0,1603124990,,,,0,3.856260953170861,3,6.0,19.0,0.0,0.0,40.60724330241676,66.7128,C,25717044000000,
Raw,1732146833000,16588000000,,669042.2749894529,-1416182034412000000,0.0,103.41908273371475,2107.0917098648765,0.0,0,16,0.0,17,358830,797,5.0,1121.455276356615,0.14999,16,0.0,0.0,1601437440,,,,0,0.0,3,6.0,17.0,0.0,0.0,40.60724330241676,66.7128,C,25717044000000,
Raw,1732146833000,16588000000,,669042.2749894529,-1416182034412000000,0.0,103.41908273371475,2107.0917098648765,0.0,0,19,0.0,16431,345250921241500,74,31.18199920654297,-59.16790575800663,0.14999,16,9116.501902173613,0.0006249999860301614,1575420030,,,,0,17.960226401790717,1,6.0,31.18199920654297,0.0,0.0,0.0,66.7128,C,25717044000000,
Raw,1732146833000,16588000000,,669042.2749894529,-1416182034412000000,0.0,103.41908273371475,2107.0917098648765,0.0,0,17,0.0,16431,345250929575033,42,40.77799987792969,178.12514504925204,0.14999,17,9595.892242475604,0.00022499999613501132,1575420030,,,,0,28.624617974161847,1,6.0,40.77799987792969,0.0,0.0,0.0,66.7128,C,25717044000000,
Raw,1732146833000,16588000000,,669042.2749894529,-1416182034412000000,0.0,103.41908273371475,2107.0917098648765,0.0,0,22,0.0,16431,345250930537760,28,44.81100082397461,495.24615930334375,0.14999,17,10202.524609152764,0.00022499999613501132,1575420030,,,,0,32.84954225941071,1,6.0,44.81100082397461,0.0,0.0,0.0,66.7128,C,25717044000000,
Raw,1732146833000,16588000000,,669042.2749894529,-1416182034412000000,0.0,103.41908273371475,2107.0917098648765,0.0,0,7,0.0,16431,345250925963675,58,32.88199996948242,1006.8628707267949,0.14999,17,16118.922428406435,0.00039999998989515007,1575420030,,,,0,19.94712621080496,1,6.0,32.88199996948242,0.0,0.0,0.0,66.7128,C,25717044000000,
Raw,1732146833000,16588000000,,669042.2749894529,-1416182034412000000,0.0,103.41908273371475,2107.0917098648765,0.0,0,30,0.0,16431,345250931534714,235,27.863000869750977,747.1103348540432,0.14999,16,0.0,0.0,1575420030,,,,0,13.870847327133118,1,6.0,27.863000869750977,0.0,0.0,0.0,66.7128,C,25717044000000,
Raw,1732146833000,16588000000,,669042.2749894529,-1416182034412000000,0.0,103.41908273371475,2107.0917098648765,0.0,0,21,0.0,16431,345250920098716,797,21.009000778198242,655.2852287554981,0.14999,16,0.0,0.0,1575420030,,,,0,1.2820967490054858,1,6.0,21.009000778198242,0.0,0.0,0.0,66.7128,C,25717044000000,
Status,1732146833000,29,0,1,14,1575420030,40.70,332.0,74.0,1,0,0,35.7
Status,1732146833000,29,1,1,30,1575420030,42.90,82.0,68.0,1,0,0,37.9
Status,1732146833000,29,2,1,22,1575420030,45.20,276.0,62.0,1,0,0,40.2
Status,1732146833000,29,3,1,13,1575420030,45.90,299.0,50.0,1,0,0,40.9
Status,1732146833000,29,4,1,17,1575420030,49.10,175.0,48.0,1,0,0,44.1
Status,1732146833000,29,5,1,7,1575420030,44.90,106.0,35.0,1,0,0,39.9
Status,1732146833000,29,6,2,131,1575420030,46.00,3.0,23.0,0,0,0,41.0
Status,1732146833000,29,7,1,19,1575420030,40.40,193.0,21.0,1,0,0,35.4
Status,1732146833000,29,8,1,15,1575420030,44.60,313.0,19.0,1,0,0,39.6
Status,1732146833000,29,9,1,2,1575420030,26.30,84.0,17.0,1,0,0,21.3
Status,1732146833000,29,10,1,21,1575420030,25.90,65.0,14.0,1,0,0,20.9
Status,1732146833000,29,11,1,8,1575420030,0.00,39.0,6.0,0,0,0,0.0
Status,1732146833000,29,12,1,5,1575420030,0.00,260.0,5.0,0,0,0,0.0
Status,1732146833000,29,13,3,9,1602000000,30.50,23.0,53.0,1,0,0,25.5
Status,1732146833000,29,14,3,8,1602000000,49.20,298.0,40.0,1,0,0,44.2
Status,1732146833000,29,15,3,20,1602000000,25.20,148.0,13.0,1,0,0,20.2
Status,1732146833000,29,16,3,16,1602000000,21.70,70.0,12.0,1,0,0,16.7
Status,1732146833000,29,17,3,11,1602000000,0.00,274.0,3.0,0,0,0,0.0
Status,1732146833000,29,18,3,17,1602000000,45.30,0.0,0.0,0,0,0,40.3
Status,1732146833000,29,19,6,21,1575420030,39.00,273.0,58.0,1,0,0,34.0
Status,1732146833000,29,20,6,29,1575420030,38.50,202.0,58.0,1,0,0,33.5
Status,1732146833000,29,21,6,27,1575420030,27.60,38.0,57.0,1,0,0,22.6
Status,1732146833000,29,22,6,19,1575420030,41.00,294.0,52.0,1,0,0,36.0
Status,1732146833000,29,23,6,7,1575420030,0.00,161.0,14.0,0,0,0,0.0
Status,1732146833000,29,24,6,15,1575420030,0.00,93.0,12.0,0,0,0,0.0
Status,1732146833000,29,25,6,30,1575420030,0.00,60.0,9.0,0,0,0,0.0
Status,1732146833000,29,26,6,34,1575420030,0.00,45.0,6.0,0,0,0,0.0
Status,1732146833000,29,27,6,13,1575420030,0.00,141.0,3.0,0,0,0,0.0
Status,1732146833000,29,28,6,4,1575420030,0.00,325.0,2.0,0,0,0,0.0
Fix,GPS,37.4243816667,-122.1712633333,12.900000000000002,0.43391085,1.8,280.57,1732146834000,1.5,155.0,25718044000000,37.1,0,,,
Fix,FLP,37.4243816000,-122.1712551000,-0.9018089230312141,0.28941947,1.85,259.21854,1732146834196,1.5,155.0,25718044000000,0.9570096,0,,,
Raw,1732146834000,17588000000,,666777.4269024472,-1416182034412000000,0.0,99.90626639486422,2103.978403302413,0.0,0,2,0.0,16431,345251920160947,396,21.292999267578125,446.697950614823,0.14999,16,0.0,0.0,1575420030,,,,0,4.356306332571975,1,6.0,21.292999267578125,0.0,0.0,0.0,66.7128,C,25718044000000,
Raw,1732146834000,17588000000,,666777.4269024472,-1416182034412000000,0.0,99.90626639486422,2103.978403302413,0.0,0,15,0.0,16431,345251922604044,42,39.61899948120117,182.40628810305316,0.14999,17,3286.637769956726,0.00022499999613501132,1575420030,,,,0,27.391479952880005,1,6.0,39.61899948120117,0.0,0.0,0.0,66.7128,C,25718044000000,
Raw,1732146834000,17588000000,,666777.4269024472,-1416182034412000000,0.0,99.90626639486422,2103.978403302413,0.0,0,14,0.0,16431,345251932559547,51,35.678001403808594,641.2448914172627,0.14999,17,11244.38638765268,0.00022499999613501132,1575420030,,,,0,23.11013536617763,1,6.0,35.678001403808594,0.0,0.0,0.0,66.7128,C,25718044000000,
Raw,1732146834000,17588000000,,666777.4269024472,-1416182034412000000,0.0,99.90626639486422,2103.978403302413,0.0,0,13,0.0,16431,345251930076767,42,40.902000427246094,370.7094268296694,0.14999,16,0.0,0.0,1575420030,,,,0,28.756455374180184,1,6.0,40.902000427246094,0.0,0.0,0.0,66.7128,C,25718044000000,
Raw,1732146834000,17588000000,,666777.4269024472,-1416182034412000000,0.0,99.90626639486422,2103.978403302413,0.0,0,21,0.0,16431,345251919696144,58,34.0,469.4635966431434,0.14999,16,0.0,0.0,1575420030,,,,0,21.42371765217691,6,6.0,34.0,0.0,0.0,5.329930116689551,66.7128,C,25718044000000,
Raw,1732146834000,17588000000,,666777.4269024472,-1416182034412000000,0.0,99.90626639486422,2103.978403302413,0.0,0,19,0.0,16431,345251920093968,51,36.0,471.7079562718583,0.14999,16,0.0,0.0,1575420030,,,,0,23.524275716781627,6,6.0,36.0,0.0,0.0,5.329930116689551,66.7128,C,25718044000000,
Raw,1732146834000,17588000000,,666777.4269024472,-1416182034412000000,0.0,99.90626639486422,2103.978403302413,0.0,0,29,0.0,16431,345251920289218,58,33.5,946.5266751763418,0.14999,16,0.0,0.0,1575420030,,,,0,20.792621361341475,6,6.0,33.5,0.0,0.0,5.329930116689551,66.7128,C,25718044000000,
Raw,1732146834000,17588000000,,666777.4269024472,-1416182034412000000,0.0,99.90626639486422,2103.978403302413,0.0,0,27,0.0,16431,345251919468968,396,22.600000381469727,886.9259163545016,0.14999,16,0.0,0.0,1575420030,,,,0,7.9336325947810415,6,6.0,22.600000381469727,0.0,0.0,5.329930116689551,66.7128,C,25718044000000,
Raw,1732146834000,17588000000,,666777.4269024472,-1416182034412000000,0.0,99.90626639486422,2103.978403302413,0.0,0,9,0.0,17,250381,235,5.0,775.7256219989282,0.14999,16,0.0,0.0,1600875010,,,,0,11.747982277312056,3,6.0,27.0,0.0,0.0,40.19581091425799,66.7128,C,25718044000000,
Raw,1732146834000,17588000000,,666777.4269024472,-1416182034412000000,0.0,99.90626639486422,2103.978403302413,0.0,0,8,0.0,17,246338,31,5.0,502.7900651342706,0.14999,17,8811.923736738607,0.00022499999613501132,1605374980,,,,0,32.032769196209074,3,6.0,44.0,0.0,0.0,40.19581091425799,66.7128,C,25718044000000,
Raw,1732146834000,17588000000,,666777.4269024472,-1416182034412000000,0.0,99.90626639486422,2103.978403302413,0.0,0,20,0.0,17,743687,487,5.0,-150.055018925823,0.14999,16,0.0,0.0,1603124990,,,,0,5.0562195466765685,3,6.0,20.0,0.0,0.0,40.19581091425799,66.7128,C,25718044000000,
Raw,1732146834000,17588000000,,666777.4269024472,-1416182034412000000,0.0,99.90626639486422,2103.978403302413,0.0,0,16,0.0,17,355093,487,5.0,1119.9603103926283,0.14999,16,0.0,0.0,1601437440,,,,0,0.0,3,6.0,18.0,0.0,0.0,40.19581091425799,66.7128,C,25718044000000,
Raw,1732146834000,17588000000,,666777.4269024472,-1416182034412000000,0.0,99.90626639486422,2103.978403302413,0.0,0,19,0.0,16431,345251921241694,58,35.4010009765625,-59.41548265799259,0.14999,16,0.0,0.0,1575420030,,,,0,22.80602459896874,1,6.0,35.4010009765625,0.0,0.0,0.0,66.7128,C,25718044000000,
Raw,1732146834000,17588000000,,666777.4269024472,-1416182034412000000,0.0,99.90626639486422,2103.978403302413,0.0,0,17,0.0,16431,345251929574441,31,44.07699966430664,178.26452029788365,0.14999,17,9773.869838498622,0.00022499999613501132,1575420030,,,,0,32.08834334240733,1,6.0,44.07699966430664,0.0,0.0,0.0,66.7128,C,25718044000000,
Raw,1732146834000,17588000000,,666777.4269024472,-1416182034412000000,0.0,99.90626639486422,2103.978403302413,0.0,0,22,0.0,16431,345251930536108,42,40.15599822998047,494.9416243850837,0.14999,17,10697.386005660355,0.00022499999613501132,1575420030,,,,0,27.9667638096671,1,6.0,40.15599822998047,0.0,0.0,0.0,66.7128,C,25718044000000,
Raw,1732146834000,17588000000,,666777.4269024472,-1416182034412000000,0.0,99.90626639486422,2103.978403302413,0.0,0,7,0.0,16431,345251925960318,42,39.91400146484375,1006.6200790436786,0.14999,16,0.0,0.0,1575420030,,,,0,27.709468162948344,1,6.0,39.91400146484375,0.0,0.0,0.0,66.7128,C,25718044000000,
Raw,1732146834000,17588000000,,666777.4269024472,-1416182034412000000,0.0,99.90626639486422,2103.978403302413,0.0,0,30,0.0,16431,345251931532223,51,37.88100051879883,746.695647030948,0.14999,16,0.0,0.0,1575420030,,,,0,25.5192766389702,1,6.0,37.88100051879883,0.0,0.0,0.0,66.7128,C,25718044000000,
Raw,1732146834000,17588000000,,666777.4269024472,-1416182034412000000,0.0,99.90626639486422,2103.978403302413,0.0,0,21,0.0,16431,345251920096531,797,20.93199920654297,655.48160848082,0.14999,16,0.0,0.0,1575420030,,,,0,1.2820967490054858,1,6.0,20.93199920654297,0.0,0.0,0.0,66.7128,C,25718044000000,
Status,1732146834000,29,0,1,14,1575420030,40.20,332.0,74.0,1,0,0,35.2
Status,1732146834000,29,1,1,30,1575420030,39.80,82.0,68.0,1,0,0,34.8
Status,1732146834000,29,2,1,22,1575420030,42.60,277.0,62.0,1,0,0,37.6
Status,1732146834000,29,3,1,13,1575420030,40.40,299.0,50.0,1,0,0,35.4
Status,1732146834000,29,4,1,17,1575420030,42.90,175.0,48.0,1,0,0,37.9
Status,1732146834000,29,5,1,7,1575420030,41.70,106.0,35.0,1,0,0,36.7
Status,1732146834000,29,6,2,131,1575420030,34.00,3.0,23.0,0,0,0,29.0
Status,1732146834000,29,7,1,19,1575420030,43.30,193.0,21.0,1,0,0,38.3
Status,1732146834000,29,8,1,15,1575420030,45.40,313.0,19.0,1,0,0,40.4
Status,1732146834000,29,9,1,2,1575420030,29.10,84.0,17.0,1,0,0,24.1
Status,1732146834000,29,10,1,21,1575420030,22.50,65.0,14.0,1,0,0,17.5
Status,1732146834000,29,11,1,8,1575420030,0.00,39.0,6.0,0,0,0,0.0
Status,1732146834000,29,12,1,5,1575420030,0.00,260.0,5.0,0,0,0,0.0
Status,1732146834000,29,13,3,9,1602000000,33.90,23.0,53.0,1,0,0,28.900002
Status,1732146834000,29,14,3,8,1602000000,40.50,298.0,40.0,1,0,0,35.5
Status,1732146834000,29,15,3,20,1602000000,25.10,148.0,13.0,1,0,0,20.1
Status,1732146834000,29,16,3,16,1602000000,22.60,70.0,12.0,1,0,0,17.6
Status,1732146834000,29,17,3,11,1602000000,0.00,274.0,3.0,0,0,0,0.0
Status,1732146834000,29,18,3,17,1602000000,31.90,0.0,0.0,0,0,0,26.9
Status,1732146834000,29,19,6,21,1575420030,37.10,273.0,58.0,1,0,0,32.1
Status,1732146834000,29,20,6,29,1575420030,42.80,202.0,58.0,1,0,0,37.8
Status,1732146834000,29,21,6,27,1575420030,0.00,38.0,57.0,0,0,0,0.0
Status,1732146834000,29,22,6,19,1575420030,36.30,294.0,52.0,1,0,0,31.3
Status,1732146834000,29,23,6,7,1575420030,0.00,161.0,14.0,0,0,0,0.0
Status,1732146834000,29,24,6,15,1575420030,0.00,93.0,12.0,0,0,0,0.0
Status,1732146834000,29,25,6,30,1575420030,0.00,60.0,9.0,0,0,0,0.0
Status,1732146834000,29,26,6,34,1575420030,0.00,45.0,6.0,0,0,0,0.0
Status,1732146834000,29,27,6,13,1575420030,0.00,141.0,3.0,0,0,0,0.0
Status,1732146834000,29,28,6,4,1575420030,0.00,325.0,2.0,0,0,0,0.0
Fix,GPS,37.4243866667,-122.1712650000,13.099999999999998,0.22338945,1.7,292.62,1732146835000,1.0,179.9,25719044000000,36.1,0,,,
Fix,FLP,37.4243840000,-122.1712615000,-1.0903052598304086,0.28207117,1.816,264.35718,1732146835196,1.0,179.9,25719044000000,0.96725047,0,,,
Raw,1732146835000,18588000000,,664814.4022022062,-1416182034412000000,0.0,97.02539765824456,2103.186095577518,0.0,0,2,0.0,16431,345252920159457,396,24.118000030517578,445.1752295651064,0.14999,16,0.0,0.0,1575420030,,,,0,8.776561609172276,1,6.0,24.118000030517578,0.0,0.0,0.0,66.7128,C,25719044000000,
Raw,1732146835000,18588000000,,664814.4022022062,-1416182034412000000,0.0,97.02539765824456,2103.186095577518,0.0,0,15,0.0,16431,345252922603437,42,40.35499954223633,182.60898617297974,0.14999,17,3468.8086939159543,0.00022499999613501132,1575420030,,,,0,28.173710154317398,1,6.0,40.35499954223633,0.0,0.0,0.0,66.7128,C,25719044000000,
Raw,1732146835000,18588000000,,664814.4022022062,-1416182034412000000,0.0,97.02539765824456,2103.186095577518,0.0,0,14,0.0,16431,345252932557413,58,35.17499923706055,641.1940194515121,0.14999,17,11885.212198022864,0.00039999998989515007,1575420030,,,,0,22.552773725590214,1,6.0,35.17499923706055,0.0,0.0,0.0,66.7128,C,25719044000000,
Raw,1732146835000,18588000000,,664814.4022022062,-1416182034412000000,0.0,97.02539765824456,2103.186095577518,0.0,0,13,0.0,16431,345252930075527,51,35.44300079345703,371.16588076893794,0.14999,17,6888.247661264653,0.00022499999613501132,1575420030,,,,0,22.84586819928443,1,6.0,35.44300079345703,0.0,0.0,0.0,66.7128,C,25719044000000,
Raw,1732146835000,18588000000,,664814.4022022062,-1416182034412000000,0.0,97.02539765824456,2103.186095577518,0.0,0,21,0.0,16431,345252919694576,58,32.099998474121094,469.4828768858708,0.14999,16,0.0,0.0,1575420030,,,,0,19.35875686823998,6,6.0,32.099998474121094,0.0,0.0,5.35930086210864,66.7128,C,25719044000000,
Raw,1732146835000,18588000000,,664814.4022022062,-1416182034412000000,0.0,97.02539765824456,2103.186095577518,0.0,0,19,0.0,16431,345252920092392,74,31.299999237060547,471.741870915692,0.14999,16,0.0,0.0,1575420030,,,,0,18.43535442967115,6,6.0,31.299999237060547,0.0,0.0,5.35930086210864,66.7128,C,25719044000000,
Raw,1732146835000,18588000000,,664814.4022022062,-1416182034412000000,0.0,97.02539765824456,2103.186095577518,0.0,0,29,0.0,16431,345252920286055,42,37.79999923706055,946.2898301705005,0.14999,16,0.0,0.0,1575420030,,,,0,25.401599788906953,6,6.0,37.79999923706055,0.0,0.0,5.35930086210864,66.7128,C,25719044000000,
Raw,1732146835000,18588000000,,664814.4022022062,-1416182034412000000,0.0,97.02539765824456,2103.186095577518,0.0,0,9,0.0,17,247787,316,5.0,774.7337789175305,0.14999,16,0.0,0.0,1600875010,,,,0,15.700083567100322,3,6.0,24.0,0.0,0.0,40.087351214703126,66.7128,C,25719044000000,
Raw,1732146835000,18588000000,,664814.4022022062,-1416182034412000000,0.0,97.02539765824456,2103.186095577518,0.0,0,8,0.0,17,244658,51,5.0,503.01382841118095,0.14999,17,9314.597868286332,0.00022499999613501132,1605374980,,,,0,22.968234494283458,3,6.0,36.0,0.0,0.0,40.087351214703126,66.7128,C,25719044000000,
Raw,1732146835000,18588000000,,664814.4022022062,-1416182034412000000,0.0,97.02539765824456,2103.186095577518,0.0,0,20,0.0,17,744184,487,5.0,-150.15527846495675,0.14999,16,0.0,0.0,1603124990,,,,0,2.156045159003887,3,6.0,19.0,0.0,0.0,40.087351214703126,66.7128,C,25719044000000,
Raw,1732146835000,18588000000,,664814.4022022062,-1416182034412000000,0.0,97.02539765824456,2103.186095577518,0.0,0,16,0.0,17,351353,797,5.0,1119.089016258191,0.14999,16,0.0,0.0,1601437440,,,,0,0.16568011104001457,3,6.0,16.0,0.0,0.0,40.087351214703126,66.7128,C,25719044000000,
Raw,1732146835000,18588000000,,664814.4022022062,-1416182034412000000,0.0,97.02539765824456,2103.186095577518,0.0,0,19,0.0,16431,345252921241891,51,38.323001861572266,-59.99895390718074,0.14999,16,8996.461055168069,0.00022499999613501132,1575420030,,,,0,26.002345100315523,1,6.0,38.323001861572266,0.0,0.0,0.0,66.7128,C,25719044000000,
Raw,1732146835000,18588000000,,664814.4022022062,-1416182034412000000,0.0,97.02539765824456,2103.186095577518,0.0,0,17,0.0,16431,345252929573847,51,37.86199951171875,177.97271498566528,0.14999,17,9951.427732093245,0.00022499999613501132,1575420030,,,,0,25.504653925688192,1,6.0,37.86199951171875,0.0,0.0,0.0,66.7128,C,25719044000000,
Raw,1732146835000,18588000000,,664814.4022022062,-1416182034412000000,0.0,97.02539765824456,2103.186095577518,0.0,0,22,0.0,16431,345252930534458,51,37.59600067138672,494.9541681574605,0.14999,17,11192.035426933031,0.00022499999613501132,1575420030,,,,0,25.214477307835462,1,6.0,37.59600067138672,0.0,0.0,0.0,66.7128,C,25719044000000,
Raw,1732146835000,18588000000,,664814.4022022062,-1416182034412000000,0.0,97.02539765824456,2103.186095577518,0.0,0,7,0.0,16431,345252925956959,51,36.70500183105469,1006.5426793222719,0.14999,16,0.0,0.0,1575420030,,,,0,24.238586762112316,1,6.0,36.70500183105469,0.0,0.0,0.0,66.7128,C,25719044000000,
Raw,1732146835000,18588000000,,664814.4022022062,-1416182034412000000,0.0,97.02539765824456,2103.186095577518,0.0,0,30,0.0,16431,345252931529734,58,34.766998291015625,746.9236649377093,0.14999,17,13679.574541682563,0.00039999998989515007,1575420030,,,,0,22.088289868281123,1,6.0,34.766998291015625,0.0,0.0,0.0,66.7128,C,25719044000000,
Raw,1732146835000,18588000000,,664814.4022022062,-1416182034412000000,0.0,97.02539765824456,2103.186095577518,0.0,0,21,0.0,16431,345252920094372,797,17.510000228881836,654.2100880875538,0.14999,16,0.0,0.0,1575420030,,,,0,0.0,1,6.0,17.510000228881836,0.0,0.0,0.0,66.7128,C,25719044000000,
Status,1732146835000,29,0,1,14,1575420030,37.00,332.0,74.0,1,0,0,32.0
Status,1732146835000,29,1,1,30,1575420030,40.10,82.0,68.0,1,0,0,35.1
Status,1732146835000,29,2,1,22,1575420030,34.90,277.0,62.0,1,0,0,29.900002
Status,1732146835000,29,3,1,13,1575420030,47.50,299.0,50.0,1,0,0,42.5
Status,1732146835000,29,4,1,17,1575420030,44.80,175.0,48.0,1,0,0,39.8
Status,1732146835000,29,5,1,7,1575420030,37.60,106.0,35.0,1,0,0,32.6
Status,1732146835000,29,6,2,131,1575420030,43.00,3.0,23.0,0,0,0,38.0
Status,1732146835000,29,7,1,19,1575420030,44.10,193.0,21.0,1,0,0,39.1
Status,1732146835000,29,8,1,15,1575420030,43.70,313.0,19.0,1,0,0,38.7
Status,1732146835000,29,9,1,2,1575420030,29.70,84.0,17.0,1,0,0,24.7
Status,1732146835000,29,10,1,21,1575420030,22.50,65.0,14.0,1,0,0,17.5
Status,1732146835000,29,11,1,8,1575420030,0.00,39.0,6.0,0,0,0,0.0
Status,1732146835000,29,12,1,5,1575420030,0.00,260.0,5.0,0,0,0,0.0
Status,1732146835000,29,13,3,9,1602000000,33.90,23.0,53.0,1,0,0,28.900002
Status,1732146835000,29,14,3,8,1602000000,35.50,298.0,40.0,1,0,0,30.5
Status,1732146835000,29,15,3,20,1602000000,25.00,148.0,13.0,1,0,0,20.0
Status,1732146835000,29,16,3,16,1602000000,22.70,70.0,12.0,1,0,0,17.7
Status,1732146835000,29,17,3,11,1602000000,0.00,274.0,3.0,0,0,0,0.0
Status,1732146835000,29,18,3,17,1602000000,33.80,0.0,0.0,0,0,0,28.8
Status,1732146835000,29,19,6,21,1575420030,37.10,273.0,58.0,1,0,0,32.1
Status,1732146835000,29,20,6,29,1575420030,42.60,202.0,58.0,1,0,0,37.6
Status,1732146835000,29,21,6,27,1575420030,0.00,38.0,57.0,0,0,0,0.0
Status,1732146835000,29,22,6,19,1575420030,36.50,294.0,52.0,1,0,0,31.5
Status,1732146835000,29,23,6,7,1575420030,0.00,161.0,14.0,0,0,0,0.0
Status,1732146835000,29,24,6,15,1575420030,0.00,93.0,12.0,0,0,0,0.0
Status,1732146835000,29,25,6,30,1575420030,0.00,60.0,9.0,0,0,0,0.0
Status,1732146835000,29,26,6,34,1575420030,0.00,45.0,6.0,0,0,0,0.0
Status,1732146835000,29,27,6,13,1575420030,0.00,141.0,3.0,0,0,0,0.0
Status,1732146835000,29,28,6,4,1575420030,0.00,325.0,2.0,0,0,0,0.0
Fix,GPS,37.4243833333,-122.1712683333,13.000000000000004,0.157505,1.7,253.08,1732146836000,0.9,179.9,25720044000000,38.0,0,,,
Raw,1732146836000,19588000000,,102.13762777387528,-1416182034412000000,0.0,102.13762777387528,2104.139875299386,0.0,0,2,0.0,16431,345253920157968,316,24.731000900268555,444.90261157878297,0.14999,16,0.0,0.0,1575420030,,,,0,9.636306891550918,1,6.0,24.731000900268555,0.0,0.0,0.0,66.7128,C,25720044000000,
Raw,1732146836000,19588000000,,102.13762777387528,-1416182034412000000,0.0,102.13762777387528,2104.139875299386,0.0,0,15,0.0,16431,345253922602831,42,38.749000549316406,183.0152650227409,0.14999,17,3651.573211251803,0.00022499999613501132,1575420030,,,,0,26.459957112052898,1,6.0,38.749000549316406,0.0,0.0,0.0,66.7128,C,25720044000000,
Raw,1732146836000,19588000000,,102.13762777387528,-1416182034412000000,0.0,102.13762777387528,2104.139875299386,0.0,0,14,0.0,16431,345253932555262,74,31.957000732421875,641.7499873183036,0.14999,16,0.0,0.0,1575420030,,,,0,18.870142172690336,1,6.0,31.957000732421875,0.0,0.0,0.0,66.7128,C,25720044000000,
Raw,1732146836000,19588000000,,102.13762777387528,-1416182034412000000,0.0,102.13762777387528,2104.139875299386,0.0,0,13,0.0,16431,345253930074285,31,42.49800109863281,371.5209856732432,0.14999,17,7259.3614766672745,0.00022499999613501132,1575420030,,,,0,30.439320092642646,1,6.0,42.49800109863281,0.0,0.0,0.0,66.7128,C,25720044000000,
Raw,1732146836000,19588000000,,102.13762777387528,-1416182034412000000,0.0,102.13762777387528,2104.139875299386,0.0,0,21,0.0,16431,345253919693012,58,32.13999938964844,470.1163838493177,0.14999,16,0.0,0.0,1575420030,,,,0,20.206833839301723,6,6.0,32.13999938964844,0.0,0.0,5.101263687148105,66.7128,C,25720044000000,
Raw,1732146836000,19588000000,,102.13762777387528,-1416182034412000000,0.0,102.13762777387528,2104.139875299386,0.0,0,19,0.0,16431,345253920090819,58,31.5,472.4172369121446,0.14999,16,0.0,0.0,1575420030,,,,0,18.61512526058748,6,6.0,31.5,0.0,0.0,5.101263687148105,66.7128,C,25720044000000,
Raw,1732146836000,19588000000,,102.13762777387528,-1416182034412000000,0.0,102.13762777387528,2104.139875299386,0.0,0,29,0.0,16431,345253920282903,42,37.599998474121094,946.8280044638834,0.14999,16,0.0,0.0,1575420030,,,,0,25.244689128340234,6,6.0,37.599998474121094,0.0,0.0,5.101263687148105,66.7128,C,25720044000000,
Raw,1732146836000,19588000000,,102.13762777387528,-1416182034412000000,0.0,102.13762777387528,2104.139875299386,0.0,0,9,0.0,17,245198,316,5.0,776.6662590209932,0.14999,16,0.0,0.0,1600875010,,,,0,15.700083567100322,3,6.0,26.0,0.0,0.0,40.11396933213556,66.7128,C,25720044000000,
Raw,1732146836000,19588000000,,102.13762777387528,-1416182034412000000,0.0,102.13762777387528,2104.139875299386,0.0,0,8,0.0,17,242980,74,5.0,504.12179400928096,0.14999,16,0.0,0.0,1605374980,,,,0,17.582364481239967,3,6.0,31.0,0.0,0.0,40.11396933213556,66.7128,C,25720044000000,
Raw,1732146836000,19588000000,,102.13762777387528,-1416182034412000000,0.0,102.13762777387528,2104.139875299386,0.0,0,20,0.0,17,744687,797,5.0,-150.45213070696394,0.14999,16,0.0,0.0,1603124990,,,,0,2.156045159003887,3,6.0,16.0,0.0,0.0,40.11396933213556,66.7128,C,25720044000000,
Raw,1732146836000,19588000000,,102.13762777387528,-1416182034412000000,0.0,102.13762777387528,2104.139875299386,0.0,0,16,0.0,17,347620,487,5.0,1119.1523614989762,0.14999,16,0.0,0.0,1601437440,,,,0,2.14076318516855,3,6.0,20.0,0.0,0.0,40.11396933213556,66.7128,C,25720044000000,
Raw,1732146836000,19588000000,,102.13762777387528,-1416182034412000000,0.0,102.13762777387528,2104.139875299386,0.0,0,22,0.0,16431,345253930532869,74,29.851999282836914,495.2190275882768,0.14999,16,0.0,0.0,1575420030,,,,0,16.355646369014348,1,6.0,29.851999282836914,0.0,0.0,0.0,66.7128,C,25720044000000,
Raw,1732146836000,19588000000,,102.13762777387528,-1416182034412000000,0.0,102.13762777387528,2104.139875299386,0.0,0,19,0.0,16431,345253921242083,42,39.138999938964844,-59.602710075321056,0.14999,16,0.0,0.0,1575420030,,,,0,26.875935551678268,1,6.0,39.138999938964844,0.0,0.0,0.0,66.7128,C,25720044000000,
Raw,1732146836000,19588000000,,102.13762777387528,-1416182034412000000,0.0,102.13762777387528,2104.139875299386,0.0,0,17,0.0,16431,345253929573283,42,39.750999450683594,178.40124741679128,0.14999,16,0.0,0.0,1575420030,,,,0,27.53167220356196,1,6.0,39.750999450683594,0.0,0.0,0.0,66.7128,C,25720044000000,
Raw,1732146836000,19588000000,,102.13762777387528,-1416182034412000000,0.0,102.13762777387528,2104.139875299386,0.0,0,7,0.0,16431,345253925953602,74,32.553001403808594,1006.6165482040466,0.14999,16,0.0,0.0,1575420030,,,,0,19.564175994382595,1,6.0,32.553001403808594,0.0,0.0,0.0,66.7128,C,25720044000000,
Raw,1732146836000,19588000000,,102.13762777387528,-1416182034412000000,0.0,102.13762777387528,2104.139875299386,0.0,0,30,0.0,16431,345253931527238,58,35.124000549316406,746.6854261793817,0.14999,17,14426.268536536085,0.00039999998989515007,1575420030,,,,0,22.490878763170375,1,6.0,35.124000549316406,0.0,0.0,0.0,66.7128,C,25720044000000,
Raw,1732146836000,19588000000,,102.13762777387528,-1416182034412000000,0.0,102.13762777387528,2104.139875299386,0.0,0,21,0.0,16431,345253920092186,797,17.510000228881836,655.9509778597951,0.14999,16,0.0,0.0,1575420030,,,,0,0.0,1,6.0,17.510000228881836,0.0,0.0,0.0,66.7128,C,25720044000000,
Fix,FLP,37.4243835000,-122.1712663000,-1.1737489904113119,0.2683883,1.783,263.02026,1732146836196,0.9,179.9,25720044000000,0.98357517,0,,,
Status,1732146836000,29,0,1,14,1575420030,42.30,332.0,74.0,1,0,0,37.3
Status,1732146836000,29,1,1,30,1575420030,49.80,82.0,68.0,1,0,0,44.8
Status,1732146836000,29,2,1,22,1575420030,44.20,277.0,62.0,1,0,0,39.2
Status,1732146836000,29,3,1,13,1575420030,45.30,299.0,50.0,1,0,0,40.3
Status,1732146836000,29,4,1,17,1575420030,39.20,175.0,48.0,1,0,0,34.2
Status,1732146836000,29,5,1,7,1575420030,41.40,106.0,35.0,1,0,0,36.4
Status,1732146836000,29,6,2,131,1575420030,36.00,3.0,23.0,0,0,0,31.0
Status,1732146836000,29,7,1,19,1575420030,40.10,193.0,21.0,1,0,0,35.1
Status,1732146836000,29,8,1,15,1575420030,43.70,313.0,19.0,1,0,0,38.7
Status,1732146836000,29,9,1,2,1575420030,29.70,84.0,17.0,1,0,0,24.7
Status,1732146836000,29,10,1,21,1575420030,22.50,65.0,14.0,1,0,0,17.5
Status,1732146836000,29,11,1,8,1575420030,0.00,39.0,6.0,0,0,0,0.0
Status,1732146836000,29,12,1,5,1575420030,0.00,260.0,5.0,0,0,0,0.0
Status,1732146836000,29,13,3,9,1602000000,26.90,23.0,53.0,1,0,0,21.9
Status,1732146836000,29,14,3,8,1602000000,35.60,298.0,40.0,1,0,0,30.599998
Status,1732146836000,29,15,3,20,1602000000,25.00,148.0,13.0,1,0,0,20.0
Status,1732146836000,29,16,3,16,1602000000,22.70,70.0,12.0,1,0,0,17.7
Status,1732146836000,29,17,3,11,1602000000,0.00,274.0,3.0,0,0,0,0.0
Status,1732146836000,29,18,3,17,1602000000,30.60,0.0,0.0,0,0,0,25.6
Status,1732146836000,29,19,6,21,1575420030,37.20,273.0,58.0,1,0,0,32.2
Status,1732146836000,29,20,6,29,1575420030,43.30,202.0,58.0,1,0,0,38.3
Status,1732146836000,29,21,6,27,1575420030,32.50,38.0,57.0,1,0,0,27.5
Status,1732146836000,29,22,6,19,1575420030,30.20,294.0,52.0,1,0,0,25.2
Status,1732146836000,29,23,6,7,1575420030,0.00,161.0,14.0,0,0,0,0.0
Status,1732146836000,29,24,6,15,1575420030,0.00,93.0,12.0,0,0,0,0.0
Status,1732146836000,29,25,6,30,1575420030,0.00,60.0,9.0,0,0,0,0.0
Status,1732146836000,29,26,6,34,1575420030,0.00,45.0,6.0,0,0,0,0.0
Status,1732146836000,29,27,6,13,1575420030,0.00,141.0,3.0,0,0,0,0.0
Status,1732146836000,29,28,6,4,1575420030,0.00,325.0,2.0,0,0,0,0.0
Fix,GPS,37.4243800000,-122.1712700000,13.000000000000004,0.676345,1.7,166.3,1732146837000,0.7,135.1,25721044000000,36.1,0,,,
Fix,FLP,37.4243811000,-122.1712694000,-1.5063714619155908,0.27148655,1.75,246.33826,1732146837196,0.7,135.1,25721044000000,0.994424,0,,,
Raw,1732146837000,20588000000,,96.93936758135419,-1416182034412000000,0.0,96.93936758135419,2103.8885977298232,0.0,0,2,0.0,16431,345254920156484,487,24.731000900268555,446.6243140251293,0.14999,16,0.0,0.0,1575420030,,,,0,9.636306891550918,1,6.0,24.731000900268555,0.0,0.0,0.0,66.7128,C,25721044000000,
Raw,1732146837000,20588000000,,96.93936758135419,-1416182034412000000,0.0,96.93936758135419,2103.8885977298232,0.0,0,15,0.0,16431,345254922602220,42,38.6870002746582,183.40881426646035,0.14999,17,3834.9046199895547,0.00022499999613501132,1575420030,,,,0,26.3941546031119,1,6.0,38.6870002746582,0.0,0.0,0.0,66.7128,C,25721044000000,
Raw,1732146837000,20588000000,,96.93936758135419,-1416182034412000000,0.0,96.93936758135419,2103.8885977298232,0.0,0,14,0.0,16431,345254932553125,51,37.28300094604492,642.0336624076851,0.14999,16,0.0,0.0,1575420030,,,,0,24.87502101445997,1,6.0,37.28300094604492,0.0,0.0,0.0,66.7128,C,25721044000000,
Raw,1732146837000,20588000000,,96.93936758135419,-1416182034412000000,0.0,96.93936758135419,2103.8885977298232,0.0,0,13,0.0,16431,345254930073048,42,40.30799865722656,371.7874014610025,0.14999,17,7630.860673343314,0.00022499999613501132,1575420030,,,,0,28.125140281414186,1,6.0,40.30799865722656,0.0,0.0,0.0,66.7128,C,25721044000000,
Raw,1732146837000,20588000000,,96.93936758135419,-1416182034412000000,0.0,96.93936758135419,2103.8885977298232,0.0,0,21,0.0,16431,345254919691444,58,32.16299819946289,470.10699924924313,0.14999,16,0.0,0.0,1575420030,,,,0,19.80725378988488,6,6.0,32.16299819946289,0.0,0.0,5.306930975903256,66.7128,C,25721044000000,
Raw,1732146837000,20588000000,,96.93936758135419,-1416182034412000000,0.0,96.93936758135419,2103.8885977298232,0.0,0,19,0.0,16431,345254920089239,316,25.200000762939453,472.6931999044352,0.14999,16,0.0,0.0,1575420030,,,,0,11.362757967116746,6,6.0,25.200000762939453,0.0,0.0,5.306930975903256,66.7128,C,25721044000000,
Raw,1732146837000,20588000000,,96.93936758135419,-1416182034412000000,0.0,96.93936758135419,2103.8885977298232,0.0,0,29,0.0,16431,345254920279745,42,38.29999923706055,946.6080703215426,0.14999,16,0.0,0.0,1575420030,,,,0,25.88407324984107,6,6.0,38.29999923706055,0.0,0.0,5.306930975903256,66.7128,C,25721044000000,
Raw,1732146837000,20588000000,,96.93936758135419,-1416182034412000000,0.0,96.93936758135419,2103.8885977298232,0.0,0,27,0.0,16431,345254919460077,74,27.5,887.4257159960946,0.14999,16,0.0,0.0,1575420030,,,,0,14.064181946285021,6,6.0,27.5,0.0,0.0,5.306930975903256,66.7128,C,25721044000000,
Raw,1732146837000,20588000000,,96.93936758135419,-1416182034412000000,0.0,96.93936758135419,2103.8885977298232,0.0,0,9,0.0,17,242602,396,5.0,776.3320480444551,0.14999,16,0.0,0.0,1600875010,,,,0,7.0007639614199775,3,6.0,22.0,0.0,0.0,40.0032339182415,66.7128,C,25721044000000,
Raw,1732146837000,20588000000,,96.93936758135419,-1416182034412000000,0.0,96.93936758135419,2103.8885977298232,0.0,0,8,0.0,17,241300,58,5.0,503.5120071656225,0.14999,16,0.0,0.0,1605374980,,,,0,20.02998111224407,3,6.0,33.0,0.0,0.0,40.0032339182415,66.7128,C,25721044000000,
Raw,1732146837000,20588000000,,96.93936758135419,-1416182034412000000,0.0,96.93936758135419,2103.8885977298232,0.0,0,20,0.0,17,745186,487,5.0,-149.27029171333152,0.14999,16,0.0,0.0,1603124990,,,,0,2.156045159003887,3,6.0,19.0,0.0,0.0,40.0032339182415,66.7128,C,25721044000000,
Raw,1732146837000,20588000000,,96.93936758135419,-1416182034412000000,0.0,96.93936758135419,2103.8885977298232,0.0,0,16,0.0,17,343871,487,5.0,1120.0200907497328,0.14999,16,0.0,0.0,1601437440,,,,0,2.84732243200341,3,6.0,19.0,0.0,0.0,40.0032339182415,66.7128,C,25721044000000,
Raw,1732146837000,20588000000,,96.93936758135419,-1416182034412000000,0.0,96.93936758135419,2103.8885977298232,0.0,0,22,0.0,16431,345254930531160,42,39.2239990234375,495.3788909984572,0.14999,16,0.0,0.0,1575420030,,,,0,26.96916603141834,1,6.0,39.2239990234375,0.0,0.0,0.0,66.7128,C,25721044000000,
Raw,1732146837000,20588000000,,96.93936758135419,-1416182034412000000,0.0,96.93936758135419,2103.8885977298232,0.0,0,19,0.0,16431,345254921242290,58,35.14099884033203,-59.417015785727536,0.14999,16,0.0,0.0,1575420030,,,,0,22.51155946255461,1,6.0,35.14099884033203,0.0,0.0,0.0,66.7128,C,25721044000000,
Raw,1732146837000,20588000000,,96.93936758135419,-1416182034412000000,0.0,96.93936758135419,2103.8885977298232,0.0,0,17,0.0,16431,345254929572679,58,34.24300003051758,178.72032381932524,0.14999,16,0.0,0.0,1575420030,,,,0,21.505275900585698,1,6.0,34.24300003051758,0.0,0.0,0.0,66.7128,C,25721044000000,
Raw,1732146837000,20588000000,,96.93936758135419,-1416182034412000000,0.0,96.93936758135419,2103.8885977298232,0.0,0,7,0.0,16431,345254925950244,51,36.35599899291992,1006.4321082916907,0.14999,16,0.0,0.0,1575420030,,,,0,23.857869302335363,1,6.0,36.35599899291992,0.0,0.0,0.0,66.7128,C,25721044000000,
Raw,1732146837000,20588000000,,96.93936758135419,-1416182034412000000,0.0,96.93936758135419,2103.8885977298232,0.0,0,30,0.0,16431,345254931524749,28,44.76300048828125,746.6219175244219,0.14999,17,15172.786729839014,0.00022499999613501132,1575420030,,,,0,32.79913434346574,1,6.0,44.76300048828125,0.0,0.0,0.0,66.7128,C,25721044000000,
Raw,1732146837000,20588000000,,96.93936758135419,-1416182034412000000,0.0,96.93936758135419,2103.8885977298232,0.0,0,21,0.0,16431,345254920090012,797,17.538000106811523,656.1834093160965,0.14999,16,0.0,0.0,1575420030,,,,0,0.0,1,6.0,17.538000106811523,0.0,0.0,0.0,66.7128,C,25721044000000,
Status,1732146837000,29,0,1,14,1575420030,46.40,332.0,74.0,1,0,0,41.4
Status,1732146837000,29,1,1,30,1575420030,49.80,82.0,68.0,1,0,0,44.8
Status,1732146837000,29,2,1,22,1575420030,43.00,277.0,62.0,1,0,0,38.0
Status,1732146837000,29,3,1,13,1575420030,38.10,299.0,50.0,1,0,0,33.1
Status,1732146837000,29,4,1,17,1575420030,40.60,175.0,48.0,1,0,0,35.6
Status,1732146837000,29,5,1,7,1575420030,37.90,106.0,35.0,1,0,0,32.9
Status,1732146837000,29,6,2,131,1575420030,42.00,3.0,23.0,0,0,0,37.0
Status,1732146837000,29,7,1,19,1575420030,38.40,193.0,21.0,1,0,0,33.4
Status,1732146837000,29,8,1,15,1575420030,35.30,313.0,19.0,1,0,0,30.3
Status,1732146837000,29,9,1,2,1575420030,26.10,84.0,17.0,0,0,0,21.1
Status,1732146837000,29,10,1,21,1575420030,22.60,65.0,14.0,1,0,0,17.6
Status,1732146837000,29,11,1,8,1575420030,0.00,39.0,6.0,0,0,0,0.0
Status,1732146837000,29,12,1,5,1575420030,0.00,260.0,5.0,0,0,0,0.0
Status,1732146837000,29,13,3,9,1602000000,32.70,23.0,53.0,1,0,0,27.7
Status,1732146837000,29,14,3,8,1602000000,36.60,298.0,40.0,1,0,0,31.599998
Status,1732146837000,29,15,3,20,1602000000,24.90,148.0,13.0,1,0,0,19.9
Status,1732146837000,29,16,3,16,1602000000,22.70,70.0,12.0,1,0,0,17.7
Status,1732146837000,29,17,3,11,1602000000,0.00,274.0,3.0,0,0,0,0.0
Status,1732146837000,29,18,3,17,1602000000,35.50,0.0,0.0,0,0,0,30.5
Status,1732146837000,29,19,6,21,1575420030,37.30,273.0,58.0,1,0,0,32.3
Status,1732146837000,29,20,6,29,1575420030,36.00,202.0,58.0,1,0,0,31.0
Status,1732146837000,29,21,6,27,1575420030,34.80,38.0,57.0,1,0,0,29.8
Status,1732146837000,29,22,6,19,1575420030,28.80,294.0,52.0,1,0,0,23.8
Status,1732146837000,29,23,6,7,1575420030,0.00,161.0,14.0,0,0,0,0.0
Status,1732146837000,29,24,6,15,1575420030,0.00,93.0,12.0,0,0,0,0.0
Status,1732146837000,29,25,6,30,1575420030,0.00,60.0,9.0,0,0,0,0.0
Status,1732146837000,29,26,6,34,1575420030,0.00,45.0,6.0,0,0,0,0.0
Status,1732146837000,29,27,6,13,1575420030,0.00,141.0,3.0,0,0,0,0.0
Status,1732146837000,29,28,6,4,1575420030,0.00,325.0,2.0,0,0,0,0.0
Fix,GPS,37.4243783333,-122.1712666667,12.900000000000002,0.62899053,1.7,144.89,1732146838000,0.8,129.0,25722044000000,36.1,0,,,
Fix,FLP,37.4243790000,-122.1712691000,-1.1714769913254175,0.24493666,1.733,235.83325,1732146838196,0.8,129.0,25722044000000,1.0020709,0,,,
Raw,1732146838000,21588000000,,97.08547619811111,-1416182034412000000,0.0,97.08547619811111,2104.036286495185,0.0,0,2,0.0,17,154995,487,21.052000045776367,447.82935242479823,0.14999,16,0.0,0.0,1575420030,,,,0,4.015639546596368,1,6.0,21.052000045776367,0.0,0.0,0.0,66.7128,C,25722044000000,
Raw,1732146838000,21588000000,,97.08547619811111,-1416182034412000000,0.0,97.08547619811111,2104.036286495185,0.0,0,15,0.0,16431,345255922601608,74,30.298999786376953,183.61560067701348,0.14999,16,0.0,0.0,1575420030,,,,0,16.90441133595314,1,6.0,30.298999786376953,0.0,0.0,0.0,66.7128,C,25722044000000,
Raw,1732146838000,21588000000,,97.08547619811111,-1416182034412000000,0.0,97.08547619811111,2104.036286495185,0.0,0,14,0.0,16431,345255932550984,31,41.44499969482422,641.9703860448064,0.14999,17,13810.341876234555,0.00022499999613501132,1575420030,,,,0,29.330857880948578,1,6.0,41.44499969482422,0.0,0.0,0.0,66.7128,C,25722044000000,
Raw,1732146838000,21588000000,,97.08547619811111,-1416182034412000000,0.0,97.08547619811111,2104.036286495185,0.0,0,13,0.0,16431,345255930071810,58,33.111000061035156,371.13280237659603,0.14999,16,0.0,0.0,1575420030,,,,0,20.22028990649805,1,6.0,33.111000061035156,0.0,0.0,0.0,66.7128,C,25722044000000,
Raw,1732146838000,21588000000,,97.08547619811111,-1416182034412000000,0.0,97.08547619811111,2104.036286495185,0.0,0,21,0.0,16431,345255919689870,58,32.29999923706055,470.4811288749866,0.14999,16,0.0,0.0,1575420030,,,,0,19.535126169183748,6,6.0,32.29999923706055,0.0,0.0,5.37363055232084,66.7128,C,25722044000000,
Raw,1732146838000,21588000000,,97.08547619811111,-1416182034412000000,0.0,97.08547619811111,2104.036286495185,0.0,0,19,0.0,16431,345255920087661,316,23.799999237060547,473.2861951289465,0.14999,16,0.0,0.0,1575420030,,,,0,9.54487563006125,6,6.0,23.799999237060547,0.0,0.0,5.37363055232084,66.7128,C,25722044000000,
