# 
# Header Description:
# 
# Version: v3.1.0.3 Platform: 13 Manufacturer: samsung Model: SM-S135DL GNSS Hardware Model Name: MediaTek,MT6631,MTK_MNLD_default,MNL_VER_default
# 
# Raw,utcTimeMillis,TimeNanos,LeapSecond,TimeUncertaintyNanos,FullBiasNanos,BiasNanos,BiasUncertaintyNanos,DriftNanosPerSecond,DriftUncertaintyNanosPerSecond,HardwareClockDiscontinuityCount,Svid,TimeOffsetNanos,State,ReceivedSvTimeNanos,ReceivedSvTimeUncertaintyNanos,Cn0DbHz,PseudorangeRateMetersPerSecond,PseudorangeRateUncertaintyMetersPerSecond,AccumulatedDeltaRangeState,AccumulatedDeltaRangeMeters,AccumulatedDeltaRangeUncertaintyMeters,CarrierFrequencyHz,CarrierCycles,CarrierPhase,CarrierPhaseUncertainty,MultipathIndicator,SnrInDb,ConstellationType,AgcDb,BasebandCn0DbHz,FullInterSignalBiasNanos,FullInterSignalBiasUncertaintyNanos,SatelliteInterSignalBiasNanos,SatelliteInterSignalBiasUncertaintyNanos,CodeType,ChipsetElapsedRealtimeNanos,IsFullTracking
# 
# UncalAccel,utcTimeMillis,elapsedRealtimeNanos,UncalAccelXMps2,UncalAccelYMps2,UncalAccelZMps2,BiasXMps2,BiasYMps2,BiasZMps2
# 
# Accel,utcTimeMillis,elapsedRealtimeNanos,AccelXMps2,AccelYMps2,AccelZMps2
# 
# UncalGyro,utcTimeMillis,elapsedRealtimeNanos,UncalGyroXRadPerSec,UncalGyroYRadPerSec,UncalGyroZRadPerSec,DriftXRadPerSec,DriftYRadPerSec,DriftZRadPerSec
# 
# Gyro,utcTimeMillis,elapsedRealtimeNanos,GyroXRadPerSec,GyroYRadPerSec,GyroZRadPerSec
# 
# UncalMag,utcTimeMillis,elapsedRealtimeNanos,UncalMagXMicroT,UncalMagYMicroT,UncalMagZMicroT,BiasXMicroT,BiasYMicroT,BiasZMicroT
# 
# Mag,utcTimeMillis,elapsedRealtimeNanos,MagXMicroT,MagYMicroT,MagZMicroT
# 
# Pressure,utcTimeMillis,elapsedRealtimeNanos,PressureHpa
# 
# OrientationDeg,utcTimeMillis,elapsedRealtimeNanos,yawDeg,rollDeg,pitchDeg
# 
# Fix,Provider,LatitudeDegrees,LongitudeDegrees,AltitudeMeters,SpeedMps,AccuracyMeters,BearingDegrees,UnixTimeMillis,SpeedAccuracyMps,BearingAccuracyDegrees,elapsedRealtimeNanos,VerticalAccuracyMeters,MockLocation,NumberOfUsedSignals,VerticalSpeedAccuracyMps,SolutionType
# 
# Nav,Svid,Type,Status,MessageId,Sub-messageId,Data(Bytes)
# 
# Status,UnixTimeMillis,SignalCount,SignalIndex,ConstellationType,Svid,CarrierFrequencyHz,Cn0DbHz,AzimuthDegrees,ElevationDegrees,UsedInFix,HasAlmanacData,HasEphemerisData,BasebandCn0DbHz
# 
# Agc,utcTimeMillis,TimeNanos,LeapSecond,TimeUncertaintyNanos,FullBiasNanos,BiasNanos,BiasUncertaintyNanos,DriftNanosPerSecond,DriftUncertaintyNanosPerSecond,HardwareClockDiscontinuityCount,AgcDb,CarrierFrequencyHz,ConstellationType
# 
Fix,FLP,37.4244061000,-122.1712340000,-0.7183600764805229,0.2572309,1.75,330.11453,1732146868198,0.9,78.5,25752045000000,0.9103628,0,,,
Status,,29,0,1,14,1575420030,38.70,333.0,73.0,1,0,0,33.7
Status,,29,1,1,30,1575420030,41.70,83.0,68.0,1,0,0,36.7
Status,,29,2,1,22,1575420030,41.00,277.0,62.0,1,0,0,36.0
Status,,29,3,1,13,1575420030,43.10,299.0,50.0,1,0,0,38.1
Status,,29,4,1,17,1575420030,35.30,175.0,49.0,1,0,0,30.3
Status,,29,5,1,7,1575420030,43.20,106.0,35.0,1,0,0,38.2
Status,,29,6,2,131,1575420030,38.00,3.0,23.0,0,0,0,33.0
Status,,29,7,1,19,1575420030,36.00,193.0,21.0,1,0,0,31.0
Status,,29,8,1,15,1575420030,37.30,313.0,19.0,1,0,0,32.3
Status,,29,9,1,2,1575420030,0.00,84.0,18.0,0,0,0,0.0
Status,,29,10,1,21,1575420030,0.00,65.0,14.0,0,0,0,0.0
Status,,29,11,1,8,1575420030,0.00,39.0,6.0,0,0,0,0.0
Status,,29,12,1,5,1575420030,0.00,260.0,5.0,0,0,0,0.0
Status,,29,13,3,9,1602000000,35.70,23.0,52.0,1,0,0,30.7
Status,,29,14,3,8,1602000000,40.80,298.0,40.0,1,0,0,35.8
Status,,29,15,3,20,1602000000,24.90,148.0,14.0,1,0,0,19.9
Status,,29,16,3,16,1602000000,25.40,70.0,12.0,1,0,0,20.4
Status,,29,17,3,11,1602000000,0.00,275.0,3.0,0,0,0,0.0
Status,,29,18,3,17,1602000000,41.20,0.0,0.0,0,0,0,36.2
Status,,29,19,6,21,1575420030,39.10,273.0,58.0,1,0,0,34.1
Status,,29,20,6,29,1575420030,31.40,202.0,58.0,1,0,0,26.4
Status,,29,21,6,27,1575420030,0.00,39.0,56.0,0,0,0,0.0
Status,,29,22,6,19,1575420030,35.70,294.0,52.0,1,0,0,30.7
Status,,29,23,6,7,1575420030,27.10,161.0,14.0,1,0,0,22.1
Status,,29,24,6,15,1575420030,0.00,92.0,12.0,0,0,0,0.0
Status,,29,25,6,30,1575420030,0.00,60.0,9.0,0,0,0,0.0
Status,,29,26,6,34,1575420030,0.00,45.0,6.0,0,0,0,0.0
Status,,29,27,6,13,1575420030,0.00,141.0,3.0,0,0,0,0.0
Status,,29,28,6,4,1575420030,0.00,325.0,2.0,0,0,0,0.0
Fix,GPS,37.4243966667,-122.1712483333,10.900000000000002,0.46479416,1.8,276.89,1732146869000,0.9,79.4,25753045000000,30.4,0,,,
Raw,1732146869000,14560000000,,82.92922131979486,-1416182072440999936,0.0,82.92922131979486,2099.1478020135532,0.0,0,30,0.0,16431,345286931952165,51,36.67599868774414,747.6761054466551,0.14999,16,0.0,0.0,1575420030,,,,0,24.206820553015508,1,6.0,36.67599868774414,0.0,0.0,0.0,66.7128,C,25753045000000,
Raw,1732146869000,14560000000,,82.92922131979486,-1416182072440999936,0.0,82.92922131979486,2099.1478020135532,0.0,0,7,0.0,16431,345286926349941,51,38.154998779296875,1007.1089144990459,0.14999,17,14277.16564399507,0.00022499999613501132,1575420030,,,,0,25.820672314050938,1,6.0,38.154998779296875,0.0,0.0,0.0,66.7128,C,25753045000000,
Raw,1732146869000,14560000000,,82.92922131979486,-1416182072440999936,0.0,82.92922131979486,2099.1478020135532,0.0,0,17,0.0,16431,345286930060744,235,30.30900001525879,179.8181361943803,0.14999,16,0.0,0.0,1575420030,,,,0,16.921940887085714,1,6.0,30.30900001525879,0.0,0.0,0.0,66.7128,C,25753045000000,
Raw,1732146869000,14560000000,,82.92922131979486,-1416182072440999936,0.0,82.92922131979486,2099.1478020135532,0.0,0,22,0.0,16431,345286930985427,51,36.018001556396484,496.0721434851509,0.14999,17,7229.695805640932,0.00022499999613501132,1575420030,,,,0,23.485585721237634,1,6.0,36.018001556396484,0.0,0.0,0.0,66.7128,C,25753045000000,
Raw,1732146869000,14560000000,,82.92922131979486,-1416182072440999936,0.0,82.92922131979486,2099.1478020135532,0.0,0,21,0.0,16431,345286920148455,58,34.099998474121094,469.5234350832226,0.14999,16,0.0,0.0,1575420030,,,,0,21.497893078519397,6,6.0,34.099998474121094,0.0,0.0,-2.140995289838638,66.7128,C,25753045000000,
Raw,1732146869000,14560000000,,82.92922131979486,-1416182072440999936,0.0,82.92922131979486,2099.1478020135532,0.0,0,7,0.0,16431,345286909125889,316,22.100000381469727,1221.7409436312903,0.14999,16,0.0,0.0,1575420030,,,,0,7.278867046136735,6,6.0,22.100000381469727,0.0,0.0,-2.140995289838638,66.7128,C,25753045000000,
Raw,1732146869000,14560000000,,82.92922131979486,-1416182072440999936,0.0,82.92922131979486,2099.1478020135532,0.0,0,19,0.0,16431,345286920545938,58,30.700000762939453,473.3991819971705,0.14999,16,0.0,0.0,1575420030,,,,0,17.760704229077877,6,6.0,30.700000762939453,0.0,0.0,-2.140995289838638,66.7128,C,25753045000000,
Raw,1732146869000,14560000000,,82.92922131979486,-1416182072440999936,0.0,82.92922131979486,2099.1478020135532,0.0,0,29,0.0,16431,345286920685820,235,26.399999618530273,947.4786081244957,0.14999,16,0.0,0.0,1575420030,,,,0,12.831532114323615,6,6.0,26.399999618530273,0.0,0.0,-2.140995289838638,66.7128,C,25753045000000,
Raw,1732146869000,14560000000,,82.92922131979486,-1416182072440999936,0.0,82.92922131979486,2099.1478020135532,0.0,0,9,0.0,17,666970,74,5.0,776.1014378986741,0.14999,16,0.0,0.0,1600875010,,,,0,17.780604185089516,3,6.0,31.0,0.0,0.0,35.965642417519696,66.7128,C,25753045000000,
Raw,1732146869000,14560000000,,82.92922131979486,-1416182072440999936,0.0,82.92922131979486,2099.1478020135532,0.0,0,8,0.0,17,694518,51,5.0,507.51736070400943,0.14999,16,0.0,0.0,1605374980,,,,0,23.255655967116663,3,6.0,36.0,0.0,0.0,35.965642417519696,66.7128,C,25753045000000,
Raw,1732146869000,14560000000,,82.92922131979486,-1416182072440999936,0.0,82.92922131979486,2099.1478020135532,0.0,0,16,0.0,17,731798,487,5.0,1116.6451513842594,0.14999,16,0.0,0.0,1601437440,,,,0,4.837642195556411,3,6.0,19.0,0.0,0.0,35.965642417519696,66.7128,C,25753045000000,
Raw,1732146869000,14560000000,,82.92922131979486,-1416182072440999936,0.0,82.92922131979486,2099.1478020135532,0.0,0,20,0.0,17,268420,797,5.0,-152.2912266793622,0.14999,16,0.0,0.0,1603124990,,,,0,0.9395621528625462,3,6.0,16.0,0.0,0.0,35.965642417519696,66.7128,C,25753045000000,
Raw,1732146869000,14560000000,,82.92922131979486,-1416182072440999936,0.0,82.92922131979486,2099.1478020135532,0.0,0,13,0.0,16431,345286930540472,51,38.055999755859375,373.67647035174735,0.14999,17,8068.892798765833,0.00022499999613501132,1575420030,,,,0,25.712232832702504,1,6.0,38.055999755859375,0.0,0.0,0.0,66.7128,C,25753045000000,
Raw,1732146869000,14560000000,,82.92922131979486,-1416182072440999936,0.0,82.92922131979486,2099.1478020135532,0.0,0,14,0.0,16431,345286932991782,58,33.722999572753906,642.0078315282722,0.14999,16,0.0,0.0,1575420030,,,,0,20.91128103802651,1,6.0,33.722999572753906,0.0,0.0,0.0,66.7128,C,25753045000000,
Raw,1732146869000,14560000000,,82.92922131979486,-1416182072440999936,0.0,82.92922131979486,2099.1478020135532,0.0,0,15,0.0,16431,345286923089767,74,32.3129997253418,184.78691026651356,0.14999,16,0.0,0.0,1575420030,,,,0,19.289643410285326,1,6.0,32.3129997253418,0.0,0.0,0.0,66.7128,C,25753045000000,
Raw,1732146869000,14560000000,,82.92922131979486,-1416182072440999936,0.0,82.92922131979486,2099.1478020135532,0.0,0,19,0.0,16431,345286921755888,74,30.9689998626709,-60.635434209265114,0.14999,16,0.0,0.0,1575420030,,,,0,17.70601848933283,1,6.0,30.9689998626709,0.0,0.0,0.0,66.7128,C,25753045000000,
Fix,FLP,37.4244024000,-122.1712419000,-0.8018074786433322,0.24828525,1.75,318.7767,1732146869197,0.9,79.4,25753045000000,0.91374135,0,,,
Status,1732146869000,29,0,1,14,1575420030,46.90,333.0,73.0,1,0,0,41.9
Status,1732146869000,29,1,1,30,1575420030,47.00,83.0,68.0,1,0,0,42.0
Status,1732146869000,29,2,1,22,1575420030,46.00,277.0,62.0,1,0,0,41.0
Status,1732146869000,29,3,1,13,1575420030,47.20,299.0,50.0,1,0,0,42.2
Status,1732146869000,29,4,1,17,1575420030,37.20,175.0,49.0,1,0,0,32.2
Status,1732146869000,29,5,1,7,1575420030,34.40,106.0,35.0,1,0,0,29.400002
Status,1732146869000,29,6,2,131,1575420030,45.00,3.0,23.0,0,0,0,40.0
Status,1732146869000,29,7,1,19,1575420030,35.40,193.0,21.0,1,0,0,30.400002
Status,1732146869000,29,8,1,15,1575420030,39.30,313.0,19.0,1,0,0,34.3
Status,1732146869000,29,9,1,2,1575420030,26.60,84.0,18.0,0,0,0,21.6
Status,1732146869000,29,10,1,21,1575420030,0.00,65.0,14.0,0,0,0,0.0
Status,1732146869000,29,11,1,8,1575420030,0.00,39.0,6.0,0,0,0,0.0
Status,1732146869000,29,12,1,5,1575420030,0.00,260.0,5.0,0,0,0,0.0
Status,1732146869000,29,13,3,9,1602000000,35.90,23.0,52.0,1,0,0,30.900002
Status,1732146869000,29,14,3,8,1602000000,40.70,298.0,40.0,1,0,0,35.7
Status,1732146869000,29,15,3,20,1602000000,24.80,148.0,14.0,1,0,0,19.8
Status,1732146869000,29,16,3,16,1602000000,22.60,70.0,12.0,1,0,0,17.6
Status,1732146869000,29,17,3,11,1602000000,0.00,275.0,3.0,0,0,0,0.0
Status,1732146869000,29,18,3,17,1602000000,45.20,0.0,0.0,0,0,0,40.2
Status,1732146869000,29,19,6,21,1575420030,39.20,273.0,58.0,1,0,0,34.2
Status,1732146869000,29,20,6,29,1575420030,37.60,202.0,58.0,1,0,0,32.6
Status,1732146869000,29,21,6,27,1575420030,0.00,39.0,56.0,0,0,0,0.0
Status,1732146869000,29,22,6,19,1575420030,33.80,294.0,52.0,1,0,0,28.8
Status,1732146869000,29,23,6,7,1575420030,29.30,161.0,14.0,1,0,0,24.3
Status,1732146869000,29,24,6,15,1575420030,0.00,92.0,12.0,0,0,0,0.0
Status,1732146869000,29,25,6,30,1575420030,0.00,60.0,9.0,0,0,0,0.0
Status,1732146869000,29,26,6,34,1575420030,0.00,45.0,6.0,0,0,0,0.0
Status,1732146869000,29,27,6,13,1575420030,0.00,141.0,3.0,0,0,0,0.0
Status,1732146869000,29,28,6,4,1575420030,0.00,325.0,2.0,0,0,0,0.0
Fix,GPS,37.4243933333,-122.1712566667,10.8,0.49001557,1.8,264.63,1732146870000,0.9,74.0,25754045000000,30.1,0,,,
Fix,FLP,37.4243986000,-122.1712503000,-0.8852540570587166,0.24436642,1.75,305.39487,1732146870197,0.9,74.0,25754045000000,0.9201028,0,,,
Raw,1732146870000,15560000000,,82.44322327856568,-1416182072440999936,0.0,82.44322327856568,2099.521495120523,0.0,0,30,0.0,16431,345287931949673,31,41.957000732421875,747.8158523626165,0.14999,17,11602.582044834548,0.00022499999613501132,1575420030,,,,0,29.869780589944558,1,6.0,41.957000732421875,0.0,0.0,0.0,66.7128,C,25754045000000,
Raw,1732146870000,15560000000,,82.44322327856568,-1416182072440999936,0.0,82.44322327856568,2099.521495120523,0.0,0,7,0.0,16431,345287926346577,235,29.35700035095215,1007.0192497557596,0.14999,16,0.0,0.0,1575420030,,,,0,15.744930496196945,1,6.0,29.35700035095215,0.0,0.0,0.0,66.7128,C,25754045000000,
Raw,1732146870000,15560000000,,82.44322327856568,-1416182072440999936,0.0,82.44322327856568,2099.521495120523,0.0,0,17,0.0,16431,345287930060141,74,32.191001892089844,179.89019319792283,0.14999,16,0.0,0.0,1575420030,,,,0,19.151403521958727,1,6.0,32.191001892089844,0.0,0.0,0.0,66.7128,C,25754045000000,
Raw,1732146870000,15560000000,,82.44322327856568,-1416182072440999936,0.0,82.44322327856568,2099.521495120523,0.0,0,22,0.0,16431,345287930983772,42,41.01900100708008,496.0351161274311,0.14999,16,0.0,0.0,1575420030,,,,0,28.882715234986478,1,6.0,41.01900100708008,0.0,0.0,0.0,66.7128,C,25754045000000,
Raw,1732146870000,15560000000,,82.44322327856568,-1416182072440999936,0.0,82.44322327856568,2099.521495120523,0.0,0,13,0.0,16431,345287930539230,31,42.24800109863281,373.9359870646994,0.14999,16,0.0,0.0,1575420030,,,,0,30.175357035862547,1,6.0,42.24800109863281,0.0,0.0,0.0,66.7128,C,25754045000000,
Raw,1732146870000,15560000000,,82.44322327856568,-1416182072440999936,0.0,82.44322327856568,2099.521495120523,0.0,0,21,0.0,16431,345287920146893,58,34.20000076293945,469.76046592272877,0.14999,16,0.0,0.0,1575420030,,,,0,21.556780691455025,6,6.0,34.20000076293945,0.0,0.0,-1.5945020502881662,66.7128,C,25754045000000,
Raw,1732146870000,15560000000,,82.44322327856568,-1416182072440999936,0.0,82.44322327856568,2099.521495120523,0.0,0,7,0.0,16431,345287909121813,316,24.299999237060547,1221.8758588719656,0.14999,16,0.0,0.0,1575420030,,,,0,10.192746210115121,6,6.0,24.299999237060547,0.0,0.0,-1.5945020502881662,66.7128,C,25754045000000,
Raw,1732146870000,15560000000,,82.44322327856568,-1416182072440999936,0.0,82.44322327856568,2099.521495120523,0.0,0,19,0.0,16431,345287920544360,58,28.799999237060547,473.621717810819,0.14999,16,0.0,0.0,1575420030,,,,0,15.652771651389877,6,6.0,28.799999237060547,0.0,0.0,-1.5945020502881662,66.7128,C,25754045000000,
Raw,1732146870000,15560000000,,82.44322327856568,-1416182072440999936,0.0,82.44322327856568,2099.521495120523,0.0,0,2,0.0,17,614484,396,21.621999740600586,447.3140356721909,0.14999,16,0.0,0.0,1575420030,,,,0,4.920676255647972,1,6.0,21.621999740600586,0.0,0.0,0.0,66.7128,C,25754045000000,
Raw,1732146870000,15560000000,,82.44322327856568,-1416182072440999936,0.0,82.44322327856568,2099.521495120523,0.0,0,29,0.0,16431,345287920682656,58,32.599998474121094,947.8047462062938,0.14999,16,0.0,0.0,1575420030,,,,0,19.821598780161224,6,6.0,32.599998474121094,0.0,0.0,-1.5945020502881662,66.7128,C,25754045000000,
Raw,1732146870000,15560000000,,82.44322327856568,-1416182072440999936,0.0,82.44322327856568,2099.521495120523,0.0,0,9,0.0,17,664379,74,5.0,776.1487120641654,0.14999,16,0.0,0.0,1600875010,,,,0,18.017614514410404,3,6.0,31.0,0.0,0.0,36.74147287295475,66.7128,C,25754045000000,
Raw,1732146870000,15560000000,,82.44322327856568,-1416182072440999936,0.0,82.44322327856568,2099.521495120523,0.0,0,8,0.0,17,692822,51,5.0,507.8708775029424,0.14999,16,0.0,0.0,1605374980,,,,0,23.226112096326922,3,6.0,36.0,0.0,0.0,36.74147287295475,66.7128,C,25754045000000,
Raw,1732146870000,15560000000,,82.44322327856568,-1416182072440999936,0.0,82.44322327856568,2099.521495120523,0.0,0,16,0.0,17,728052,487,5.0,1116.5120623935186,0.14999,16,0.0,0.0,1601437440,,,,0,0.17935868022608314,3,6.0,18.0,0.0,0.0,36.74147287295475,66.7128,C,25754045000000,
Raw,1732146870000,15560000000,,82.44322327856568,-1416182072440999936,0.0,82.44322327856568,2099.521495120523,0.0,0,20,0.0,17,268927,797,5.0,-151.82435325168373,0.14999,16,0.0,0.0,1603124990,,,,0,0.9395621528625462,3,6.0,15.0,0.0,0.0,36.74147287295475,66.7128,C,25754045000000,
Raw,1732146870000,15560000000,,82.44322327856568,-1416182072440999936,0.0,82.44322327856568,2099.521495120523,0.0,0,14,0.0,16431,345287932989646,31,41.88600158691406,642.0344057423446,0.14999,16,0.0,0.0,1575420030,,,,0,29.79281364179005,1,6.0,41.88600158691406,0.0,0.0,0.0,66.7128,C,25754045000000,
Raw,1732146870000,15560000000,,82.44322327856568,-1416182072440999936,0.0,82.44322327856568,2099.521495120523,0.0,0,15,0.0,16431,345287923089150,58,34.257999420166016,184.78351880213017,0.14999,16,0.0,0.0,1575420030,,,,0,21.52149605401653,1,6.0,34.257999420166016,0.0,0.0,0.0,66.7128,C,25754045000000,
Raw,1732146870000,15560000000,,82.44322327856568,-1416182072440999936,0.0,82.44322327856568,2099.521495120523,0.0,0,19,0.0,16431,345287921756084,74,30.354000091552734,-60.08940844354266,0.14999,16,0.0,0.0,1575420030,,,,0,16.96187608220722,1,6.0,30.354000091552734,0.0,0.0,0.0,66.7128,C,25754045000000,
Status,1732146870000,29,0,1,14,1575420030,39.50,333.0,73.0,1,0,0,34.5
Status,1732146870000,29,1,1,30,1575420030,46.90,83.0,68.0,1,0,0,41.9
Status,1732146870000,29,2,1,22,1575420030,36.70,277.0,62.0,1,0,0,31.7
Status,1732146870000,29,3,1,13,1575420030,35.50,299.0,50.0,1,0,0,30.5
Status,1732146870000,29,4,1,17,1575420030,38.80,175.0,49.0,1,0,0,33.8
Status,1732146870000,29,5,1,7,1575420030,38.10,106.0,35.0,1,0,0,33.1
Status,1732146870000,29,6,2,131,1575420030,39.00,3.0,23.0,0,0,0,34.0
Status,1732146870000,29,7,1,19,1575420030,37.50,193.0,21.0,1,0,0,32.5
Status,1732146870000,29,8,1,15,1575420030,40.40,313.0,19.0,1,0,0,35.4
Status,1732146870000,29,9,1,2,1575420030,24.40,84.0,18.0,1,0,0,19.4
Status,1732146870000,29,10,1,21,1575420030,0.00,65.0,14.0,0,0,0,0.0
Status,1732146870000,29,11,1,8,1575420030,0.00,39.0,6.0,0,0,0,0.0
Status,1732146870000,29,12,1,5,1575420030,0.00,260.0,5.0,0,0,0,0.0
Status,1732146870000,29,13,3,9,1602000000,35.80,23.0,52.0,1,0,0,30.8
Status,1732146870000,29,14,3,8,1602000000,34.70,298.0,40.0,1,0,0,29.7
Status,1732146870000,29,15,3,20,1602000000,19.90,148.0,14.0,1,0,0,14.9
Status,1732146870000,29,16,3,16,1602000000,23.60,70.0,12.0,1,0,0,18.6
Status,1732146870000,29,17,3,11,1602000000,0.00,275.0,3.0,0,0,0,0.0
Status,1732146870000,29,18,3,17,1602000000,32.80,0.0,0.0,0,0,0,27.8
Status,1732146870000,29,19,6,21,1575420030,38.00,273.0,58.0,1,0,0,33.0
Status,1732146870000,29,20,6,29,1575420030,31.30,202.0,58.0,1,0,0,26.3
Status,1732146870000,29,21,6,27,1575420030,0.00,39.0,56.0,0,0,0,0.0
Status,1732146870000,29,22,6,19,1575420030,29.80,294.0,52.0,1,0,0,24.8
Status,1732146870000,29,23,6,7,1575420030,26.40,161.0,14.0,1,0,0,21.4
Status,1732146870000,29,24,6,15,1575420030,0.00,92.0,12.0,0,0,0,0.0
Status,1732146870000,29,25,6,30,1575420030,0.00,60.0,9.0,0,0,0,0.0
Status,1732146870000,29,26,6,34,1575420030,0.00,45.0,6.0,0,0,0,0.0
Status,1732146870000,29,27,6,13,1575420030,0.00,141.0,3.0,0,0,0,0.0
Status,1732146870000,29,28,6,4,1575420030,0.00,325.0,2.0,0,0,0,0.0
Fix,GPS,37.4243900000,-122.1712616667,10.599999999999998,0.46530887,1.8,254.91,1732146871000,0.9,80.2,25755045000000,30.3,0,,,
Raw,1732146871000,16560000000,,83.25212995183846,-1416182072440999936,0.0,83.25212995183846,2101.1160715260958,0.0,0,30,0.0,16431,345288931947177,42,41.861000061035156,747.9050525217407,0.14999,17,12350.700437307178,0.00022499999613501132,1575420030,,,,0,27.860296005081903,1,6.0,41.861000061035156,0.0,0.0,0.0,66.7128,C,25755045000000,
Raw,1732146871000,16560000000,,83.25212995183846,-1416182072440999936,0.0,83.25212995183846,2101.1160715260958,0.0,0,7,0.0,16431,345288926343217,58,33.09600067138672,1008.4581598226323,0.14999,16,0.0,0.0,1575420030,,,,0,20.200220497182602,1,6.0,33.09600067138672,0.0,0.0,0.0,66.7128,C,25755045000000,
Raw,1732146871000,16560000000,,83.25212995183846,-1416182072440999936,0.0,83.25212995183846,2101.1160715260958,0.0,0,17,0.0,16431,345288930059543,58,33.784000396728516,180.4993094928592,0.14999,16,0.0,0.0,1575420030,,,,0,20.986810989071635,1,6.0,33.784000396728516,0.0,0.0,0.0,66.7128,C,25755045000000,
Raw,1732146871000,16560000000,,83.25212995183846,-1416182072440999936,0.0,83.25212995183846,2101.1160715260958,0.0,0,22,0.0,16431,345288930982118,74,31.673999786376953,496.79796332160817,0.14999,16,0.0,0.0,1575420030,,,,0,18.542180074180983,1,6.0,31.673999786376953,0.0,0.0,0.0,66.7128,C,25755045000000,
Raw,1732146871000,16560000000,,83.25212995183846,-1416182072440999936,0.0,83.25212995183846,2101.1160715260958,0.0,0,13,0.0,16431,345288930537977,74,30.548999786376953,374.345680608052,0.14999,16,0.0,0.0,1575420030,,,,0,17.197706576798378,1,6.0,30.548999786376953,0.0,0.0,0.0,66.7128,C,25755045000000,
Raw,1732146871000,16560000000,,83.25212995183846,-1416182072440999936,0.0,83.25212995183846,2101.1160715260958,0.0,0,21,0.0,16431,345288920145329,58,33.0,470.2440980354804,0.14999,16,0.0,0.0,1575420030,,,,0,20.295745776513243,6,6.0,33.0,0.0,0.0,-1.4012042142173613,66.7128,C,25755045000000,
Raw,1732146871000,16560000000,,83.25212995183846,-1416182072440999936,0.0,83.25212995183846,2101.1160715260958,0.0,0,7,0.0,16431,345288909117738,396,21.399999618530273,1222.1655735554546,0.14999,16,0.0,0.0,1575420030,,,,0,6.248220715954636,6,6.0,21.399999618530273,0.0,0.0,-1.4012042142173613,66.7128,C,25755045000000,
Raw,1732146871000,16560000000,,83.25212995183846,-1416182072440999936,0.0,83.25212995183846,2101.1160715260958,0.0,0,19,0.0,16431,345288920542778,316,24.799999237060547,474.7592056733178,0.14999,16,0.0,0.0,1575420030,,,,0,10.820915495147606,6,6.0,24.799999237060547,0.0,0.0,-1.4012042142173613,66.7128,C,25755045000000,
Raw,1732146871000,16560000000,,83.25212995183846,-1416182072440999936,0.0,83.25212995183846,2101.1160715260958,0.0,0,2,0.0,16431,345288920613005,487,19.44099998474121,449.73911853996486,0.14999,16,0.0,0.0,1575420030,,,,0,1.1973132712170056,1,6.0,19.44099998474121,0.0,0.0,0.0,66.7128,C,25755045000000,
Raw,1732146871000,16560000000,,83.25212995183846,-1416182072440999936,0.0,83.25212995183846,2101.1160715260958,0.0,0,29,0.0,16431,345288920679491,235,26.299999237060547,948.4205060547482,0.14999,16,0.0,0.0,1575420030,,,,0,12.637063775571656,6,6.0,26.299999237060547,0.0,0.0,-1.4012042142173613,66.7128,C,25755045000000,
Raw,1732146871000,16560000000,,83.25212995183846,-1416182072440999936,0.0,83.25212995183846,2101.1160715260958,0.0,0,9,0.0,17,661784,74,5.0,776.0956772169992,0.14999,16,0.0,0.0,1600875010,,,,0,17.828526456379656,3,6.0,31.0,0.0,0.0,37.09430705149557,66.7128,C,25755045000000,
Raw,1732146871000,16560000000,,83.25212995183846,-1416182072440999936,0.0,83.25212995183846,2101.1160715260958,0.0,0,8,0.0,17,691128,316,5.0,508.8556091691987,0.14999,16,0.0,0.0,1605374980,,,,0,16.618178414470258,3,6.0,26.0,0.0,0.0,37.09430705149557,66.7128,C,25755045000000,
Raw,1732146871000,16560000000,,83.25212995183846,-1416182072440999936,0.0,83.25212995183846,2101.1160715260958,0.0,0,16,0.0,17,724299,487,5.0,1117.4300656448986,0.14999,16,0.0,0.0,1601437440,,,,0,1.8712685788157755,3,6.0,18.0,0.0,0.0,37.09430705149557,66.7128,C,25755045000000,
Raw,1732146871000,16560000000,,83.25212995183846,-1416182072440999936,0.0,83.25212995183846,2101.1160715260958,0.0,0,20,0.0,17,269463,487,5.0,-151.39747406639194,0.14999,16,0.0,0.0,1603124990,,,,0,0.0,3,6.0,18.0,0.0,0.0,37.09430705149557,66.7128,C,25755045000000,
Raw,1732146871000,16560000000,,83.25212995183846,-1416182072440999936,0.0,83.25212995183846,2101.1160715260958,0.0,0,14,0.0,16431,345288932987508,58,34.52299880981445,642.5271901630897,0.14999,16,0.0,0.0,1575420030,,,,0,21.82263705593311,1,6.0,34.52299880981445,0.0,0.0,0.0,66.7128,C,25755045000000,
Raw,1732146871000,16560000000,,83.25212995183846,-1416182072440999936,0.0,83.25212995183846,2101.1160715260958,0.0,0,15,0.0,16431,345288923088534,51,35.433998107910156,185.76467409408053,0.14999,16,0.0,0.0,1575420030,,,,0,22.84189205380961,1,6.0,35.433998107910156,0.0,0.0,0.0,66.7128,C,25755045000000,
Raw,1732146871000,16560000000,,83.25212995183846,-1416182072440999936,0.0,83.25212995183846,2101.1160715260958,0.0,0,19,0.0,16431,345288921756285,74,32.46699905395508,-59.7567661834752,0.14999,17,-5.467666055648725,0.0006249999860301614,1575420030,,,,0,19.47060598983327,1,6.0,32.46699905395508,0.0,0.0,0.0,66.7128,C,25755045000000,
Fix,FLP,37.4243948000,-122.1712572000,-0.8018074786433322,0.24738914,1.766,293.21152,1732146871197,0.9,80.2,25755045000000,0.93117183,0,,,
Status,1732146871000,29,0,1,14,1575420030,40.60,333.0,73.0,1,0,0,35.6
Status,1732146871000,29,1,1,30,1575420030,46.70,83.0,68.0,1,0,0,41.7
Status,1732146871000,29,2,1,22,1575420030,35.70,277.0,62.0,1,0,0,30.7
Status,1732146871000,29,3,1,13,1575420030,44.70,299.0,50.0,1,0,0,39.7
Status,1732146871000,29,4,1,17,1575420030,34.80,175.0,49.0,1,0,0,29.8
Status,1732146871000,29,5,1,7,1575420030,42.30,106.0,35.0,1,0,0,37.3
Status,1732146871000,29,6,2,131,1575420030,38.00,3.0,23.0,0,0,0,33.0
Status,1732146871000,29,7,1,19,1575420030,37.00,193.0,21.0,1,0,0,32.0
Status,1732146871000,29,8,1,15,1575420030,32.90,313.0,19.0,1,0,0,27.900002
Status,1732146871000,29,9,1,2,1575420030,25.50,84.0,18.0,1,0,0,20.5
Status,1732146871000,29,10,1,21,1575420030,0.00,65.0,14.0,0,0,0,0.0
Status,1732146871000,29,11,1,8,1575420030,0.00,39.0,6.0,0,0,0,0.0
Status,1732146871000,29,12,1,5,1575420030,0.00,260.0,5.0,0,0,0,0.0
Status,1732146871000,29,13,3,9,1602000000,36.70,23.0,52.0,1,0,0,31.7
Status,1732146871000,29,14,3,8,1602000000,33.00,298.0,40.0,1,0,0,28.0
Status,1732146871000,29,15,3,20,1602000000,25.00,148.0,14.0,1,0,0,20.0
Status,1732146871000,29,16,3,16,1602000000,22.70,70.0,12.0,1,0,0,17.7
Status,1732146871000,29,17,3,11,1602000000,0.00,275.0,3.0,0,0,0,0.0
Status,1732146871000,29,18,3,17,1602000000,36.40,0.0,0.0,0,0,0,31.400002
Status,1732146871000,29,19,6,21,1575420030,39.40,273.0,58.0,1,0,0,34.4
Status,1732146871000,29,20,6,29,1575420030,42.10,202.0,58.0,1,0,0,37.1
Status,1732146871000,29,21,6,27,1575420030,0.00,39.0,56.0,0,0,0,0.0
Status,1732146871000,29,22,6,19,1575420030,31.90,294.0,52.0,1,0,0,26.9
Status,1732146871000,29,23,6,7,1575420030,30.50,161.0,14.0,1,0,0,25.5
Status,1732146871000,29,24,6,15,1575420030,0.00,92.0,12.0,0,0,0,0.0
Status,1732146871000,29,25,6,30,1575420030,0.00,60.0,9.0,0,0,0,0.0
Status,1732146871000,29,26,6,34,1575420030,0.00,45.0,6.0,0,0,0,0.0
Status,1732146871000,29,27,6,13,1575420030,0.00,141.0,3.0,0,0,0,0.0
Status,1732146871000,29,28,6,4,1575420030,0.00,325.0,2.0,0,0,0,0.0
Fix,GPS,37.4243950000,-122.1712516667,10.500000000000004,0.194565,1.8,47.89,1732146872000,0.9,179.8,25756045000000,30.4,0,,,
Raw,1732146872000,17560000000,,83.16895651631206,-1416182072440999936,0.0,83.16895651631206,2099.526685852934,0.0,0,30,0.0,16431,345289931944680,42,41.74399948120117,747.9562032379885,0.14999,17,13099.38950463898,0.00022499999613501132,1575420030,,,,0,27.30918431823572,1,6.0,41.74399948120117,0.0,0.0,0.0,66.7128,C,25756045000000,
Raw,1732146872000,17560000000,,83.16895651631206,-1416182072440999936,0.0,83.16895651631206,2099.526685852934,0.0,0,7,0.0,16431,345289926339855,51,37.25899887084961,1007.1946767353705,0.14999,16,0.0,0.0,1575420030,,,,0,24.848660175901706,1,6.0,37.25899887084961,0.0,0.0,0.0,66.7128,C,25756045000000,
Raw,1732146872000,17560000000,,83.16895651631206,-1416182072440999936,0.0,83.16895651631206,2099.526685852934,0.0,0,17,0.0,16431,345289930058943,235,29.805999755859375,180.7039588162666,0.14999,16,0.0,0.0,1575420030,,,,0,16.299773599047597,1,6.0,29.805999755859375,0.0,0.0,0.0,66.7128,C,25756045000000,
Raw,1732146872000,17560000000,,83.16895651631206,-1416182072440999936,0.0,83.16895651631206,2099.526685852934,0.0,0,22,0.0,16431,345289930980462,74,30.72599983215332,496.5134055223186,0.14999,16,0.0,0.0,1575420030,,,,0,17.408400007580724,1,6.0,30.72599983215332,0.0,0.0,0.0,66.7128,C,25756045000000,
Raw,1732146872000,17560000000,,83.16895651631206,-1416182072440999936,0.0,83.16895651631206,2099.526685852934,0.0,0,13,0.0,16431,345289930536723,42,39.685001373291016,374.3415690382174,0.14999,16,0.0,0.0,1575420030,,,,0,27.465150615521434,1,6.0,39.685001373291016,0.0,0.0,0.0,66.7128,C,25756045000000,
Raw,1732146872000,17560000000,,83.16895651631206,-1416182072440999936,0.0,83.16895651631206,2099.526685852934,0.0,0,21,0.0,16431,345289920143759,51,34.400001525878906,470.92624696069976,0.14999,16,0.0,0.0,1575420030,,,,0,21.788418142451327,6,6.0,34.400001525878906,0.0,0.0,-1.1007764759750132,66.7128,C,25756045000000,
Raw,1732146872000,17560000000,,83.16895651631206,-1416182072440999936,0.0,83.16895651631206,2099.526685852934,0.0,0,7,0.0,16431,345289909113660,316,25.5,1222.413289830689,0.14999,16,0.0,0.0,1575420030,,,,0,11.703685437965738,6,6.0,25.5,0.0,0.0,-1.1007764759750132,66.7128,C,25756045000000,
Raw,1732146872000,17560000000,,83.16895651631206,-1416182072440999936,0.0,83.16895651631206,2099.526685852934,0.0,0,19,0.0,16431,345289920541193,396,26.899999618530273,474.09735907598247,0.14999,16,0.0,0.0,1575420030,,,,0,13.450006076553645,6,6.0,26.899999618530273,0.0,0.0,-1.1007764759750132,66.7128,C,25756045000000,
Raw,1732146872000,17560000000,,83.16895651631206,-1416182072440999936,0.0,83.16895651631206,2099.526685852934,0.0,0,2,0.0,16431,345289920611547,396,20.48699951171875,450.43915395542524,0.14999,16,0.0,0.0,1575420030,,,,0,3.061799739838872,1,6.0,20.48699951171875,0.0,0.0,0.0,66.7128,C,25756045000000,
Raw,1732146872000,17560000000,,83.16895651631206,-1416182072440999936,0.0,83.16895651631206,2099.526685852934,0.0,0,29,0.0,16431,345289920676326,51,37.099998474121094,948.902186914019,0.14999,16,0.0,0.0,1575420030,,,,0,24.661859650818837,6,6.0,37.099998474121094,0.0,0.0,-1.1007764759750132,66.7128,C,25756045000000,
Raw,1732146872000,17560000000,,83.16895651631206,-1416182072440999936,0.0,83.16895651631206,2099.526685852934,0.0,0,9,0.0,17,659197,74,5.0,776.4384834963539,0.14999,16,0.0,0.0,1600875010,,,,0,18.884701381587714,3,6.0,32.0,0.0,0.0,37.588197202494335,66.7128,C,25756045000000,
Raw,1732146872000,17560000000,,83.16895651631206,-1416182072440999936,0.0,83.16895651631206,2099.526685852934,0.0,0,8,0.0,17,689435,235,5.0,509.3014032445103,0.14999,16,0.0,0.0,1605374980,,,,0,14.643778515553503,3,6.0,28.0,0.0,0.0,37.588197202494335,66.7128,C,25756045000000,
Raw,1732146872000,17560000000,,83.16895651631206,-1416182072440999936,0.0,83.16895651631206,2099.526685852934,0.0,0,16,0.0,17,720560,797,5.0,1116.750086934651,0.14999,16,0.0,0.0,1601437440,,,,0,0.3641718149243376,3,6.0,17.0,0.0,0.0,37.588197202494335,66.7128,C,25756045000000,
Raw,1732146872000,17560000000,,83.16895651631206,-1416182072440999936,0.0,83.16895651631206,2099.526685852934,0.0,0,20,0.0,17,269924,487,5.0,-150.1579264855714,0.14999,16,0.0,0.0,1603124990,,,,0,4.183274920571898,3,6.0,20.0,0.0,0.0,37.588197202494335,66.7128,C,25756045000000,
Raw,1732146872000,17560000000,,83.16895651631206,-1416182072440999936,0.0,83.16895651631206,2099.526685852934,0.0,0,14,0.0,16431,345289932985366,58,35.56800079345703,642.9130737681345,0.14999,17,11160.280454145728,0.00039999998989515007,1575420030,,,,0,22.982475995486844,1,6.0,35.56800079345703,0.0,0.0,0.0,66.7128,C,25756045000000,
Raw,1732146872000,17560000000,,83.16895651631206,-1416182072440999936,0.0,83.16895651631206,2099.526685852934,0.0,0,15,0.0,16431,345289923087916,235,27.88599967956543,185.72583485812854,0.14999,16,0.0,0.0,1575420030,,,,0,13.886574826467099,1,6.0,27.88599967956543,0.0,0.0,0.0,66.7128,C,25756045000000,
Raw,1732146872000,17560000000,,83.16895651631206,-1416182072440999936,0.0,83.16895651631206,2099.526685852934,0.0,0,19,0.0,16431,345289921756481,74,31.954999923706055,-59.34649190991994,0.14999,16,0.0,0.0,1575420030,,,,0,18.86814288861244,1,6.0,31.954999923706055,0.0,0.0,0.0,66.7128,C,25756045000000,
Fix,FLP,37.4243954000,-122.1712554000,-0.46801292733691646,0.20533575,1.766,299.51257,1732146872197,0.9,179.8,25756045000000,0.941145,0,,,
Status,1732146872000,29,0,1,14,1575420030,47.20,333.0,73.0,1,0,0,42.2
Status,1732146872000,29,1,1,30,1575420030,42.40,83.0,68.0,1,0,0,37.4
Status,1732146872000,29,2,1,22,1575420030,41.50,277.0,62.0,1,0,0,36.5
Status,1732146872000,29,3,1,13,1575420030,39.90,299.0,50.0,1,0,0,34.9
Status,1732146872000,29,4,1,17,1575420030,34.60,175.0,49.0,1,0,0,29.599998
Status,1732146872000,29,5,1,7,1575420030,39.20,106.0,35.0,1,0,0,34.2
Status,1732146872000,29,6,2,131,1575420030,41.00,3.0,23.0,0,0,0,36.0
Status,1732146872000,29,7,1,19,1575420030,40.30,193.0,21.0,1,0,0,35.3
Status,1732146872000,29,8,1,15,1575420030,42.60,313.0,19.0,1,0,0,37.6
Status,1732146872000,29,9,1,2,1575420030,0.00,84.0,18.0,0,0,0,0.0
Status,1732146872000,29,10,1,21,1575420030,0.00,65.0,14.0,0,0,0,0.0
Status,1732146872000,29,11,1,8,1575420030,0.00,39.0,6.0,0,0,0,0.0
Status,1732146872000,29,12,1,5,1575420030,0.00,260.0,5.0,0,0,0,0.0
Status,1732146872000,29,13,3,9,1602000000,31.00,23.0,52.0,1,0,0,26.0
Status,1732146872000,29,14,3,8,1602000000,33.90,298.0,40.0,1,0,0,28.900002
Status,1732146872000,29,15,3,20,1602000000,25.00,148.0,14.0,1,0,0,20.0
Status,1732146872000,29,16,3,16,1602000000,22.70,70.0,12.0,1,0,0,17.7
Status,1732146872000,29,17,3,11,1602000000,0.00,275.0,3.0,0,0,0,0.0
Status,1732146872000,29,18,3,17,1602000000,34.50,0.0,0.0,0,0,0,29.5
Status,1732146872000,29,19,6,21,1575420030,42.10,273.0,58.0,1,0,0,37.1
Status,1732146872000,29,20,6,29,1575420030,31.50,202.0,58.0,1,0,0,26.5
Status,1732146872000,29,21,6,27,1575420030,0.00,39.0,56.0,0,0,0,0.0
Status,1732146872000,29,22,6,19,1575420030,28.70,294.0,52.0,1,0,0,23.7
Status,1732146872000,29,23,6,7,1575420030,25.80,161.0,14.0,1,0,0,20.8
Status,1732146872000,29,24,6,15,1575420030,0.00,92.0,12.0,0,0,0,0.0
Status,1732146872000,29,25,6,30,1575420030,0.00,60.0,9.0,0,0,0,0.0
Status,1732146872000,29,26,6,34,1575420030,0.00,45.0,6.0,0,0,0,0.0
Status,1732146872000,29,27,6,13,1575420030,0.00,141.0,3.0,0,0,0,0.0
Status,1732146872000,29,28,6,4,1575420030,0.00,325.0,2.0,0,0,0,0.0
Fix,GPS,37.4243933333,-122.1712483333,10.599999999999998,0.2589053,1.8,70.82,1732146873000,0.9,132.8,25757045000000,30.8,0,,,
Raw,1732146873000,18560000000,,84.0040628535868,-1416182072440999936,0.0,84.0040628535868,2101.1493992359988,0.0,0,30,0.0,16431,345290931942184,51,37.40700149536133,748.8565208857325,0.14999,16,0.0,0.0,1575420030,,,,0,25.007892676270536,1,6.0,37.40700149536133,0.0,0.0,0.0,66.7128,C,25757045000000,
Raw,1732146873000,18560000000,,84.0040628535868,-1416182072440999936,0.0,84.0040628535868,2101.1493992359988,0.0,0,7,0.0,16431,345290926336491,58,34.152000427246094,1008.2413848525939,0.14999,16,0.0,0.0,1575420030,,,,0,21.402834514016256,1,6.0,34.152000427246094,0.0,0.0,0.0,66.7128,C,25757045000000,
Raw,1732146873000,18560000000,,84.0040628535868,-1416182072440999936,0.0,84.0040628535868,2101.1493992359988,0.0,0,17,0.0,16431,345290930058339,235,29.591999053955078,180.95841156185173,0.14999,16,0.0,0.0,1575420030,,,,0,16.037867637244645,1,6.0,29.591999053955078,0.0,0.0,0.0,66.7128,C,25757045000000,
Raw,1732146873000,18560000000,,84.0040628535868,-1416182072440999936,0.0,84.0040628535868,2101.1493992359988,0.0,0,22,0.0,16431,345290930978805,51,36.542999267578125,497.2434066162348,0.14999,16,0.0,0.0,1575420030,,,,0,24.067285188588063,1,6.0,36.542999267578125,0.0,0.0,0.0,66.7128,C,25757045000000,
Raw,1732146873000,18560000000,,84.0040628535868,-1416182072440999936,0.0,84.0040628535868,2101.1493992359988,0.0,0,13,0.0,16431,345290930535472,58,34.880001068115234,375.5093942465017,0.14999,16,0.0,0.0,1575420030,,,,0,22.223081883115327,1,6.0,34.880001068115234,0.0,0.0,0.0,66.7128,C,25757045000000,
Raw,1732146873000,18560000000,,84.0040628535868,-1416182072440999936,0.0,84.0040628535868,2101.1493992359988,0.0,0,21,0.0,16431,345290920142191,51,37.099998474121094,470.99704958700465,0.14999,16,0.0,0.0,1575420030,,,,0,24.628958514366055,6,6.0,37.099998474121094,0.0,0.0,5.35538401913021,66.7128,C,25757045000000,
Raw,1732146873000,18560000000,,84.0040628535868,-1416182072440999936,0.0,84.0040628535868,2101.1493992359988,0.0,0,7,0.0,16431,345290909109580,316,20.799999237060547,1222.6666740327014,0.14999,16,0.0,0.0,1575420030,,,,0,5.3861031039077325,6,6.0,20.799999237060547,0.0,0.0,5.35538401913021,66.7128,C,25757045000000,
Raw,1732146873000,18560000000,,84.0040628535868,-1416182072440999936,0.0,84.0040628535868,2101.1493992359988,0.0,0,19,0.0,16431,345290920539608,316,23.700000762939453,475.0129615426598,0.14999,16,0.0,0.0,1575420030,,,,0,9.46850275702623,6,6.0,23.700000762939453,0.0,0.0,5.35538401913021,66.7128,C,25757045000000,
Raw,1732146873000,18560000000,,84.0040628535868,-1416182072440999936,0.0,84.0040628535868,2101.1493992359988,0.0,0,29,0.0,16431,345290920673159,316,26.5,948.7650416693656,0.14999,16,0.0,0.0,1575420030,,,,0,12.863524377519473,6,6.0,26.5,0.0,0.0,5.35538401913021,66.7128,C,25757045000000,
Raw,1732146873000,18560000000,,84.0040628535868,-1416182072440999936,0.0,84.0040628535868,2101.1493992359988,0.0,0,9,0.0,17,656613,316,5.0,776.5338547818612,0.14999,16,0.0,0.0,1600875010,,,,0,12.261813718571352,3,6.0,25.0,0.0,0.0,38.3944019165932,66.7128,C,25757045000000,
Raw,1732146873000,18560000000,,84.0040628535868,-1416182072440999936,0.0,84.0040628535868,2101.1493992359988,0.0,0,8,0.0,17,687728,235,5.0,509.02648626004225,0.14999,16,0.0,0.0,1605374980,,,,0,15.704812336631557,3,6.0,29.0,0.0,0.0,38.3944019165932,66.7128,C,25757045000000,
Raw,1732146873000,18560000000,,84.0040628535868,-1416182072440999936,0.0,84.0040628535868,2101.1493992359988,0.0,0,16,0.0,17,716832,797,5.0,1117.6486204366988,0.14999,16,0.0,0.0,1601437440,,,,0,0.3641718149243376,3,6.0,17.0,0.0,0.0,38.3944019165932,66.7128,C,25757045000000,
Raw,1732146873000,18560000000,,84.0040628535868,-1416182072440999936,0.0,84.0040628535868,2101.1493992359988,0.0,0,20,0.0,17,270399,487,5.0,-150.86193472484408,0.14999,16,0.0,0.0,1603124990,,,,0,3.416375079047504,3,6.0,19.0,0.0,0.0,38.3944019165932,66.7128,C,25757045000000,
Raw,1732146873000,18560000000,,84.0040628535868,-1416182072440999936,0.0,84.0040628535868,2101.1493992359988,0.0,0,14,0.0,16431,345290932983222,31,42.19900131225586,643.1819286227449,0.14999,16,0.0,0.0,1575420030,,,,0,30.122979653198698,1,6.0,42.19900131225586,0.0,0.0,0.0,66.7128,C,25757045000000,
Raw,1732146873000,18560000000,,84.0040628535868,-1416182072440999936,0.0,84.0040628535868,2101.1493992359988,0.0,0,15,0.0,16431,345290923087294,51,37.625,186.39167687925797,0.14999,16,0.0,0.0,1575420030,,,,0,25.241398395344604,1,6.0,37.625,0.0,0.0,0.0,66.7128,C,25757045000000,
Raw,1732146873000,18560000000,,84.0040628535868,-1416182072440999936,0.0,84.0040628535868,2101.1493992359988,0.0,0,19,0.0,16431,345290921756681,58,35.27399826049805,-59.44238208097849,0.14999,16,0.0,0.0,1575420030,,,,0,22.657732018073133,1,6.0,35.27399826049805,0.0,0.0,0.0,66.7128,C,25757045000000,
Fix,FLP,37.4243948000,-122.1712526000,-0.13471405830035277,0.16469575,1.783,306.3514,1732146873197,0.9,132.8,25757045000000,0.95116466,0,,,
Status,1732146873000,29,0,1,14,1575420030,47.20,333.0,73.0,1,0,0,42.2
Status,1732146873000,29,1,1,30,1575420030,45.50,83.0,68.0,1,0,0,40.5
Status,1732146873000,29,2,1,22,1575420030,41.20,277.0,62.0,1,0,0,36.2
Status,1732146873000,29,3,1,13,1575420030,38.80,299.0,50.0,1,0,0,33.8
Status,1732146873000,29,4,1,17,1575420030,43.00,175.0,49.0,1,0,0,38.0
Status,1732146873000,29,5,1,7,1575420030,41.10,106.0,35.0,1,0,0,36.1
Status,1732146873000,29,6,2,131,1575420030,32.00,3.0,23.0,0,0,0,27.0
Status,1732146873000,29,7,1,19,1575420030,37.20,193.0,21.0,1,0,0,32.2
Status,1732146873000,29,8,1,15,1575420030,33.10,313.0,19.0,1,0,0,28.099998
Status,1732146873000,29,9,1,2,1575420030,0.00,84.0,18.0,0,0,0,0.0
Status,1732146873000,29,10,1,21,1575420030,0.00,65.0,14.0,0,0,0,0.0
Status,1732146873000,29,11,1,8,1575420030,0.00,39.0,6.0,0,0,0,0.0
Status,1732146873000,29,12,1,5,1575420030,0.00,260.0,5.0,0,0,0,0.0
Status,1732146873000,29,13,3,9,1602000000,37.40,23.0,52.0,1,0,0,32.4
Status,1732146873000,29,14,3,8,1602000000,39.00,298.0,40.0,1,0,0,34.0
Status,1732146873000,29,15,3,20,1602000000,25.00,148.0,14.0,1,0,0,20.0
Status,1732146873000,29,16,3,16,1602000000,26.80,70.0,12.0,1,0,0,21.8
Status,1732146873000,29,17,3,11,1602000000,0.00,275.0,3.0,0,0,0,0.0
Status,1732146873000,29,18,3,17,1602000000,29.60,0.0,0.0,0,0,0,24.6
Status,1732146873000,29,19,6,21,1575420030,37.00,273.0,58.0,1,0,0,32.0
Status,1732146873000,29,20,6,29,1575420030,36.60,202.0,58.0,1,0,0,31.599998
Status,1732146873000,29,21,6,27,1575420030,0.00,39.0,56.0,0,0,0,0.0
Status,1732146873000,29,22,6,19,1575420030,31.90,294.0,52.0,1,0,0,26.9
Status,1732146873000,29,23,6,7,1575420030,28.40,161.0,14.0,1,0,0,23.4
Status,1732146873000,29,24,6,15,1575420030,0.00,92.0,12.0,0,0,0,0.0
Status,1732146873000,29,25,6,30,1575420030,0.00,60.0,9.0,0,0,0,0.0
Status,1732146873000,29,26,6,34,1575420030,0.00,45.0,6.0,0,0,0,0.0
Status,1732146873000,29,27,6,13,1575420030,0.00,141.0,3.0,0,0,0,0.0
Status,1732146873000,29,28,6,4,1575420030,0.00,325.0,2.0,0,0,0,0.0
Fix,GPS,37.4243933333,-122.1712433333,10.7,0.35104054,1.8,69.32,1732146874000,0.8,92.2,25758045000000,30.7,0,,,
Raw,1732146874000,19560000000,,82.72823846748258,-1416182072440999936,0.0,82.72823846748258,2103.250527981945,0.0,0,30,0.0,16431,345291931939686,42,40.479000091552734,749.5413643990921,0.14999,16,0.0,0.0,1575420030,,,,0,28.308663817472492,1,6.0,40.479000091552734,0.0,0.0,0.0,66.7128,C,25758045000000,
Raw,1732146874000,19560000000,,82.72823846748258,-1416182072440999936,0.0,82.72823846748258,2103.250527981945,0.0,0,7,0.0,16431,345291926333130,51,36.104000091552734,1008.4575094048054,0.14999,17,19316.27206711512,0.00022499999613501132,1575420030,,,,0,23.579083821437365,1,6.0,36.104000091552734,0.0,0.0,0.0,66.7128,C,25758045000000,
Raw,1732146874000,19560000000,,82.72823846748258,-1416182072440999936,0.0,82.72823846748258,2103.250527981945,0.0,0,17,0.0,16431,345291930057733,51,37.99399948120117,181.39498129898215,0.14999,16,0.0,0.0,1575420030,,,,0,25.646513303757953,1,6.0,37.99399948120117,0.0,0.0,0.0,66.7128,C,25758045000000,
Raw,1732146874000,19560000000,,82.72823846748258,-1416182072440999936,0.0,82.72823846748258,2103.250527981945,0.0,0,22,0.0,16431,345291930977138,51,36.24300003051758,498.131412783683,0.14999,16,0.0,0.0,1575420030,,,,0,23.735756635583776,1,6.0,36.24300003051758,0.0,0.0,0.0,66.7128,C,25758045000000,
Raw,1732146874000,19560000000,,82.72823846748258,-1416182072440999936,0.0,82.72823846748258,2103.250527981945,0.0,0,21,0.0,16431,345291920140618,58,32.0,471.7206858779,0.14999,16,0.0,0.0,1575420030,,,,0,19.21311525322427,6,6.0,32.0,0.0,0.0,6.63056475791029,66.7128,C,25758045000000,
Raw,1732146874000,19560000000,,82.72823846748258,-1416182072440999936,0.0,82.72823846748258,2103.250527981945,0.0,0,7,0.0,16431,345291909105501,396,23.399999618530273,1222.6854432328505,0.14999,16,0.0,0.0,1575420030,,,,0,9.032907270561388,6,6.0,23.399999618530273,0.0,0.0,6.63056475791029,66.7128,C,25758045000000,
Raw,1732146874000,19560000000,,82.72823846748258,-1416182072440999936,0.0,82.72823846748258,2103.250527981945,0.0,0,19,0.0,16431,345291920538023,316,26.899999618530273,475.27350034076846,0.14999,16,0.0,0.0,1575420030,,,,0,13.390103151966457,6,6.0,26.899999618530273,0.0,0.0,6.63056475791029,66.7128,C,25758045000000,
Raw,1732146874000,19560000000,,82.72823846748258,-1416182072440999936,0.0,82.72823846748258,2103.250527981945,0.0,0,29,0.0,16431,345291920669995,58,31.600000381469727,949.2021224490743,0.14999,16,0.0,0.0,1575420030,,,,0,18.739221937260066,6,6.0,31.600000381469727,0.0,0.0,6.63056475791029,66.7128,C,25758045000000,
Raw,1732146874000,19560000000,,82.72823846748258,-1416182072440999936,0.0,82.72823846748258,2103.250527981945,0.0,0,9,0.0,17,654024,58,5.0,777.461964607268,0.14999,16,0.0,0.0,1600875010,,,,0,19.653687100080738,3,6.0,34.0,0.0,0.0,42.03108575954899,66.7128,C,25758045000000,
Raw,1732146874000,19560000000,,82.72823846748258,-1416182072440999936,0.0,82.72823846748258,2103.250527981945,0.0,0,8,0.0,17,686025,58,5.0,509.9171625798711,0.14999,16,0.0,0.0,1605374980,,,,0,21.333226731965723,3,6.0,34.0,0.0,0.0,42.03108575954899,66.7128,C,25758045000000,
Raw,1732146874000,19560000000,,82.72823846748258,-1416182072440999936,0.0,82.72823846748258,2103.250527981945,0.0,0,16,0.0,17,713107,487,5.0,1118.2203729346957,0.14999,16,0.0,0.0,1601437440,,,,0,6.8736208575571585,3,6.0,20.0,0.0,0.0,42.03108575954899,66.7128,C,25758045000000,
Raw,1732146874000,19560000000,,82.72823846748258,-1416182072440999936,0.0,82.72823846748258,2103.250527981945,0.0,0,20,0.0,17,270897,797,5.0,-148.65631617495677,0.14999,16,0.0,0.0,1603124990,,,,0,3.416375079047504,3,6.0,17.0,0.0,0.0,42.03108575954899,66.7128,C,25758045000000,
Raw,1732146874000,19560000000,,82.72823846748258,-1416182072440999936,0.0,82.72823846748258,2103.250527981945,0.0,0,13,0.0,16431,345291930534217,58,33.79399871826172,375.3496005239455,0.14999,16,0.0,0.0,1575420030,,,,0,20.999335705932598,1,6.0,33.79399871826172,0.0,0.0,0.0,66.7128,C,25758045000000,
Raw,1732146874000,19560000000,,82.72823846748258,-1416182072440999936,0.0,82.72823846748258,2103.250527981945,0.0,0,14,0.0,16431,345291932981075,31,42.24800109863281,643.5120156699207,0.14999,16,0.0,0.0,1575420030,,,,0,30.175357035862547,1,6.0,42.24800109863281,0.0,0.0,0.0,66.7128,C,25758045000000,
Raw,1732146874000,19560000000,,82.72823846748258,-1416182072440999936,0.0,82.72823846748258,2103.250527981945,0.0,0,15,0.0,16431,345291923086675,316,28.125999450683594,186.69514325394522,0.14999,16,0.0,0.0,1575420030,,,,0,14.19333154119053,1,6.0,28.125999450683594,0.0,0.0,0.0,66.7128,C,25758045000000,
Raw,1732146874000,19560000000,,82.72823846748258,-1416182072440999936,0.0,82.72823846748258,2103.250527981945,0.0,0,19,0.0,16431,345291921756878,74,32.15399932861328,-58.30828568286304,0.14999,16,0.0,0.0,1575420030,,,,0,19.104830275587073,1,6.0,32.15399932861328,0.0,0.0,0.0,66.7128,C,25758045000000,
Fix,FLP,37.4243946000,-122.1712484000,0.36551333331702995,0.12353678,1.8,324.95984,1732146874198,0.8,92.2,25758045000000,0.9609313,0,,,
Status,1732146874000,29,0,1,14,1575420030,40.40,333.0,73.0,1,0,0,35.4
Status,1732146874000,29,1,1,30,1575420030,39.50,83.0,68.0,1,0,0,34.5
Status,1732146874000,29,2,1,22,1575420030,41.60,277.0,62.0,1,0,0,36.6
Status,1732146874000,29,3,1,13,1575420030,47.80,299.0,50.0,1,0,0,42.8
Status,1732146874000,29,4,1,17,1575420030,40.30,175.0,49.0,1,0,0,35.3
Status,1732146874000,29,5,1,7,1575420030,37.50,106.0,35.0,1,0,0,32.5
Status,1732146874000,29,6,2,131,1575420030,38.00,3.0,23.0,0,0,0,33.0
Status,1732146874000,29,7,1,19,1575420030,34.20,193.0,21.0,1,0,0,29.2
Status,1732146874000,29,8,1,15,1575420030,38.60,313.0,19.0,1,0,0,33.6
Status,1732146874000,29,9,1,2,1575420030,0.00,84.0,18.0,0,0,0,0.0
Status,1732146874000,29,10,1,21,1575420030,0.00,65.0,14.0,0,0,0,0.0
Status,1732146874000,29,11,1,8,1575420030,0.00,39.0,6.0,0,0,0,0.0
Status,1732146874000,29,12,1,5,1575420030,0.00,260.0,5.0,0,0,0,0.0
Status,1732146874000,29,13,3,9,1602000000,37.60,23.0,52.0,1,0,0,32.6
Status,1732146874000,29,14,3,8,1602000000,37.20,298.0,40.0,1,0,0,32.2
Status,1732146874000,29,15,3,20,1602000000,24.90,148.0,14.0,1,0,0,19.9
Status,1732146874000,29,16,3,16,1602000000,24.20,70.0,12.0,1,0,0,19.2
Status,1732146874000,29,17,3,11,1602000000,0.00,275.0,3.0,0,0,0,0.0
Status,1732146874000,29,18,3,17,1602000000,44.70,0.0,0.0,0,0,0,39.7
Status,1732146874000,29,19,6,21,1575420030,37.80,273.0,58.0,1,0,0,32.8
Status,1732146874000,29,20,6,29,1575420030,28.50,202.0,58.0,1,0,0,23.5
Status,1732146874000,29,21,6,27,1575420030,0.00,39.0,56.0,0,0,0,0.0
Status,1732146874000,29,22,6,19,1575420030,35.70,294.0,52.0,1,0,0,30.7
Status,1732146874000,29,23,6,7,1575420030,24.00,161.0,14.0,1,0,0,19.0
Status,1732146874000,29,24,6,15,1575420030,0.00,92.0,12.0,0,0,0,0.0
Status,1732146874000,29,25,6,30,1575420030,0.00,60.0,9.0,0,0,0,0.0
Status,1732146874000,29,26,6,34,1575420030,0.00,45.0,6.0,0,0,0,0.0
Status,1732146874000,29,27,6,13,1575420030,0.00,141.0,3.0,0,0,0,0.0
Status,1732146874000,29,28,6,4,1575420030,0.00,325.0,2.0,0,0,0,0.0
Fix,GPS,37.4243900000,-122.1712350000,10.7,0.39479193,1.8,80.56,1732146875000,0.9,87.2,25759045000000,31.0,0,,,
Raw,1732146875000,20560000000,,83.17104332782073,-1416182072440999936,0.0,83.17104332782073,2107.388993017775,0.0,0,30,0.0,16431,345292931937185,58,34.513999938964844,751.06394607356,0.14999,17,15347.497264805796,0.00039999998989515007,1575420030,,,,0,21.81124572362751,1,6.0,34.513999938964844,0.0,0.0,0.0,66.7128,C,25759045000000,
Raw,1732146875000,20560000000,,83.17104332782073,-1416182072440999936,0.0,83.17104332782073,2107.388993017775,0.0,0,7,0.0,16431,345292926329762,74,32.513999938964844,1010.6775712818421,0.14999,16,0.0,0.0,1575420030,,,,0,19.53009861719731,1,6.0,32.513999938964844,0.0,0.0,0.0,66.7128,C,25759045000000,
Raw,1732146875000,20560000000,,83.17104332782073,-1416182072440999936,0.0,83.17104332782073,2107.388993017775,0.0,0,17,0.0,16431,345292930057134,58,35.30799865722656,182.77261271487325,0.14999,16,0.0,0.0,1575420030,,,,0,22.6989952293486,1,6.0,35.30799865722656,0.0,0.0,0.0,66.7128,C,25759045000000,
Raw,1732146875000,20560000000,,83.17104332782073,-1416182072440999936,0.0,83.17104332782073,2107.388993017775,0.0,0,22,0.0,16431,345292930975470,51,36.60200119018555,499.45891556848295,0.14999,16,0.0,0.0,1575420030,,,,0,24.12860791175001,1,6.0,36.60200119018555,0.0,0.0,0.0,66.7128,C,25759045000000,
Raw,1732146875000,20560000000,,83.17104332782073,-1416182072440999936,0.0,83.17104332782073,2107.388993017775,0.0,0,21,0.0,16431,345292920139043,58,32.79999923706055,472.77552421796025,0.14999,16,0.0,0.0,1575420030,,,,0,20.061907230018893,6,6.0,32.79999923706055,0.0,0.0,7.89516862397937,66.7128,C,25759045000000,
Raw,1732146875000,20560000000,,83.17104332782073,-1416182072440999936,0.0,83.17104332782073,2107.388993017775,0.0,0,7,0.0,16431,345292909101417,396,19.0,1224.8149111982768,0.14999,16,0.0,0.0,1575420030,,,,0,2.553708144356977,6,6.0,19.0,0.0,0.0,7.89516862397937,66.7128,C,25759045000000,
Raw,1732146875000,20560000000,,83.17104332782073,-1416182072440999936,0.0,83.17104332782073,2107.388993017775,0.0,0,19,0.0,16431,345292920536435,74,30.700000762939453,476.8231672718872,0.14999,16,0.0,0.0,1575420030,,,,0,17.778856565126766,6,6.0,30.700000762939453,0.0,0.0,7.89516862397937,66.7128,C,25759045000000,
Raw,1732146875000,20560000000,,83.17104332782073,-1416182072440999936,0.0,83.17104332782073,2107.388993017775,0.0,0,29,0.0,16431,345292920666827,316,23.5,951.1147225276297,0.14999,16,0.0,0.0,1575420030,,,,0,9.131611624071631,6,6.0,23.5,0.0,0.0,7.89516862397937,66.7128,C,25759045000000,
Raw,1732146875000,20560000000,,83.17104332782073,-1416182072440999936,0.0,83.17104332782073,2107.388993017775,0.0,0,9,0.0,17,651431,58,5.0,778.5996535183725,0.14999,16,0.0,0.0,1600875010,,,,0,19.84522495259932,3,6.0,33.0,0.0,0.0,42.34137044638202,66.7128,C,25759045000000,
Raw,1732146875000,20560000000,,83.17104332782073,-1416182072440999936,0.0,83.17104332782073,2107.388993017775,0.0,0,8,0.0,17,684323,74,5.0,511.44051269629426,0.14999,16,0.0,0.0,1605374980,,,,0,19.443869466328202,3,6.0,32.0,0.0,0.0,42.34137044638202,66.7128,C,25759045000000,
Raw,1732146875000,20560000000,,83.17104332782073,-1416182072440999936,0.0,83.17104332782073,2107.388993017775,0.0,0,16,0.0,17,709374,487,5.0,1118.8117779965723,0.14999,16,0.0,0.0,1601437440,,,,0,3.0214939151323605,3,6.0,20.0,0.0,0.0,42.34137044638202,66.7128,C,25759045000000,
Raw,1732146875000,20560000000,,83.17104332782073,-1416182072440999936,0.0,83.17104332782073,2107.388993017775,0.0,0,20,0.0,17,271387,797,5.0,-145.995420701462,0.14999,16,0.0,0.0,1603124990,,,,0,3.416375079047504,3,6.0,17.0,0.0,0.0,42.34137044638202,66.7128,C,25759045000000,
Raw,1732146875000,20560000000,,83.17104332782073,-1416182072440999936,0.0,83.17104332782073,2107.388993017775,0.0,0,13,0.0,16431,345292930532960,31,42.77799987792969,377.21444135063655,0.14999,17,12556.964753986213,0.00022499999613501132,1575420030,,,,0,30.73157876929571,1,6.0,42.77799987792969,0.0,0.0,0.0,66.7128,C,25759045000000,
Raw,1732146875000,20560000000,,83.17104332782073,-1416182072440999936,0.0,83.17104332782073,2107.388993017775,0.0,0,14,0.0,16431,345292932978929,58,35.38399887084961,644.8765922708567,0.14999,16,0.0,0.0,1575420030,,,,0,22.7809381921695,1,6.0,35.38399887084961,0.0,0.0,0.0,66.7128,C,25759045000000,
Raw,1732146875000,20560000000,,83.17104332782073,-1416182072440999936,0.0,83.17104332782073,2107.388993017775,0.0,0,15,0.0,16431,345292923086044,58,33.597999572753906,188.1512429348159,0.14999,16,0.0,0.0,1575420030,,,,0,20.77108021566822,1,6.0,33.597999572753906,0.0,0.0,0.0,66.7128,C,25759045000000,
Raw,1732146875000,20560000000,,83.17104332782073,-1416182072440999936,0.0,83.17104332782073,2107.388993017775,0.0,0,19,0.0,16431,345292921757065,235,29.20199966430664,-57.70901857216331,0.14999,16,0.0,0.0,1575420030,,,,0,15.559624489136416,1,6.0,29.20199966430664,0.0,0.0,0.0,66.7128,C,25759045000000,
Fix,FLP,37.4243928000,-122.1712419000,2.299999952316284,0.09558658,1.8,,1732146875197,0.9,,25759045000000,0.9695443,0,,,
Status,1732146875000,29,0,1,14,1575420030,47.70,333.0,73.0,1,0,0,42.7
Status,1732146875000,29,1,1,30,1575420030,46.40,83.0,68.0,1,0,0,41.4
Status,1732146875000,29,2,1,22,1575420030,39.40,277.0,62.0,1,0,0,34.4
Status,1732146875000,29,3,1,13,1575420030,37.80,299.0,50.0,1,0,0,32.8
Status,1732146875000,29,4,1,17,1575420030,38.20,175.0,49.0,1,0,0,33.2
Status,1732146875000,29,5,1,7,1575420030,32.40,106.0,35.0,1,0,0,27.400002
Status,1732146875000,29,6,2,131,1575420030,42.00,3.0,23.0,0,0,0,37.0
Status,1732146875000,29,7,1,19,1575420030,43.00,193.0,21.0,1,0,0,38.0
Status,1732146875000,29,8,1,15,1575420030,40.50,313.0,19.0,1,0,0,35.5
Status,1732146875000,29,9,1,2,1575420030,27.70,84.0,18.0,0,0,0,22.7
Status,1732146875000,29,10,1,21,1575420030,24.80,65.0,14.0,1,0,0,19.8
Status,1732146875000,29,11,1,8,1575420030,0.00,39.0,6.0,0,0,0,0.0
Status,1732146875000,29,12,1,5,1575420030,0.00,260.0,5.0,0,0,0,0.0
Status,1732146875000,29,13,3,9,1602000000,45.20,23.0,52.0,1,0,0,40.2
Status,1732146875000,29,14,3,8,1602000000,37.80,298.0,40.0,1,0,0,32.8
Status,1732146875000,29,15,3,20,1602000000,20.90,148.0,14.0,1,0,0,15.9
Status,1732146875000,29,16,3,16,1602000000,21.80,70.0,12.0,1,0,0,16.8
Status,1732146875000,29,17,3,11,1602000000,0.00,275.0,3.0,0,0,0,0.0
Status,1732146875000,29,18,3,17,1602000000,38.10,0.0,0.0,0,0,0,33.1
Status,1732146875000,29,19,6,21,1575420030,39.40,273.0,58.0,1,0,0,34.4
Status,1732146875000,29,20,6,29,1575420030,31.30,202.0,58.0,1,0,0,26.3
Status,1732146875000,29,21,6,27,1575420030,0.00,39.0,56.0,0,0,0,0.0
Status,1732146875000,29,22,6,19,1575420030,30.20,294.0,52.0,1,0,0,25.2
Status,1732146875000,29,23,6,7,1575420030,23.40,161.0,14.0,1,0,0,18.4
Status,1732146875000,29,24,6,15,1575420030,0.00,92.0,12.0,0,0,0,0.0
Status,1732146875000,29,25,6,30,1575420030,0.00,60.0,9.0,0,0,0,0.0
Status,1732146875000,29,26,6,34,1575420030,0.00,45.0,6.0,0,0,0,0.0
Status,1732146875000,29,27,6,13,1575420030,0.00,141.0,3.0,0,0,0,0.0
Status,1732146875000,29,28,6,4,1575420030,0.00,325.0,2.0,0,0,0,0.0
Fix,GPS,37.4243916667,-122.1712233333,10.7,0.4025128,1.8,77.47,1732146876000,0.9,65.4,25760045000000,31.2,0,,,
Raw,1732146876000,21560000000,,83.10829901349646,-1416182072440999936,0.0,83.10829901349646,2111.9387734144766,0.0,0,30,0.0,16431,345293931934678,31,41.36399841308594,751.9288159497354,0.14999,17,16099.31124135796,0.00022499999613501132,1575420030,,,,0,29.24375208807916,1,6.0,41.36399841308594,0.0,0.0,0.0,66.7128,C,25760045000000,
Raw,1732146876000,21560000000,,83.10829901349646,-1416182072440999936,0.0,83.10829901349646,2111.9387734144766,0.0,0,7,0.0,16431,345293926326389,316,27.382999420166016,1012.1929519017975,0.14999,16,0.0,0.0,1575420030,,,,0,13.238513097776254,1,6.0,27.382999420166016,0.0,0.0,0.0,66.7128,C,25760045000000,
Raw,1732146876000,21560000000,,83.10829901349646,-1416182072440999936,0.0,83.10829901349646,2111.9387734144766,0.0,0,17,0.0,16431,345293930056516,58,33.1619987487793,184.30778462013427,0.14999,16,0.0,0.0,1575420030,,,,0,20.268559871258745,1,6.0,33.1619987487793,0.0,0.0,0.0,66.7128,C,25760045000000,
Raw,1732146876000,21560000000,,83.10829901349646,-1416182072440999936,0.0,83.10829901349646,2111.9387734144766,0.0,0,22,0.0,16431,345293930973800,58,34.391998291015625,499.41320048693177,0.14999,16,0.0,0.0,1575420030,,,,0,21.6733715646695,1,6.0,34.391998291015625,0.0,0.0,0.0,66.7128,C,25760045000000,
Raw,1732146876000,21560000000,,83.10829901349646,-1416182072440999936,0.0,83.10829901349646,2111.9387734144766,0.0,0,21,0.0,16431,345293920137465,51,34.400001525878906,473.8538705166231,0.14999,16,0.0,0.0,1575420030,,,,0,21.834013468349298,6,6.0,34.400001525878906,0.0,0.0,8.086806440705967,66.7128,C,25760045000000,
Raw,1732146876000,21560000000,,83.10829901349646,-1416182072440999936,0.0,83.10829901349646,2111.9387734144766,0.0,0,7,0.0,16431,345293909097330,396,18.399999618530273,1226.4193061436915,0.14999,16,0.0,0.0,1575420030,,,,0,1.6733715646694995,6,6.0,18.399999618530273,0.0,0.0,8.086806440705967,66.7128,C,25760045000000,
Raw,1732146876000,21560000000,,83.10829901349646,-1416182072440999936,0.0,83.10829901349646,2111.9387734144766,0.0,0,19,0.0,16431,345293920534844,316,25.200000762939453,478.22806977809387,0.14999,16,0.0,0.0,1575420030,,,,0,11.330843236844576,6,6.0,25.200000762939453,0.0,0.0,8.086806440705967,66.7128,C,25760045000000,
Raw,1732146876000,21560000000,,83.10829901349646,-1416182072440999936,0.0,83.10829901349646,2111.9387734144766,0.0,0,29,0.0,16431,345293920663649,316,26.299999237060547,952.46833494234,0.14999,16,0.0,0.0,1575420030,,,,0,12.702371524127003,6,6.0,26.299999237060547,0.0,0.0,8.086806440705967,66.7128,C,25760045000000,
Raw,1732146876000,21560000000,,83.10829901349646,-1416182072440999936,0.0,83.10829901349646,2111.9387734144766,0.0,0,9,0.0,17,648837,42,5.0,780.010289013599,0.14999,17,16708.860231638108,0.00022499999613501132,1600875010,,,,0,27.941228009892512,3,6.0,40.0,0.0,0.0,42.82892616440264,66.7128,C,25760045000000,
Raw,1732146876000,21560000000,,83.10829901349646,-1416182072440999936,0.0,83.10829901349646,2111.9387734144766,0.0,0,8,0.0,17,682612,58,5.0,513.2502232736534,0.14999,16,0.0,0.0,1605374980,,,,0,20.04854401791249,3,6.0,33.0,0.0,0.0,42.82892616440264,66.7128,C,25760045000000,
Raw,1732146876000,21560000000,,83.10829901349646,-1416182072440999936,0.0,83.10829901349646,2111.9387734144766,0.0,0,16,0.0,17,705648,797,5.0,1118.982801005965,0.14999,16,0.0,0.0,1601437440,,,,0,0.0,3,6.0,17.0,0.0,0.0,42.82892616440264,66.7128,C,25760045000000,
Raw,1732146876000,21560000000,,83.10829901349646,-1416182072440999936,0.0,83.10829901349646,2111.9387734144766,0.0,0,20,0.0,17,271907,487,5.0,-147.4640677209771,0.14999,16,0.0,0.0,1603124990,,,,0,0.0,3,6.0,19.0,0.0,0.0,42.82892616440264,66.7128,C,25760045000000,
Raw,1732146876000,21560000000,,83.10829901349646,-1416182072440999936,0.0,83.10829901349646,2111.9387734144766,0.0,0,2,0.0,17,605627,396,22.715999603271484,452.07495479019826,0.14999,16,0.0,0.0,1575420030,,,,0,6.649179116177214,1,6.0,22.715999603271484,0.0,0.0,0.0,66.7128,C,25760045000000,
Raw,1732146876000,21560000000,,83.10829901349646,-1416182072440999936,0.0,83.10829901349646,2111.9387734144766,0.0,0,21,0.0,16431,345293920511642,487,19.812000274658203,662.7441274781,0.14999,16,0.0,0.0,1575420030,,,,0,1.9019608002851363,1,6.0,19.812000274658203,0.0,0.0,0.0,66.7128,C,25760045000000,
Raw,1732146876000,21560000000,,83.10829901349646,-1416182072440999936,0.0,83.10829901349646,2111.9387734144766,0.0,0,13,0.0,16431,345293930531699,58,32.80500030517578,378.3049829835546,0.14999,16,0.0,0.0,1575420030,,,,0,19.864492149493003,1,6.0,32.80500030517578,0.0,0.0,0.0,66.7128,C,25760045000000,
Raw,1732146876000,21560000000,,83.10829901349646,-1416182072440999936,0.0,83.10829901349646,2111.9387734144766,0.0,0,14,0.0,16431,345293932976779,31,42.72100067138672,646.2697407977621,0.14999,17,13737.734850805618,0.00022499999613501132,1575420030,,,,0,30.67013623788177,1,6.0,42.72100067138672,0.0,0.0,0.0,66.7128,C,25760045000000,
Raw,1732146876000,21560000000,,83.10829901349646,-1416182072440999936,0.0,83.10829901349646,2111.9387734144766,0.0,0,15,0.0,16431,345293923085411,51,35.500999450683594,189.35967279886822,0.14999,16,0.0,0.0,1575420030,,,,0,22.912468446131783,1,6.0,35.500999450683594,0.0,0.0,0.0,66.7128,C,25760045000000,
