# 
# Header Description:
# 
# Version: v3.1.0.3 Platform: 13 Manufacturer: samsung Model: SM-S135DL GNSS Hardware Model Name: MediaTek,MT6631,MTK_MNLD_default,MNL_VER_default
# 
# Raw,utcTimeMillis,TimeNanos,LeapSecond,TimeUncertaintyNanos,FullBiasNanos,BiasNanos,BiasUncertaintyNanos,DriftNanosPerSecond,DriftUncertaintyNanosPerSecond,HardwareClockDiscontinuityCount,Svid,TimeOffsetNanos,State,ReceivedSvTimeNanos,ReceivedSvTimeUncertaintyNanos,Cn0DbHz,PseudorangeRateMetersPerSecond,PseudorangeRateUncertaintyMetersPerSecond,AccumulatedDeltaRangeState,AccumulatedDeltaRangeMeters,AccumulatedDeltaRangeUncertaintyMeters,CarrierFrequencyHz,CarrierCycles,CarrierPhase,CarrierPhaseUncertainty,MultipathIndicator,SnrInDb,ConstellationType,AgcDb,BasebandCn0DbHz,FullInterSignalBiasNanos,FullInterSignalBiasUncertaintyNanos,SatelliteInterSignalBiasNanos,SatelliteInterSignalBiasUncertaintyNanos,CodeType,ChipsetElapsedRealtimeNanos,IsFullTracking
# 
# UncalAccel,utcTimeMillis,elapsedRealtimeNanos,UncalAccelXMps2,UncalAccelYMps2,UncalAccelZMps2,BiasXMps2,BiasYMps2,BiasZMps2
# 
# Accel,utcTimeMillis,elapsedRealtimeNanos,AccelXMps2,AccelYMps2,AccelZMps2
# 
# UncalGyro,utcTimeMillis,elapsedRealtimeNanos,UncalGyroXRadPerSec,UncalGyroYRadPerSec,UncalGyroZRadPerSec,DriftXRadPerSec,DriftYRadPerSec,DriftZRadPerSec
# 
# Gyro,utcTimeMillis,elapsedRealtimeNanos,GyroXRadPerSec,GyroYRadPerSec,GyroZRadPerSec
# 
# UncalMag,utcTimeMillis,elapsedRealtimeNanos,UncalMagXMicroT,UncalMagYMicroT,UncalMagZMicroT,BiasXMicroT,BiasYMicroT,BiasZMicroT
# 
# Mag,utcTimeMillis,elapsedRealtimeNanos,MagXMicroT,MagYMicroT,MagZMicroT
# 
# Pressure,utcTimeMillis,elapsedRealtimeNanos,PressureHpa
# 
# OrientationDeg,utcTimeMillis,elapsedRealtimeNanos,yawDeg,rollDeg,pitchDeg
# 
# Fix,Provider,LatitudeDegrees,LongitudeDegrees,AltitudeMeters,SpeedMps,AccuracyMeters,BearingDegrees,UnixTimeMillis,SpeedAccuracyMps,BearingAccuracyDegrees,elapsedRealtimeNanos,VerticalAccuracyMeters,MockLocation,NumberOfUsedSignals,VerticalSpeedAccuracyMps,SolutionType
# 
# Nav,Svid,Type,Status,MessageId,Sub-messageId,Data(Bytes)
# 
# Status,UnixTimeMillis,SignalCount,SignalIndex,ConstellationType,Svid,CarrierFrequencyHz,Cn0DbHz,AzimuthDegrees,ElevationDegrees,UsedInFix,HasAlmanacData,HasEphemerisData,BasebandCn0DbHz
# 
# Agc,utcTimeMillis,TimeNanos,LeapSecond,TimeUncertaintyNanos,FullBiasNanos,BiasNanos,BiasUncertaintyNanos,DriftNanosPerSecond,DriftUncertaintyNanosPerSecond,HardwareClockDiscontinuityCount,AgcDb,CarrierFrequencyHz,ConstellationType
# 
Fix,FLP,37.4243713000,-122.1712626000,-0.7413553273527453,0.02007895,1.666,,1732146511198,0.8,,25395046000000,0.9016976,0,,,
Status,,29,0,1,14,1575420030,45.60,323.0,74.0,1,0,0,40.6
Status,,29,1,1,30,1575420030,42.00,76.0,69.0,1,0,0,37.0
Status,,29,2,1,22,1575420030,36.10,272.0,60.0,1,0,0,31.099998
Status,,29,3,1,13,1575420030,40.50,302.0,48.0,1,0,0,35.5
Status,,29,4,1,17,1575420030,42.40,175.0,45.0,1,0,0,37.4
Status,,29,5,1,7,1575420030,43.20,104.0,37.0,1,0,0,38.2
Status,,29,6,2,131,1575420030,36.00,3.0,23.0,0,0,0,31.0
Status,,29,7,1,19,1575420030,33.10,193.0,18.0,1,0,0,28.099998
Status,,29,8,1,15,1575420030,44.10,315.0,18.0,1,0,0,39.1
Status,,29,9,1,2,1575420030,0.00,87.0,17.0,0,0,0,0.0
Status,,29,10,1,21,1575420030,0.00,68.0,14.0,0,0,0,0.0
Status,,29,11,1,8,1575420030,0.00,39.0,8.0,0,0,0,0.0
Status,,29,12,1,5,1575420030,23.50,262.0,6.0,1,0,0,18.5
Status,,29,13,3,9,1602000000,28.00,18.0,53.0,1,0,0,23.0
Status,,29,14,3,8,1602000000,39.20,302.0,39.0,1,0,0,34.2
Status,,29,15,3,16,1602000000,21.20,68.0,14.0,1,0,0,16.2
Status,,29,16,3,20,1602000000,22.00,149.0,11.0,1,0,0,17.0
Status,,29,17,3,11,1602000000,0.00,272.0,2.0,0,0,0,0.0
Status,,29,18,3,17,1602000000,44.20,0.0,0.0,0,0,0,39.2
Status,,29,19,6,29,1575420030,38.90,204.0,61.0,1,0,0,33.9
Status,,29,20,6,27,1575420030,39.80,37.0,58.0,1,0,0,34.8
Status,,29,21,6,21,1575420030,34.30,269.0,57.0,1,0,0,29.3
Status,,29,22,6,19,1575420030,28.40,297.0,51.0,1,0,0,23.4
Status,,29,23,6,7,1575420030,0.00,161.0,16.0,0,0,0,0.0
Status,,29,24,6,15,1575420030,0.00,94.0,11.0,0,0,0,0.0
Status,,29,25,6,30,1575420030,0.00,59.0,10.0,0,0,0,0.0
Status,,29,26,6,34,1575420030,0.00,47.0,6.0,0,0,0,0.0
Status,,29,27,6,4,1575420030,0.00,326.0,1.0,0,0,0,0.0
Status,,29,28,6,13,1575420030,0.00,142.0,1.0,0,0,0,0.0
Fix,GPS,37.4243716667,-122.1712683333,14.7,0.0,1.6,229.74,1732146512000,0.8,134.7,25396046000000,27.3,0,,,
Raw,1732146512001,36706000000,,72.7625555877548,-1416181693295000064,0.0,72.7625555877548,2213.848025467668,0.0,0,30,0.0,16431,344929932158214,51,37.020999908447266,755.540121558613,0.14999,17,27382.556338286555,0.00022499999613501132,1575420030,,,,0,24.59555964520312,1,6.0,37.020999908447266,0.0,0.0,0.0,66.7128,C,25396046000000,
Raw,1732146512001,36706000000,,72.7625555877548,-1416181693295000064,0.0,72.7625555877548,2213.848025467668,0.0,0,5,0.0,16431,344929916810217,797,18.451000213623047,1100.7452019535588,0.14999,16,0.0,0.0,1575420030,,,,0,0.011140771148355988,1,6.0,18.451000213623047,0.0,0.0,0.0,66.7128,C,25396046000000,
Raw,1732146512001,36706000000,,72.7625555877548,-1416181693295000064,0.0,72.7625555877548,2213.848025467668,0.0,0,14,0.0,16431,344929933074520,42,40.5620002746582,653.9256232050967,0.14999,16,0.0,0.0,1575420030,,,,0,28.39835816557403,1,6.0,40.5620002746582,0.0,0.0,0.0,66.7128,C,25396046000000,
Raw,1732146512001,36706000000,,72.7625555877548,-1416181693295000064,0.0,72.7625555877548,2213.848025467668,0.0,0,13,0.0,16431,344929930292168,51,35.52899932861328,367.1973331686094,0.14999,17,13133.082275643854,0.00022499999613501132,1575420030,,,,0,22.948578832863127,1,6.0,35.52899932861328,0.0,0.0,0.0,66.7128,C,25396046000000,
Raw,1732146512001,36706000000,,72.7625555877548,-1416181693295000064,0.0,72.7625555877548,2213.848025467668,0.0,0,21,0.0,16431,344929920030629,74,29.299999237060547,489.6382567994021,0.14999,16,0.0,0.0,1575420030,,,,0,16.188858118344598,6,6.0,29.299999237060547,0.0,0.0,4.489170076688367,66.7128,C,25396046000000,
Raw,1732146512001,36706000000,,72.7625555877548,-1416181693295000064,0.0,72.7625555877548,2213.848025467668,0.0,0,29,0.0,16431,344929921129891,58,33.900001525878906,955.1217609257886,0.14999,16,0.0,0.0,1575420030,,,,0,21.27029745283856,6,6.0,33.900001525878906,0.0,0.0,4.489170076688367,66.7128,C,25396046000000,
Raw,1732146512001,36706000000,,72.7625555877548,-1416181693295000064,0.0,72.7625555877548,2213.848025467668,0.0,0,19,0.0,16431,344929920423691,316,23.399999618530273,478.7037110432574,0.14999,16,0.0,0.0,1575420030,,,,0,8.97908284030371,6,6.0,23.399999618530273,0.0,0.0,4.489170076688367,66.7128,C,25396046000000,
Raw,1732146512001,36706000000,,72.7625555877548,-1416181693295000064,0.0,72.7625555877548,2213.848025467668,0.0,0,27,0.0,16431,344929920254725,51,34.79999923706055,912.3072641323078,0.14999,16,0.0,0.0,1575420030,,,,0,22.182441245805045,6,6.0,34.79999923706055,0.0,0.0,4.489170076688367,66.7128,C,25396046000000,
Raw,1732146512001,36706000000,,72.7625555877548,-1416181693295000064,0.0,72.7625555877548,2213.848025467668,0.0,0,9,0.0,32995,10111933913846,396,5.0,796.0612855084195,0.14999,16,0.0,0.0,1600875010,,,,0,8.451777304392213,3,6.0,23.0,0.0,0.0,34.403556501389495,66.7128,C,25396046000000,
Raw,1732146512001,36706000000,,72.7625555877548,-1416181693295000064,0.0,72.7625555877548,2213.848025467668,0.0,0,8,0.0,32995,10111930595019,58,5.0,482.9236428875056,0.14999,17,17332.770671068378,0.00039999998989515007,1605374980,,,,0,21.562732551848104,3,6.0,34.0,0.0,0.0,34.403556501389495,66.7128,C,25396046000000,
Raw,1732146512001,36706000000,,72.7625555877548,-1416181693295000064,0.0,72.7625555877548,2213.848025467668,0.0,0,16,0.0,17,392868,797,5.0,1151.214194063702,0.14999,16,0.0,0.0,1601437440,,,,0,0.0,3,6.0,16.0,0.0,0.0,34.403556501389495,66.7128,C,25396046000000,
Raw,1732146512001,36706000000,,72.7625555877548,-1416181693295000064,0.0,72.7625555877548,2213.848025467668,0.0,0,20,0.0,17,418499,797,5.0,-118.93064117657286,0.14999,16,0.0,0.0,1603124990,,,,0,0.053097265975903696,3,6.0,16.0,0.0,0.0,34.403556501389495,66.7128,C,25396046000000,
Raw,1732146512001,36706000000,,72.7625555877548,-1416181693295000064,0.0,72.7625555877548,2213.848025467668,0.0,0,15,0.0,16431,344929922620103,42,39.09199905395508,184.1531710109856,0.14999,16,0.0,0.0,1575420030,,,,0,26.831121221777195,1,6.0,39.09199905395508,0.0,0.0,0.0,66.7128,C,25396046000000,
Raw,1732146512001,36706000000,,72.7625555877548,-1416181693295000064,0.0,72.7625555877548,2213.848025467668,0.0,0,19,0.0,16431,344929921011458,316,28.08300018310547,-32.91286100494512,0.14999,16,0.0,0.0,1575420030,,,,0,14.155729157694235,1,6.0,28.08300018310547,0.0,0.0,0.0,66.7128,C,25396046000000,
Raw,1732146512001,36706000000,,72.7625555877548,-1416181693295000064,0.0,72.7625555877548,2213.848025467668,0.0,0,7,0.0,16431,344929926868003,51,38.24599838256836,1019.866488507292,0.14999,16,0.0,0.0,1575420030,,,,0,25.923362309625873,1,6.0,38.24599838256836,0.0,0.0,0.0,66.7128,C,25396046000000,
Raw,1732146512001,36706000000,,72.7625555877548,-1416181693295000064,0.0,72.7625555877548,2213.848025467668,0.0,0,17,0.0,16431,344929929586888,51,37.361000061035156,181.5733816172306,0.14999,16,0.0,0.0,1575420030,,,,0,24.964715362561506,1,6.0,37.361000061035156,0.0,0.0,0.0,66.7128,C,25396046000000,
Raw,1732146512001,36706000000,,72.7625555877548,-1416181693295000064,0.0,72.7625555877548,2213.848025467668,0.0,0,22,0.0,16431,344929930893316,74,31.055999755859375,507.3607023728199,0.14999,16,0.0,0.0,1575420030,,,,0,17.817325109147326,1,6.0,31.055999755859375,0.0,0.0,0.0,66.7128,C,25396046000000,
Fix,FLP,37.4243715000,-122.1712653000,-0.6165938370384554,0.007509661,1.65,,1732146512199,0.8,,25396046000000,0.9010725,0,,,
Status,1732146512000,29,0,1,14,1575420030,42.40,323.0,74.0,1,0,0,37.4
Status,1732146512000,29,1,1,30,1575420030,42.00,76.0,69.0,1,0,0,37.0
Status,1732146512000,29,2,1,22,1575420030,37.00,272.0,60.0,1,0,0,32.0
Status,1732146512000,29,3,1,13,1575420030,44.60,302.0,48.0,1,0,0,39.6
Status,1732146512000,29,4,1,17,1575420030,34.60,175.0,45.0,1,0,0,29.599998
Status,1732146512000,29,5,1,7,1575420030,44.70,104.0,37.0,1,0,0,39.7
Status,1732146512000,29,6,2,131,1575420030,46.00,3.0,23.0,0,0,0,41.0
Status,1732146512000,29,7,1,19,1575420030,31.40,193.0,18.0,1,0,0,26.4
Status,1732146512000,29,8,1,15,1575420030,38.20,315.0,18.0,1,0,0,33.2
Status,1732146512000,29,9,1,2,1575420030,0.00,87.0,17.0,0,0,0,0.0
Status,1732146512000,29,10,1,21,1575420030,0.00,68.0,14.0,0,0,0,0.0
Status,1732146512000,29,11,1,8,1575420030,0.00,39.0,8.0,0,0,0,0.0
Status,1732146512000,29,12,1,5,1575420030,27.00,262.0,6.0,1,0,0,22.0
Status,1732146512000,29,13,3,9,1602000000,31.90,18.0,53.0,1,0,0,26.9
Status,1732146512000,29,14,3,8,1602000000,35.20,302.0,39.0,1,0,0,30.2
Status,1732146512000,29,15,3,16,1602000000,21.20,68.0,14.0,1,0,0,16.2
Status,1732146512000,29,16,3,20,1602000000,22.10,149.0,11.0,1,0,0,17.1
Status,1732146512000,29,17,3,11,1602000000,0.00,272.0,2.0,0,0,0,0.0
Status,1732146512000,29,18,3,17,1602000000,39.20,0.0,0.0,0,0,0,34.2
Status,1732146512000,29,19,6,29,1575420030,29.00,204.0,61.0,1,0,0,24.0
Status,1732146512000,29,20,6,27,1575420030,40.90,37.0,58.0,1,0,0,35.9
Status,1732146512000,29,21,6,21,1575420030,33.00,269.0,57.0,1,0,0,28.0
Status,1732146512000,29,22,6,19,1575420030,28.60,297.0,51.0,1,0,0,23.6
Status,1732146512000,29,23,6,7,1575420030,0.00,161.0,16.0,0,0,0,0.0
Status,1732146512000,29,24,6,15,1575420030,0.00,94.0,11.0,0,0,0,0.0
Status,1732146512000,29,25,6,30,1575420030,0.00,59.0,10.0,0,0,0,0.0
Status,1732146512000,29,26,6,34,1575420030,0.00,47.0,6.0,0,0,0,0.0
Status,1732146512000,29,27,6,4,1575420030,0.00,326.0,1.0,0,0,0,0.0
Status,1732146512000,29,28,6,13,1575420030,0.00,142.0,1.0,0,0,0,0.0
Fix,GPS,37.4243716667,-122.1712683333,14.7,0.0,1.6,229.74,1732146513000,0.9,179.9,25397046000000,26.8,0,,,
Raw,1732146513001,37706000000,,70.97354735073701,-1416181693295000064,0.0,70.97354735073701,2213.76211295855,0.0,0,30,0.0,16431,344930932155694,51,36.98099899291992,755.4195619685466,0.14999,17,28138.11145139535,0.00022499999613501132,1575420030,,,,0,23.73444000569666,1,6.0,36.98099899291992,0.0,0.0,0.0,66.7128,C,25397046000000,
Raw,1732146513001,37706000000,,70.97354735073701,-1416181693295000064,0.0,70.97354735073701,2213.76211295855,0.0,0,5,0.0,16431,344930916806545,487,21.966999053955078,1103.2416914070484,0.14999,16,0.0,0.0,1575420030,,,,0,5.494297756421953,1,6.0,21.966999053955078,0.0,0.0,0.0,66.7128,C,25397046000000,
Raw,1732146513001,37706000000,,70.97354735073701,-1416181693295000064,0.0,70.97354735073701,2213.76211295855,0.0,0,14,0.0,16431,344930933072342,51,37.38100051879883,653.9009073276727,0.14999,17,24324.35934201134,0.00022499999613501132,1575420030,,,,0,24.980415122168992,1,6.0,37.38100051879883,0.0,0.0,0.0,66.7128,C,25397046000000,
Raw,1732146513001,37706000000,,70.97354735073701,-1416181693295000064,0.0,70.97354735073701,2213.76211295855,0.0,0,13,0.0,16431,344930930290944,42,39.55400085449219,366.842181805888,0.14999,17,13500.144077997775,0.00022499999613501132,1575420030,,,,0,27.32389508704051,1,6.0,39.55400085449219,0.0,0.0,0.0,66.7128,C,25397046000000,
Raw,1732146513001,37706000000,,70.97354735073701,-1416181693295000064,0.0,70.97354735073701,2213.76211295855,0.0,0,21,0.0,16431,344930920028998,74,28.0,489.17381201254534,0.14999,16,0.0,0.0,1575420030,,,,0,14.710335996597262,6,6.0,28.0,0.0,0.0,4.742996092449772,66.7128,C,25397046000000,
Raw,1732146513001,37706000000,,70.97354735073701,-1416181693295000064,0.0,70.97354735073701,2213.76211295855,0.0,0,29,0.0,16431,344930921126708,316,24.0,955.3929851596258,0.14999,16,0.0,0.0,1575420030,,,,0,9.827159811365455,6,6.0,24.0,0.0,0.0,4.742996092449772,66.7128,C,25397046000000,
Raw,1732146513001,37706000000,,70.97354735073701,-1416181693295000064,0.0,70.97354735073701,2213.76211295855,0.0,0,19,0.0,16431,344930920422094,396,23.600000381469727,478.5599222450858,0.14999,16,0.0,0.0,1575420030,,,,0,9.318797800116723,6,6.0,23.600000381469727,0.0,0.0,4.742996092449772,66.7128,C,25397046000000,
Raw,1732146513001,37706000000,,70.97354735073701,-1416181693295000064,0.0,70.97354735073701,2213.76211295855,0.0,0,27,0.0,16431,344930920251693,51,35.900001525878906,912.133230905183,0.14999,16,0.0,0.0,1575420030,,,,0,23.41167873417069,6,6.0,35.900001525878906,0.0,0.0,4.742996092449772,66.7128,C,25397046000000,
Raw,1732146513001,37706000000,,70.97354735073701,-1416181693295000064,0.0,70.97354735073701,2213.76211295855,0.0,0,9,0.0,32995,10112933911196,316,5.0,796.1825341417681,0.14999,16,0.0,0.0,1600875010,,,,0,13.40225975246458,3,6.0,26.0,0.0,0.0,34.77512300118003,66.7128,C,25397046000000,
Raw,1732146513001,37706000000,,70.97354735073701,-1416181693295000064,0.0,70.97354735073701,2213.76211295855,0.0,0,8,0.0,32995,10112930593406,74,5.0,482.0030129260854,0.14999,16,0.0,0.0,1605374980,,,,0,17.24338722836404,3,6.0,30.0,0.0,0.0,34.77512300118003,66.7128,C,25397046000000,
Raw,1732146513001,37706000000,,70.97354735073701,-1416181693295000064,0.0,70.97354735073701,2213.76211295855,0.0,0,16,0.0,17,389029,487,5.0,1151.2588922206196,0.14999,16,0.0,0.0,1601437440,,,,0,0.0,3,6.0,19.0,0.0,0.0,34.77512300118003,66.7128,C,25397046000000,
Raw,1732146513001,37706000000,,70.97354735073701,-1416181693295000064,0.0,70.97354735073701,2213.76211295855,0.0,0,20,0.0,17,418913,487,5.0,-119.94410258353619,0.14999,16,0.0,0.0,1603124990,,,,0,1.869245546399953,3,6.0,19.0,0.0,0.0,34.77512300118003,66.7128,C,25397046000000,
Raw,1732146513001,37706000000,,70.97354735073701,-1416181693295000064,0.0,70.97354735073701,2213.76211295855,0.0,0,15,0.0,16431,344930922619483,58,33.222999572753906,184.1068984284399,0.14999,16,0.0,0.0,1575420030,,,,0,20.345123532447786,1,6.0,33.222999572753906,0.0,0.0,0.0,66.7128,C,25397046000000,
Raw,1732146513001,37706000000,,70.97354735073701,-1416181693295000064,0.0,70.97354735073701,2213.76211295855,0.0,0,19,0.0,16431,344930921011569,316,26.409000396728516,-31.983785597566776,0.14999,16,0.0,0.0,1575420030,,,,0,11.965044489658602,1,6.0,26.409000396728516,0.0,0.0,0.0,66.7128,C,25397046000000,
Raw,1732146513001,37706000000,,70.97354735073701,-1416181693295000064,0.0,70.97354735073701,2213.76211295855,0.0,0,7,0.0,16431,344930926864604,42,39.66699981689453,1019.5371912531918,0.14999,17,33857.07175687759,0.00022499999613501132,1575420030,,,,0,27.44874575297945,1,6.0,39.66699981689453,0.0,0.0,0.0,66.7128,C,25397046000000,
Raw,1732146513001,37706000000,,70.97354735073701,-1416181693295000064,0.0,70.97354735073701,2213.76211295855,0.0,0,17,0.0,16431,344930929586289,235,29.593000411987305,181.72776293429826,0.14999,16,0.0,0.0,1575420030,,,,0,16.058404257339305,1,6.0,29.593000411987305,0.0,0.0,0.0,66.7128,C,25397046000000,
Raw,1732146513001,37706000000,,70.97354735073701,-1416181693295000064,0.0,70.97354735073701,2213.76211295855,0.0,0,22,0.0,16431,344930930891628,74,32.01100158691406,505.7245763291334,0.14999,16,0.0,0.0,1575420030,,,,0,18.94018607140982,1,6.0,32.01100158691406,0.0,0.0,0.0,66.7128,C,25397046000000,
Fix,FLP,37.4243716000,-122.1712667000,-0.9082546122360053,0.0035441609,1.65,,1732146513198,0.9,,25397046000000,0.9208581,0,,,
Status,1732146513000,29,0,1,14,1575420030,40.90,323.0,74.0,1,0,0,35.9
Status,1732146513000,29,1,1,30,1575420030,47.70,76.0,69.0,1,0,0,42.7
Status,1732146513000,29,2,1,22,1575420030,45.10,272.0,60.0,1,0,0,40.1
Status,1732146513000,29,3,1,13,1575420030,39.50,302.0,48.0,1,0,0,34.5
Status,1732146513000,29,4,1,17,1575420030,39.90,175.0,45.0,1,0,0,34.9
Status,1732146513000,29,5,1,7,1575420030,32.90,104.0,37.0,1,0,0,27.900002
Status,1732146513000,29,6,2,131,1575420030,39.00,3.0,23.0,0,0,0,34.0
Status,1732146513000,29,7,1,19,1575420030,36.10,193.0,18.0,1,0,0,31.099998
Status,1732146513000,29,8,1,15,1575420030,40.10,315.0,18.0,1,0,0,35.1
Status,1732146513000,29,9,1,2,1575420030,0.00,87.0,17.0,0,0,0,0.0
Status,1732146513000,29,10,1,21,1575420030,0.00,68.0,14.0,0,0,0,0.0
Status,1732146513000,29,11,1,8,1575420030,0.00,39.0,8.0,0,0,0,0.0
Status,1732146513000,29,12,1,5,1575420030,27.00,262.0,6.0,1,0,0,22.0
Status,1732146513000,29,13,3,9,1602000000,32.00,18.0,53.0,1,0,0,27.0
Status,1732146513000,29,14,3,8,1602000000,29.60,302.0,39.0,1,0,0,24.6
Status,1732146513000,29,15,3,16,1602000000,24.10,68.0,14.0,1,0,0,19.1
Status,1732146513000,29,16,3,20,1602000000,26.80,149.0,11.0,1,0,0,21.8
Status,1732146513000,29,17,3,11,1602000000,0.00,272.0,2.0,0,0,0,0.0
Status,1732146513000,29,18,3,17,1602000000,37.70,0.0,0.0,0,0,0,32.7
Status,1732146513000,29,19,6,29,1575420030,38.40,204.0,61.0,1,0,0,33.4
Status,1732146513000,29,20,6,27,1575420030,38.60,37.0,58.0,1,0,0,33.6
Status,1732146513000,29,21,6,21,1575420030,39.00,269.0,57.0,1,0,0,34.0
Status,1732146513000,29,22,6,19,1575420030,37.00,297.0,51.0,1,0,0,32.0
Status,1732146513000,29,23,6,7,1575420030,0.00,161.0,16.0,0,0,0,0.0
Status,1732146513000,29,24,6,15,1575420030,0.00,94.0,11.0,0,0,0,0.0
Status,1732146513000,29,25,6,30,1575420030,0.00,59.0,10.0,0,0,0,0.0
Status,1732146513000,29,26,6,34,1575420030,0.00,47.0,6.0,0,0,0,0.0
Status,1732146513000,29,27,6,4,1575420030,0.00,326.0,1.0,0,0,0,0.0
Status,1732146513000,29,28,6,13,1575420030,0.00,142.0,1.0,0,0,0,0.0
Fix,GPS,37.4243716667,-122.1712683333,14.7,0.0,1.7,229.74,1732146514000,0.9,179.9,25398046000000,25.5,0,,,
Raw,1732146514001,38706000000,,67.82124042446712,-1416181693295000064,0.0,67.82124042446712,2210.228387766988,0.0,0,30,0.0,16431,344931932153172,31,42.742000579833984,754.493738650303,0.14999,17,28892.62988269387,0.00022499999613501132,1575420030,,,,0,30.695725516123453,1,6.0,42.742000579833984,0.0,0.0,0.0,66.7128,C,25398046000000,
Raw,1732146514001,38706000000,,67.82124042446712,-1416181693295000064,0.0,67.82124042446712,2210.228387766988,0.0,0,5,0.0,16431,344931916802872,487,21.966999053955078,1101.1437222478128,0.14999,16,0.0,0.0,1575420030,,,,0,5.494297756421953,1,6.0,21.966999053955078,0.0,0.0,0.0,66.7128,C,25398046000000,
Raw,1732146514001,38706000000,,67.82124042446712,-1416181693295000064,0.0,67.82124042446712,2210.228387766988,0.0,0,14,0.0,16431,344931933070164,51,35.90800094604492,653.3215708775273,0.14999,16,0.0,0.0,1575420030,,,,0,23.364575095748776,1,6.0,35.90800094604492,0.0,0.0,0.0,66.7128,C,25398046000000,
Raw,1732146514001,38706000000,,67.82124042446712,-1416181693295000064,0.0,67.82124042446712,2210.228387766988,0.0,0,13,0.0,16431,344931930289717,58,34.527000427246094,366.71871856480846,0.14999,17,13866.355787155524,0.00039999998989515007,1575420030,,,,0,21.828993285355615,1,6.0,34.527000427246094,0.0,0.0,0.0,66.7128,C,25398046000000,
Raw,1732146514001,38706000000,,67.82124042446712,-1416181693295000064,0.0,67.82124042446712,2210.228387766988,0.0,0,15,0.0,16431,344931922618836,58,35.0989990234375,183.43157889040353,0.14999,16,0.0,0.0,1575420030,,,,0,22.469868231474443,1,6.0,35.0989990234375,0.0,0.0,0.0,66.7128,C,25398046000000,
Raw,1732146514001,38706000000,,67.82124042446712,-1416181693295000064,0.0,67.82124042446712,2210.228387766988,0.0,0,21,0.0,16431,344931920027362,58,34.0,488.48580932688344,0.14999,16,0.0,0.0,1575420030,,,,0,21.33020037742575,6,6.0,34.0,0.0,0.0,4.8753843733432305,66.7128,C,25398046000000,
Raw,1732146514001,38706000000,,67.82124042446712,-1416181693295000064,0.0,67.82124042446712,2210.228387766988,0.0,0,29,0.0,16431,344931921123523,58,33.400001525878906,954.1668546389973,0.14999,16,0.0,0.0,1575420030,,,,0,20.72453746418197,6,6.0,33.400001525878906,0.0,0.0,4.8753843733432305,66.7128,C,25398046000000,
Raw,1732146514001,38706000000,,67.82124042446712,-1416181693295000064,0.0,67.82124042446712,2210.228387766988,0.0,0,19,0.0,16431,344931920420497,74,32.0,477.8313613620721,0.14999,16,0.0,0.0,1575420030,,,,0,19.188149804741922,6,6.0,32.0,0.0,0.0,4.8753843733432305,66.7128,C,25398046000000,
Raw,1732146514001,38706000000,,67.82124042446712,-1416181693295000064,0.0,67.82124042446712,2210.228387766988,0.0,0,27,0.0,16431,344931920248653,58,33.599998474121094,911.0161847458169,0.14999,17,34599.74918064667,0.00039999998989515007,1575420030,,,,0,20.98929480082378,6,6.0,33.599998474121094,0.0,0.0,4.8753843733432305,66.7128,C,25398046000000,
Raw,1732146514001,38706000000,,67.82124042446712,-1416181693295000064,0.0,67.82124042446712,2210.228387766988,0.0,0,9,0.0,32995,10113933908539,316,5.0,795.1669168185373,0.14999,16,0.0,0.0,1600875010,,,,0,13.519374645445621,3,6.0,25.0,0.0,0.0,34.462563189813785,66.7128,C,25398046000000,
Raw,1732146514001,38706000000,,67.82124042446712,-1416181693295000064,0.0,67.82124042446712,2210.228387766988,0.0,0,8,0.0,32995,10113930591792,316,5.0,481.85415654892313,0.14999,16,0.0,0.0,1605374980,,,,0,10.535228418740889,3,6.0,25.0,0.0,0.0,34.462563189813785,66.7128,C,25398046000000,
Raw,1732146514001,38706000000,,67.82124042446712,-1416181693295000064,0.0,67.82124042446712,2210.228387766988,0.0,0,16,0.0,17,385189,487,5.0,1149.7097217432336,0.14999,16,0.0,0.0,1601437440,,,,0,2.84732243200341,3,6.0,19.0,0.0,0.0,34.462563189813785,66.7128,C,25398046000000,
Raw,1732146514001,38706000000,,67.82124042446712,-1416181693295000064,0.0,67.82124042446712,2210.228387766988,0.0,0,20,0.0,17,419325,487,5.0,-119.77837301748173,0.14999,16,0.0,0.0,1603124990,,,,0,6.846285226378146,3,6.0,20.0,0.0,0.0,34.462563189813785,66.7128,C,25398046000000,
Raw,1732146514001,38706000000,,67.82124042446712,-1416181693295000064,0.0,67.82124042446712,2210.228387766988,0.0,0,19,0.0,16431,344931921011678,74,31.06999969482422,-33.100553006435696,0.14999,16,0.0,0.0,1575420030,,,,0,17.835197316354265,1,6.0,31.06999969482422,0.0,0.0,0.0,66.7128,C,25398046000000,
Raw,1732146514001,38706000000,,67.82124042446712,-1416181693295000064,0.0,67.82124042446712,2210.228387766988,0.0,0,7,0.0,16431,344931926861202,235,27.864999771118164,1018.586837891189,0.14999,16,0.0,0.0,1575420030,,,,0,13.87864379165206,1,6.0,27.864999771118164,0.0,0.0,0.0,66.7128,C,25398046000000,
Raw,1732146514001,38706000000,,67.82124042446712,-1416181693295000064,0.0,67.82124042446712,2210.228387766988,0.0,0,17,0.0,16431,344931929585685,58,34.90700149536133,181.34736142236636,0.14999,16,0.0,0.0,1575420030,,,,0,22.257877486054703,1,6.0,34.90700149536133,0.0,0.0,0.0,66.7128,C,25398046000000,
Raw,1732146514001,38706000000,,67.82124042446712,-1416181693295000064,0.0,67.82124042446712,2210.228387766988,0.0,0,22,0.0,16431,344931930889942,42,40.07500076293945,505.8131725288469,0.14999,16,0.0,0.0,1575420030,,,,0,27.880538911050806,1,6.0,40.07500076293945,0.0,0.0,0.0,66.7128,C,25398046000000,
Fix,FLP,37.4243716000,-122.1712675000,-0.8067274232142969,0.0017690039,1.65,,1732146514198,0.9,,25398046000000,0.9266899,0,,,
Status,1732146514000,29,0,1,14,1575420030,46.40,323.0,74.0,1,0,0,41.4
Status,1732146514000,29,1,1,30,1575420030,47.70,76.0,69.0,1,0,0,42.7
Status,1732146514000,29,2,1,22,1575420030,36.70,272.0,60.0,1,0,0,31.7
Status,1732146514000,29,3,1,13,1575420030,46.20,302.0,48.0,1,0,0,41.2
Status,1732146514000,29,4,1,17,1575420030,41.80,175.0,45.0,1,0,0,36.8
Status,1732146514000,29,5,1,7,1575420030,34.30,104.0,37.0,1,0,0,29.3
Status,1732146514000,29,6,2,131,1575420030,36.00,3.0,23.0,0,0,0,31.0
Status,1732146514000,29,7,1,19,1575420030,35.10,193.0,18.0,1,0,0,30.099998
Status,1732146514000,29,8,1,15,1575420030,34.50,315.0,18.0,1,0,0,29.5
Status,1732146514000,29,9,1,2,1575420030,30.90,87.0,17.0,1,0,0,25.9
Status,1732146514000,29,10,1,21,1575420030,0.00,68.0,14.0,0,0,0,0.0
Status,1732146514000,29,11,1,8,1575420030,0.00,39.0,8.0,0,0,0,0.0
Status,1732146514000,29,12,1,5,1575420030,23.70,262.0,6.0,1,0,0,18.7
Status,1732146514000,29,13,3,9,1602000000,34.10,18.0,53.0,1,0,0,29.099998
Status,1732146514000,29,14,3,8,1602000000,33.70,302.0,39.0,1,0,0,28.7
Status,1732146514000,29,15,3,16,1602000000,20.90,68.0,14.0,1,0,0,15.9
Status,1732146514000,29,16,3,20,1602000000,26.80,149.0,11.0,1,0,0,21.8
Status,1732146514000,29,17,3,11,1602000000,0.00,272.0,2.0,0,0,0,0.0
Status,1732146514000,29,18,3,17,1602000000,35.30,0.0,0.0,0,0,0,30.3
Status,1732146514000,29,19,6,29,1575420030,39.20,204.0,61.0,1,0,0,34.2
Status,1732146514000,29,20,6,27,1575420030,40.00,37.0,58.0,1,0,0,35.0
Status,1732146514000,29,21,6,21,1575420030,36.20,269.0,57.0,1,0,0,31.2
Status,1732146514000,29,22,6,19,1575420030,36.40,297.0,51.0,1,0,0,31.400002
Status,1732146514000,29,23,6,7,1575420030,0.00,161.0,16.0,0,0,0,0.0
Status,1732146514000,29,24,6,15,1575420030,0.00,94.0,11.0,0,0,0,0.0
Status,1732146514000,29,25,6,30,1575420030,0.00,59.0,10.0,0,0,0,0.0
Status,1732146514000,29,26,6,34,1575420030,0.00,47.0,6.0,0,0,0,0.0
Status,1732146514000,29,27,6,4,1575420030,0.00,326.0,1.0,0,0,0,0.0
Status,1732146514000,29,28,6,13,1575420030,0.00,142.0,1.0,0,0,0,0.0
Fix,GPS,37.4243716667,-122.1712683333,14.7,0.0,1.7,229.74,1732146515000,0.8,80.5,25399046000000,26.7,0,,,
Fix,FLP,37.4243717000,-122.1712679000,-0.890175829970099,0.0007667562,1.65,,1732146515198,0.8,,25399046000000,0.9366951,0,,,
Raw,1732146515001,39706000000,,71.21380425013139,-1416181693295000064,0.0,71.21380425013139,2206.6950119626113,0.0,0,30,0.0,16431,344932932150658,31,42.707000732421875,753.2252845125067,0.14999,17,29646.548974290414,0.00022499999613501132,1575420030,,,,0,29.967419439182162,1,6.0,42.707000732421875,0.0,0.0,0.0,66.7128,C,25399046000000,
Raw,1732146515001,39706000000,,71.21380425013139,-1416181693295000064,0.0,71.21380425013139,2206.6950119626113,0.0,0,5,0.0,16431,344932916799194,797,18.72800064086914,1101.9940970981306,0.14999,16,0.0,0.0,1575420030,,,,0,0.011140771148355988,1,6.0,18.72800064086914,0.0,0.0,0.0,66.7128,C,25399046000000,
Raw,1732146515001,39706000000,,71.21380425013139,-1416181693295000064,0.0,71.21380425013139,2206.6950119626113,0.0,0,14,0.0,16431,344932933067985,31,41.40700149536133,652.2985565525712,0.14999,17,25630.06439832992,0.00022499999613501132,1575420030,,,,0,29.292581622711936,1,6.0,41.40700149536133,0.0,0.0,0.0,66.7128,C,25399046000000,
Raw,1732146515001,39706000000,,71.21380425013139,-1416181693295000064,0.0,71.21380425013139,2206.6950119626113,0.0,0,13,0.0,16431,344932930288494,42,41.24300003051758,365.7465065179787,0.14999,16,0.0,0.0,1575420030,,,,0,29.11900269775431,1,6.0,41.24300003051758,0.0,0.0,0.0,66.7128,C,25399046000000,
Raw,1732146515001,39706000000,,71.21380425013139,-1416181693295000064,0.0,71.21380425013139,2206.6950119626113,0.0,0,15,0.0,16431,344932922618230,235,29.527000427246094,183.10729914525396,0.14999,16,0.0,0.0,1575420030,,,,0,15.970333645892278,1,6.0,29.527000427246094,0.0,0.0,0.0,66.7128,C,25399046000000,
Raw,1732146515001,39706000000,,71.21380425013139,-1416181693295000064,0.0,71.21380425013139,2206.6950119626113,0.0,0,21,0.0,16431,344932920025733,74,31.200000762939453,488.4408375799917,0.14999,16,0.0,0.0,1575420030,,,,0,18.28741781882269,6,6.0,31.200000762939453,0.0,0.0,5.028625876163709,66.7128,C,25399046000000,
Raw,1732146515001,39706000000,,71.21380425013139,-1416181693295000064,0.0,71.21380425013139,2206.6950119626113,0.0,0,29,0.0,16431,344932921120339,58,34.20000076293945,954.3420957849435,0.14999,16,0.0,0.0,1575420030,,,,0,21.588973167952815,6,6.0,34.20000076293945,0.0,0.0,5.028625876163709,66.7128,C,25399046000000,
Raw,1732146515001,39706000000,,71.21380425013139,-1416181693295000064,0.0,71.21380425013139,2206.6950119626113,0.0,0,19,0.0,16431,344932920418899,58,31.399999618530273,477.91902839346136,0.14999,16,0.0,0.0,1575420030,,,,0,18.521507934696956,6,6.0,31.399999618530273,0.0,0.0,5.028625876163709,66.7128,C,25399046000000,
Raw,1732146515001,39706000000,,71.21380425013139,-1416181693295000064,0.0,71.21380425013139,2206.6950119626113,0.0,0,27,0.0,16431,344932920245617,51,35.0,910.4010753151894,0.14999,16,0.0,0.0,1575420030,,,,0,22.39625855670709,6,6.0,35.0,0.0,0.0,5.028625876163709,66.7128,C,25399046000000,
Raw,1732146515001,39706000000,,71.21380425013139,-1416181693295000064,0.0,71.21380425013139,2206.6950119626113,0.0,0,9,0.0,32995,10114933905885,235,5.0,793.6525890531618,0.14999,16,0.0,0.0,1600875010,,,,0,15.998739560287472,3,6.0,29.0,0.0,0.0,34.764086995737195,66.7128,C,25399046000000,
Raw,1732146515001,39706000000,,71.21380425013139,-1416181693295000064,0.0,71.21380425013139,2206.6950119626113,0.0,0,8,0.0,32995,10114930590184,235,5.0,481.37571893117723,0.14999,16,0.0,0.0,1605374980,,,,0,15.476436779768232,3,6.0,28.0,0.0,0.0,34.764086995737195,66.7128,C,25399046000000,
Raw,1732146515001,39706000000,,71.21380425013139,-1416181693295000064,0.0,71.21380425013139,2206.6950119626113,0.0,0,16,0.0,17,381410,797,5.0,1151.644448101763,0.14999,16,0.0,0.0,1601437440,,,,0,0.0,3,6.0,15.0,0.0,0.0,34.764086995737195,66.7128,C,25399046000000,
Raw,1732146515001,39706000000,,71.21380425013139,-1416181693295000064,0.0,71.21380425013139,2206.6950119626113,0.0,0,20,0.0,17,419724,797,5.0,-119.8717842274397,0.14999,16,0.0,0.0,1603124990,,,,0,6.846285226378146,3,6.0,17.0,0.0,0.0,34.764086995737195,66.7128,C,25399046000000,
Raw,1732146515001,39706000000,,71.21380425013139,-1416181693295000064,0.0,71.21380425013139,2206.6950119626113,0.0,0,2,0.0,16431,344932920456574,316,25.91200065612793,449.41632546413405,0.14999,16,0.0,0.0,1575420030,,,,0,11.309194221732453,1,6.0,25.91200065612793,0.0,0.0,0.0,66.7128,C,25399046000000,
Raw,1732146515001,39706000000,,71.21380425013139,-1416181693295000064,0.0,71.21380425013139,2206.6950119626113,0.0,0,19,0.0,16431,344932921011794,74,30.05699920654297,-33.714779727155225,0.14999,16,0.0,0.0,1575420030,,,,0,16.610074689981076,1,6.0,30.05699920654297,0.0,0.0,0.0,66.7128,C,25399046000000,
Raw,1732146515001,39706000000,,71.21380425013139,-1416181693295000064,0.0,71.21380425013139,2206.6950119626113,0.0,0,7,0.0,16431,344932926857807,235,29.309999465942383,1017.7210388466895,0.14999,16,0.0,0.0,1575420030,,,,0,15.700633646398682,1,6.0,29.309999465942383,0.0,0.0,0.0,66.7128,C,25399046000000,
Raw,1732146515001,39706000000,,71.21380425013139,-1416181693295000064,0.0,71.21380425013139,2206.6950119626113,0.0,0,17,0.0,16431,344932929585081,51,36.79100036621094,180.44662564887645,0.14999,17,23728.360090174996,0.00022499999613501132,1575420030,,,,0,24.337626344881706,1,6.0,36.79100036621094,0.0,0.0,0.0,66.7128,C,25399046000000,
Raw,1732146515001,39706000000,,71.21380425013139,-1416181693295000064,0.0,71.21380425013139,2206.6950119626113,0.0,0,22,0.0,16431,344932930888256,74,31.74799919128418,505.389518231423,0.14999,16,0.0,0.0,1575420030,,,,0,18.636228899476627,1,6.0,31.74799919128418,0.0,0.0,0.0,66.7128,C,25399046000000,
Status,1732146515000,29,0,1,14,1575420030,42.80,323.0,74.0,1,0,0,37.8
Status,1732146515000,29,1,1,30,1575420030,43.90,76.0,69.0,1,0,0,38.9
Status,1732146515000,29,2,1,22,1575420030,42.30,272.0,60.0,1,0,0,37.3
Status,1732146515000,29,3,1,13,1575420030,38.10,302.0,48.0,1,0,0,33.1
Status,1732146515000,29,4,1,17,1575420030,45.20,175.0,45.0,1,0,0,40.2
Status,1732146515000,29,5,1,7,1575420030,31.20,104.0,37.0,1,0,0,26.2
Status,1732146515000,29,6,2,131,1575420030,37.00,3.0,23.0,0,0,0,32.0
Status,1732146515000,29,7,1,19,1575420030,42.80,193.0,18.0,1,0,0,37.8
Status,1732146515000,29,8,1,15,1575420030,0.00,315.0,18.0,0,0,0,0.0
Status,1732146515000,29,9,1,2,1575420030,30.20,87.0,17.0,1,0,0,25.2
Status,1732146515000,29,10,1,21,1575420030,0.00,68.0,14.0,0,0,0,0.0
Status,1732146515000,29,11,1,8,1575420030,0.00,39.0,8.0,0,0,0,0.0
Status,1732146515000,29,12,1,5,1575420030,23.70,262.0,6.0,1,0,0,18.7
Status,1732146515000,29,13,3,9,1602000000,38.70,18.0,53.0,1,0,0,33.7
Status,1732146515000,29,14,3,8,1602000000,32.50,302.0,39.0,1,0,0,27.5
Status,1732146515000,29,15,3,16,1602000000,20.90,68.0,14.0,1,0,0,15.9
Status,1732146515000,29,16,3,20,1602000000,26.80,149.0,11.0,1,0,0,21.8
Status,1732146515000,29,17,3,11,1602000000,0.00,272.0,2.0,0,0,0,0.0
Status,1732146515000,29,18,3,17,1602000000,38.10,0.0,0.0,0,0,0,33.1
Status,1732146515000,29,19,6,29,1575420030,36.80,204.0,61.0,1,0,0,31.8
Status,1732146515000,29,20,6,27,1575420030,42.70,37.0,58.0,1,0,0,37.7
Status,1732146515000,29,21,6,21,1575420030,29.70,269.0,57.0,1,0,0,24.7
Status,1732146515000,29,22,6,19,1575420030,30.40,297.0,51.0,1,0,0,25.4
Status,1732146515000,29,23,6,7,1575420030,0.00,161.0,16.0,0,0,0,0.0
Status,1732146515000,29,24,6,15,1575420030,0.00,94.0,11.0,0,0,0,0.0
Status,1732146515000,29,25,6,30,1575420030,0.00,59.0,10.0,0,0,0,0.0
Status,1732146515000,29,26,6,34,1575420030,0.00,47.0,6.0,0,0,0,0.0
Status,1732146515000,29,27,6,4,1575420030,0.00,326.0,1.0,0,0,0,0.0
Status,1732146515000,29,28,6,13,1575420030,0.00,142.0,1.0,0,0,0,0.0
Fix,GPS,37.4243716667,-122.1712683333,14.7,0.0,1.7,229.74,1732146516000,1.8,179.9,25400046000000,26.9,0,,,
Raw,1732146516001,40706000000,,71.45282687686515,-1416181693295000064,0.0,71.45282687686515,2204.480094399496,0.0,0,30,0.0,16431,344933932148143,42,38.888999938964844,753.1999646756719,0.14999,17,30399.5303114667,0.00022499999613501132,1575420030,,,,0,26.612919686117973,1,6.0,38.888999938964844,0.0,0.0,0.0,66.7128,C,25400046000000,
Raw,1732146516001,40706000000,,71.45282687686515,-1416181693295000064,0.0,71.45282687686515,2204.480094399496,0.0,0,5,0.0,16431,344933916795525,797,18.697999954223633,1100.2058197413546,0.14999,16,0.0,0.0,1575420030,,,,0,0.0,1,6.0,18.697999954223633,0.0,0.0,0.0,66.7128,C,25400046000000,
Raw,1732146516001,40706000000,,71.45282687686515,-1416181693295000064,0.0,71.45282687686515,2204.480094399496,0.0,0,14,0.0,16431,344933933065807,51,37.777000427246094,651.5626552397963,0.14999,17,26281.595261494775,0.00022499999613501132,1575420030,,,,0,25.41633028168084,1,6.0,37.777000427246094,0.0,0.0,0.0,66.7128,C,25400046000000,
Raw,1732146516001,40706000000,,71.45282687686515,-1416181693295000064,0.0,71.45282687686515,2204.480094399496,0.0,0,13,0.0,16431,344933930287270,58,33.1150016784668,365.60803720846314,0.14999,16,0.0,0.0,1575420030,,,,0,20.223923105880957,1,6.0,33.1150016784668,0.0,0.0,0.0,66.7128,C,25400046000000,
Raw,1732146516001,40706000000,,71.45282687686515,-1416181693295000064,0.0,71.45282687686515,2204.480094399496,0.0,0,21,0.0,16431,344933920024104,316,24.700000762939453,487.1996080740947,0.14999,16,0.0,0.0,1575420030,,,,0,10.762485914201859,6,6.0,24.700000762939453,0.0,0.0,5.079480835296415,66.7128,C,25400046000000,
Raw,1732146516001,40706000000,,71.45282687686515,-1416181693295000064,0.0,71.45282687686515,2204.480094399496,0.0,0,29,0.0,16431,344933921117155,58,31.799999237060547,953.0545472380845,0.14999,16,0.0,0.0,1575420030,,,,0,19.03400397329941,6,6.0,31.799999237060547,0.0,0.0,5.079480835296415,66.7128,C,25400046000000,
Raw,1732146516001,40706000000,,71.45282687686515,-1416181693295000064,0.0,71.45282687686515,2204.480094399496,0.0,0,19,0.0,16431,344933920417306,235,25.399999618530273,476.838126881907,0.14999,16,0.0,0.0,1575420030,,,,0,11.57016332574346,6,6.0,25.399999618530273,0.0,0.0,5.079480835296415,66.7128,C,25400046000000,
Raw,1732146516001,40706000000,,71.45282687686515,-1416181693295000064,0.0,71.45282687686515,2204.480094399496,0.0,0,27,0.0,16431,344933920242582,42,37.70000076293945,909.7094024146469,0.14999,16,0.0,0.0,1575420030,,,,0,25.341419169330752,6,6.0,37.70000076293945,0.0,0.0,5.079480835296415,66.7128,C,25400046000000,
Raw,1732146516001,40706000000,,71.45282687686515,-1416181693295000064,0.0,71.45282687686515,2204.480094399496,0.0,0,9,0.0,32995,10115933903245,58,5.0,793.5738597369376,0.14999,16,0.0,0.0,1600875010,,,,0,21.04895845929381,3,6.0,34.0,0.0,0.0,35.226901421409615,66.7128,C,25400046000000,
Raw,1732146516001,40706000000,,71.45282687686515,-1416181693295000064,0.0,71.45282687686515,2204.480094399496,0.0,0,8,0.0,32995,10115930588576,235,5.0,480.81220750032725,0.14999,16,0.0,0.0,1605374980,,,,0,14.134360184504475,3,6.0,28.0,0.0,0.0,35.226901421409615,66.7128,C,25400046000000,
Raw,1732146516001,40706000000,,71.45282687686515,-1416181693295000064,0.0,71.45282687686515,2204.480094399496,0.0,0,16,0.0,17,377569,797,5.0,1150.6161162708333,0.14999,16,0.0,0.0,1601437440,,,,0,0.0,3,6.0,16.0,0.0,0.0,35.226901421409615,66.7128,C,25400046000000,
Raw,1732146516001,40706000000,,71.45282687686515,-1416181693295000064,0.0,71.45282687686515,2204.480094399496,0.0,0,20,0.0,17,420127,487,5.0,-121.51921829397114,0.14999,16,0.0,0.0,1603124990,,,,0,6.846285226378146,3,6.0,19.0,0.0,0.0,35.226901421409615,66.7128,C,25400046000000,
Raw,1732146516001,40706000000,,71.45282687686515,-1416181693295000064,0.0,71.45282687686515,2204.480094399496,0.0,0,2,0.0,16431,344933920455070,316,25.218000411987305,448.0152325480566,0.14999,16,0.0,0.0,1575420030,,,,0,10.34977694850861,1,6.0,25.218000411987305,0.0,0.0,0.0,66.7128,C,25400046000000,
Raw,1732146516001,40706000000,,71.45282687686515,-1416181693295000064,0.0,71.45282687686515,2204.480094399496,0.0,0,19,0.0,16431,344933921011906,51,37.827999114990234,-34.33602166872254,0.14999,16,0.0,0.0,1575420030,,,,0,25.46838628292648,1,6.0,37.827999114990234,0.0,0.0,0.0,66.7128,C,25400046000000,
Raw,1732146516001,40706000000,,71.45282687686515,-1416181693295000064,0.0,71.45282687686515,2204.480094399496,0.0,0,7,0.0,16431,344933926854406,316,26.21500015258789,1018.688117238528,0.14999,16,0.0,0.0,1575420030,,,,0,11.715842038463862,1,6.0,26.21500015258789,0.0,0.0,0.0,66.7128,C,25400046000000,
Raw,1732146516001,40706000000,,71.45282687686515,-1416181693295000064,0.0,71.45282687686515,2204.480094399496,0.0,0,17,0.0,16431,344933929584483,42,40.15800094604492,179.69051492504994,0.14999,16,0.0,0.0,1575420030,,,,0,27.969940944589105,1,6.0,40.15800094604492,0.0,0.0,0.0,66.7128,C,25400046000000,
Raw,1732146516001,40706000000,,71.45282687686515,-1416181693295000064,0.0,71.45282687686515,2204.480094399496,0.0,0,22,0.0,16431,344933930886571,51,37.340999603271484,504.52000251362654,0.14999,16,0.0,0.0,1575420030,,,,0,24.941112387064372,1,6.0,37.340999603271484,0.0,0.0,0.0,66.7128,C,25400046000000,
Fix,FLP,37.4243717000,-122.1712681000,-0.9082546122360053,0.0008682024,1.65,,1732146516198,1.8,,25400046000000,0.95037913,0,,,
Status,1732146516000,29,0,1,14,1575420030,45.30,323.0,74.0,1,0,0,40.3
Status,1732146516000,29,1,1,30,1575420030,43.90,76.0,69.0,1,0,0,38.9
Status,1732146516000,29,2,1,22,1575420030,34.70,272.0,60.0,1,0,0,29.7
Status,1732146516000,29,3,1,13,1575420030,42.20,302.0,48.0,1,0,0,37.2
Status,1732146516000,29,4,1,17,1575420030,32.30,175.0,45.0,1,0,0,27.3
Status,1732146516000,29,5,1,7,1575420030,37.80,104.0,37.0,1,0,0,32.8
Status,1732146516000,29,6,2,131,1575420030,39.00,3.0,23.0,0,0,0,34.0
Status,1732146516000,29,7,1,19,1575420030,39.30,193.0,18.0,1,0,0,34.3
Status,1732146516000,29,8,1,15,1575420030,41.90,315.0,18.0,1,0,0,36.9
Status,1732146516000,29,9,1,2,1575420030,25.80,87.0,17.0,1,0,0,20.8
Status,1732146516000,29,10,1,21,1575420030,0.00,68.0,14.0,0,0,0,0.0
Status,1732146516000,29,11,1,8,1575420030,0.00,39.0,8.0,0,0,0,0.0
Status,1732146516000,29,12,1,5,1575420030,24.70,262.0,6.0,1,0,0,19.7
Status,1732146516000,29,13,3,9,1602000000,36.30,18.0,53.0,1,0,0,31.3
Status,1732146516000,29,14,3,8,1602000000,33.00,302.0,39.0,1,0,0,28.0
Status,1732146516000,29,15,3,16,1602000000,20.90,68.0,14.0,1,0,0,15.9
Status,1732146516000,29,16,3,20,1602000000,26.80,149.0,11.0,1,0,0,21.8
Status,1732146516000,29,17,3,11,1602000000,0.00,272.0,2.0,0,0,0,0.0
Status,1732146516000,29,18,3,17,1602000000,43.30,0.0,0.0,0,0,0,38.3
Status,1732146516000,29,19,6,29,1575420030,36.70,204.0,61.0,1,0,0,31.7
Status,1732146516000,29,20,6,27,1575420030,42.70,37.0,58.0,1,0,0,37.7
Status,1732146516000,29,21,6,21,1575420030,33.50,269.0,57.0,1,0,0,28.5
Status,1732146516000,29,22,6,19,1575420030,30.90,297.0,51.0,1,0,0,25.9
Status,1732146516000,29,23,6,7,1575420030,0.00,161.0,16.0,0,0,0,0.0
Status,1732146516000,29,24,6,15,1575420030,0.00,94.0,11.0,0,0,0,0.0
Status,1732146516000,29,25,6,30,1575420030,0.00,59.0,10.0,0,0,0,0.0
Status,1732146516000,29,26,6,34,1575420030,0.00,47.0,6.0,0,0,0,0.0
Status,1732146516000,29,27,6,4,1575420030,0.00,326.0,1.0,0,0,0,0.0
Status,1732146516000,29,28,6,13,1575420030,0.00,142.0,1.0,0,0,0,0.0
Fix,GPS,37.4243716667,-122.1712683333,14.7,0.0,1.7,229.74,1732146517000,1.3,179.9,25401046000000,26.4,0,,,
Raw,1732146517001,41706000000,,70.85958072099754,-1416181693295000064,0.0,70.85958072099754,2204.7377255479223,0.0,0,30,0.0,16431,344934932145631,42,38.915000915527344,753.4918164463065,0.14999,17,31152.302315730496,0.00022499999613501132,1575420030,,,,0,27.172884857176424,1,6.0,38.915000915527344,0.0,0.0,0.0,66.7128,C,25401046000000,
Raw,1732146517001,41706000000,,70.85958072099754,-1416181693295000064,0.0,70.85958072099754,2204.7377255479223,0.0,0,5,0.0,16431,344934916791853,487,19.70400047302246,1100.2614769239747,0.14999,16,0.0,0.0,1575420030,,,,0,1.7667691273392028,1,6.0,19.70400047302246,0.0,0.0,0.0,66.7128,C,25401046000000,
Raw,1732146517001,41706000000,,70.85958072099754,-1416181693295000064,0.0,70.85958072099754,2204.7377255479223,0.0,0,14,0.0,16431,344934933063632,42,40.347999572753906,652.019155637481,0.14999,17,26932.99189177694,0.00022499999613501132,1575420030,,,,0,28.17322531266937,1,6.0,40.347999572753906,0.0,0.0,0.0,66.7128,C,25401046000000,
Raw,1732146517001,41706000000,,70.85958072099754,-1416181693295000064,0.0,70.85958072099754,2204.7377255479223,0.0,0,13,0.0,16431,344934930286049,51,37.19300079345703,365.17662435553206,0.14999,16,0.0,0.0,1575420030,,,,0,24.782098524774913,1,6.0,37.19300079345703,0.0,0.0,0.0,66.7128,C,25401046000000,
Raw,1732146517001,41706000000,,70.85958072099754,-1416181693295000064,0.0,70.85958072099754,2204.7377255479223,0.0,0,15,0.0,16431,344934922616990,51,36.888999938964844,181.91963619324775,0.14999,16,0.0,0.0,1575420030,,,,0,24.446725909942145,1,6.0,36.888999938964844,0.0,0.0,0.0,66.7128,C,25401046000000,
Raw,1732146517001,41706000000,,70.85958072099754,-1416181693295000064,0.0,70.85958072099754,2204.7377255479223,0.0,0,21,0.0,16431,344934920022479,235,28.5,487.1505015281602,0.14999,16,0.0,0.0,1575420030,,,,0,15.255706456877844,6,6.0,28.5,0.0,0.0,5.154763899800965,66.7128,C,25401046000000,
Raw,1732146517001,41706000000,,70.85958072099754,-1416181693295000064,0.0,70.85958072099754,2204.7377255479223,0.0,0,29,0.0,16431,344934921113976,58,31.700000762939453,952.7773763269724,0.14999,16,0.0,0.0,1575420030,,,,0,18.908686890422263,6,6.0,31.700000762939453,0.0,0.0,5.154763899800965,66.7128,C,25401046000000,
Raw,1732146517001,41706000000,,70.85958072099754,-1416181693295000064,0.0,70.85958072099754,2204.7377255479223,0.0,0,19,0.0,16431,344934920415713,235,25.899999618530273,476.50232544953724,0.14999,16,0.0,0.0,1575420030,,,,0,12.138768073360456,6,6.0,25.899999618530273,0.0,0.0,5.154763899800965,66.7128,C,25401046000000,
Raw,1732146517001,41706000000,,70.85958072099754,-1416181693295000064,0.0,70.85958072099754,2204.7377255479223,0.0,0,27,0.0,16431,344934920239547,42,37.70000076293945,909.5403866964729,0.14999,16,0.0,0.0,1575420030,,,,0,25.29616041488775,6,6.0,37.70000076293945,0.0,0.0,5.154763899800965,66.7128,C,25401046000000,
Raw,1732146517001,41706000000,,70.85958072099754,-1416181693295000064,0.0,70.85958072099754,2204.7377255479223,0.0,0,9,0.0,32995,10116933900606,74,5.0,793.5862040548125,0.14999,17,32842.42977274303,0.0006249999860301614,1600875010,,,,0,18.44635619129157,3,6.0,31.0,0.0,0.0,35.19030957727154,66.7128,C,25401046000000,
Raw,1732146517001,41706000000,,70.85958072099754,-1416181693295000064,0.0,70.85958072099754,2204.7377255479223,0.0,0,8,0.0,32995,10116930586972,235,5.0,480.47464774029385,0.14999,16,0.0,0.0,1605374980,,,,0,14.70631466669868,3,6.0,28.0,0.0,0.0,35.19030957727154,66.7128,C,25401046000000,
Raw,1732146517001,41706000000,,70.85958072099754,-1416181693295000064,0.0,70.85958072099754,2204.7377255479223,0.0,0,16,0.0,17,373732,797,5.0,1150.0365941545585,0.14999,16,0.0,0.0,1601437440,,,,0,0.0,3,6.0,16.0,0.0,0.0,35.19030957727154,66.7128,C,25401046000000,
Raw,1732146517001,41706000000,,70.85958072099754,-1416181693295000064,0.0,70.85958072099754,2204.7377255479223,0.0,0,20,0.0,17,420507,487,5.0,-121.32801294338269,0.14999,16,0.0,0.0,1603124990,,,,0,7.7132520400014615,3,6.0,19.0,0.0,0.0,35.19030957727154,66.7128,C,25401046000000,
Raw,1732146517001,41706000000,,70.85958072099754,-1416181693295000064,0.0,70.85958072099754,2204.7377255479223,0.0,0,2,0.0,16431,344934920453575,487,20.756000518798828,448.98026676958193,0.14999,16,0.0,0.0,1575420030,,,,0,3.5097726417172064,1,6.0,20.756000518798828,0.0,0.0,0.0,66.7128,C,25401046000000,
Raw,1732146517001,41706000000,,70.85958072099754,-1416181693295000064,0.0,70.85958072099754,2204.7377255479223,0.0,0,19,0.0,16431,344934921012024,58,34.284000396728516,-34.609011322375665,0.14999,16,0.0,0.0,1575420030,,,,0,21.554136665487736,1,6.0,34.284000396728516,0.0,0.0,0.0,66.7128,C,25401046000000,
Raw,1732146517001,41706000000,,70.85958072099754,-1416181693295000064,0.0,70.85958072099754,2204.7377255479223,0.0,0,7,0.0,16431,344934926851007,58,32.816001892089844,1017.4637521377155,0.14999,16,0.0,0.0,1575420030,,,,0,19.878101569613555,1,6.0,32.816001892089844,0.0,0.0,0.0,66.7128,C,25401046000000,
Raw,1732146517001,41706000000,,70.85958072099754,-1416181693295000064,0.0,70.85958072099754,2204.7377255479223,0.0,0,17,0.0,16431,344934929583884,235,27.343000411987305,179.54333466249494,0.14999,16,0.0,0.0,1575420030,,,,0,13.205662675904188,1,6.0,27.343000411987305,0.0,0.0,0.0,66.7128,C,25401046000000,
Raw,1732146517001,41706000000,,70.85958072099754,-1416181693295000064,0.0,70.85958072099754,2204.7377255479223,0.0,0,22,0.0,16431,344934930884887,235,29.691999435424805,504.4387467436743,0.14999,16,0.0,0.0,1575420030,,,,0,16.167251416560845,1,6.0,29.691999435424805,0.0,0.0,0.0,66.7128,C,25401046000000,
Fix,FLP,37.4243717000,-122.1712682000,-0.8248053816950875,0.0006413016,1.666,,1732146517198,1.3,,25401046000000,0.9599224,0,,,
Status,1732146517000,29,0,1,14,1575420030,46.20,323.0,74.0,1,0,0,41.2
Status,1732146517000,29,1,1,30,1575420030,44.00,76.0,69.0,1,0,0,39.0
Status,1732146517000,29,2,1,22,1575420030,37.00,272.0,60.0,1,0,0,32.0
Status,1732146517000,29,3,1,13,1575420030,38.10,302.0,48.0,1,0,0,33.1
Status,1732146517000,29,4,1,17,1575420030,40.80,175.0,45.0,1,0,0,35.8
Status,1732146517000,29,5,1,7,1575420030,39.70,104.0,37.0,1,0,0,34.7
Status,1732146517000,29,6,2,131,1575420030,39.00,3.0,23.0,0,0,0,34.0
Status,1732146517000,29,7,1,19,1575420030,30.20,193.0,18.0,1,0,0,25.2
Status,1732146517000,29,8,1,15,1575420030,42.60,315.0,18.0,1,0,0,37.6
Status,1732146517000,29,9,1,2,1575420030,26.60,87.0,17.0,1,0,0,21.6
Status,1732146517000,29,10,1,21,1575420030,0.00,68.0,14.0,0,0,0,0.0
Status,1732146517000,29,11,1,8,1575420030,0.00,39.0,8.0,0,0,0,0.0
Status,1732146517000,29,12,1,5,1575420030,22.10,262.0,6.0,1,0,0,17.1
Status,1732146517000,29,13,3,9,1602000000,44.50,18.0,53.0,1,0,0,39.5
Status,1732146517000,29,14,3,8,1602000000,39.00,302.0,39.0,1,0,0,34.0
Status,1732146517000,29,15,3,16,1602000000,22.50,68.0,14.0,1,0,0,17.5
Status,1732146517000,29,16,3,20,1602000000,24.00,149.0,11.0,1,0,0,19.0
Status,1732146517000,29,17,3,11,1602000000,0.00,272.0,2.0,0,0,0,0.0
Status,1732146517000,29,18,3,17,1602000000,33.50,0.0,0.0,0,0,0,28.5
Status,1732146517000,29,19,6,29,1575420030,34.50,204.0,61.0,1,0,0,29.5
Status,1732146517000,29,20,6,27,1575420030,45.80,37.0,58.0,1,0,0,40.8
Status,1732146517000,29,21,6,21,1575420030,37.90,269.0,57.0,1,0,0,32.9
Status,1732146517000,29,22,6,19,1575420030,31.10,297.0,51.0,1,0,0,26.1
Status,1732146517000,29,23,6,7,1575420030,0.00,161.0,16.0,0,0,0,0.0
Status,1732146517000,29,24,6,15,1575420030,0.00,94.0,11.0,0,0,0,0.0
Status,1732146517000,29,25,6,30,1575420030,0.00,59.0,10.0,0,0,0,0.0
Status,1732146517000,29,26,6,34,1575420030,0.00,47.0,6.0,0,0,0,0.0
Status,1732146517000,29,27,6,4,1575420030,0.00,326.0,1.0,0,0,0,0.0
Status,1732146517000,29,28,6,13,1575420030,0.00,142.0,1.0,0,0,0,0.0
Fix,GPS,37.4243716667,-122.1712683333,14.7,0.0,1.6,229.74,1732146518000,1.0,114.6,25402046000000,25.7,0,,,
Raw,1732146518001,42706000000,,68.78439936916475,-1416181693295000064,0.0,68.78439936916475,2203.080088292774,0.0,0,30,0.0,16431,344935932143120,42,38.99700164794922,752.6669937249046,0.14999,16,0.0,0.0,1575420030,,,,0,28.393065118708183,1,6.0,38.99700164794922,0.0,0.0,0.0,66.7128,C,25402046000000,
Raw,1732146518001,42706000000,,68.78439936916475,-1416181693295000064,0.0,68.78439936916475,2203.080088292774,0.0,0,5,0.0,16431,344935916788184,797,17.10700035095215,1099.2443163594612,0.14999,16,0.0,0.0,1575420030,,,,0,0.0,1,6.0,17.10700035095215,0.0,0.0,0.0,66.7128,C,25402046000000,
Raw,1732146518001,42706000000,,68.78439936916475,-1416181693295000064,0.0,68.78439936916475,2203.080088292774,0.0,0,14,0.0,16431,344935933061460,42,41.23899841308594,651.2577021957903,0.14999,17,27584.09322655837,0.00022499999613501132,1575420030,,,,0,29.114131194744918,1,6.0,41.23899841308594,0.0,0.0,0.0,66.7128,C,25402046000000,
Raw,1732146518001,42706000000,,68.78439936916475,-1416181693295000064,0.0,68.78439936916475,2203.080088292774,0.0,0,13,0.0,16431,344935930284837,58,33.13600158691406,364.33365962259995,0.14999,16,0.0,0.0,1575420030,,,,0,20.251003064333496,1,6.0,33.13600158691406,0.0,0.0,0.0,66.7128,C,25402046000000,
Raw,1732146518001,42706000000,,68.78439936916475,-1416181693295000064,0.0,68.78439936916475,2203.080088292774,0.0,0,15,0.0,16431,344935922616416,51,37.643001556396484,181.84860127486186,0.14999,16,0.0,0.0,1575420030,,,,0,25.265856364478086,1,6.0,37.643001556396484,0.0,0.0,0.0,66.7128,C,25402046000000,
Raw,1732146518001,42706000000,,68.78439936916475,-1416181693295000064,0.0,68.78439936916475,2203.080088292774,0.0,0,21,0.0,16431,344935920020856,58,32.900001525878906,486.9315430125599,0.14999,16,0.0,0.0,1575420030,,,,0,20.223923105880957,6,6.0,32.900001525878906,0.0,0.0,5.114652409282996,66.7128,C,25402046000000,
Raw,1732146518001,42706000000,,68.78439936916475,-1416181693295000064,0.0,68.78439936916475,2203.080088292774,0.0,0,29,0.0,16431,344935921110793,74,29.5,952.8234630758533,0.14999,16,0.0,0.0,1575420030,,,,0,16.464960986669446,6,6.0,29.5,0.0,0.0,5.114652409282996,66.7128,C,25402046000000,
Raw,1732146518001,42706000000,,68.78439936916475,-1416181693295000064,0.0,68.78439936916475,2203.080088292774,0.0,0,19,0.0,16431,344935920414124,235,26.100000381469727,476.16596651617294,0.14999,16,0.0,0.0,1575420030,,,,0,12.409694976977717,6,6.0,26.100000381469727,0.0,0.0,5.114652409282996,66.7128,C,25402046000000,
Raw,1732146518001,42706000000,,68.78439936916475,-1416181693295000064,0.0,68.78439936916475,2203.080088292774,0.0,0,27,0.0,16431,344935920236514,31,40.79999923706055,909.2385928247693,0.14999,16,0.0,0.0,1575420030,,,,0,28.50354733656145,6,6.0,40.79999923706055,0.0,0.0,5.114652409282996,66.7128,C,25402046000000,
Raw,1732146518001,42706000000,,68.78439936916475,-1416181693295000064,0.0,68.78439936916475,2203.080088292774,0.0,0,9,0.0,32995,10117933897965,42,5.0,792.9619473279108,0.14999,17,33635.21049005414,0.00022499999613501132,1600875010,,,,0,27.19895949417338,3,6.0,40.0,0.0,0.0,35.87699134427525,66.7128,C,25402046000000,
Raw,1732146518001,42706000000,,68.78439936916475,-1416181693295000064,0.0,68.78439936916475,2203.080088292774,0.0,0,8,0.0,32995,10117930585366,58,5.0,480.77331791695224,0.14999,16,0.0,0.0,1605374980,,,,0,21.390878710837374,3,6.0,34.0,0.0,0.0,35.87699134427525,66.7128,C,25402046000000,
Raw,1732146518001,42706000000,,68.78439936916475,-1416181693295000064,0.0,68.78439936916475,2203.080088292774,0.0,0,16,0.0,17,369900,487,5.0,1148.4199651090635,0.14999,16,0.0,0.0,1601437440,,,,0,0.0,3,6.0,20.0,0.0,0.0,35.87699134427525,66.7128,C,25402046000000,
Raw,1732146518001,42706000000,,68.78439936916475,-1416181693295000064,0.0,68.78439936916475,2203.080088292774,0.0,0,20,0.0,17,420896,487,5.0,-122.79108998850147,0.14999,16,0.0,0.0,1603124990,,,,0,2.5397436885547693,3,6.0,19.0,0.0,0.0,35.87699134427525,66.7128,C,25402046000000,
Raw,1732146518001,42706000000,,68.78439936916475,-1416181693295000064,0.0,68.78439936916475,2203.080088292774,0.0,0,2,0.0,16431,344935920452077,396,21.570999145507812,447.78006004519887,0.14999,16,0.0,0.0,1575420030,,,,0,4.881822807789594,1,6.0,21.570999145507812,0.0,0.0,0.0,66.7128,C,25402046000000,
Raw,1732146518001,42706000000,,68.78439936916475,-1416181693295000064,0.0,68.78439936916475,2203.080088292774,0.0,0,19,0.0,16431,344935921012135,316,25.2450008392334,-35.68285115466605,0.14999,16,0.0,0.0,1575420030,,,,0,10.391941544115248,1,6.0,25.2450008392334,0.0,0.0,0.0,66.7128,C,25402046000000,
Raw,1732146518001,42706000000,,68.78439936916475,-1416181693295000064,0.0,68.78439936916475,2203.080088292774,0.0,0,7,0.0,16431,344935926847614,58,34.68299865722656,1016.8176084850593,0.14999,16,0.0,0.0,1575420030,,,,0,22.007514963452962,1,6.0,34.68299865722656,0.0,0.0,0.0,66.7128,C,25402046000000,
Raw,1732146518001,42706000000,,68.78439936916475,-1416181693295000064,0.0,68.78439936916475,2203.080088292774,0.0,0,17,0.0,16431,344935929583288,51,35.78099822998047,179.23299244220854,0.14999,16,0.0,0.0,1575420030,,,,0,23.231309517268397,1,6.0,35.78099822998047,0.0,0.0,0.0,66.7128,C,25402046000000,
Raw,1732146518001,42706000000,,68.78439936916475,-1416181693295000064,0.0,68.78439936916475,2203.080088292774,0.0,0,22,0.0,16431,344935930883206,74,32.0359992980957,504.00161950554934,0.14999,16,0.0,0.0,1575420030,,,,0,18.97157143397043,1,6.0,32.0359992980957,0.0,0.0,0.0,66.7128,C,25402046000000,
Fix,FLP,37.4243717000,-122.1712682000,-0.28330082634318376,0.0002943415,1.666,,1732146518199,1.0,,25402046000000,0.96133715,0,,,
Status,1732146518000,29,0,1,14,1575420030,46.20,323.0,74.0,1,0,0,41.2
Status,1732146518000,29,1,1,30,1575420030,47.00,76.0,69.0,1,0,0,42.0
Status,1732146518000,29,2,1,22,1575420030,40.30,272.0,60.0,1,0,0,35.3
Status,1732146518000,29,3,1,13,1575420030,40.30,302.0,48.0,1,0,0,35.3
Status,1732146518000,29,4,1,17,1575420030,39.20,175.0,45.0,1,0,0,34.2
Status,1732146518000,29,5,1,7,1575420030,35.30,104.0,37.0,1,0,0,30.3
Status,1732146518000,29,6,2,131,1575420030,39.00,3.0,23.0,0,0,0,34.0
Status,1732146518000,29,7,1,19,1575420030,33.90,193.0,18.0,1,0,0,28.900002
Status,1732146518000,29,8,1,15,1575420030,41.00,315.0,18.0,1,0,0,36.0
Status,1732146518000,29,9,1,2,1575420030,28.50,87.0,17.0,1,0,0,23.5
Status,1732146518000,29,10,1,21,1575420030,0.00,68.0,14.0,0,0,0,0.0
Status,1732146518000,29,11,1,8,1575420030,0.00,39.0,8.0,0,0,0,0.0
Status,1732146518000,29,12,1,5,1575420030,25.40,262.0,6.0,1,0,0,20.4
Status,1732146518000,29,13,3,9,1602000000,42.30,18.0,53.0,1,0,0,37.3
Status,1732146518000,29,14,3,8,1602000000,40.20,302.0,39.0,1,0,0,35.2
Status,1732146518000,29,15,3,16,1602000000,25.80,68.0,14.0,1,0,0,20.8
Status,1732146518000,29,16,3,20,1602000000,23.90,149.0,11.0,1,0,0,18.9
Status,1732146518000,29,17,3,11,1602000000,0.00,272.0,2.0,0,0,0,0.0
Status,1732146518000,29,18,3,17,1602000000,46.10,0.0,0.0,0,0,0,41.1
Status,1732146518000,29,19,6,29,1575420030,32.30,204.0,61.0,1,0,0,27.3
Status,1732146518000,29,20,6,27,1575420030,41.30,37.0,58.0,1,0,0,36.3
Status,1732146518000,29,21,6,21,1575420030,39.40,269.0,57.0,1,0,0,34.4
Status,1732146518000,29,22,6,19,1575420030,33.00,297.0,51.0,1,0,0,28.0
Status,1732146518000,29,23,6,7,1575420030,0.00,161.0,16.0,0,0,0,0.0
Status,1732146518000,29,24,6,15,1575420030,0.00,94.0,11.0,0,0,0,0.0
Status,1732146518000,29,25,6,30,1575420030,0.00,59.0,10.0,0,0,0,0.0
Status,1732146518000,29,26,6,34,1575420030,0.00,47.0,6.0,0,0,0,0.0
Status,1732146518000,29,27,6,4,1575420030,0.00,326.0,1.0,0,0,0,0.0
Status,1732146518000,29,28,6,13,1575420030,0.00,142.0,1.0,0,0,0,0.0
Fix,GPS,37.4243716667,-122.1712683333,14.7,0.0,1.6,229.74,1732146519000,0.9,151.9,25403046000000,25.2,0,,,
Fix,FLP,37.4243717000,-122.1712683000,-0.32460156747494384,0.0001178849,1.666,,1732146519198,0.9,,25403046000000,0.9824627,0,,,
Raw,1732146519001,43706000000,,67.62932375020313,-1416181693295000064,0.0,67.62932375020313,2203.6019759924966,0.0,0,30,0.0,16431,344936932140609,31,42.01499938964844,753.0853982212967,0.14999,17,32657.485040384425,0.00022499999613501132,1575420030,,,,0,29.932011941944545,1,6.0,42.01499938964844,0.0,0.0,0.0,66.7128,C,25403046000000,
Raw,1732146519001,43706000000,,67.62932375020313,-1416181693295000064,0.0,67.62932375020313,2203.6019759924966,0.0,0,5,0.0,16431,344936916784520,487,20.386999130249023,1098.7639363358442,0.14999,16,0.0,0.0,1575420030,,,,0,2.933701484713117,1,6.0,20.386999130249023,0.0,0.0,0.0,66.7128,C,25403046000000,
Raw,1732146519001,43706000000,,67.62932375020313,-1416181693295000064,0.0,67.62932375020313,2203.6019759924966,0.0,0,14,0.0,16431,344936933059288,42,41.180999755859375,651.372175733333,0.14999,17,28235.34437231017,0.00022499999613501132,1575420030,,,,0,27.89737203577289,1,6.0,41.180999755859375,0.0,0.0,0.0,66.7128,C,25403046000000,
Raw,1732146519001,43706000000,,67.62932375020313,-1416181693295000064,0.0,67.62932375020313,2203.6019759924966,0.0,0,13,0.0,16431,344936930283620,58,35.25400161743164,364.44780795122927,0.14999,16,0.0,0.0,1575420030,,,,0,22.646079673165932,1,6.0,35.25400161743164,0.0,0.0,0.0,66.7128,C,25403046000000,
Raw,1732146519001,43706000000,,67.62932375020313,-1416181693295000064,0.0,67.62932375020313,2203.6019759924966,0.0,0,21,0.0,16431,344936920019232,51,34.400001525878906,486.9023206687635,0.14999,16,0.0,0.0,1575420030,,,,0,21.78378360807473,6,6.0,34.400001525878906,0.0,0.0,5.06419139891279,66.7128,C,25403046000000,
Raw,1732146519001,43706000000,,67.62932375020313,-1416181693295000064,0.0,67.62932375020313,2203.6019759924966,0.0,0,29,0.0,16431,344936921107617,316,27.299999237060547,952.8083176321687,0.14999,16,0.0,0.0,1575420030,,,,0,13.850442826495561,6,6.0,27.299999237060547,0.0,0.0,5.06419139891279,66.7128,C,25403046000000,
Raw,1732146519001,43706000000,,67.62932375020313,-1416181693295000064,0.0,67.62932375020313,2203.6019759924966,0.0,0,15,0.0,16431,344936922615832,51,35.970001220703125,182.10426193926844,0.14999,16,0.0,0.0,1575420030,,,,0,23.43981879000852,1,6.0,35.970001220703125,0.0,0.0,0.0,66.7128,C,25403046000000,
Raw,1732146519001,43706000000,,67.62932375020313,-1416181693295000064,0.0,67.62932375020313,2203.6019759924966,0.0,0,19,0.0,16431,344936920412534,235,28.0,476.18413175691126,0.14999,16,0.0,0.0,1575420030,,,,0,14.710335996597262,6,6.0,28.0,0.0,0.0,5.06419139891279,66.7128,C,25403046000000,
Raw,1732146519001,43706000000,,67.62932375020313,-1416181693295000064,0.0,67.62932375020313,2203.6019759924966,0.0,0,27,0.0,16431,344936920233482,51,36.29999923706055,909.2965729282,0.14999,16,0.0,0.0,1575420030,,,,0,23.797577591558287,6,6.0,36.29999923706055,0.0,0.0,5.06419139891279,66.7128,C,25403046000000,
