# 
# Header Description:
# 
# Version: v3.1.0.3 Platform: 13 Manufacturer: samsung Model: SM-S135DL GNSS Hardware Model Name: MediaTek,MT6631,MTK_MNLD_default,MNL_VER_default
# 
# Raw,utcTimeMillis,TimeNanos,LeapSecond,TimeUncertaintyNanos,FullBiasNanos,BiasNanos,BiasUncertaintyNanos,DriftNanosPerSecond,DriftUncertaintyNanosPerSecond,HardwareClockDiscontinuityCount,Svid,TimeOffsetNanos,State,ReceivedSvTimeNanos,ReceivedSvTimeUncertaintyNanos,Cn0DbHz,PseudorangeRateMetersPerSecond,PseudorangeRateUncertaintyMetersPerSecond,AccumulatedDeltaRangeState,AccumulatedDeltaRangeMeters,AccumulatedDeltaRangeUncertaintyMeters,CarrierFrequencyHz,CarrierCycles,CarrierPhase,CarrierPhaseUncertainty,MultipathIndicator,SnrInDb,ConstellationType,AgcDb,BasebandCn0DbHz,FullInterSignalBiasNanos,FullInterSignalBiasUncertaintyNanos,SatelliteInterSignalBiasNanos,SatelliteInterSignalBiasUncertaintyNanos,CodeType,ChipsetElapsedRealtimeNanos,IsFullTracking
# 
# UncalAccel,utcTimeMillis,elapsedRealtimeNanos,UncalAccelXMps2,UncalAccelYMps2,UncalAccelZMps2,BiasXMps2,BiasYMps2,BiasZMps2
# 
# Accel,utcTimeMillis,elapsedRealtimeNanos,AccelXMps2,AccelYMps2,AccelZMps2
# 
# UncalGyro,utcTimeMillis,elapsedRealtimeNanos,UncalGyroXRadPerSec,UncalGyroYRadPerSec,UncalGyroZRadPerSec,DriftXRadPerSec,DriftYRadPerSec,DriftZRadPerSec
# 
# Gyro,utcTimeMillis,elapsedRealtimeNanos,GyroXRadPerSec,GyroYRadPerSec,GyroZRadPerSec
# 
# UncalMag,utcTimeMillis,elapsedRealtimeNanos,UncalMagXMicroT,UncalMagYMicroT,UncalMagZMicroT,BiasXMicroT,BiasYMicroT,BiasZMicroT
# 
# Mag,utcTimeMillis,elapsedRealtimeNanos,MagXMicroT,MagYMicroT,MagZMicroT
# 
# Pressure,utcTimeMillis,elapsedRealtimeNanos,PressureHpa
# 
# OrientationDeg,utcTimeMillis,elapsedRealtimeNanos,yawDeg,rollDeg,pitchDeg
# 
# Fix,Provider,LatitudeDegrees,LongitudeDegrees,AltitudeMeters,SpeedMps,AccuracyMeters,BearingDegrees,UnixTimeMillis,SpeedAccuracyMps,BearingAccuracyDegrees,elapsedRealtimeNanos,VerticalAccuracyMeters,MockLocation,NumberOfUsedSignals,VerticalSpeedAccuracyMps,SolutionType
# 
# Nav,Svid,Type,Status,MessageId,Sub-messageId,Data(Bytes)
# 
# Status,UnixTimeMillis,SignalCount,SignalIndex,ConstellationType,Svid,CarrierFrequencyHz,Cn0DbHz,AzimuthDegrees,ElevationDegrees,UsedInFix,HasAlmanacData,HasEphemerisData,BasebandCn0DbHz
# 
# Agc,utcTimeMillis,TimeNanos,LeapSecond,TimeUncertaintyNanos,FullBiasNanos,BiasNanos,BiasUncertaintyNanos,DriftNanosPerSecond,DriftUncertaintyNanosPerSecond,HardwareClockDiscontinuityCount,AgcDb,CarrierFrequencyHz,ConstellationType
# 
Fix,FLP,37.4243848000,-122.1712386000,2.0999999046325684,0.10799973,1.814,298.84494,1732146366197,2.1,49.9,25250045000000,0.92196643,0,,,
Status,,29,0,1,14,1575420030,46.30,319.0,74.0,1,0,0,41.3
Status,,29,1,1,30,1575420030,33.60,73.0,70.0,1,0,0,28.599998
Status,,29,2,1,22,1575420030,47.70,270.0,59.0,1,0,0,42.7
Status,,29,3,1,13,1575420030,39.40,303.0,47.0,1,0,0,34.4
Status,,29,4,1,17,1575420030,46.00,176.0,44.0,1,0,0,41.0
Status,,29,5,1,7,1575420030,46.70,103.0,38.0,1,0,0,41.7
Status,,29,6,2,131,1575420030,32.00,3.0,23.0,0,0,0,27.0
Status,,29,7,1,19,1575420030,45.70,193.0,17.0,1,0,0,40.7
Status,,29,8,1,15,1575420030,36.20,316.0,17.0,1,0,0,31.2
Status,,29,9,1,2,1575420030,0.00,88.0,16.0,0,0,0,0.0
Status,,29,10,1,21,1575420030,23.80,69.0,13.0,0,0,0,18.8
Status,,29,11,1,8,1575420030,0.00,39.0,9.0,0,0,0,0.0
Status,,29,12,1,5,1575420030,23.50,263.0,7.0,1,0,0,18.5
Status,,29,13,1,9,1575420030,0.00,159.0,1.0,0,0,0,0.0
Status,,29,14,3,9,1602000000,29.60,16.0,54.0,1,0,0,24.6
Status,,29,15,3,8,1602000000,45.60,304.0,39.0,1,0,0,40.6
Status,,29,16,3,16,1602000000,0.00,67.0,15.0,0,0,0,0.0
Status,,29,17,3,20,1602000000,22.90,149.0,10.0,1,0,0,17.9
Status,,29,18,3,11,1602000000,0.00,271.0,1.0,0,0,0,0.0
Status,,29,19,3,17,1602000000,41.40,0.0,0.0,0,0,0,36.4
Status,,29,20,6,29,1575420030,37.00,204.0,61.0,1,0,0,32.0
Status,,29,21,6,27,1575420030,33.00,36.0,59.0,1,0,0,28.0
Status,,29,22,6,21,1575420030,0.00,268.0,57.0,0,0,0,0.0
Status,,29,23,6,19,1575420030,41.30,298.0,50.0,1,0,0,36.3
Status,,29,24,6,7,1575420030,31.50,161.0,17.0,1,0,0,26.5
Status,,29,25,6,30,1575420030,0.00,58.0,11.0,0,0,0,0.0
Status,,29,26,6,15,1575420030,0.00,95.0,10.0,0,0,0,0.0
Status,,29,27,6,34,1575420030,0.00,47.0,6.0,0,0,0,0.0
Status,,29,28,6,13,1575420030,0.00,142.0,1.0,0,0,0,0.0
Fix,GPS,37.4243783333,-122.1712616667,14.8,1.0392241,1.8,235.29,1732146367000,1.6,55.6,25251045000000,31.3,0,,,
Raw,1732146367001,8929000000,,682989.7885556547,-1416181576072000000,0.0,83.64214102589969,2090.3536360823823,0.0,0,30,0.0,16431,344784932170514,235,28.63599967956543,707.269223156453,0.14999,16,0.0,0.0,1575420030,,,,0,14.862501458471195,1,6.0,28.63599967956543,0.0,0.0,0.0,66.7128,C,25251045000000,
Raw,1732146367001,8929000000,,682989.7885556547,-1416181576072000000,0.0,83.64214102589969,2090.3536360823823,0.0,0,13,0.0,16431,344784930115036,58,34.41600036621094,313.10106041622623,0.14999,16,0.0,0.0,1575420030,,,,0,21.704095988242955,1,6.0,34.41600036621094,0.0,0.0,0.0,66.7128,C,25251045000000,
Raw,1732146367001,8929000000,,682989.7885556547,-1416181576072000000,0.0,83.64214102589969,2090.3536360823823,0.0,0,22,0.0,16431,344784930785272,31,42.74599838256836,458.7534450372956,0.14999,16,0.0,0.0,1575420030,,,,0,30.69978624066588,1,6.0,42.74599838256836,0.0,0.0,0.0,66.7128,C,25251045000000,
Raw,1732146367001,8929000000,,682989.7885556547,-1416181576072000000,0.0,83.64214102589969,2090.3536360823823,0.0,0,7,0.0,16431,344784927008686,31,41.72700119018555,973.5409433671159,0.14999,16,0.0,0.0,1575420030,,,,0,29.62966733684211,1,6.0,41.72700119018555,0.0,0.0,0.0,66.7128,C,25251045000000,
Raw,1732146367001,8929000000,,682989.7885556547,-1416181576072000000,0.0,83.64214102589969,2090.3536360823823,0.0,0,17,0.0,16431,344784929321293,42,40.987998962402344,131.79318864763883,0.14999,16,0.0,0.0,1575420030,,,,0,28.85195175127446,1,6.0,40.987998962402344,0.0,0.0,0.0,66.7128,C,25251045000000,
Raw,1732146367001,8929000000,,682989.7885556547,-1416181576072000000,0.0,83.64214102589969,2090.3536360823823,0.0,0,29,0.0,16431,344784921238632,58,32.0,906.3911564952253,0.14999,16,0.0,0.0,1575420030,,,,0,19.15753870825517,6,6.0,32.0,0.0,0.0,0.44979093605199394,66.7128,C,25251045000000,
Raw,1732146367001,8929000000,,682989.7885556547,-1416181576072000000,0.0,83.64214102589969,2090.3536360823823,0.0,0,7,0.0,16431,344784910164639,235,26.5,1212.1437498441821,0.14999,16,0.0,0.0,1575420030,,,,0,12.864387399989065,6,6.0,26.5,0.0,0.0,0.44979093605199394,66.7128,C,25251045000000,
Raw,1732146367001,8929000000,,682989.7885556547,-1416181576072000000,0.0,83.64214102589969,2090.3536360823823,0.0,0,19,0.0,16431,344784920301690,51,36.29999923706055,429.3548380097642,0.14999,16,0.0,0.0,1575420030,,,,0,23.80655989808583,6,6.0,36.29999923706055,0.0,0.0,0.44979093605199394,66.7128,C,25251045000000,
Raw,1732146367001,8929000000,,682989.7885556547,-1416181576072000000,0.0,83.64214102589969,2090.3536360823823,0.0,0,27,0.0,16431,344784920344499,235,28.0,870.9886354239737,0.14999,16,0.0,0.0,1575420030,,,,0,14.659015967607726,6,6.0,28.0,0.0,0.0,0.44979093605199394,66.7128,C,25251045000000,
Raw,1732146367001,8929000000,,682989.7885556547,-1416181576072000000,0.0,83.64214102589969,2090.3536360823823,0.0,0,8,0.0,17,472169,42,5.0,421.12385489143344,0.14999,16,0.0,0.0,1605374980,,,,0,28.36765774940144,3,6.0,41.0,0.0,0.0,34.12061680714618,66.7128,C,25251045000000,
Raw,1732146367001,8929000000,,682989.7885556547,-1416181576072000000,0.0,83.64214102589969,2090.3536360823823,0.0,0,9,0.0,17,946759,487,5.0,752.6176990129164,0.14999,16,0.0,0.0,1600875010,,,,0,10.564049314990909,3,6.0,20.0,0.0,0.0,34.12061680714618,66.7128,C,25251045000000,
Raw,1732146367001,8929000000,,682989.7885556547,-1416181576072000000,0.0,83.64214102589969,2090.3536360823823,0.0,0,20,0.0,17,10381,797,5.0,-156.34425050771443,0.14999,16,0.0,0.0,1603124990,,,,0,0.7622929462364452,3,6.0,16.0,0.0,0.0,34.12061680714618,66.7128,C,25251045000000,
Raw,1732146367001,8929000000,,682989.7885556547,-1416181576072000000,0.0,83.64214102589969,2090.3536360823823,0.0,0,21,0.0,17,580140,797,18.798999786376953,601.8778413986847,0.14999,16,0.0,0.0,1575420030,,,,0,0.14901493010636546,1,6.0,18.798999786376953,0.0,0.0,0.0,66.7128,C,25251045000000,
Raw,1732146367001,8929000000,,682989.7885556547,-1416181576072000000,0.0,83.64214102589969,2090.3536360823823,0.0,0,5,0.0,16431,344784916991249,797,18.507999420166016,1057.1055107713464,0.14999,16,0.0,0.0,1575420030,,,,0,0.0,1,6.0,18.507999420166016,0.0,0.0,0.0,66.7128,C,25251045000000,
Raw,1732146367001,8929000000,,682989.7885556547,-1416181576072000000,0.0,83.64214102589969,2090.3536360823823,0.0,0,15,0.0,16431,344784922355129,58,31.152999877929688,132.73215969767003,0.14999,16,0.0,0.0,1575420030,,,,0,17.94166512093946,1,6.0,31.152999877929688,0.0,0.0,0.0,66.7128,C,25251045000000,
Raw,1732146367001,8929000000,,682989.7885556547,-1416181576072000000,0.0,83.64214102589969,2090.3536360823823,0.0,0,14,0.0,16431,344784933037996,31,41.34000015258789,607.0365839347029,0.14999,16,0.0,0.0,1575420030,,,,0,29.22067815217737,1,6.0,41.34000015258789,0.0,0.0,0.0,66.7128,C,25251045000000,
Raw,1732146367001,8929000000,,682989.7885556547,-1416181576072000000,0.0,83.64214102589969,2090.3536360823823,0.0,0,19,0.0,16431,344784920644803,42,40.744998931884766,-71.98722300139667,0.14999,16,0.0,0.0,1575420030,,,,0,28.591967335947473,1,6.0,40.744998931884766,0.0,0.0,0.0,66.7128,C,25251045000000,
Fix,FLP,37.4243816000,-122.1712506000,2.0999999046325684,0.13444458,1.8,274.53528,1732146367197,1.6,55.6,25251045000000,0.9319144,0,,,
Status,1732146367000,29,0,1,14,1575420030,38.70,319.0,74.0,1,0,0,33.7
Status,1732146367000,29,1,1,30,1575420030,42.50,73.0,70.0,1,0,0,37.5
Status,1732146367000,29,2,1,22,1575420030,47.60,270.0,59.0,1,0,0,42.6
Status,1732146367000,29,3,1,13,1575420030,51.10,303.0,47.0,1,0,0,46.1
Status,1732146367000,29,4,1,17,1575420030,39.50,176.0,44.0,1,0,0,34.5
Status,1732146367000,29,5,1,7,1575420030,41.30,103.0,38.0,1,0,0,36.3
Status,1732146367000,29,6,2,131,1575420030,45.00,3.0,23.0,0,0,0,40.0
Status,1732146367000,29,7,1,19,1575420030,42.70,193.0,17.0,1,0,0,37.7
Status,1732146367000,29,8,1,15,1575420030,45.00,316.0,17.0,1,0,0,40.0
Status,1732146367000,29,9,1,2,1575420030,0.00,88.0,16.0,0,0,0,0.0
Status,1732146367000,29,10,1,21,1575420030,19.60,69.0,13.0,1,0,0,14.6
Status,1732146367000,29,11,1,8,1575420030,0.00,39.0,9.0,0,0,0,0.0
Status,1732146367000,29,12,1,5,1575420030,21.60,263.0,7.0,1,0,0,16.6
Status,1732146367000,29,13,1,9,1575420030,0.00,159.0,1.0,0,0,0,0.0
Status,1732146367000,29,14,3,9,1602000000,31.30,16.0,54.0,1,0,0,26.3
Status,1732146367000,29,15,3,8,1602000000,44.70,304.0,39.0,1,0,0,39.7
Status,1732146367000,29,16,3,16,1602000000,0.00,67.0,15.0,0,0,0,0.0
Status,1732146367000,29,17,3,20,1602000000,24.50,149.0,10.0,1,0,0,19.5
Status,1732146367000,29,18,3,11,1602000000,0.00,271.0,1.0,0,0,0,0.0
Status,1732146367000,29,19,3,17,1602000000,44.90,0.0,0.0,0,0,0,39.9
Status,1732146367000,29,20,6,29,1575420030,44.70,204.0,61.0,1,0,0,39.7
Status,1732146367000,29,21,6,27,1575420030,34.00,36.0,59.0,1,0,0,29.0
Status,1732146367000,29,22,6,21,1575420030,0.00,268.0,57.0,0,0,0,0.0
Status,1732146367000,29,23,6,19,1575420030,32.70,298.0,50.0,1,0,0,27.7
Status,1732146367000,29,24,6,7,1575420030,34.00,161.0,17.0,1,0,0,29.0
Status,1732146367000,29,25,6,30,1575420030,0.00,58.0,11.0,0,0,0,0.0
Status,1732146367000,29,26,6,15,1575420030,0.00,95.0,10.0,0,0,0,0.0
Status,1732146367000,29,27,6,34,1575420030,0.00,47.0,6.0,0,0,0,0.0
Status,1732146367000,29,28,6,13,1575420030,0.00,142.0,1.0,0,0,0,0.0
Fix,GPS,37.4243766667,-122.1712683333,14.8,1.2759964,1.7,249.92,1732146368000,1.6,37.7,25252045000000,30.6,0,,,
Raw,1732146368001,9929000000,,82.38017357719136,-1416181576072000000,0.0,82.38017357719136,2091.2127981071512,0.0,0,30,0.0,16431,344785932168151,51,37.45399856567383,707.5419805180251,0.14999,16,0.0,0.0,1575420030,,,,0,25.06626019291982,1,6.0,37.45399856567383,0.0,0.0,0.0,66.7128,C,25252045000000,
Raw,1732146368001,9929000000,,82.38017357719136,-1416181576072000000,0.0,82.38017357719136,2091.2127981071512,0.0,0,13,0.0,16431,344785930113993,28,46.09199905395508,312.80944093767266,0.14999,16,0.0,0.0,1575420030,,,,0,34.17887883414693,1,6.0,46.09199905395508,0.0,0.0,0.0,66.7128,C,25252045000000,
Raw,1732146368001,9929000000,,82.38017357719136,-1416181576072000000,0.0,82.38017357719136,2091.2127981071512,0.0,0,22,0.0,16431,344785930783740,31,42.60900115966797,458.9336107753601,0.14999,16,0.0,0.0,1575420030,,,,0,30.556519025947676,1,6.0,42.60900115966797,0.0,0.0,0.0,66.7128,C,25252045000000,
Raw,1732146368001,9929000000,,82.38017357719136,-1416181576072000000,0.0,82.38017357719136,2091.2127981071512,0.0,0,7,0.0,16431,344785927005437,51,36.30799865722656,973.9984658499574,0.14999,16,0.0,0.0,1575420030,,,,0,23.80655989808583,1,6.0,36.30799865722656,0.0,0.0,0.0,66.7128,C,25252045000000,
Raw,1732146368001,9929000000,,82.38017357719136,-1416181576072000000,0.0,82.38017357719136,2091.2127981071512,0.0,0,17,0.0,16431,344785929320847,58,34.527000427246094,131.96698958268246,0.14999,16,0.0,0.0,1575420030,,,,0,21.828993285355615,1,6.0,34.527000427246094,0.0,0.0,0.0,66.7128,C,25252045000000,
Raw,1732146368001,9929000000,,82.38017357719136,-1416181576072000000,0.0,82.38017357719136,2091.2127981071512,0.0,0,29,0.0,16431,344785921235609,42,39.70000076293945,906.6591286399278,0.14999,16,0.0,0.0,1575420030,,,,0,27.431019441443233,6,6.0,39.70000076293945,0.0,0.0,0.8711982895089646,66.7128,C,25252045000000,
Raw,1732146368001,9929000000,,82.38017357719136,-1416181576072000000,0.0,82.38017357719136,2091.2127981071512,0.0,0,7,0.0,16431,344785910160598,74,29.0,1212.6986491674008,0.14999,16,0.0,0.0,1575420030,,,,0,15.881360887005513,6,6.0,29.0,0.0,0.0,0.8711982895089646,66.7128,C,25252045000000,
Raw,1732146368001,9929000000,,82.38017357719136,-1416181576072000000,0.0,82.38017357719136,2091.2127981071512,0.0,0,19,0.0,16431,344785920300256,235,27.700000762939453,429.2313515394766,0.14999,16,0.0,0.0,1575420030,,,,0,14.397766510822889,6,6.0,27.700000762939453,0.0,0.0,0.8711982895089646,66.7128,C,25252045000000,
Raw,1732146368001,9929000000,,82.38017357719136,-1416181576072000000,0.0,82.38017357719136,2091.2127981071512,0.0,0,27,0.0,16431,344785920341594,74,29.0,871.0009004458533,0.14999,16,0.0,0.0,1575420030,,,,0,15.858974561113433,6,6.0,29.0,0.0,0.0,0.8711982895089646,66.7128,C,25252045000000,
Raw,1732146368001,9929000000,,82.38017357719136,-1416181576072000000,0.0,82.38017357719136,2091.2127981071512,0.0,0,8,0.0,17,470764,42,5.0,421.442813303264,0.14999,16,0.0,0.0,1605374980,,,,0,27.407822177151587,3,6.0,40.0,0.0,0.0,32.3909172013781,66.7128,C,25252045000000,
Raw,1732146368001,9929000000,,82.38017357719136,-1416181576072000000,0.0,82.38017357719136,2091.2127981071512,0.0,0,9,0.0,17,944249,316,5.0,752.6157787856915,0.14999,16,0.0,0.0,1600875010,,,,0,12.660725691602543,3,6.0,26.0,0.0,0.0,32.3909172013781,66.7128,C,25252045000000,
Raw,1732146368001,9929000000,,82.38017357719136,-1416181576072000000,0.0,82.38017357719136,2091.2127981071512,0.0,0,20,0.0,17,10898,487,5.0,-156.27941965818349,0.14999,16,0.0,0.0,1603124990,,,,0,3.3722841740268326,3,6.0,18.0,0.0,0.0,32.3909172013781,66.7128,C,25252045000000,
Raw,1732146368001,9929000000,,82.38017357719136,-1416181576072000000,0.0,82.38017357719136,2091.2127981071512,0.0,0,21,0.0,16431,344785920578132,797,14.600000381469727,601.4941413392019,0.14999,16,0.0,0.0,1575420030,,,,0,0.0,1,6.0,14.600000381469727,0.0,0.0,0.0,66.7128,C,25252045000000,
Raw,1732146368001,9929000000,,82.38017357719136,-1416181576072000000,0.0,82.38017357719136,2091.2127981071512,0.0,0,5,0.0,16431,344785916987729,487,16.615999221801758,1055.0251028934385,0.14999,16,0.0,0.0,1575420030,,,,0,0.0,1,6.0,16.615999221801758,0.0,0.0,0.0,66.7128,C,25252045000000,
Raw,1732146368001,9929000000,,82.38017357719136,-1416181576072000000,0.0,82.38017357719136,2091.2127981071512,0.0,0,15,0.0,16431,344785922354685,42,39.96699905395508,132.7677933029035,0.14999,16,0.0,0.0,1575420030,,,,0,27.767476596960464,1,6.0,39.96699905395508,0.0,0.0,0.0,66.7128,C,25252045000000,
Raw,1732146368001,9929000000,,82.38017357719136,-1416181576072000000,0.0,82.38017357719136,2091.2127981071512,0.0,0,14,0.0,16431,344785933035966,58,33.7140007019043,607.1377703652095,0.14999,16,0.0,0.0,1575420030,,,,0,20.914469732452925,1,6.0,33.7140007019043,0.0,0.0,0.0,66.7128,C,25252045000000,
Raw,1732146368001,9929000000,,82.38017357719136,-1416181576072000000,0.0,82.38017357719136,2091.2127981071512,0.0,0,19,0.0,16431,344785920645037,51,37.72600173950195,-71.5019648440776,0.14999,16,0.0,0.0,1575420030,,,,0,25.356453166399614,1,6.0,37.72600173950195,0.0,0.0,0.0,66.7128,C,25252045000000,
Fix,FLP,37.4243790000,-122.1712603000,2.0999999046325684,0.1842224,1.8,258.85315,1732146368198,1.6,37.7,25252045000000,0.94301707,0,,,
Status,1732146368000,29,0,1,14,1575420030,41.50,319.0,74.0,1,0,0,36.5
Status,1732146368000,29,1,1,30,1575420030,45.60,73.0,70.0,1,0,0,40.6
Status,1732146368000,29,2,1,22,1575420030,42.20,270.0,59.0,1,0,0,37.2
Status,1732146368000,29,3,1,13,1575420030,45.90,303.0,47.0,1,0,0,40.9
Status,1732146368000,29,4,1,17,1575420030,43.80,176.0,44.0,1,0,0,38.8
Status,1732146368000,29,5,1,7,1575420030,42.30,103.0,38.0,1,0,0,37.3
Status,1732146368000,29,6,2,131,1575420030,38.00,3.0,23.0,0,0,0,33.0
Status,1732146368000,29,7,1,19,1575420030,33.30,193.0,17.0,1,0,0,28.3
Status,1732146368000,29,8,1,15,1575420030,44.00,316.0,17.0,1,0,0,39.0
Status,1732146368000,29,9,1,2,1575420030,0.00,88.0,16.0,0,0,0,0.0
Status,1732146368000,29,10,1,21,1575420030,24.50,69.0,13.0,1,0,0,19.5
Status,1732146368000,29,11,1,8,1575420030,0.00,39.0,9.0,0,0,0,0.0
Status,1732146368000,29,12,1,5,1575420030,0.00,263.0,7.0,0,0,0,0.0
Status,1732146368000,29,13,1,9,1575420030,0.00,159.0,1.0,0,0,0,0.0
Status,1732146368000,29,14,3,9,1602000000,30.70,16.0,54.0,1,0,0,25.7
Status,1732146368000,29,15,3,8,1602000000,37.60,304.0,39.0,1,0,0,32.6
Status,1732146368000,29,16,3,16,1602000000,0.00,67.0,15.0,0,0,0,0.0
Status,1732146368000,29,17,3,20,1602000000,22.90,149.0,10.0,1,0,0,17.9
Status,1732146368000,29,18,3,11,1602000000,0.00,271.0,1.0,0,0,0,0.0
Status,1732146368000,29,19,3,17,1602000000,45.20,0.0,0.0,0,0,0,40.2
Status,1732146368000,29,20,6,29,1575420030,44.70,204.0,61.0,1,0,0,39.7
Status,1732146368000,29,21,6,27,1575420030,39.30,36.0,59.0,1,0,0,34.3
Status,1732146368000,29,22,6,21,1575420030,0.00,268.0,57.0,0,0,0,0.0
Status,1732146368000,29,23,6,19,1575420030,32.90,298.0,50.0,1,0,0,27.900002
Status,1732146368000,29,24,6,7,1575420030,28.50,161.0,17.0,1,0,0,23.5
Status,1732146368000,29,25,6,30,1575420030,0.00,58.0,11.0,0,0,0,0.0
Status,1732146368000,29,26,6,15,1575420030,0.00,95.0,10.0,0,0,0,0.0
Status,1732146368000,29,27,6,34,1575420030,0.00,47.0,6.0,0,0,0,0.0
Status,1732146368000,29,28,6,13,1575420030,0.00,142.0,1.0,0,0,0,0.0
Fix,GPS,37.4243750000,-122.1712633333,14.599999999999998,0.70516944,1.7,147.44,1732146369000,1.3,70.8,25253045000000,30.7,0,,,
Fix,FLP,37.4243766000,-122.1712624000,2.0999999046325684,0.15391482,1.783,241.58493,1732146369197,1.3,70.8,25253045000000,0.94750917,0,,,
Raw,1732146369001,10929000000,,80.45730401656957,-1416181576072000000,0.0,80.45730401656957,2089.5150900926815,0.0,0,30,0.0,16431,344786932165793,42,40.63600158691406,707.3376099451149,0.14999,16,0.0,0.0,1575420030,,,,0,28.477369228626426,1,6.0,40.63600158691406,0.0,0.0,0.0,66.7128,C,25253045000000,
Raw,1732146369001,10929000000,,80.45730401656957,-1416181576072000000,0.0,80.45730401656957,2089.5150900926815,0.0,0,13,0.0,16431,344786930112950,42,40.87799835205078,313.6775629029828,0.14999,16,0.0,0.0,1575420030,,,,0,28.735666276560003,1,6.0,40.87799835205078,0.0,0.0,0.0,66.7128,C,25253045000000,
Raw,1732146369001,10929000000,,80.45730401656957,-1416181576072000000,0.0,80.45730401656957,2089.5150900926815,0.0,0,22,0.0,16431,344786930782205,51,37.220001220703125,459.0811627052447,0.14999,16,0.0,0.0,1575420030,,,,0,24.806136980075628,1,6.0,37.220001220703125,0.0,0.0,0.0,66.7128,C,25253045000000,
Raw,1732146369001,10929000000,,80.45730401656957,-1416181576072000000,0.0,80.45730401656957,2089.5150900926815,0.0,0,7,0.0,16431,344786927002193,51,37.29499816894531,973.2981516839997,0.14999,16,0.0,0.0,1575420030,,,,0,24.885788062201335,1,6.0,37.29499816894531,0.0,0.0,0.0,66.7128,C,25253045000000,
Raw,1732146369001,10929000000,,80.45730401656957,-1416181576072000000,0.0,80.45730401656957,2089.5150900926815,0.0,0,15,0.0,16431,344786922354248,42,38.97700119018555,133.53542571395022,0.14999,16,0.0,0.0,1575420030,,,,0,26.709861424961737,1,6.0,38.97700119018555,0.0,0.0,0.0,66.7128,C,25253045000000,
Raw,1732146369001,10929000000,,80.45730401656957,-1416181576072000000,0.0,80.45730401656957,2089.5150900926815,0.0,0,17,0.0,16431,344786929320401,42,38.83300018310547,131.76243317610746,0.14999,16,0.0,0.0,1575420030,,,,0,26.55423101933699,1,6.0,38.83300018310547,0.0,0.0,0.0,66.7128,C,25253045000000,
Raw,1732146369001,10929000000,,80.45730401656957,-1416181576072000000,0.0,80.45730401656957,2089.5150900926815,0.0,0,29,0.0,16431,344786921232581,42,39.69499969482422,906.5607297143938,0.14999,17,9506.625471297437,0.00022499999613501132,1575420030,,,,0,27.293902344400387,6,6.0,39.69499969482422,0.0,0.0,1.7955814706201747,66.7128,C,25253045000000,
Raw,1732146369001,10929000000,,80.45730401656957,-1416181576072000000,0.0,80.45730401656957,2089.5150900926815,0.0,0,7,0.0,16431,344786910156552,316,23.5,1212.1937391000247,0.14999,16,0.0,0.0,1575420030,,,,0,9.126304833231092,6,6.0,23.5,0.0,0.0,1.7955814706201747,66.7128,C,25253045000000,
Raw,1732146369001,10929000000,,80.45730401656957,-1416181576072000000,0.0,80.45730401656957,2089.5150900926815,0.0,0,19,0.0,16431,344786920298823,58,27.899999618530273,429.7799325180906,0.14999,16,0.0,0.0,1575420030,,,,0,14.52937341704932,6,6.0,27.899999618530273,0.0,0.0,1.7955814706201747,66.7128,C,25253045000000,
Raw,1732146369001,10929000000,,80.45730401656957,-1416181576072000000,0.0,80.45730401656957,2089.5150900926815,0.0,0,21,0.0,16431,344786920576187,487,19.45599937438965,600.9650728953962,0.14999,16,0.0,0.0,1575420030,,,,0,1.300300555686725,1,6.0,19.45599937438965,0.0,0.0,0.0,66.7128,C,25253045000000,
Raw,1732146369001,10929000000,,80.45730401656957,-1416181576072000000,0.0,80.45730401656957,2089.5150900926815,0.0,0,27,0.0,16431,344786920338689,58,34.29999923706055,870.8146951136814,0.14999,16,0.0,0.0,1575420030,,,,0,21.646725306499025,6,6.0,34.29999923706055,0.0,0.0,1.7955814706201747,66.7128,C,25253045000000,
Raw,1732146369001,10929000000,,80.45730401656957,-1416181576072000000,0.0,80.45730401656957,2089.5150900926815,0.0,0,8,0.0,17,469350,58,5.0,422.53245110239953,0.14999,16,0.0,0.0,1605374980,,,,0,19.894549897933878,3,6.0,33.0,0.0,0.0,31.412908527331812,66.7128,C,25253045000000,
Raw,1732146369001,10929000000,,80.45730401656957,-1416181576072000000,0.0,80.45730401656957,2089.5150900926815,0.0,0,9,0.0,17,941745,316,5.0,752.6645617011451,0.14999,16,0.0,0.0,1600875010,,,,0,11.938365562380106,3,6.0,25.0,0.0,0.0,31.412908527331812,66.7128,C,25253045000000,
Raw,1732146369001,10929000000,,80.45730401656957,-1416181576072000000,0.0,80.45730401656957,2089.5150900926815,0.0,0,20,0.0,17,11411,487,5.0,-156.51828937983552,0.14999,16,0.0,0.0,1603124990,,,,0,0.7622929462364452,3,6.0,18.0,0.0,0.0,31.412908527331812,66.7128,C,25253045000000,
Raw,1732146369001,10929000000,,80.45730401656957,-1416181576072000000,0.0,80.45730401656957,2089.5150900926815,0.0,0,14,0.0,16431,344786933033939,51,36.47200012207031,607.5699730112161,0.14999,16,0.0,0.0,1575420030,,,,0,23.993073897260672,1,6.0,36.47200012207031,0.0,0.0,0.0,66.7128,C,25253045000000,
Raw,1732146369001,10929000000,,80.45730401656957,-1416181576072000000,0.0,80.45730401656957,2089.5150900926815,0.0,0,19,0.0,16431,344786920645276,235,28.260000228881836,-72.43275921285573,0.14999,16,0.0,0.0,1575420030,,,,0,14.397766510822889,1,6.0,28.260000228881836,0.0,0.0,0.0,66.7128,C,25253045000000,
Status,1732146369000,29,0,1,14,1575420030,39.00,319.0,74.0,1,0,0,34.0
Status,1732146369000,29,1,1,30,1575420030,45.00,73.0,70.0,1,0,0,40.0
Status,1732146369000,29,2,1,22,1575420030,44.00,270.0,59.0,1,0,0,39.0
Status,1732146369000,29,3,1,13,1575420030,38.80,303.0,47.0,1,0,0,33.8
Status,1732146369000,29,4,1,17,1575420030,38.90,176.0,44.0,1,0,0,33.9
Status,1732146369000,29,5,1,7,1575420030,36.70,103.0,38.0,1,0,0,31.7
Status,1732146369000,29,6,2,131,1575420030,37.00,3.0,23.0,0,0,0,32.0
Status,1732146369000,29,7,1,19,1575420030,38.30,193.0,17.0,1,0,0,33.3
Status,1732146369000,29,8,1,15,1575420030,0.00,316.0,17.0,0,0,0,0.0
Status,1732146369000,29,9,1,2,1575420030,26.10,88.0,16.0,1,0,0,21.1
Status,1732146369000,29,10,1,21,1575420030,0.00,69.0,13.0,0,0,0,0.0
Status,1732146369000,29,11,1,8,1575420030,0.00,39.0,9.0,0,0,0,0.0
Status,1732146369000,29,12,1,5,1575420030,22.00,263.0,7.0,1,0,0,17.0
Status,1732146369000,29,13,1,9,1575420030,0.00,159.0,1.0,0,0,0,0.0
Status,1732146369000,29,14,3,9,1602000000,29.20,16.0,54.0,1,0,0,24.2
Status,1732146369000,29,15,3,8,1602000000,30.60,304.0,39.0,1,0,0,25.6
Status,1732146369000,29,16,3,16,1602000000,0.00,67.0,15.0,0,0,0,0.0
Status,1732146369000,29,17,3,20,1602000000,22.90,149.0,10.0,1,0,0,17.9
Status,1732146369000,29,18,3,11,1602000000,0.00,271.0,1.0,0,0,0,0.0
Status,1732146369000,29,19,3,17,1602000000,38.60,0.0,0.0,0,0,0,33.6
Status,1732146369000,29,20,6,29,1575420030,33.70,204.0,61.0,1,0,0,28.7
Status,1732146369000,29,21,6,27,1575420030,37.80,36.0,59.0,1,0,0,32.8
Status,1732146369000,29,22,6,21,1575420030,0.00,268.0,57.0,0,0,0,0.0
Status,1732146369000,29,23,6,19,1575420030,29.30,298.0,50.0,1,0,0,24.3
Status,1732146369000,29,24,6,7,1575420030,28.40,161.0,17.0,1,0,0,23.4
Status,1732146369000,29,25,6,30,1575420030,0.00,58.0,11.0,0,0,0,0.0
Status,1732146369000,29,26,6,15,1575420030,0.00,95.0,10.0,0,0,0,0.0
Status,1732146369000,29,27,6,34,1575420030,0.00,47.0,6.0,0,0,0,0.0
Status,1732146369000,29,28,6,13,1575420030,0.00,142.0,1.0,0,0,0,0.0
Fix,GPS,37.4243750000,-122.1712566667,14.7,0.5739153,1.7,126.25,1732146370000,1.1,77.3,25254045000000,30.4,0,,,
Raw,1732146370001,11929000000,,80.27962601351402,-1416181576072000000,0.0,80.27962601351402,2089.350916488781,0.0,0,30,0.0,16431,344787932163435,42,39.97200012207031,707.2654600247399,0.14999,16,0.0,0.0,1575420030,,,,0,27.77316480255869,1,6.0,39.97200012207031,0.0,0.0,0.0,66.7128,C,25254045000000,
Raw,1732146370001,11929000000,,80.27962601351402,-1416181576072000000,0.0,80.27962601351402,2089.350916488781,0.0,0,13,0.0,16431,344787930111900,58,33.79499816894531,313.662603292963,0.14999,16,0.0,0.0,1575420030,,,,0,21.00170321670272,1,6.0,33.79499816894531,0.0,0.0,0.0,66.7128,C,25254045000000,
Raw,1732146370001,11929000000,,80.27962601351402,-1416181576072000000,0.0,80.27962601351402,2089.350916488781,0.0,0,22,0.0,16431,344787930780673,42,39.020999908447266,459.43629083875805,0.14999,16,0.0,0.0,1575420030,,,,0,26.754733279345043,1,6.0,39.020999908447266,0.0,0.0,0.0,66.7128,C,25254045000000,
Raw,1732146370001,11929000000,,80.27962601351402,-1416181576072000000,0.0,80.27962601351402,2089.350916488781,0.0,0,7,0.0,16431,344787926998950,74,31.74799919128418,973.6321876965534,0.14999,16,0.0,0.0,1575420030,,,,0,18.636228899476627,1,6.0,31.74799919128418,0.0,0.0,0.0,66.7128,C,25254045000000,
Raw,1732146370001,11929000000,,80.27962601351402,-1416181576072000000,0.0,80.27962601351402,2089.350916488781,0.0,0,17,0.0,16431,344787929319965,58,33.89500045776367,132.40067889800784,0.14999,16,0.0,0.0,1575420030,,,,0,21.11258842013671,1,6.0,33.89500045776367,0.0,0.0,0.0,66.7128,C,25254045000000,
Raw,1732146370001,11929000000,,80.27962601351402,-1416181576072000000,0.0,80.27962601351402,2089.350916488781,0.0,0,29,0.0,16431,344787921229554,235,28.700000762939453,907.0980677562849,0.14999,16,0.0,0.0,1575420030,,,,0,15.516065965953086,6,6.0,28.700000762939453,0.0,0.0,6.061116506916517,66.7128,C,25254045000000,
Raw,1732146370001,11929000000,,80.27962601351402,-1416181576072000000,0.0,80.27962601351402,2089.350916488781,0.0,0,7,0.0,16431,344787910152507,316,23.399999618530273,1212.477414189406,0.14999,16,0.0,0.0,1575420030,,,,0,9.028434618743677,6,6.0,23.399999618530273,0.0,0.0,6.061116506916517,66.7128,C,25254045000000,
Raw,1732146370001,11929000000,,80.27962601351402,-1416181576072000000,0.0,80.27962601351402,2089.350916488781,0.0,0,19,0.0,16431,344787920297389,316,24.299999237060547,429.4494273451689,0.14999,16,0.0,0.0,1575420030,,,,0,10.179041433809417,6,6.0,24.299999237060547,0.0,0.0,6.061116506916517,66.7128,C,25254045000000,
Raw,1732146370001,11929000000,,80.27962601351402,-1416181576072000000,0.0,80.27962601351402,2089.350916488781,0.0,0,27,0.0,16431,344787920335783,58,32.79999923706055,870.8954398410553,0.14999,16,0.0,0.0,1575420030,,,,0,20.045815027328366,6,6.0,32.79999923706055,0.0,0.0,6.061116506916517,66.7128,C,25254045000000,
Raw,1732146370001,11929000000,,80.27962601351402,-1416181576072000000,0.0,80.27962601351402,2089.350916488781,0.0,0,8,0.0,17,467935,316,5.0,422.98389852863545,0.14999,16,0.0,0.0,1605374980,,,,0,11.809440892875621,3,6.0,26.0,0.0,0.0,32.90251041361603,66.7128,C,25254045000000,
Raw,1732146370001,11929000000,,80.27962601351402,-1416181576072000000,0.0,80.27962601351402,2089.350916488781,0.0,0,9,0.0,17,939240,316,5.0,754.0320835232014,0.14999,16,0.0,0.0,1600875010,,,,0,10.093953224625755,3,6.0,25.0,0.0,0.0,32.90251041361603,66.7128,C,25254045000000,
Raw,1732146370001,11929000000,,80.27962601351402,-1416181576072000000,0.0,80.27962601351402,2089.350916488781,0.0,0,20,0.0,17,11934,797,5.0,-156.85166604411367,0.14999,16,0.0,0.0,1603124990,,,,0,0.7622929462364452,3,6.0,17.0,0.0,0.0,32.90251041361603,66.7128,C,25254045000000,
Raw,1732146370001,11929000000,,80.27962601351402,-1416181576072000000,0.0,80.27962601351402,2089.350916488781,0.0,0,5,0.0,16431,344787916980681,797,17.009000778198242,1058.2474586418014,0.14999,16,0.0,0.0,1575420030,,,,0,0.0,1,6.0,17.009000778198242,0.0,0.0,0.0,66.7128,C,25254045000000,
Raw,1732146370001,11929000000,,80.27962601351402,-1416181576072000000,0.0,80.27962601351402,2089.350916488781,0.0,0,2,0.0,16431,344787920321372,487,21.10300064086914,401.7348449884371,0.14999,16,0.0,0.0,1575420030,,,,0,4.136861659397004,1,6.0,21.10300064086914,0.0,0.0,0.0,66.7128,C,25254045000000,
Raw,1732146370001,11929000000,,80.27962601351402,-1416181576072000000,0.0,80.27962601351402,2089.350916488781,0.0,0,14,0.0,16431,344787933031910,58,34.04199981689453,607.1534733098886,0.14999,16,0.0,0.0,1575420030,,,,0,21.282311133367976,1,6.0,34.04199981689453,0.0,0.0,0.0,66.7128,C,25254045000000,
Raw,1732146370001,11929000000,,80.27962601351402,-1416181576072000000,0.0,80.27962601351402,2089.350916488781,0.0,0,19,0.0,16431,344787920645515,58,33.255001068115234,-71.42358949593043,0.14999,16,0.0,0.0,1575420030,,,,0,20.385150744473222,1,6.0,33.255001068115234,0.0,0.0,0.0,66.7128,C,25254045000000,
Fix,FLP,37.4243753000,-122.1712599000,2.0999999046325684,0.12984097,1.766,218.0466,1732146370198,1.1,77.3,25254045000000,0.9575268,0,,,
Status,1732146370000,29,0,1,14,1575420030,44.00,319.0,74.0,1,0,0,39.0
Status,1732146370000,29,1,1,30,1575420030,45.50,73.0,70.0,1,0,0,40.5
Status,1732146370000,29,2,1,22,1575420030,34.30,270.0,59.0,1,0,0,29.3
Status,1732146370000,29,3,1,13,1575420030,39.60,303.0,47.0,1,0,0,34.6
Status,1732146370000,29,4,1,17,1575420030,41.70,176.0,44.0,1,0,0,36.7
Status,1732146370000,29,5,1,7,1575420030,35.30,103.0,38.0,1,0,0,30.3
Status,1732146370000,29,6,2,131,1575420030,42.00,3.0,23.0,0,0,0,37.0
Status,1732146370000,29,7,1,19,1575420030,35.50,193.0,17.0,1,0,0,30.5
Status,1732146370000,29,8,1,15,1575420030,47.00,316.0,17.0,1,0,0,42.0
Status,1732146370000,29,9,1,2,1575420030,25.80,88.0,16.0,1,0,0,20.8
Status,1732146370000,29,10,1,21,1575420030,19.60,69.0,13.0,1,0,0,14.6
Status,1732146370000,29,11,1,8,1575420030,0.00,39.0,9.0,0,0,0,0.0
Status,1732146370000,29,12,1,5,1575420030,21.00,263.0,7.0,1,0,0,16.0
Status,1732146370000,29,13,1,9,1575420030,0.00,159.0,1.0,0,0,0,0.0
Status,1732146370000,29,14,3,9,1602000000,33.60,16.0,54.0,1,0,0,28.599998
Status,1732146370000,29,15,3,8,1602000000,36.20,304.0,39.0,1,0,0,31.2
Status,1732146370000,29,16,3,16,1602000000,0.00,67.0,15.0,0,0,0,0.0
Status,1732146370000,29,17,3,20,1602000000,20.50,149.0,10.0,1,0,0,15.5
Status,1732146370000,29,18,3,11,1602000000,0.00,271.0,1.0,0,0,0,0.0
Status,1732146370000,29,19,3,17,1602000000,30.30,0.0,0.0,0,0,0,25.3
Status,1732146370000,29,20,6,29,1575420030,40.60,204.0,61.0,1,0,0,35.6
Status,1732146370000,29,21,6,27,1575420030,40.40,36.0,59.0,1,0,0,35.4
Status,1732146370000,29,22,6,21,1575420030,0.00,268.0,57.0,0,0,0,0.0
Status,1732146370000,29,23,6,19,1575420030,32.60,298.0,50.0,1,0,0,27.599998
Status,1732146370000,29,24,6,7,1575420030,30.70,161.0,17.0,1,0,0,25.7
Status,1732146370000,29,25,6,30,1575420030,0.00,58.0,11.0,0,0,0,0.0
Status,1732146370000,29,26,6,15,1575420030,0.00,95.0,10.0,0,0,0,0.0
Status,1732146370000,29,27,6,34,1575420030,0.00,47.0,6.0,0,0,0,0.0
Status,1732146370000,29,28,6,13,1575420030,0.00,142.0,1.0,0,0,0,0.0
Fix,GPS,37.4243783333,-122.1712533333,14.599999999999998,0.41332194,1.7,108.65,1732146371000,1.0,94.0,25255045000000,28.8,0,,,
Raw,1732146371001,12929000000,,76.18278239036917,-1416181576072000000,0.0,76.18278239036917,2088.4832497170164,0.0,0,30,0.0,16431,344788932161074,42,40.4739990234375,707.6464654960826,0.14999,17,9114.43096660927,0.00022499999613501132,1575420030,,,,0,28.30793473788688,1,6.0,40.4739990234375,0.0,0.0,0.0,66.7128,C,25255045000000,
Raw,1732146371001,12929000000,,76.18278239036917,-1416181576072000000,0.0,76.18278239036917,2088.4832497170164,0.0,0,13,0.0,16431,344788930110853,58,34.63800048828125,313.66425256673847,0.14999,17,4067.2636859714285,0.00039999998989515007,1575420030,,,,0,21.952120071370967,1,6.0,34.63800048828125,0.0,0.0,0.0,66.7128,C,25255045000000,
Raw,1732146371001,12929000000,,76.18278239036917,-1416181576072000000,0.0,76.18278239036917,2088.4832497170164,0.0,0,22,0.0,16431,344788930779135,235,29.3439998626709,459.30532456346054,0.14999,16,0.0,0.0,1575420030,,,,0,15.74616921405958,1,6.0,29.3439998626709,0.0,0.0,0.0,66.7128,C,25255045000000,
Raw,1732146371001,12929000000,,76.18278239036917,-1416181576072000000,0.0,76.18278239036917,2088.4832497170164,0.0,0,7,0.0,16431,344788926995700,74,30.319000244140625,973.4799899250477,0.14999,16,0.0,0.0,1575420030,,,,0,16.93293237830804,1,6.0,30.319000244140625,0.0,0.0,0.0,66.7128,C,25255045000000,
Raw,1732146371001,12929000000,,76.18278239036917,-1416181576072000000,0.0,76.18278239036917,2088.4832497170164,0.0,0,17,0.0,16431,344788929319519,51,36.67599868774414,131.94190203792877,0.14999,17,1758.6770041922605,0.00022499999613501132,1575420030,,,,0,24.2100154848474,1,6.0,36.67599868774414,0.0,0.0,0.0,66.7128,C,25255045000000,
Raw,1732146371001,12929000000,,76.18278239036917,-1416181576072000000,0.0,76.18278239036917,2088.4832497170164,0.0,0,29,0.0,16431,344788921226528,51,35.599998474121094,906.8153218352276,0.14999,16,0.0,0.0,1575420030,,,,0,23.056907658809486,6,6.0,35.599998474121094,0.0,0.0,8.192427412456379,66.7128,C,25255045000000,
Raw,1732146371001,12929000000,,76.18278239036917,-1416181576072000000,0.0,76.18278239036917,2088.4832497170164,0.0,0,7,0.0,16431,344788910148459,235,25.700000762939453,1212.31406639801,0.14999,16,0.0,0.0,1575420030,,,,0,11.965044489658602,6,6.0,25.700000762939453,0.0,0.0,8.192427412456379,66.7128,C,25255045000000,
Raw,1732146371001,12929000000,,76.18278239036917,-1416181576072000000,0.0,76.18278239036917,2088.4832497170164,0.0,0,19,0.0,16431,344788920295955,316,27.600000381469727,429.60143928300977,0.14999,16,0.0,0.0,1575420030,,,,0,14.182957674155231,6,6.0,27.600000381469727,0.0,0.0,8.192427412456379,66.7128,C,25255045000000,
Raw,1732146371001,12929000000,,76.18278239036917,-1416181576072000000,0.0,76.18278239036917,2088.4832497170164,0.0,0,27,0.0,16431,344788920332876,51,35.400001525878906,870.7848688104743,0.14999,16,0.0,0.0,1575420030,,,,0,22.828840376465678,6,6.0,35.400001525878906,0.0,0.0,8.192427412456379,66.7128,C,25255045000000,
Raw,1732146371001,12929000000,,76.18278239036917,-1416181576072000000,0.0,76.18278239036917,2088.4832497170164,0.0,0,8,0.0,17,466525,235,5.0,422.17173084019197,0.14999,16,0.0,0.0,1605374980,,,,0,18.331941404219066,3,6.0,29.0,0.0,0.0,35.71323073677024,66.7128,C,25255045000000,
Raw,1732146371001,12929000000,,76.18278239036917,-1416181576072000000,0.0,76.18278239036917,2088.4832497170164,0.0,0,9,0.0,17,936729,235,5.0,752.0894993669597,0.14999,16,0.0,0.0,1600875010,,,,0,15.332595920066721,3,6.0,28.0,0.0,0.0,35.71323073677024,66.7128,C,25255045000000,
Raw,1732146371001,12929000000,,76.18278239036917,-1416181576072000000,0.0,76.18278239036917,2088.4832497170164,0.0,0,20,0.0,17,12454,797,5.0,-156.38460999432382,0.14999,16,0.0,0.0,1603124990,,,,0,0.0,3,6.0,15.0,0.0,0.0,35.71323073677024,66.7128,C,25255045000000,
Raw,1732146371001,12929000000,,76.18278239036917,-1416181576072000000,0.0,76.18278239036917,2088.4832497170164,0.0,0,5,0.0,16431,344788916977110,487,15.960000038146973,1057.2335501664227,0.14999,16,0.0,0.0,1575420030,,,,0,0.0,1,6.0,15.960000038146973,0.0,0.0,0.0,66.7128,C,25255045000000,
Raw,1732146371001,12929000000,,76.18278239036917,-1416181576072000000,0.0,76.18278239036917,2088.4832497170164,0.0,0,2,0.0,16431,344788920320010,487,20.80699920654297,401.78037423632344,0.14999,16,0.0,0.0,1575420030,,,,0,3.60217659445211,1,6.0,20.80699920654297,0.0,0.0,0.0,66.7128,C,25255045000000,
Raw,1732146371001,12929000000,,76.18278239036917,-1416181576072000000,0.0,76.18278239036917,2088.4832497170164,0.0,0,21,0.0,16431,344788920572174,797,14.600000381469727,600.7636292027074,0.14999,16,0.0,0.0,1575420030,,,,0,0.0,1,6.0,14.600000381469727,0.0,0.0,0.0,66.7128,C,25255045000000,
Raw,1732146371001,12929000000,,76.18278239036917,-1416181576072000000,0.0,76.18278239036917,2088.4832497170164,0.0,0,15,0.0,16431,344788922353363,31,41.992000579833984,133.48264895313505,0.14999,16,0.0,0.0,1575420030,,,,0,29.909808735482915,1,6.0,41.992000579833984,0.0,0.0,0.0,66.7128,C,25255045000000,
Raw,1732146371001,12929000000,,76.18278239036917,-1416181576072000000,0.0,76.18278239036917,2088.4832497170164,0.0,0,14,0.0,16431,344788933029886,42,39.01599884033203,607.035933516876,0.14999,16,0.0,0.0,1575420030,,,,0,26.74833718948454,1,6.0,39.01599884033203,0.0,0.0,0.0,66.7128,C,25255045000000,
Raw,1732146371001,12929000000,,76.18278239036917,-1416181576072000000,0.0,76.18278239036917,2088.4832497170164,0.0,0,19,0.0,16431,344788920645756,74,30.511999130249023,-72.07944295757459,0.14999,16,0.0,0.0,1575420030,,,,0,17.167436330568485,1,6.0,30.511999130249023,0.0,0.0,0.0,66.7128,C,25255045000000,
Fix,FLP,37.4243762000,-122.1712568000,2.0999999046325684,0.10853434,1.75,197.6405,1732146371197,1.0,94.0,25255045000000,0.96864617,0,,,
Status,1732146371000,29,0,1,14,1575420030,36.10,319.0,74.0,1,0,0,31.099998
Status,1732146371000,29,1,1,30,1575420030,48.90,73.0,70.0,1,0,0,43.9
Status,1732146371000,29,2,1,22,1575420030,47.00,270.0,59.0,1,0,0,42.0
Status,1732146371000,29,3,1,13,1575420030,41.00,303.0,47.0,1,0,0,36.0
Status,1732146371000,29,4,1,17,1575420030,38.80,175.0,44.0,1,0,0,33.8
Status,1732146371000,29,5,1,7,1575420030,33.90,103.0,38.0,1,0,0,28.900002
Status,1732146371000,29,6,2,131,1575420030,38.00,3.0,23.0,0,0,0,33.0
Status,1732146371000,29,7,1,19,1575420030,39.60,193.0,17.0,1,0,0,34.6
Status,1732146371000,29,8,1,15,1575420030,35.60,316.0,17.0,1,0,0,30.599998
Status,1732146371000,29,9,1,2,1575420030,30.10,88.0,16.0,1,0,0,25.1
Status,1732146371000,29,10,1,21,1575420030,18.30,69.0,13.0,1,0,0,13.299999
Status,1732146371000,29,11,1,8,1575420030,0.00,39.0,9.0,0,0,0,0.0
Status,1732146371000,29,12,1,5,1575420030,24.70,263.0,7.0,1,0,0,19.7
Status,1732146371000,29,13,1,9,1575420030,0.00,159.0,1.0,0,0,0,0.0
Status,1732146371000,29,14,3,9,1602000000,35.90,16.0,54.0,1,0,0,30.900002
Status,1732146371000,29,15,3,8,1602000000,42.10,304.0,39.0,1,0,0,37.1
Status,1732146371000,29,16,3,16,1602000000,0.00,67.0,15.0,0,0,0,0.0
Status,1732146371000,29,17,3,20,1602000000,23.50,149.0,10.0,1,0,0,18.5
Status,1732146371000,29,18,3,11,1602000000,0.00,271.0,1.0,0,0,0,0.0
Status,1732146371000,29,19,3,17,1602000000,35.30,0.0,0.0,0,0,0,30.3
Status,1732146371000,29,20,6,29,1575420030,27.30,204.0,61.0,1,0,0,22.3
Status,1732146371000,29,21,6,27,1575420030,42.70,36.0,59.0,1,0,0,37.7
Status,1732146371000,29,22,6,21,1575420030,0.00,268.0,57.0,0,0,0,0.0
Status,1732146371000,29,23,6,19,1575420030,29.10,298.0,50.0,1,0,0,24.1
Status,1732146371000,29,24,6,7,1575420030,24.90,161.0,17.0,1,0,0,19.9
Status,1732146371000,29,25,6,30,1575420030,0.00,58.0,11.0,0,0,0,0.0
Status,1732146371000,29,26,6,15,1575420030,0.00,95.0,10.0,0,0,0,0.0
Status,1732146371000,29,27,6,34,1575420030,0.00,47.0,6.0,0,0,0,0.0
Status,1732146371000,29,28,6,13,1575420030,0.00,142.0,1.0,0,0,0,0.0
Fix,GPS,37.4243783333,-122.1712466667,14.7,0.4143514,1.7,103.47,1732146372000,0.9,91.0,25256045000000,28.9,0,,,
Raw,1732146372001,13929000000,,76.57084025975615,-1416181576072000000,0.0,76.57084025975615,2089.74919861828,0.0,0,30,0.0,16431,344789932158715,31,43.909000396728516,707.9509539559264,0.14999,17,9822.030233258134,0.00022499999613501132,1575420030,,,,0,31.914007811668842,1,6.0,43.909000396728516,0.0,0.0,0.0,66.7128,C,25256045000000,
Raw,1732146372001,13929000000,,76.57084025975615,-1416181576072000000,0.0,76.57084025975615,2089.74919861828,0.0,0,13,0.0,16431,344789930109800,58,35.95500183105469,314.19418049124397,0.14999,17,4381.226564526615,0.00039999998989515007,1575420030,,,,0,23.421068886045312,1,6.0,35.95500183105469,0.0,0.0,0.0,66.7128,C,25256045000000,
Raw,1732146372001,13929000000,,76.57084025975615,-1416181576072000000,0.0,76.57084025975615,2089.74919861828,0.0,0,22,0.0,16431,344789930777603,31,41.99599838256836,459.5703233695255,0.14999,16,0.0,0.0,1575420030,,,,0,29.91425391963217,1,6.0,41.99599838256836,0.0,0.0,0.0,66.7128,C,25256045000000,
Raw,1732146372001,13929000000,,76.57084025975615,-1416181576072000000,0.0,76.57084025975615,2089.74919861828,0.0,0,7,0.0,16431,344789926992445,235,28.926000595092773,974.0867368407573,0.14999,16,0.0,0.0,1575420030,,,,0,15.231645805375809,1,6.0,28.926000595092773,0.0,0.0,0.0,66.7128,C,25256045000000,
Raw,1732146372001,13929000000,,76.57084025975615,-1416181576072000000,0.0,76.57084025975615,2089.74919861828,0.0,0,17,0.0,16431,344789929319081,58,33.78499984741211,132.32750689247624,0.14999,16,0.0,0.0,1575420030,,,,0,20.98929480082378,1,6.0,33.78499984741211,0.0,0.0,0.0,66.7128,C,25256045000000,
Raw,1732146372001,13929000000,,76.57084025975615,-1416181576072000000,0.0,76.57084025975615,2089.74919861828,0.0,0,29,0.0,16431,344789921223501,316,22.299999237060547,907.6372641348244,0.14999,16,0.0,0.0,1575420030,,,,0,7.586364277475821,6,6.0,22.299999237060547,0.0,0.0,7.828105395457283,66.7128,C,25256045000000,
Raw,1732146372001,13929000000,,76.57084025975615,-1416181576072000000,0.0,76.57084025975615,2089.74919861828,0.0,0,7,0.0,16431,344789910144413,487,19.899999618530273,1212.1363164975885,0.14999,16,0.0,0.0,1575420030,,,,0,4.136861659397004,6,6.0,19.899999618530273,0.0,0.0,7.828105395457283,66.7128,C,25256045000000,
Raw,1732146372001,13929000000,,76.57084025975615,-1416181576072000000,0.0,76.57084025975615,2089.74919861828,0.0,0,19,0.0,16431,344789920294520,396,24.100000381469727,430.36558731284066,0.14999,16,0.0,0.0,1575420030,,,,0,10.004882423516433,6,6.0,24.100000381469727,0.0,0.0,7.828105395457283,66.7128,C,25256045000000,
Raw,1732146372001,13929000000,,76.57084025975615,-1416181576072000000,0.0,76.57084025975615,2089.74919861828,0.0,0,27,0.0,16431,344789920329973,42,37.70000076293945,871.1022727100246,0.14999,16,0.0,0.0,1575420030,,,,0,25.348939420569412,6,6.0,37.70000076293945,0.0,0.0,7.828105395457283,66.7128,C,25256045000000,
Raw,1732146372001,13929000000,,76.57084025975615,-1416181576072000000,0.0,76.57084025975615,2089.74919861828,0.0,0,8,0.0,17,465117,51,5.0,422.7437222974285,0.14999,16,0.0,0.0,1605374980,,,,0,24.64415022903234,3,6.0,37.0,0.0,0.0,34.8268052482037,66.7128,C,25256045000000,
Raw,1732146372001,13929000000,,76.57084025975615,-1416181576072000000,0.0,76.57084025975615,2089.74919861828,0.0,0,9,0.0,17,934217,74,5.0,752.8540698403723,0.14999,16,0.0,0.0,1600875010,,,,0,17.970727007095412,3,6.0,31.0,0.0,0.0,34.8268052482037,66.7128,C,25256045000000,
Raw,1732146372001,13929000000,,76.57084025975615,-1416181576072000000,0.0,76.57084025975615,2089.74919861828,0.0,0,20,0.0,17,12976,797,5.0,-156.88599900104836,0.14999,16,0.0,0.0,1603124990,,,,0,1.8059831426497617,3,6.0,16.0,0.0,0.0,34.8268052482037,66.7128,C,25256045000000,
Raw,1732146372001,13929000000,,76.57084025975615,-1416181576072000000,0.0,76.57084025975615,2089.74919861828,0.0,0,5,0.0,16431,344789916973555,487,19.70400047302246,1058.66112437974,0.14999,16,0.0,0.0,1575420030,,,,0,1.7667691273392028,1,6.0,19.70400047302246,0.0,0.0,0.0,66.7128,C,25256045000000,
Raw,1732146372001,13929000000,,76.57084025975615,-1416181576072000000,0.0,76.57084025975615,2089.74919861828,0.0,0,2,0.0,16431,344789920318660,396,25.075000762939453,401.81744805245944,0.14999,16,0.0,0.0,1575420030,,,,0,10.135827963390874,1,6.0,25.075000762939453,0.0,0.0,0.0,66.7128,C,25256045000000,
Raw,1732146372001,13929000000,,76.57084025975615,-1416181576072000000,0.0,76.57084025975615,2089.74919861828,0.0,0,21,0.0,16431,344789920570174,797,13.300000190734863,600.1903323466694,0.14999,16,0.0,0.0,1575420030,,,,0,0.0,1,6.0,13.300000190734863,0.0,0.0,0.0,66.7128,C,25256045000000,
Raw,1732146372001,13929000000,,76.57084025975615,-1416181576072000000,0.0,76.57084025975615,2089.74919861828,0.0,0,15,0.0,16431,344789922352915,74,30.645000457763672,133.29477111797965,0.14999,16,0.0,0.0,1575420030,,,,0,17.320327224387647,1,6.0,30.645000457763672,0.0,0.0,0.0,66.7128,C,25256045000000,
Raw,1732146372001,13929000000,,76.57084025975615,-1416181576072000000,0.0,76.57084025975615,2089.74919861828,0.0,0,14,0.0,16431,344789933027859,235,31.097999572753906,607.9820127045873,0.14999,16,0.0,0.0,1575420030,,,,0,17.87083178536269,1,6.0,31.097999572753906,0.0,0.0,0.0,66.7128,C,25256045000000,
Raw,1732146372001,13929000000,,76.57084025975615,-1416181576072000000,0.0,76.57084025975615,2089.74919861828,0.0,0,19,0.0,16431,344789920645996,58,34.61000061035156,-71.19859138622279,0.14999,16,0.0,0.0,1575420030,,,,0,21.91871276234963,1,6.0,34.61000061035156,0.0,0.0,0.0,66.7128,C,25256045000000,
Fix,FLP,37.4243768000,-122.1712516000,2.0999999046325684,0.10170696,1.716,168.79028,1732146372197,0.9,91.0,25256045000000,0.9798842,0,,,
Status,1732146372000,29,0,1,14,1575420030,44.60,319.0,74.0,1,0,0,39.6
Status,1732146372000,29,1,1,30,1575420030,46.30,73.0,70.0,1,0,0,41.3
Status,1732146372000,29,2,1,22,1575420030,39.70,270.0,59.0,1,0,0,34.7
Status,1732146372000,29,3,1,13,1575420030,43.00,303.0,47.0,1,0,0,38.0
Status,1732146372000,29,4,1,17,1575420030,43.50,175.0,44.0,1,0,0,38.5
Status,1732146372000,29,5,1,7,1575420030,37.10,103.0,38.0,1,0,0,32.1
Status,1732146372000,29,6,2,131,1575420030,39.00,3.0,23.0,0,0,0,34.0
Status,1732146372000,29,7,1,19,1575420030,34.50,193.0,17.0,1,0,0,29.5
Status,1732146372000,29,8,1,15,1575420030,39.70,316.0,17.0,1,0,0,34.7
Status,1732146372000,29,9,1,2,1575420030,29.10,88.0,16.0,1,0,0,24.1
Status,1732146372000,29,10,1,21,1575420030,19.10,69.0,13.0,1,0,0,14.1
Status,1732146372000,29,11,1,8,1575420030,0.00,39.0,9.0,0,0,0,0.0
Status,1732146372000,29,12,1,5,1575420030,0.00,263.0,7.0,0,0,0,0.0
Status,1732146372000,29,13,1,9,1575420030,0.00,159.0,1.0,0,0,0,0.0
Status,1732146372000,29,14,3,9,1602000000,37.90,16.0,54.0,1,0,0,32.9
Status,1732146372000,29,15,3,8,1602000000,33.60,304.0,39.0,1,0,0,28.599998
Status,1732146372000,29,16,3,16,1602000000,0.00,67.0,15.0,0,0,0,0.0
Status,1732146372000,29,17,3,20,1602000000,0.00,149.0,10.0,0,0,0,0.0
Status,1732146372000,29,18,3,11,1602000000,0.00,271.0,1.0,0,0,0,0.0
Status,1732146372000,29,19,3,17,1602000000,39.00,0.0,0.0,0,0,0,34.0
Status,1732146372000,29,20,6,29,1575420030,35.90,204.0,61.0,1,0,0,30.900002
Status,1732146372000,29,21,6,27,1575420030,44.80,36.0,59.0,1,0,0,39.8
Status,1732146372000,29,22,6,21,1575420030,0.00,268.0,57.0,0,0,0,0.0
Status,1732146372000,29,23,6,19,1575420030,30.00,298.0,50.0,1,0,0,25.0
Status,1732146372000,29,24,6,7,1575420030,23.80,161.0,17.0,1,0,0,18.8
Status,1732146372000,29,25,6,30,1575420030,0.00,58.0,11.0,0,0,0,0.0
Status,1732146372000,29,26,6,15,1575420030,0.00,95.0,10.0,0,0,0,0.0
Status,1732146372000,29,27,6,34,1575420030,0.00,47.0,6.0,0,0,0,0.0
Status,1732146372000,29,28,6,13,1575420030,0.00,142.0,1.0,0,0,0,0.0
Fix,GPS,37.4243816667,-122.1712366667,14.8,0.5502381,1.7,85.1,1732146373000,0.9,66.0,25257045000000,28.8,0,,,
Raw,1732146373001,14929000000,,76.06145466027753,-1416181576072000000,0.0,76.06145466027753,2092.8494894506275,0.0,0,30,0.0,16431,344790932156354,31,41.2859992980957,708.8639082928797,0.14999,16,0.0,0.0,1575420030,,,,0,29.162723711063606,1,6.0,41.2859992980957,0.0,0.0,0.0,66.7128,C,25257045000000,
Raw,1732146373001,14929000000,,76.06145466027753,-1416181576072000000,0.0,76.06145466027753,2092.8494894506275,0.0,0,13,0.0,16431,344790930108752,51,38.03300094604492,314.96683041124146,0.14999,17,4695.854216559359,0.00022499999613501132,1575420030,,,,0,25.68801592706523,1,6.0,38.03300094604492,0.0,0.0,0.0,66.7128,C,25257045000000,
Raw,1732146373001,14929000000,,76.06145466027753,-1416181576072000000,0.0,76.06145466027753,2092.8494894506275,0.0,0,22,0.0,16431,344790930776065,58,34.65599822998047,460.30548134764103,0.14999,16,0.0,0.0,1575420030,,,,0,21.97432044035903,1,6.0,34.65599822998047,0.0,0.0,0.0,66.7128,C,25257045000000,
Raw,1732146373001,14929000000,,76.06145466027753,-1416181576072000000,0.0,76.06145466027753,2092.8494894506275,0.0,0,7,0.0,16431,344790926989191,74,32.1349983215332,974.4413074732762,0.14999,16,0.0,0.0,1575420030,,,,0,19.095990959934852,1,6.0,32.1349983215332,0.0,0.0,0.0,66.7128,C,25257045000000,
Raw,1732146373001,14929000000,,76.06145466027753,-1416181576072000000,0.0,76.06145466027753,2092.8494894506275,0.0,0,17,0.0,16431,344790929318639,42,38.52399826049805,133.45653932322475,0.14999,16,0.0,0.0,1575420030,,,,0,26.220758600401858,1,6.0,38.52399826049805,0.0,0.0,0.0,66.7128,C,25257045000000,
Raw,1732146373001,14929000000,,76.06145466027753,-1416181576072000000,0.0,76.06145466027753,2092.8494894506275,0.0,0,29,0.0,16431,344790921220479,74,30.899999618530273,907.8175227897214,0.14999,16,0.0,0.0,1575420030,,,,0,17.94166512093946,6,6.0,30.899999618530273,0.0,0.0,7.008232670191103,66.7128,C,25257045000000,
Raw,1732146373001,14929000000,,76.06145466027753,-1416181576072000000,0.0,76.06145466027753,2092.8494894506275,0.0,0,7,0.0,16431,344790910140368,316,18.799999237060547,1213.2585659995702,0.14999,16,0.0,0.0,1575420030,,,,0,2.209458031624222,6,6.0,18.799999237060547,0.0,0.0,7.008232670191103,66.7128,C,25257045000000,
Raw,1732146373001,14929000000,,76.06145466027753,-1416181576072000000,0.0,76.06145466027753,2092.8494894506275,0.0,0,19,0.0,16431,344790920293086,235,25.0,430.92587581233977,0.14999,16,0.0,0.0,1575420030,,,,0,11.079090973625956,6,6.0,25.0,0.0,0.0,7.008232670191103,66.7128,C,25257045000000,
Raw,1732146373001,14929000000,,76.06145466027753,-1416181576072000000,0.0,76.06145466027753,2092.8494894506275,0.0,0,27,0.0,16431,344790920327068,42,39.79999923706055,871.7980339511937,0.14999,16,0.0,0.0,1575420030,,,,0,27.442841001128613,6,6.0,39.79999923706055,0.0,0.0,7.008232670191103,66.7128,C,25257045000000,
Raw,1732146373001,14929000000,,76.06145466027753,-1416181576072000000,0.0,76.06145466027753,2092.8494894506275,0.0,0,8,0.0,17,463706,235,5.0,423.5111190938741,0.14999,16,0.0,0.0,1605374980,,,,0,15.414651254916794,3,6.0,29.0,0.0,0.0,36.75324359038501,66.7128,C,25257045000000,
Raw,1732146373001,14929000000,,76.06145466027753,-1416181576072000000,0.0,76.06145466027753,2092.8494894506275,0.0,0,9,0.0,17,931705,58,5.0,753.6151198972059,0.14999,16,0.0,0.0,1600875010,,,,0,20.19335689379261,3,6.0,33.0,0.0,0.0,36.75324359038501,66.7128,C,25257045000000,
Raw,1732146373001,14929000000,,76.06145466027753,-1416181576072000000,0.0,76.06145466027753,2092.8494894506275,0.0,0,2,0.0,16431,344790920317306,487,24.141000747680664,401.2096790515932,0.14999,16,0.0,0.0,1575420030,,,,0,8.82932241245271,1,6.0,24.141000747680664,0.0,0.0,0.0,66.7128,C,25257045000000,
Raw,1732146373001,14929000000,,76.06145466027753,-1416181576072000000,0.0,76.06145466027753,2092.8494894506275,0.0,0,21,0.0,16431,344790920568189,487,14.100000381469727,601.4112130662661,0.14999,16,0.0,0.0,1575420030,,,,0,0.0,1,6.0,14.100000381469727,0.0,0.0,0.0,66.7128,C,25257045000000,
Raw,1732146373001,14929000000,,76.06145466027753,-1416181576072000000,0.0,76.06145466027753,2092.8494894506275,0.0,0,15,0.0,16431,344790922352464,58,34.729000091552734,134.68304151118295,0.14999,17,7846.088944585863,0.00039999998989515007,1575420030,,,,0,22.05157790963141,1,6.0,34.729000091552734,0.0,0.0,0.0,66.7128,C,25257045000000,
Raw,1732146373001,14929000000,,76.06145466027753,-1416181576072000000,0.0,76.06145466027753,2092.8494894506275,0.0,0,14,0.0,16431,344790933025832,42,39.64699935913086,608.9028649722965,0.14999,16,0.0,0.0,1575420030,,,,0,27.425102622659892,1,6.0,39.64699935913086,0.0,0.0,0.0,66.7128,C,25257045000000,
Raw,1732146373001,14929000000,,76.06145466027753,-1416181576072000000,0.0,76.06145466027753,2092.8494894506275,0.0,0,19,0.0,16431,344790920646227,235,29.493999481201172,-69.3969340055781,0.14999,16,0.0,0.0,1575420030,,,,0,15.925961188533233,1,6.0,29.493999481201172,0.0,0.0,0.0,66.7128,C,25257045000000,
Fix,FLP,37.4243789000,-122.1712437000,2.0999999046325684,0.10918121,1.7,130.50839,1732146373197,0.9,66.0,25257045000000,0.99036556,0,,,
Status,1732146373000,29,0,1,14,1575420030,44.60,319.0,74.0,1,0,0,39.6
Status,1732146373000,29,1,1,30,1575420030,46.20,73.0,70.0,1,0,0,41.2
Status,1732146373000,29,2,1,22,1575420030,41.70,270.0,59.0,1,0,0,36.7
Status,1732146373000,29,3,1,13,1575420030,44.40,303.0,47.0,1,0,0,39.4
Status,1732146373000,29,4,1,17,1575420030,43.50,175.0,44.0,1,0,0,38.5
Status,1732146373000,29,5,1,7,1575420030,36.90,103.0,38.0,1,0,0,31.900002
Status,1732146373000,29,6,2,131,1575420030,39.00,3.0,23.0,0,0,0,34.0
Status,1732146373000,29,7,1,19,1575420030,34.60,193.0,17.0,1,0,0,29.599998
Status,1732146373000,29,8,1,15,1575420030,35.70,316.0,17.0,1,0,0,30.7
Status,1732146373000,29,9,1,2,1575420030,0.00,88.0,16.0,0,0,0,0.0
Status,1732146373000,29,10,1,21,1575420030,23.10,69.0,13.0,1,0,0,18.1
Status,1732146373000,29,11,1,8,1575420030,0.00,39.0,9.0,0,0,0,0.0
Status,1732146373000,29,12,1,5,1575420030,25.30,263.0,7.0,1,0,0,20.3
Status,1732146373000,29,13,1,9,1575420030,0.00,159.0,1.0,0,0,0,0.0
Status,1732146373000,29,14,3,9,1602000000,44.50,16.0,54.0,1,0,0,39.5
Status,1732146373000,29,15,3,8,1602000000,30.90,304.0,39.0,1,0,0,25.9
Status,1732146373000,29,16,3,16,1602000000,0.00,67.0,15.0,0,0,0,0.0
Status,1732146373000,29,17,3,20,1602000000,0.00,149.0,10.0,0,0,0,0.0
Status,1732146373000,29,18,3,11,1602000000,0.00,271.0,1.0,0,0,0,0.0
Status,1732146373000,29,19,3,17,1602000000,36.80,0.0,0.0,0,0,0,31.8
Status,1732146373000,29,20,6,29,1575420030,32.90,204.0,61.0,1,0,0,27.900002
Status,1732146373000,29,21,6,27,1575420030,44.70,36.0,59.0,1,0,0,39.7
Status,1732146373000,29,22,6,21,1575420030,0.00,268.0,57.0,0,0,0,0.0
Status,1732146373000,29,23,6,19,1575420030,0.00,298.0,50.0,0,0,0,0.0
Status,1732146373000,29,24,6,7,1575420030,22.80,161.0,17.0,1,0,0,17.8
Status,1732146373000,29,25,6,30,1575420030,0.00,58.0,11.0,0,0,0,0.0
Status,1732146373000,29,26,6,15,1575420030,0.00,95.0,10.0,0,0,0,0.0
Status,1732146373000,29,27,6,34,1575420030,0.00,47.0,6.0,0,0,0,0.0
Status,1732146373000,29,28,6,13,1575420030,0.00,142.0,1.0,0,0,0,0.0
Fix,GPS,37.4243816667,-122.1712316667,14.7,0.60171026,1.7,90.54,1732146374000,0.8,58.0,25258045000000,31.8,0,,,
Fix,FLP,37.4243800000,-122.1712368000,2.0999999046325684,0.1646882,1.7,110.100006,1732146374197,0.8,58.0,25258045000000,0.9981267,0,,,
Raw,1732146374001,15929000000,,83.98125425828641,-1416181576072000000,0.0,83.98125425828641,2095.063871106357,0.0,0,30,0.0,16431,344791932153987,42,41.20000076293945,709.3460537363127,0.14999,17,11239.905787607442,0.00022499999613501132,1575420030,,,,0,27.35378461976344,1,6.0,41.20000076293945,0.0,0.0,0.0,66.7128,C,25258045000000,
Raw,1732146374001,15929000000,,83.98125425828641,-1416181576072000000,0.0,83.98125425828641,2095.063871106357,0.0,0,13,0.0,16431,344791930107702,42,39.42399978637695,316.0704733175309,0.14999,17,5011.779280841452,0.00022499999613501132,1575420030,,,,0,27.185062762624565,1,6.0,39.42399978637695,0.0,0.0,0.0,66.7128,C,25258045000000,
Raw,1732146374001,15929000000,,83.98125425828641,-1416181576072000000,0.0,83.98125425828641,2095.063871106357,0.0,0,22,0.0,16431,344791930774529,51,36.71200180053711,462.4016386286443,0.14999,16,0.0,0.0,1575420030,,,,0,24.25276109099051,1,6.0,36.71200180053711,0.0,0.0,0.0,66.7128,C,25258045000000,
Raw,1732146374001,15929000000,,83.98125425828641,-1416181576072000000,0.0,83.98125425828641,2095.063871106357,0.0,0,7,0.0,16431,344791926985935,74,31.91200065612793,975.0805752803332,0.14999,16,0.0,0.0,1575420030,,,,0,18.829435522754068,1,6.0,31.91200065612793,0.0,0.0,0.0,66.7128,C,25258045000000,
Raw,1732146374001,15929000000,,83.98125425828641,-1416181576072000000,0.0,83.98125425828641,2095.063871106357,0.0,0,17,0.0,16431,344791929318193,42,38.53499984741211,134.43839149141826,0.14999,16,0.0,0.0,1575420030,,,,0,26.234346228730935,1,6.0,38.53499984741211,0.0,0.0,0.0,66.7128,C,25258045000000,
Raw,1732146374001,15929000000,,83.98125425828641,-1416181576072000000,0.0,83.98125425828641,2095.063871106357,0.0,0,5,0.0,16431,344791916966562,487,20.27899932861328,1062.87007105475,0.14999,16,0.0,0.0,1575420030,,,,0,2.732862718830304,1,6.0,20.27899932861328,0.0,0.0,0.0,66.7128,C,25258045000000,
Raw,1732146374001,15929000000,,83.98125425828641,-1416181576072000000,0.0,83.98125425828641,2095.063871106357,0.0,0,29,0.0,16431,344791921217446,235,27.899999618530273,908.9828857019464,0.14999,16,0.0,0.0,1575420030,,,,0,14.58146286634369,6,6.0,27.899999618530273,0.0,0.0,6.752583557200961,66.7128,C,25258045000000,
Raw,1732146374001,15929000000,,83.98125425828641,-1416181576072000000,0.0,83.98125425828641,2095.063871106357,0.0,0,7,0.0,16431,344791910136316,487,17.799999237060547,1215.1751615019198,0.14999,16,0.0,0.0,1575420030,,,,0,0.5499733303289425,6,6.0,17.799999237060547,0.0,0.0,6.752583557200961,66.7128,C,25258045000000,
Raw,1732146374001,15929000000,,83.98125425828641,-1416181576072000000,0.0,83.98125425828641,2095.063871106357,0.0,0,27,0.0,16431,344791920324156,42,39.7400016784668,872.9219559561591,0.14999,16,0.0,0.0,1575420030,,,,0,26.288485178531424,6,6.0,39.7400016784668,0.0,0.0,6.752583557200961,66.7128,C,25258045000000,
Raw,1732146374001,15929000000,,83.98125425828641,-1416181576072000000,0.0,83.98125425828641,2095.063871106357,0.0,0,8,0.0,17,462292,316,5.0,424.5755903630881,0.14999,16,0.0,0.0,1605374980,,,,0,12.191900331916358,3,6.0,26.0,0.0,0.0,39.22348870995296,66.7128,C,25258045000000,
Raw,1732146374001,15929000000,,83.98125425828641,-1416181576072000000,0.0,83.98125425828641,2095.063871106357,0.0,0,9,0.0,17,929192,42,5.0,754.3766271509977,0.14999,17,11946.25606282569,0.00022499999613501132,1600875010,,,,0,27.223009042453334,3,6.0,40.0,0.0,0.0,39.22348870995296,66.7128,C,25258045000000,
Raw,1732146374001,15929000000,,83.98125425828641,-1416181576072000000,0.0,83.98125425828641,2095.063871106357,0.0,0,21,0.0,16431,344791920566168,487,18.132999420166016,600.8594729153497,0.14999,16,0.0,0.0,1575420030,,,,0,0.0,1,6.0,18.132999420166016,0.0,0.0,0.0,66.7128,C,25258045000000,
Raw,1732146374001,15929000000,,83.98125425828641,-1416181576072000000,0.0,83.98125425828641,2095.063871106357,0.0,0,15,0.0,16431,344791922352015,74,30.702999114990234,136.7354349641159,0.14999,16,0.0,0.0,1575420030,,,,0,17.39577516576788,1,6.0,30.702999114990234,0.0,0.0,0.0,66.7128,C,25258045000000,
