# 
# Header Description:
# 
# Version: v3.1.0.3 Platform: 13 Manufacturer: samsung Model: SM-S135DL GNSS Hardware Model Name: MediaTek,MT6631,MTK_MNLD_default,MNL_VER_default
# 
# Raw,utcTimeMillis,TimeNanos,LeapSecond,TimeUncertaintyNanos,FullBiasNanos,BiasNanos,BiasUncertaintyNanos,DriftNanosPerSecond,DriftUncertaintyNanosPerSecond,HardwareClockDiscontinuityCount,Svid,TimeOffsetNanos,State,ReceivedSvTimeNanos,ReceivedSvTimeUncertaintyNanos,Cn0DbHz,PseudorangeRateMetersPerSecond,PseudorangeRateUncertaintyMetersPerSecond,AccumulatedDeltaRangeState,AccumulatedDeltaRangeMeters,AccumulatedDeltaRangeUncertaintyMeters,CarrierFrequencyHz,CarrierCycles,CarrierPhase,CarrierPhaseUncertainty,MultipathIndicator,SnrInDb,ConstellationType,AgcDb,BasebandCn0DbHz,FullInterSignalBiasNanos,FullInterSignalBiasUncertaintyNanos,SatelliteInterSignalBiasNanos,SatelliteInterSignalBiasUncertaintyNanos,CodeType,ChipsetElapsedRealtimeNanos,IsFullTracking
# 
# UncalAccel,utcTimeMillis,elapsedRealtimeNanos,UncalAccelXMps2,UncalAccelYMps2,UncalAccelZMps2,BiasXMps2,BiasYMps2,BiasZMps2
# 
# Accel,utcTimeMillis,elapsedRealtimeNanos,AccelXMps2,AccelYMps2,AccelZMps2
# 
# UncalGyro,utcTimeMillis,elapsedRealtimeNanos,UncalGyroXRadPerSec,UncalGyroYRadPerSec,UncalGyroZRadPerSec,DriftXRadPerSec,DriftYRadPerSec,DriftZRadPerSec
# 
# Gyro,utcTimeMillis,elapsedRealtimeNanos,GyroXRadPerSec,GyroYRadPerSec,GyroZRadPerSec
# 
# UncalMag,utcTimeMillis,elapsedRealtimeNanos,UncalMagXMicroT,UncalMagYMicroT,UncalMagZMicroT,BiasXMicroT,BiasYMicroT,BiasZMicroT
# 
# Mag,utcTimeMillis,elapsedRealtimeNanos,MagXMicroT,MagYMicroT,MagZMicroT
# 
# Pressure,utcTimeMillis,elapsedRealtimeNanos,PressureHpa
# 
# OrientationDeg,utcTimeMillis,elapsedRealtimeNanos,yawDeg,rollDeg,pitchDeg
# 
# Fix,Provider,LatitudeDegrees,LongitudeDegrees,AltitudeMeters,SpeedMps,AccuracyMeters,BearingDegrees,UnixTimeMillis,SpeedAccuracyMps,BearingAccuracyDegrees,elapsedRealtimeNanos,VerticalAccuracyMeters,MockLocation,NumberOfUsedSignals,VerticalSpeedAccuracyMps,SolutionType
# 
# Nav,Svid,Type,Status,MessageId,Sub-messageId,Data(Bytes)
# 
# Status,UnixTimeMillis,SignalCount,SignalIndex,ConstellationType,Svid,CarrierFrequencyHz,Cn0DbHz,AzimuthDegrees,ElevationDegrees,UsedInFix,HasAlmanacData,HasEphemerisData,BasebandCn0DbHz
# 
# Agc,utcTimeMillis,TimeNanos,LeapSecond,TimeUncertaintyNanos,FullBiasNanos,BiasNanos,BiasUncertaintyNanos,DriftNanosPerSecond,DriftUncertaintyNanosPerSecond,HardwareClockDiscontinuityCount,AgcDb,CarrierFrequencyHz,ConstellationType
# 
Fix,FLP,37.4243670000,-122.1712379000,2.0,0.19613087,1.833,233.74619,1732146343196,1.9,133.9,25227044000000,0.8824197,0,,,
Status,,29,0,1,14,1575420030,42.90,318.0,74.0,1,0,0,37.9
Status,,29,1,1,30,1575420030,41.60,73.0,70.0,1,0,0,36.6
Status,,29,2,1,22,1575420030,47.70,270.0,59.0,1,0,0,42.7
Status,,29,3,1,13,1575420030,40.60,303.0,47.0,1,0,0,35.6
Status,,29,4,1,17,1575420030,39.80,176.0,44.0,1,0,0,34.8
Status,,29,5,1,7,1575420030,41.70,103.0,38.0,1,0,0,36.7
Status,,29,6,2,131,1575420030,41.00,3.0,23.0,0,0,0,36.0
Status,,29,7,1,19,1575420030,44.70,193.0,17.0,1,0,0,39.7
Status,,29,8,1,15,1575420030,42.50,316.0,17.0,1,0,0,37.5
Status,,29,9,1,2,1575420030,25.80,88.0,16.0,1,0,0,20.8
Status,,29,10,1,21,1575420030,0.00,69.0,13.0,0,0,0,0.0
Status,,29,11,1,8,1575420030,25.30,39.0,9.0,1,0,0,20.3
Status,,29,12,1,5,1575420030,25.00,263.0,7.0,1,0,0,20.0
Status,,29,13,1,9,1575420030,0.00,159.0,1.0,0,0,0,0.0
Status,,29,14,3,9,1602000000,25.60,16.0,54.0,1,0,0,20.6
Status,,29,15,3,8,1602000000,43.60,304.0,38.0,1,0,0,38.6
Status,,29,16,3,16,1602000000,21.80,67.0,15.0,1,0,0,16.8
Status,,29,17,3,20,1602000000,22.90,150.0,10.0,1,0,0,17.9
Status,,29,18,3,11,1602000000,0.00,271.0,1.0,0,0,0,0.0
Status,,29,19,3,17,1602000000,47.30,0.0,0.0,0,0,0,42.3
Status,,29,20,6,29,1575420030,43.00,204.0,61.0,1,0,0,38.0
Status,,29,21,6,27,1575420030,31.10,36.0,59.0,1,0,0,26.1
Status,,29,22,6,21,1575420030,39.70,268.0,57.0,1,0,0,34.7
Status,,29,23,6,19,1575420030,38.80,298.0,50.0,1,0,0,33.8
Status,,29,24,6,7,1575420030,0.00,161.0,17.0,0,0,0,0.0
Status,,29,25,6,30,1575420030,0.00,58.0,11.0,0,0,0,0.0
Status,,29,26,6,15,1575420030,0.00,95.0,10.0,0,0,0,0.0
Status,,29,27,6,34,1575420030,0.00,48.0,6.0,0,0,0,0.0
Status,,29,28,6,13,1575420030,0.00,142.0,1.0,0,0,0,0.0
Fix,GPS,37.4243733333,-122.1712583333,14.8,1.2384217,1.9,310.24,1732146344000,2.5,81.1,25228044000000,39.4,0,,,
Raw,1732146344000,13980000000,,682123.1473408181,-1416181548020999936,0.0,101.51078268027229,2079.884341379188,0.0,0,15,0.0,16431,344761922465405,51,37.51900100708008,126.39936652559534,0.14999,16,0.0,0.0,1575420030,,,,0,25.135871435266814,1,6.0,37.51900100708008,0.0,0.0,0.0,66.7128,C,25228044000000,
Raw,1732146344000,13980000000,,682123.1473408181,-1416181548020999936,0.0,101.51078268027229,2079.884341379188,0.0,0,30,0.0,16431,344761932324894,51,36.59600067138672,701.1107884204164,0.14999,17,9746.103210659776,0.00022499999613501132,1575420030,,,,0,24.123887960736937,1,6.0,36.59600067138672,0.0,0.0,0.0,66.7128,C,25228044000000,
Raw,1732146344000,13980000000,,682123.1473408181,-1416181548020999936,0.0,101.51078268027229,2079.884341379188,0.0,0,22,0.0,16431,344761930920580,31,42.680999755859375,453.0748328238815,0.14999,16,0.0,0.0,1575420030,,,,0,30.63049440258666,1,6.0,42.680999755859375,0.0,0.0,0.0,66.7128,C,25228044000000,
Raw,1732146344000,13980000000,,682123.1473408181,-1416181548020999936,0.0,101.51078268027229,2079.884341379188,0.0,0,13,0.0,16431,344761930239117,51,35.595001220703125,306.17606181271583,0.14999,16,0.0,0.0,1575420030,,,,0,23.01767150112251,1,6.0,35.595001220703125,0.0,0.0,0.0,66.7128,C,25228044000000,
Raw,1732146344000,13980000000,,682123.1473408181,-1416181548020999936,0.0,101.51078268027229,2079.884341379188,0.0,0,19,0.0,16431,344761920739458,42,39.7130012512207,-76.67966241390967,0.14999,16,0.0,0.0,1575420030,,,,0,27.495839814199886,1,6.0,39.7130012512207,0.0,0.0,0.0,66.7128,C,25228044000000,
Raw,1732146344000,13980000000,,682123.1473408181,-1416181548020999936,0.0,101.51078268027229,2079.884341379188,0.0,0,21,0.0,16431,344761920049637,51,34.70000076293945,440.73598852094085,0.14999,16,0.0,0.0,1575420030,,,,0,22.09541845513482,6,6.0,34.70000076293945,0.0,0.0,7.180572252141008,66.7128,C,25228044000000,
Raw,1732146344000,13980000000,,682123.1473408181,-1416181548020999936,0.0,101.51078268027229,2079.884341379188,0.0,0,19,0.0,16431,344761920434717,58,33.79999923706055,423.4837950364061,0.14999,16,0.0,0.0,1575420030,,,,0,21.137038512672916,6,6.0,33.79999923706055,0.0,0.0,7.180572252141008,66.7128,C,25228044000000,
Raw,1732146344000,13980000000,,682123.1473408181,-1416181548020999936,0.0,101.51078268027229,2079.884341379188,0.0,0,29,0.0,16431,344761921408293,42,38.0,900.3904945406398,0.14999,16,0.0,0.0,1575420030,,,,0,25.651794483255976,6,6.0,38.0,0.0,0.0,7.180572252141008,66.7128,C,25228044000000,
Raw,1732146344000,13980000000,,682123.1473408181,-1416181548020999936,0.0,101.51078268027229,2079.884341379188,0.0,0,27,0.0,16431,344761920511457,235,26.100000381469727,866.3436300544116,0.14999,16,0.0,0.0,1575420030,,,,0,12.442974288332714,6,6.0,26.100000381469727,0.0,0.0,7.180572252141008,66.7128,C,25228044000000,
Raw,1732146344000,13980000000,,682123.1473408181,-1416181548020999936,0.0,101.51078268027229,2079.884341379188,0.0,0,8,0.0,17,604506,42,5.0,413.4758741046144,0.14999,17,5743.099593327753,0.00022499999613501132,1605374980,,,,0,26.203460262425562,3,6.0,39.0,0.0,0.0,32.192166876586356,66.7128,C,25228044000000,
Raw,1732146344000,13980000000,,682123.1473408181,-1416181548020999936,0.0,101.51078268027229,2079.884341379188,0.0,0,9,0.0,17,104635,487,5.0,746.7088398037837,0.14999,16,0.0,0.0,1600875010,,,,0,5.204383303633721,3,6.0,20.0,0.0,0.0,32.192166876586356,66.7128,C,25228044000000,
Raw,1732146344000,13980000000,,682123.1473408181,-1416181548020999936,0.0,101.51078268027229,2079.884341379188,0.0,0,20,0.0,17,98449,487,5.0,-159.77015000567434,0.14999,16,0.0,0.0,1603124990,,,,0,0.7622929462364452,3,6.0,19.0,0.0,0.0,32.192166876586356,66.7128,C,25228044000000,
Raw,1732146344000,13980000000,,682123.1473408181,-1416181548020999936,0.0,101.51078268027229,2079.884341379188,0.0,0,16,0.0,17,784205,487,5.0,1108.9636497181268,0.14999,16,0.0,0.0,1601437440,,,,0,0.0,3,6.0,18.0,0.0,0.0,32.192166876586356,66.7128,C,25228044000000,
Raw,1732146344000,13980000000,,682123.1473408181,-1416181548020999936,0.0,101.51078268027229,2079.884341379188,0.0,0,8,0.0,16431,344761918832750,797,20.27899932861328,1299.1014541347654,0.14999,16,0.0,0.0,1575420030,,,,0,2.732862718830304,1,6.0,20.27899932861328,0.0,0.0,0.0,66.7128,C,25228044000000,
Raw,1732146344000,13980000000,,682123.1473408181,-1416181548020999936,0.0,101.51078268027229,2079.884341379188,0.0,0,5,0.0,16431,344761917172613,487,19.993999481201172,1053.9350026154743,0.14999,16,0.0,0.0,1575420030,,,,0,2.209458031624222,1,6.0,19.993999481201172,0.0,0.0,0.0,66.7128,C,25228044000000,
Raw,1732146344000,13980000000,,682123.1473408181,-1416181548020999936,0.0,101.51078268027229,2079.884341379188,0.0,0,14,0.0,16431,344761933184674,51,37.88399887084961,601.4210622505027,0.14999,16,0.0,0.0,1575420030,,,,0,25.527499328699136,1,6.0,37.88399887084961,0.0,0.0,0.0,66.7128,C,25228044000000,
Raw,1732146344000,13980000000,,682123.1473408181,-1416181548020999936,0.0,101.51078268027229,2079.884341379188,0.0,0,7,0.0,16431,344761927183502,51,36.70500183105469,967.9440050494,0.14999,16,0.0,0.0,1575420030,,,,0,24.244228782212,1,6.0,36.70500183105469,0.0,0.0,0.0,66.7128,C,25228044000000,
Raw,1732146344000,13980000000,,682123.1473408181,-1416181548020999936,0.0,101.51078268027229,2079.884341379188,0.0,0,17,0.0,16431,344761929431511,58,34.82699966430664,125.16227181874112,0.14999,17,2445.5776138740653,0.00039999998989515007,1575420030,,,,0,22.16076714937322,1,6.0,34.82699966430664,0.0,0.0,0.0,66.7128,C,25228044000000,
Raw,1732146344000,13980000000,,682123.1473408181,-1416181548020999936,0.0,101.51078268027229,2079.884341379188,0.0,0,2,0.0,16431,344761920456280,487,20.756000518798828,392.1247357616224,0.14999,16,0.0,0.0,1575420030,,,,0,3.5097726417172064,1,6.0,20.756000518798828,0.0,0.0,0.0,66.7128,C,25228044000000,
Fix,FLP,37.4243697000,-122.1712489000,2.0,0.20771469,1.85,244.3954,1732146344197,2.5,81.1,25228044000000,0.8928997,0,,,
Status,1732146344000,29,0,1,14,1575420030,44.80,318.0,74.0,1,0,0,39.8
Status,1732146344000,29,1,1,30,1575420030,41.90,73.0,70.0,1,0,0,36.9
Status,1732146344000,29,2,1,22,1575420030,42.60,270.0,59.0,1,0,0,37.6
Status,1732146344000,29,3,1,13,1575420030,46.40,303.0,47.0,1,0,0,41.4
Status,1732146344000,29,4,1,17,1575420030,39.20,176.0,44.0,1,0,0,34.2
Status,1732146344000,29,5,1,7,1575420030,40.30,103.0,38.0,1,0,0,35.3
Status,1732146344000,29,6,2,131,1575420030,35.00,3.0,23.0,0,0,0,30.0
Status,1732146344000,29,7,1,19,1575420030,45.20,193.0,17.0,1,0,0,40.2
Status,1732146344000,29,8,1,15,1575420030,35.90,316.0,17.0,1,0,0,30.900002
Status,1732146344000,29,9,1,2,1575420030,25.80,88.0,16.0,1,0,0,20.8
Status,1732146344000,29,10,1,21,1575420030,0.00,69.0,13.0,0,0,0,0.0
Status,1732146344000,29,11,1,8,1575420030,0.00,39.0,9.0,0,0,0,0.0
Status,1732146344000,29,12,1,5,1575420030,0.00,263.0,7.0,0,0,0,0.0
Status,1732146344000,29,13,1,9,1575420030,0.00,159.0,1.0,0,0,0,0.0
Status,1732146344000,29,14,3,9,1602000000,28.30,16.0,54.0,1,0,0,23.3
Status,1732146344000,29,15,3,8,1602000000,40.30,304.0,38.0,1,0,0,35.3
Status,1732146344000,29,16,3,16,1602000000,22.70,67.0,15.0,1,0,0,17.7
Status,1732146344000,29,17,3,20,1602000000,22.80,150.0,10.0,1,0,0,17.8
Status,1732146344000,29,18,3,11,1602000000,0.00,271.0,1.0,0,0,0,0.0
Status,1732146344000,29,19,3,17,1602000000,46.70,0.0,0.0,0,0,0,41.7
Status,1732146344000,29,20,6,29,1575420030,38.20,204.0,61.0,1,0,0,33.2
Status,1732146344000,29,21,6,27,1575420030,26.60,36.0,59.0,1,0,0,21.6
Status,1732146344000,29,22,6,21,1575420030,34.50,268.0,57.0,1,0,0,29.5
Status,1732146344000,29,23,6,19,1575420030,41.40,298.0,50.0,1,0,0,36.4
Status,1732146344000,29,24,6,7,1575420030,0.00,161.0,17.0,0,0,0,0.0
Status,1732146344000,29,25,6,30,1575420030,0.00,58.0,11.0,0,0,0,0.0
Status,1732146344000,29,26,6,15,1575420030,0.00,95.0,10.0,0,0,0,0.0
Status,1732146344000,29,27,6,34,1575420030,0.00,48.0,6.0,0,0,0,0.0
Status,1732146344000,29,28,6,13,1575420030,0.00,142.0,1.0,0,0,0,0.0
Fix,GPS,37.4243800000,-122.1712616667,14.900000000000002,0.49928054,1.8,311.49,1732146345000,1.3,105.8,25229044000000,40.3,0,,,
Fix,FLP,37.4243745000,-122.1712563000,2.0,0.21447867,1.85,257.34174,1732146345196,1.3,105.8,25229044000000,0.90392536,0,,,
Raw,1732146345000,14980000000,,680467.7833990073,-1416181548020999936,0.0,104.98980921448114,2075.452443783008,0.0,0,15,0.0,16431,344762922464991,74,30.94499969482422,126.17715592086033,0.14999,16,0.0,0.0,1575420030,,,,0,17.691179266524095,1,6.0,30.94499969482422,0.0,0.0,0.0,66.7128,C,25229044000000,
Raw,1732146345000,14980000000,,680467.7833990073,-1416181548020999936,0.0,104.98980921448114,2075.452443783008,0.0,0,30,0.0,16431,344762932322551,51,36.895999908447266,701.3807118185996,0.14999,17,10447.636442555144,0.00022499999613501132,1575420030,,,,0,24.455061697182753,1,6.0,36.895999908447266,0.0,0.0,0.0,66.7128,C,25229044000000,
Raw,1732146345000,14980000000,,680467.7833990073,-1416181548020999936,0.0,104.98980921448114,2075.452443783008,0.0,0,22,0.0,16431,344762930919068,51,37.64899826049805,452.8340388526623,0.14999,17,6757.82682765766,0.00022499999613501132,1575420030,,,,0,25.273442294775176,1,6.0,37.64899826049805,0.0,0.0,0.0,66.7128,C,25229044000000,
Raw,1732146345000,14980000000,,680467.7833990073,-1416181548020999936,0.0,104.98980921448114,2075.452443783008,0.0,0,13,0.0,16431,344762930238097,31,41.43199920654297,306.0496020037907,0.14999,17,4629.853873739525,0.00022499999613501132,1575420030,,,,0,29.321177169981777,1,6.0,41.43199920654297,0.0,0.0,0.0,66.7128,C,25229044000000,
Raw,1732146345000,14980000000,,680467.7833990073,-1416181548020999936,0.0,104.98980921448114,2075.452443783008,0.0,0,19,0.0,16431,344762920739712,42,40.21099853515625,-76.31180467435463,0.14999,16,5814.3769656262975,0.00022499999613501132,1575420030,,,,0,28.02535350661298,1,6.0,40.21099853515625,0.0,0.0,0.0,66.7128,C,25229044000000,
Raw,1732146345000,14980000000,,680467.7833990073,-1416181548020999936,0.0,104.98980921448114,2075.452443783008,0.0,0,21,0.0,16431,344762920048170,74,29.5,440.242182015039,0.14999,16,0.0,0.0,1575420030,,,,0,16.380937215232624,6,6.0,29.5,0.0,0.0,6.862891148495624,66.7128,C,25229044000000,
Raw,1732146345000,14980000000,,680467.7833990073,-1416181548020999936,0.0,104.98980921448114,2075.452443783008,0.0,0,19,0.0,16431,344762920433304,51,36.400001525878906,422.8922864812135,0.14999,16,0.0,0.0,1575420030,,,,0,23.90475702414725,6,6.0,36.400001525878906,0.0,0.0,6.862891148495624,66.7128,C,25229044000000,
Raw,1732146345000,14980000000,,680467.7833990073,-1416181548020999936,0.0,104.98980921448114,2075.452443783008,0.0,0,29,0.0,16431,344762921405282,58,33.20000076293945,900.1686091448183,0.14999,16,0.0,0.0,1575420030,,,,0,20.477836421914535,6,6.0,33.20000076293945,0.0,0.0,6.862891148495624,66.7128,C,25229044000000,
Raw,1732146345000,14980000000,,680467.7833990073,-1416181548020999936,0.0,104.98980921448114,2075.452443783008,0.0,0,27,0.0,16431,344762920508567,396,21.600000381469727,866.0233457330562,0.14999,16,0.0,0.0,1575420030,,,,0,6.537857989723385,6,6.0,21.600000381469727,0.0,0.0,6.862891148495624,66.7128,C,25229044000000,
Raw,1732146345000,14980000000,,680467.7833990073,-1416181548020999936,0.0,104.98980921448114,2075.452443783008,0.0,0,8,0.0,17,603125,58,5.0,413.33919066855543,0.14999,17,6156.501230158358,0.00039999998989515007,1605374980,,,,0,22.723545365943224,3,6.0,35.0,0.0,0.0,32.45744489835792,66.7128,C,25229044000000,
Raw,1732146345000,14980000000,,680467.7833990073,-1416181548020999936,0.0,104.98980921448114,2075.452443783008,0.0,0,9,0.0,17,102145,396,5.0,746.3098440182505,0.14999,16,0.0,0.0,1600875010,,,,0,8.859840191877652,3,6.0,21.0,0.0,0.0,32.45744489835792,66.7128,C,25229044000000,
Raw,1732146345000,14980000000,,680467.7833990073,-1416181548020999936,0.0,104.98980921448114,2075.452443783008,0.0,0,20,0.0,17,98979,797,5.0,-158.59652900705288,0.14999,16,0.0,0.0,1603124990,,,,0,0.581330366688503,3,6.0,17.0,0.0,0.0,32.45744489835792,66.7128,C,25229044000000,
Raw,1732146345000,14980000000,,680467.7833990073,-1416181548020999936,0.0,104.98980921448114,2075.452443783008,0.0,0,16,0.0,17,780501,487,5.0,1108.8285497673612,0.14999,16,0.0,0.0,1601437440,,,,0,0.38015741887547794,3,6.0,19.0,0.0,0.0,32.45744489835792,66.7128,C,25229044000000,
Raw,1732146345000,14980000000,,680467.7833990073,-1416181548020999936,0.0,104.98980921448114,2075.452443783008,0.0,0,7,0.0,16431,344762927180263,58,35.270999908447266,967.9742959367693,0.14999,16,0.0,0.0,1575420030,,,,0,22.656334561769246,1,6.0,35.270999908447266,0.0,0.0,0.0,66.7128,C,25229044000000,
Raw,1732146345000,14980000000,,680467.7833990073,-1416181548020999936,0.0,104.98980921448114,2075.452443783008,0.0,0,14,0.0,16431,344762933182653,42,39.76300048828125,601.192951426909,0.14999,16,0.0,0.0,1575420030,,,,0,27.54851720392172,1,6.0,39.76300048828125,0.0,0.0,0.0,66.7128,C,25229044000000,
Raw,1732146345000,14980000000,,680467.7833990073,-1416181548020999936,0.0,104.98980921448114,2075.452443783008,0.0,0,17,0.0,16431,344762929431088,58,34.198001861572266,125.7185648944461,0.14999,17,2571.250327215362,0.00039999998989515007,1575420030,,,,0,21.460550417226216,1,6.0,34.198001861572266,0.0,0.0,0.0,66.7128,C,25229044000000,
Raw,1732146345000,14980000000,,680467.7833990073,-1416181548020999936,0.0,104.98980921448114,2075.452443783008,0.0,0,2,0.0,16431,344762920454969,797,20.756000518798828,393.59839672382066,0.14999,16,0.0,0.0,1575420030,,,,0,3.5097726417172064,1,6.0,20.756000518798828,0.0,0.0,0.0,66.7128,C,25229044000000,
Status,1732146345000,29,0,1,14,1575420030,43.00,318.0,74.0,1,0,0,38.0
Status,1732146345000,29,1,1,30,1575420030,41.90,73.0,70.0,1,0,0,36.9
Status,1732146345000,29,2,1,22,1575420030,43.20,270.0,59.0,1,0,0,38.2
Status,1732146345000,29,3,1,13,1575420030,43.70,303.0,47.0,1,0,0,38.7
Status,1732146345000,29,4,1,17,1575420030,45.10,176.0,44.0,1,0,0,40.1
Status,1732146345000,29,5,1,7,1575420030,41.20,103.0,38.0,1,0,0,36.2
Status,1732146345000,29,6,2,131,1575420030,34.00,3.0,23.0,0,0,0,29.0
Status,1732146345000,29,7,1,19,1575420030,41.50,193.0,17.0,1,0,0,36.5
Status,1732146345000,29,8,1,15,1575420030,41.40,316.0,17.0,1,0,0,36.4
Status,1732146345000,29,9,1,2,1575420030,25.70,88.0,16.0,1,0,0,20.7
Status,1732146345000,29,10,1,21,1575420030,0.00,69.0,13.0,0,0,0,0.0
Status,1732146345000,29,11,1,8,1575420030,0.00,39.0,9.0,0,0,0,0.0
Status,1732146345000,29,12,1,5,1575420030,0.00,263.0,7.0,0,0,0,0.0
Status,1732146345000,29,13,1,9,1575420030,0.00,159.0,1.0,0,0,0,0.0
Status,1732146345000,29,14,3,9,1602000000,30.50,16.0,54.0,1,0,0,25.5
Status,1732146345000,29,15,3,8,1602000000,39.70,304.0,38.0,1,0,0,34.7
Status,1732146345000,29,16,3,16,1602000000,22.70,67.0,15.0,1,0,0,17.7
Status,1732146345000,29,17,3,20,1602000000,21.50,150.0,10.0,1,0,0,16.5
Status,1732146345000,29,18,3,11,1602000000,0.00,271.0,1.0,0,0,0,0.0
Status,1732146345000,29,19,3,17,1602000000,32.90,0.0,0.0,0,0,0,27.900002
Status,1732146345000,29,20,6,29,1575420030,33.10,204.0,61.0,1,0,0,28.099998
Status,1732146345000,29,21,6,27,1575420030,31.30,36.0,59.0,1,0,0,26.3
Status,1732146345000,29,22,6,21,1575420030,42.90,268.0,57.0,1,0,0,37.9
Status,1732146345000,29,23,6,19,1575420030,40.30,298.0,50.0,1,0,0,35.3
Status,1732146345000,29,24,6,7,1575420030,0.00,161.0,17.0,0,0,0,0.0
Status,1732146345000,29,25,6,30,1575420030,0.00,58.0,11.0,0,0,0,0.0
Status,1732146345000,29,26,6,15,1575420030,0.00,95.0,10.0,0,0,0,0.0
Status,1732146345000,29,27,6,34,1575420030,0.00,48.0,6.0,0,0,0,0.0
Status,1732146345000,29,28,6,13,1575420030,0.00,142.0,1.0,0,0,0,0.0
Fix,GPS,37.4243850000,-122.1712583333,14.900000000000002,0.18427056,1.7,5.07,1732146346000,0.9,179.9,25230044000000,36.6,0,,,
Raw,1732146346000,15980000000,,678769.7857962791,-1416181548020999936,0.0,96.03042756250035,2074.5015939397017,0.0,0,15,0.0,16431,344763922464567,51,36.35300064086914,126.19239428137739,0.14999,16,0.0,0.0,1575420030,,,,0,23.86025954138786,1,6.0,36.35300064086914,0.0,0.0,0.0,66.7128,C,25230044000000,
Raw,1732146346000,15980000000,,678769.7857962791,-1416181548020999936,0.0,96.03042756250035,2074.5015939397017,0.0,0,30,0.0,16431,344763932320216,51,36.86800003051758,701.3044735575982,0.14999,17,11148.948067805186,0.00022499999613501132,1575420030,,,,0,23.86025954138786,1,6.0,36.86800003051758,0.0,0.0,0.0,66.7128,C,25230044000000,
Raw,1732146346000,15980000000,,678769.7857962791,-1416181548020999936,0.0,96.03042756250035,2074.5015939397017,0.0,0,22,0.0,16431,344763930917558,51,38.17399978637695,453.2273558043007,0.14999,17,7210.852025471122,0.00022499999613501132,1575420030,,,,0,25.845619898023013,1,6.0,38.17399978637695,0.0,0.0,0.0,66.7128,C,25230044000000,
Raw,1732146346000,15980000000,,678769.7857962791,-1416181548020999936,0.0,96.03042756250035,2074.5015939397017,0.0,0,13,0.0,16431,344763930237075,42,38.691001892089844,306.3669129865087,0.14999,17,4936.035542502346,0.00022499999613501132,1575420030,,,,0,26.402422092991642,1,6.0,38.691001892089844,0.0,0.0,0.0,66.7128,C,25230044000000,
Raw,1732146346000,15980000000,,678769.7857962791,-1416181548020999936,0.0,96.03042756250035,2074.5015939397017,0.0,0,19,0.0,16431,344763920739970,51,36.507999420166016,-76.51431691061637,0.14999,17,5737.838618099896,0.00022499999613501132,1575420030,,,,0,24.028150732969905,1,6.0,36.507999420166016,0.0,0.0,0.0,66.7128,C,25230044000000,
Raw,1732146346000,15980000000,,678769.7857962791,-1416181548020999936,0.0,96.03042756250035,2074.5015939397017,0.0,0,21,0.0,16431,344763920046698,42,37.900001525878906,440.41863107980663,0.14999,16,0.0,0.0,1575420030,,,,0,25.497993093486016,6,6.0,37.900001525878906,0.0,0.0,7.234322756188664,66.7128,C,25230044000000,
Raw,1732146346000,15980000000,,678769.7857962791,-1416181548020999936,0.0,96.03042756250035,2074.5015939397017,0.0,0,19,0.0,16431,344763920431892,51,35.29999923706055,422.96531911149646,0.14999,16,0.0,0.0,1575420030,,,,0,22.818787262336404,6,6.0,35.29999923706055,0.0,0.0,7.234322756188664,66.7128,C,25230044000000,
Raw,1732146346000,15980000000,,678769.7857962791,-1416181548020999936,0.0,96.03042756250035,2074.5015939397017,0.0,0,29,0.0,16431,344763921402274,74,28.100000381469727,900.2432213612524,0.14999,16,0.0,0.0,1575420030,,,,0,14.812075252178236,6,6.0,28.100000381469727,0.0,0.0,7.234322756188664,66.7128,C,25230044000000,
Raw,1732146346000,15980000000,,678769.7857962791,-1416181548020999936,0.0,96.03042756250035,2074.5015939397017,0.0,0,27,0.0,16431,344763920505677,74,26.299999237060547,866.0592116303708,0.14999,16,0.0,0.0,1575420030,,,,0,12.704715814722,6,6.0,26.299999237060547,0.0,0.0,7.234322756188664,66.7128,C,25230044000000,
Raw,1732146346000,15980000000,,678769.7857962791,-1416181548020999936,0.0,96.03042756250035,2074.5015939397017,0.0,0,8,0.0,17,601745,58,5.0,413.59167661548486,0.14999,16,0.0,0.0,1605374980,,,,0,22.08949465219845,3,6.0,35.0,0.0,0.0,32.908649222261474,66.7128,C,25230044000000,
Raw,1732146346000,15980000000,,678769.7857962791,-1416181548020999936,0.0,96.03042756250035,2074.5015939397017,0.0,0,9,0.0,17,99658,235,5.0,746.6844712059049,0.14999,16,0.0,0.0,1600875010,,,,0,11.715842038463862,3,6.0,27.0,0.0,0.0,32.908649222261474,66.7128,C,25230044000000,
Raw,1732146346000,15980000000,,678769.7857962791,-1416181548020999936,0.0,96.03042756250035,2074.5015939397017,0.0,0,20,0.0,17,99506,487,5.0,-158.50138288703704,0.14999,16,0.0,0.0,1603124990,,,,0,0.0,3,6.0,18.0,0.0,0.0,32.908649222261474,66.7128,C,25230044000000,
Raw,1732146346000,15980000000,,678769.7857962791,-1416181548020999936,0.0,96.03042756250035,2074.5015939397017,0.0,0,16,0.0,17,776803,487,5.0,1107.7023207461273,0.14999,16,0.0,0.0,1601437440,,,,0,0.38015741887547794,3,6.0,19.0,0.0,0.0,32.908649222261474,66.7128,C,25230044000000,
Raw,1732146346000,15980000000,,678769.7857962791,-1416181548020999936,0.0,96.03042756250035,2074.5015939397017,0.0,0,7,0.0,16431,344763927177056,51,36.15599822998047,967.5051588498752,0.14999,17,10358.590046270312,0.00022499999613501132,1575420030,,,,0,23.64343980572758,1,6.0,36.15599822998047,0.0,0.0,0.0,66.7128,C,25230044000000,
Raw,1732146346000,15980000000,,678769.7857962791,-1416181548020999936,0.0,96.03042756250035,2074.5015939397017,0.0,0,14,0.0,16431,344763933180649,51,37.98400115966797,601.0789889319445,0.14999,17,9878.32994634384,0.00022499999613501132,1575420030,,,,0,25.637263505984787,1,6.0,37.98400115966797,0.0,0.0,0.0,66.7128,C,25230044000000,
Raw,1732146346000,15980000000,,678769.7857962791,-1416181548020999936,0.0,96.03042756250035,2074.5015939397017,0.0,0,17,0.0,16431,344763929430664,42,40.05099868774414,125.27734931569462,0.14999,17,2696.6625307950612,0.00022499999613501132,1575420030,,,,0,27.85804387837244,1,6.0,40.05099868774414,0.0,0.0,0.0,66.7128,C,25230044000000,
Raw,1732146346000,15980000000,,678769.7857962791,-1416181548020999936,0.0,96.03042756250035,2074.5015939397017,0.0,0,2,0.0,16431,344763920453649,487,20.680999755859375,394.17624650464734,0.14999,16,0.0,0.0,1575420030,,,,0,0.9332365160691296,1,6.0,20.680999755859375,0.0,0.0,0.0,66.7128,C,25230044000000,
Fix,FLP,37.4243796000,-122.1712580000,2.0,0.15475127,1.833,265.77527,1732146346196,0.9,179.9,25230044000000,0.9107237,0,,,
Fix,GPS,37.4243866667,-122.1712566667,14.900000000000002,0.21155083,1.7,15.59,1732146347000,0.9,165.9,25231044000000,36.7,0,,,
Status,1732146347000,29,0,1,14,1575420030,40.70,318.0,74.0,1,0,0,35.7
Status,1732146347000,29,1,1,30,1575420030,46.00,73.0,70.0,1,0,0,41.0
Status,1732146347000,29,2,1,22,1575420030,46.80,270.0,59.0,1,0,0,41.8
Status,1732146347000,29,3,1,13,1575420030,38.60,303.0,47.0,1,0,0,33.6
Status,1732146347000,29,4,1,17,1575420030,40.80,176.0,44.0,1,0,0,35.8
Status,1732146347000,29,5,1,7,1575420030,33.30,103.0,38.0,1,0,0,28.3
Status,1732146347000,29,6,2,131,1575420030,37.00,3.0,23.0,0,0,0,32.0
Status,1732146347000,29,7,1,19,1575420030,44.00,193.0,17.0,1,0,0,39.0
Status,1732146347000,29,8,1,15,1575420030,36.20,316.0,17.0,1,0,0,31.2
Status,1732146347000,29,9,1,2,1575420030,25.70,88.0,16.0,1,0,0,20.7
Status,1732146347000,29,10,1,21,1575420030,0.00,69.0,13.0,0,0,0,0.0
Status,1732146347000,29,11,1,8,1575420030,0.00,39.0,9.0,0,0,0,0.0
Status,1732146347000,29,12,1,5,1575420030,0.00,263.0,7.0,0,0,0,0.0
Status,1732146347000,29,13,1,9,1575420030,0.00,159.0,1.0,0,0,0,0.0
Status,1732146347000,29,14,3,9,1602000000,31.90,16.0,54.0,1,0,0,26.9
Status,1732146347000,29,15,3,8,1602000000,32.70,304.0,38.0,1,0,0,27.7
Status,1732146347000,29,16,3,16,1602000000,24.30,67.0,15.0,1,0,0,19.3
Status,1732146347000,29,17,3,20,1602000000,21.50,150.0,10.0,1,0,0,16.5
Status,1732146347000,29,18,3,11,1602000000,0.00,271.0,1.0,0,0,0,0.0
Status,1732146347000,29,19,3,17,1602000000,35.40,0.0,0.0,0,0,0,30.400002
Status,1732146347000,29,20,6,29,1575420030,40.90,204.0,61.0,1,0,0,35.9
Status,1732146347000,29,21,6,27,1575420030,37.90,36.0,59.0,1,0,0,32.9
Status,1732146347000,29,22,6,21,1575420030,33.30,268.0,57.0,1,0,0,28.3
Status,1732146347000,29,23,6,19,1575420030,33.80,298.0,50.0,1,0,0,28.8
Status,1732146347000,29,24,6,7,1575420030,0.00,161.0,17.0,0,0,0,0.0
Status,1732146347000,29,25,6,30,1575420030,0.00,58.0,11.0,0,0,0,0.0
Status,1732146347000,29,26,6,15,1575420030,0.00,95.0,10.0,0,0,0,0.0
Status,1732146347000,29,27,6,34,1575420030,0.00,48.0,6.0,0,0,0,0.0
Status,1732146347000,29,28,6,13,1575420030,0.00,142.0,1.0,0,0,0,0.0
Raw,1732146347000,16980000000,,676624.1868733069,-1416181548020999936,0.0,96.45471197069918,2073.175536382908,0.0,0,15,0.0,16431,344764922464143,74,31.20800018310547,125.81310777143456,0.14999,16,0.0,0.0,1575420030,,,,0,17.994413600692738,1,6.0,31.20800018310547,0.0,0.0,0.0,66.7128,C,25231044000000,
Raw,1732146347000,16980000000,,676624.1868733069,-1416181548020999936,0.0,96.45471197069918,2073.175536382908,0.0,0,30,0.0,16431,344764932317879,42,40.987998962402344,700.2772779751831,0.14999,17,11849.697087442222,0.00022499999613501132,1575420030,,,,0,28.85195175127446,1,6.0,40.987998962402344,0.0,0.0,0.0,66.7128,C,25231044000000,
Raw,1732146347000,16980000000,,676624.1868733069,-1416181548020999936,0.0,96.45471197069918,2073.175536382908,0.0,0,22,0.0,16431,344764930916045,31,41.77899932861328,452.85485222312457,0.14999,17,7663.740777819826,0.00022499999613501132,1575420030,,,,0,29.684598047274573,1,6.0,41.77899932861328,0.0,0.0,0.0,66.7128,C,25231044000000,
Raw,1732146347000,16980000000,,676624.1868733069,-1416181548020999936,0.0,96.45471197069918,2073.175536382908,0.0,0,13,0.0,16431,344764930236054,58,33.61199951171875,305.8917827639235,0.14999,16,0.0,0.0,1575420030,,,,0,20.788310802343673,1,6.0,33.61199951171875,0.0,0.0,0.0,66.7128,C,25231044000000,
Raw,1732146347000,16980000000,,676624.1868733069,-1416181548020999936,0.0,96.45471197069918,2073.175536382908,0.0,0,19,0.0,16431,344764920740225,42,39.03200149536133,-76.62177522731135,0.14999,16,0.0,0.0,1575420030,,,,0,26.76751134658238,1,6.0,39.03200149536133,0.0,0.0,0.0,66.7128,C,25231044000000,
Raw,1732146347000,16980000000,,676624.1868733069,-1416181548020999936,0.0,96.45471197069918,2073.175536382908,0.0,0,21,0.0,16431,344764920045228,51,28.299999237060547,439.62066132297446,0.14999,16,0.0,0.0,1575420030,,,,0,15.012047011383707,6,6.0,28.299999237060547,0.0,0.0,7.407245224200036,66.7128,C,25231044000000,
Raw,1732146347000,16980000000,,676624.1868733069,-1416181548020999936,0.0,96.45471197069918,2073.175536382908,0.0,0,19,0.0,16431,344764920430480,235,28.799999237060547,423.05461218745313,0.14999,16,0.0,0.0,1575420030,,,,0,15.60884003500124,6,6.0,28.799999237060547,0.0,0.0,7.407245224200036,66.7128,C,25231044000000,
Raw,1732146347000,16980000000,,676624.1868733069,-1416181548020999936,0.0,96.45471197069918,2073.175536382908,0.0,0,29,0.0,16431,344764921399267,51,35.900001525878906,899.8766644573512,0.14999,16,0.0,0.0,1575420030,,,,0,23.43981879000852,6,6.0,35.900001525878906,0.0,0.0,7.407245224200036,66.7128,C,25231044000000,
Raw,1732146347000,16980000000,,676624.1868733069,-1416181548020999936,0.0,96.45471197069918,2073.175536382908,0.0,0,27,0.0,16431,344764920502792,58,32.900001525878906,865.0774523790096,0.14999,16,0.0,0.0,1575420030,,,,0,20.183144206386707,6,6.0,32.900001525878906,0.0,0.0,7.407245224200036,66.7128,C,25231044000000,
Raw,1732146347000,16980000000,,676624.1868733069,-1416181548020999936,0.0,96.45471197069918,2073.175536382908,0.0,0,8,0.0,17,600367,235,5.0,414.21555124491454,0.14999,16,0.0,0.0,1605374980,,,,0,14.362088728005743,3,6.0,28.0,0.0,0.0,33.02835416266595,66.7128,C,25231044000000,
Raw,1732146347000,16980000000,,676624.1868733069,-1416181548020999936,0.0,96.45471197069918,2073.175536382908,0.0,0,9,0.0,17,97164,235,5.0,746.3174334877588,0.14999,16,0.0,0.0,1600875010,,,,0,13.44147376777514,3,6.0,28.0,0.0,0.0,33.02835416266595,66.7128,C,25231044000000,
Raw,1732146347000,16980000000,,676624.1868733069,-1416181548020999936,0.0,96.45471197069918,2073.175536382908,0.0,0,20,0.0,17,100037,797,5.0,-160.34038754837962,0.14999,16,0.0,0.0,1603124990,,,,0,0.0,3,6.0,16.0,0.0,0.0,33.02835416266595,66.7128,C,25231044000000,
Raw,1732146347000,16980000000,,676624.1868733069,-1416181548020999936,0.0,96.45471197069918,2073.175536382908,0.0,0,16,0.0,17,773105,487,5.0,1106.9148470818197,0.14999,16,0.0,0.0,1601437440,,,,0,3.1551256222626667,3,6.0,20.0,0.0,0.0,33.02835416266595,66.7128,C,25231044000000,
Raw,1732146347000,16980000000,,676624.1868733069,-1416181548020999936,0.0,96.45471197069918,2073.175536382908,0.0,0,7,0.0,16431,344764927173830,235,28.29800033569336,968.0063522439546,0.14999,16,0.0,0.0,1575420030,,,,0,14.424247902182843,1,6.0,28.29800033569336,0.0,0.0,0.0,66.7128,C,25231044000000,
Raw,1732146347000,16980000000,,676624.1868733069,-1416181548020999936,0.0,96.45471197069918,2073.175536382908,0.0,0,14,0.0,16431,344764933178650,51,35.71699905395508,600.844745597411,0.14999,16,0.0,0.0,1575420030,,,,0,23.154229569273987,1,6.0,35.71699905395508,0.0,0.0,0.0,66.7128,C,25231044000000,
Raw,1732146347000,16980000000,,676624.1868733069,-1416181548020999936,0.0,96.45471197069918,2073.175536382908,0.0,0,17,0.0,16431,344764929430247,51,35.797000885009766,125.58439298843008,0.14999,16,0.0,0.0,1575420030,,,,0,23.2408965928974,1,6.0,35.797000885009766,0.0,0.0,0.0,66.7128,C,25231044000000,
Raw,1732146347000,16980000000,,676624.1868733069,-1416181548020999936,0.0,96.45471197069918,2073.175536382908,0.0,0,2,0.0,16431,344764920452332,487,20.69700050354004,394.0115049607648,0.14999,16,0.0,0.0,1575420030,,,,0,3.9622650342190866,1,6.0,20.69700050354004,0.0,0.0,0.0,66.7128,C,25231044000000,
Fix,FLP,37.4243832000,-122.1712579000,2.0,0.11593679,1.816,279.51788,1732146347196,0.9,165.9,25231044000000,0.91754174,0,,,
Status,1732146347000,29,0,1,14,1575420030,41.10,318.0,74.0,1,0,0,36.1
Status,1732146347000,29,1,1,30,1575420030,46.00,73.0,70.0,1,0,0,41.0
Status,1732146347000,29,2,1,22,1575420030,34.40,270.0,59.0,1,0,0,29.400002
Status,1732146347000,29,3,1,13,1575420030,36.60,303.0,47.0,1,0,0,31.599998
Status,1732146347000,29,4,1,17,1575420030,35.70,176.0,44.0,1,0,0,30.7
Status,1732146347000,29,5,1,7,1575420030,36.40,103.0,38.0,1,0,0,31.400002
Status,1732146347000,29,6,2,131,1575420030,34.00,3.0,23.0,0,0,0,29.0
Status,1732146347000,29,7,1,19,1575420030,45.00,193.0,17.0,1,0,0,40.0
Status,1732146347000,29,8,1,15,1575420030,36.70,316.0,17.0,1,0,0,31.7
Status,1732146347000,29,9,1,2,1575420030,25.70,88.0,16.0,1,0,0,20.7
Status,1732146347000,29,10,1,21,1575420030,0.00,69.0,13.0,0,0,0,0.0
Status,1732146347000,29,11,1,8,1575420030,22.10,39.0,9.0,1,0,0,17.1
Status,1732146347000,29,12,1,5,1575420030,22.50,263.0,7.0,1,0,0,17.5
Status,1732146347000,29,13,1,9,1575420030,0.00,159.0,1.0,0,0,0,0.0
Status,1732146347000,29,14,3,9,1602000000,38.20,16.0,54.0,1,0,0,33.2
Status,1732146347000,29,15,3,8,1602000000,34.00,304.0,38.0,1,0,0,29.0
Status,1732146347000,29,16,3,16,1602000000,23.60,67.0,15.0,1,0,0,18.6
Status,1732146347000,29,17,3,20,1602000000,21.50,150.0,10.0,1,0,0,16.5
Status,1732146347000,29,18,3,11,1602000000,0.00,271.0,1.0,0,0,0,0.0
Status,1732146347000,29,19,3,17,1602000000,39.10,0.0,0.0,0,0,0,34.1
Status,1732146347000,29,20,6,29,1575420030,33.10,204.0,61.0,1,0,0,28.099998
Status,1732146347000,29,21,6,27,1575420030,43.80,36.0,59.0,1,0,0,38.8
Status,1732146347000,29,22,6,21,1575420030,39.20,268.0,57.0,1,0,0,34.2
Status,1732146347000,29,23,6,19,1575420030,32.20,298.0,50.0,1,0,0,27.2
Status,1732146347000,29,24,6,7,1575420030,0.00,161.0,17.0,0,0,0,0.0
Status,1732146347000,29,25,6,30,1575420030,0.00,58.0,11.0,0,0,0,0.0
Status,1732146347000,29,26,6,15,1575420030,0.00,95.0,10.0,0,0,0,0.0
Status,1732146347000,29,27,6,34,1575420030,0.00,48.0,6.0,0,0,0,0.0
Status,1732146347000,29,28,6,13,1575420030,0.00,142.0,1.0,0,0,0,0.0
Fix,GPS,37.4243900000,-122.1712550000,14.900000000000002,0.39015946,1.7,41.13,1732146348000,0.8,85.3,25232044000000,36.8,0,,,
Raw,1732146348000,17980000000,,675419.7077733023,-1416181548020999936,0.0,96.97346913527612,2072.441435340431,0.0,0,15,0.0,16431,344765922463719,74,31.709999084472656,127.32314567352569,0.14999,16,0.0,0.0,1575420030,,,,0,18.58724818901404,1,6.0,31.709999084472656,0.0,0.0,0.0,66.7128,C,25232044000000,
Raw,1732146348000,17980000000,,675419.7077733023,-1416181548020999936,0.0,96.97346913527612,2072.441435340431,0.0,0,30,0.0,16431,344765932315542,42,40.97999954223633,700.73424295703,0.14999,17,12550.594985977657,0.00022499999613501132,1575420030,,,,0,28.684617703889582,1,6.0,40.97999954223633,0.0,0.0,0.0,66.7128,C,25232044000000,
Raw,1732146348000,17980000000,,675419.7077733023,-1416181548020999936,0.0,96.97346913527612,2072.441435340431,0.0,0,22,0.0,16431,344765930914533,235,29.444000244140625,453.1709552870211,0.14999,16,0.0,0.0,1575420030,,,,0,15.858974561113433,1,6.0,29.444000244140625,0.0,0.0,0.0,66.7128,C,25232044000000,
Raw,1732146348000,17980000000,,675419.7077733023,-1416181548020999936,0.0,96.97346913527612,2072.441435340431,0.0,0,13,0.0,16431,344765930235031,74,31.566999435424805,305.26194601535724,0.14999,16,0.0,0.0,1575420030,,,,0,18.421955101197952,1,6.0,31.566999435424805,0.0,0.0,0.0,66.7128,C,25232044000000,
Raw,1732146348000,17980000000,,675419.7077733023,-1416181548020999936,0.0,96.97346913527612,2072.441435340431,0.0,0,19,0.0,16431,344765920740476,42,40.00199890136719,-76.51970608689679,0.14999,16,0.0,0.0,1575420030,,,,0,27.801550088075903,1,6.0,40.00199890136719,0.0,0.0,0.0,66.7128,C,25232044000000,
Raw,1732146348000,17980000000,,675419.7077733023,-1416181548020999936,0.0,96.97346913527612,2072.441435340431,0.0,0,21,0.0,16431,344765920043758,58,34.20000076293945,440.6906915651356,0.14999,16,0.0,0.0,1575420030,,,,0,21.62367050958447,6,6.0,34.20000076293945,0.0,0.0,7.850945939258207,66.7128,C,25232044000000,
Raw,1732146348000,17980000000,,675419.7077733023,-1416181548020999936,0.0,96.97346913527612,2072.441435340431,0.0,0,19,0.0,16431,344765920429068,235,27.200000762939453,423.3570100185675,0.14999,16,0.0,0.0,1575420030,,,,0,13.73671433249238,6,6.0,27.200000762939453,0.0,0.0,7.850945939258207,66.7128,C,25232044000000,
Raw,1732146348000,17980000000,,675419.7077733023,-1416181548020999936,0.0,96.97346913527612,2072.441435340431,0.0,0,29,0.0,16431,344765921396265,235,28.100000381469727,900.2119083887266,0.14999,16,0.0,0.0,1575420030,,,,0,14.862501458471195,6,6.0,28.100000381469727,0.0,0.0,7.850945939258207,66.7128,C,25232044000000,
Raw,1732146348000,17980000000,,675419.7077733023,-1416181548020999936,0.0,96.97346913527612,2072.441435340431,0.0,0,27,0.0,16431,344765920499909,42,38.79999923706055,865.2970148540206,0.14999,16,0.0,0.0,1575420030,,,,0,26.429014963784848,6,6.0,38.79999923706055,0.0,0.0,7.850945939258207,66.7128,C,25232044000000,
Raw,1732146348000,17980000000,,675419.7077733023,-1416181548020999936,0.0,96.97346913527612,2072.441435340431,0.0,0,8,0.0,17,598987,235,5.0,414.12787871404686,0.14999,16,0.0,0.0,1605374980,,,,0,15.881360887005513,3,6.0,29.0,0.0,0.0,33.530005216696054,66.7128,C,25232044000000,
Raw,1732146348000,17980000000,,675419.7077733023,-1416181548020999936,0.0,96.97346913527612,2072.441435340431,0.0,0,9,0.0,17,94670,58,5.0,746.6829167362465,0.14999,16,0.0,0.0,1600875010,,,,0,20.528488621662753,3,6.0,33.0,0.0,0.0,33.530005216696054,66.7128,C,25232044000000,
Raw,1732146348000,17980000000,,675419.7077733023,-1416181548020999936,0.0,96.97346913527612,2072.441435340431,0.0,0,20,0.0,17,100574,797,5.0,-160.90076349707178,0.14999,16,0.0,0.0,1603124990,,,,0,0.0,3,6.0,17.0,0.0,0.0,33.530005216696054,66.7128,C,25232044000000,
Raw,1732146348000,17980000000,,675419.7077733023,-1416181548020999936,0.0,96.97346913527612,2072.441435340431,0.0,0,16,0.0,17,769417,487,5.0,1106.7623797490207,0.14999,16,0.0,0.0,1601437440,,,,0,1.8712685788157755,3,6.0,18.0,0.0,0.0,33.530005216696054,66.7128,C,25232044000000,
Raw,1732146348000,17980000000,,675419.7077733023,-1416181548020999936,0.0,96.97346913527612,2072.441435340431,0.0,0,8,0.0,16431,344765918815399,797,17.10700035095215,1298.1031556872333,0.14999,16,0.0,0.0,1575420030,,,,0,0.0,1,6.0,17.10700035095215,0.0,0.0,0.0,66.7128,C,25232044000000,
Raw,1732146348000,17980000000,,675419.7077733023,-1416181548020999936,0.0,96.97346913527612,2072.441435340431,0.0,0,5,0.0,16431,344765917158716,797,17.4689998626709,1054.0368394638078,0.14999,16,0.0,0.0,1575420030,,,,0,0.0,1,6.0,17.4689998626709,0.0,0.0,0.0,66.7128,C,25232044000000,
Raw,1732146348000,17980000000,,675419.7077733023,-1416181548020999936,0.0,96.97346913527612,2072.441435340431,0.0,0,7,0.0,16431,344765927170593,74,31.356000900268555,967.5885052485569,0.14999,16,0.0,0.0,1575420030,,,,0,18.16796362280725,1,6.0,31.356000900268555,0.0,0.0,0.0,66.7128,C,25232044000000,
Raw,1732146348000,17980000000,,675419.7077733023,-1416181548020999936,0.0,96.97346913527612,2072.441435340431,0.0,0,14,0.0,16431,344765933176649,51,36.10200119018555,601.273278028537,0.14999,16,0.0,0.0,1575420030,,,,0,23.57916760182346,1,6.0,36.10200119018555,0.0,0.0,0.0,66.7128,C,25232044000000,
Raw,1732146348000,17980000000,,675419.7077733023,-1416181548020999936,0.0,96.97346913527612,2072.441435340431,0.0,0,17,0.0,16431,344765929429824,74,30.659000396728516,125.85580305593204,0.14999,16,0.0,0.0,1575420030,,,,0,17.339250738709453,1,6.0,30.659000396728516,0.0,0.0,0.0,66.7128,C,25232044000000,
Raw,1732146348000,17980000000,,675419.7077733023,-1416181548020999936,0.0,96.97346913527612,2072.441435340431,0.0,0,2,0.0,16431,344765920451011,487,20.68400001525879,394.7550254537982,0.14999,16,0.0,0.0,1575420030,,,,0,3.03240583822336,1,6.0,20.68400001525879,0.0,0.0,0.0,66.7128,C,25232044000000,
Fix,FLP,37.4243869000,-122.1712566000,2.0,0.08871133,1.783,,1732146348196,0.8,,25232044000000,0.9286958,0,,,
Status,1732146348000,29,0,1,14,1575420030,39.20,318.0,74.0,1,0,0,34.2
Status,1732146348000,29,1,1,30,1575420030,43.60,73.0,70.0,1,0,0,38.6
Status,1732146348000,29,2,1,22,1575420030,42.70,270.0,59.0,1,0,0,37.7
Status,1732146348000,29,3,1,13,1575420030,34.60,303.0,47.0,1,0,0,29.599998
Status,1732146348000,29,4,1,17,1575420030,0.00,176.0,44.0,0,0,0,0.0
Status,1732146348000,29,5,1,7,1575420030,38.30,103.0,38.0,1,0,0,33.3
Status,1732146348000,29,6,2,131,1575420030,38.00,3.0,23.0,0,0,0,33.0
Status,1732146348000,29,7,1,19,1575420030,43.20,193.0,17.0,1,0,0,38.2
Status,1732146348000,29,8,1,15,1575420030,39.80,316.0,17.0,1,0,0,34.8
Status,1732146348000,29,9,1,2,1575420030,25.70,88.0,16.0,1,0,0,20.7
Status,1732146348000,29,10,1,21,1575420030,0.00,69.0,13.0,0,0,0,0.0
Status,1732146348000,29,11,1,8,1575420030,0.00,39.0,9.0,0,0,0,0.0
Status,1732146348000,29,12,1,5,1575420030,0.00,263.0,7.0,0,0,0,0.0
Status,1732146348000,29,13,1,9,1575420030,0.00,159.0,1.0,0,0,0,0.0
Status,1732146348000,29,14,3,9,1602000000,35.90,16.0,54.0,1,0,0,30.900002
Status,1732146348000,29,15,3,8,1602000000,33.80,304.0,38.0,1,0,0,28.8
Status,1732146348000,29,16,3,16,1602000000,24.20,67.0,15.0,1,0,0,19.2
Status,1732146348000,29,17,3,20,1602000000,21.50,150.0,10.0,1,0,0,16.5
Status,1732146348000,29,18,3,11,1602000000,0.00,271.0,1.0,0,0,0,0.0
Status,1732146348000,29,19,3,17,1602000000,34.00,0.0,0.0,0,0,0,29.0
Status,1732146348000,29,20,6,29,1575420030,33.10,204.0,61.0,1,0,0,28.099998
Status,1732146348000,29,21,6,27,1575420030,40.90,36.0,59.0,1,0,0,35.9
Status,1732146348000,29,22,6,21,1575420030,34.20,268.0,57.0,1,0,0,29.2
Status,1732146348000,29,23,6,19,1575420030,31.50,298.0,50.0,1,0,0,26.5
Status,1732146348000,29,24,6,7,1575420030,0.00,161.0,17.0,0,0,0,0.0
Status,1732146348000,29,25,6,30,1575420030,0.00,58.0,11.0,0,0,0,0.0
Status,1732146348000,29,26,6,15,1575420030,0.00,95.0,10.0,0,0,0,0.0
Status,1732146348000,29,27,6,34,1575420030,0.00,48.0,6.0,0,0,0,0.0
Status,1732146348000,29,28,6,13,1575420030,0.00,142.0,1.0,0,0,0,0.0
Fix,GPS,37.4243900000,-122.1712500000,15.000000000000004,0.2892739,1.7,69.57,1732146349000,0.9,111.6,25233044000000,37.3,0,,,
Raw,1732146349000,18980000000,,674463.2648497114,-1416181548020999936,0.0,98.70063013242917,2071.703374809706,0.0,0,15,0.0,16431,344766922463297,58,34.78300094604492,126.93651873382159,0.14999,16,0.0,0.0,1575420030,,,,0,22.11725602700986,1,6.0,34.78300094604492,0.0,0.0,0.0,66.7128,C,25233044000000,
Raw,1732146349000,18980000000,,674463.2648497114,-1416181548020999936,0.0,98.70063013242917,2071.703374809706,0.0,0,30,0.0,16431,344766932313205,42,38.5880012512207,701.4296325308693,0.14999,16,0.0,0.0,1575420030,,,,0,26.288485178531424,1,6.0,38.5880012512207,0.0,0.0,0.0,66.7128,C,25233044000000,
Raw,1732146349000,18980000000,,674463.2648497114,-1416181548020999936,0.0,98.70063013242917,2071.703374809706,0.0,0,22,0.0,16431,344766930913022,51,37.7130012512207,452.6876483831829,0.14999,16,0.0,0.0,1575420030,,,,0,25.341419169330752,1,6.0,37.7130012512207,0.0,0.0,0.0,66.7128,C,25233044000000,
Raw,1732146349000,18980000000,,674463.2648497114,-1416181548020999936,0.0,98.70063013242917,2071.703374809706,0.0,0,13,0.0,16431,344766930234005,235,29.610000610351562,305.97803281361837,0.14999,16,0.0,0.0,1575420030,,,,0,16.080283084116633,1,6.0,29.610000610351562,0.0,0.0,0.0,66.7128,C,25233044000000,
Raw,1732146349000,18980000000,,674463.2648497114,-1416181548020999936,0.0,98.70063013242917,2071.703374809706,0.0,0,7,0.0,16431,344766927167393,58,33.33000183105469,966.807353438393,0.14999,16,0.0,0.0,1575420030,,,,0,20.464656010222903,1,6.0,33.33000183105469,0.0,0.0,0.0,66.7128,C,25233044000000,
Raw,1732146349000,18980000000,,674463.2648497114,-1416181548020999936,0.0,98.70063013242917,2071.703374809706,0.0,0,19,0.0,16431,344766920740731,51,38.15599822998047,-77.59730905090022,0.14999,16,0.0,0.0,1575420030,,,,0,25.824296099331,1,6.0,38.15599822998047,0.0,0.0,0.0,66.7128,C,25233044000000,
Raw,1732146349000,18980000000,,674463.2648497114,-1416181548020999936,0.0,98.70063013242917,2071.703374809706,0.0,0,14,0.0,16431,344766933174674,58,34.159000396728516,601.1405927918397,0.14999,16,0.0,0.0,1575420030,,,,0,21.413376426792357,1,6.0,34.159000396728516,0.0,0.0,0.0,66.7128,C,25233044000000,
Raw,1732146349000,18980000000,,674463.2648497114,-1416181548020999936,0.0,98.70063013242917,2071.703374809706,0.0,0,21,0.0,16431,344766920042288,74,29.200000762939453,440.26791997761967,0.14999,16,0.0,0.0,1575420030,,,,0,16.058404257339305,6,6.0,29.200000762939453,0.0,0.0,8.146438236555735,66.7128,C,25233044000000,
Raw,1732146349000,18980000000,,674463.2648497114,-1416181548020999936,0.0,98.70063013242917,2071.703374809706,0.0,0,19,0.0,16431,344766920427655,235,26.5,422.93177613499245,0.14999,16,0.0,0.0,1575420030,,,,0,12.927443137081193,6,6.0,26.5,0.0,0.0,8.146438236555735,66.7128,C,25233044000000,
Raw,1732146349000,18980000000,,674463.2648497114,-1416181548020999936,0.0,98.70063013242917,2071.703374809706,0.0,0,29,0.0,16431,344766921393262,235,28.100000381469727,900.3011085478507,0.14999,16,0.0,0.0,1575420030,,,,0,14.837324949139743,6,6.0,28.100000381469727,0.0,0.0,8.146438236555735,66.7128,C,25233044000000,
Raw,1732146349000,18980000000,,674463.2648497114,-1416181548020999936,0.0,98.70063013242917,2071.703374809706,0.0,0,27,0.0,16431,344766920497024,51,35.900001525878906,865.0673244442758,0.14999,16,0.0,0.0,1575420030,,,,0,23.39286792088881,6,6.0,35.900001525878906,0.0,0.0,8.146438236555735,66.7128,C,25233044000000,
Raw,1732146349000,18980000000,,674463.2648497114,-1416181548020999936,0.0,98.70063013242917,2071.703374809706,0.0,0,8,0.0,17,597608,235,5.0,414.15778676409843,0.14999,16,0.0,0.0,1605374980,,,,0,15.569881269855859,3,6.0,28.0,0.0,0.0,33.73782146701546,66.7128,C,25233044000000,
Raw,1732146349000,18980000000,,674463.2648497114,-1416181548020999936,0.0,98.70063013242917,2071.703374809706,0.0,0,9,0.0,17,92187,74,5.0,746.4912597713152,0.14999,16,0.0,0.0,1600875010,,,,0,18.018171177315587,3,6.0,31.0,0.0,0.0,33.73782146701546,66.7128,C,25233044000000,
Raw,1732146349000,18980000000,,674463.2648497114,-1416181548020999936,0.0,98.70063013242917,2071.703374809706,0.0,0,20,0.0,17,101108,1797,5.0,-160.26368626161064,0.14999,16,0.0,0.0,1603124990,,,,0,0.0,3,6.0,14.0,0.0,0.0,33.73782146701546,66.7128,C,25233044000000,
Raw,1732146349000,18980000000,,674463.2648497114,-1416181548020999936,0.0,98.70063013242917,2071.703374809706,0.0,0,16,0.0,17,765725,487,5.0,1108.0462863176638,0.14999,16,0.0,0.0,1601437440,,,,0,3.0214939151323605,3,6.0,18.0,0.0,0.0,33.73782146701546,66.7128,C,25233044000000,
Raw,1732146349000,18980000000,,674463.2648497114,-1416181548020999936,0.0,98.70063013242917,2071.703374809706,0.0,0,2,0.0,16431,344766920449694,487,20.67099952697754,394.79549073431764,0.14999,16,0.0,0.0,1575420030,,,,0,3.03240583822336,1,6.0,20.67099952697754,0.0,0.0,0.0,66.7128,C,25233044000000,
Fix,FLP,37.4243888000,-122.1712534000,2.0,0.079812735,1.75,,1732146349196,0.9,,25233044000000,0.9405888,0,,,
Status,1732146349000,29,0,1,14,1575420030,41.10,318.0,74.0,1,0,0,36.1
Status,1732146349000,29,1,1,30,1575420030,44.40,73.0,70.0,1,0,0,39.4
Status,1732146349000,29,2,1,22,1575420030,40.20,270.0,59.0,1,0,0,35.2
Status,1732146349000,29,3,1,13,1575420030,43.10,303.0,47.0,1,0,0,38.1
Status,1732146349000,29,4,1,17,1575420030,39.10,176.0,44.0,1,0,0,34.1
Status,1732146349000,29,5,1,7,1575420030,38.50,103.0,38.0,1,0,0,33.5
Status,1732146349000,29,6,2,131,1575420030,38.00,3.0,23.0,0,0,0,33.0
Status,1732146349000,29,7,1,19,1575420030,43.30,193.0,17.0,1,0,0,38.3
Status,1732146349000,29,8,1,15,1575420030,30.90,316.0,17.0,1,0,0,25.9
Status,1732146349000,29,9,1,2,1575420030,25.70,88.0,16.0,1,0,0,20.7
Status,1732146349000,29,10,1,21,1575420030,0.00,69.0,13.0,0,0,0,0.0
Status,1732146349000,29,11,1,8,1575420030,0.00,39.0,9.0,0,0,0,0.0
Status,1732146349000,29,12,1,5,1575420030,0.00,263.0,7.0,0,0,0,0.0
Status,1732146349000,29,13,1,9,1575420030,0.00,159.0,1.0,0,0,0,0.0
Status,1732146349000,29,14,3,9,1602000000,44.80,16.0,54.0,1,0,0,39.8
Status,1732146349000,29,15,3,8,1602000000,34.90,304.0,38.0,1,0,0,29.900002
Status,1732146349000,29,16,3,16,1602000000,23.20,67.0,15.0,1,0,0,18.2
Status,1732146349000,29,17,3,20,1602000000,21.60,150.0,10.0,1,0,0,16.6
Status,1732146349000,29,18,3,11,1602000000,0.00,271.0,1.0,0,0,0,0.0
Status,1732146349000,29,19,3,17,1602000000,40.00,0.0,0.0,0,0,0,35.0
Status,1732146349000,29,20,6,29,1575420030,34.30,204.0,61.0,1,0,0,29.3
Status,1732146349000,29,21,6,27,1575420030,45.80,36.0,59.0,1,0,0,40.8
Status,1732146349000,29,22,6,21,1575420030,32.60,268.0,57.0,1,0,0,27.599998
Status,1732146349000,29,23,6,19,1575420030,33.10,298.0,50.0,1,0,0,28.099998
Status,1732146349000,29,24,6,7,1575420030,0.00,161.0,17.0,0,0,0,0.0
Status,1732146349000,29,25,6,30,1575420030,0.00,58.0,11.0,0,0,0,0.0
Status,1732146349000,29,26,6,15,1575420030,0.00,95.0,10.0,0,0,0,0.0
Status,1732146349000,29,27,6,34,1575420030,0.00,48.0,6.0,0,0,0,0.0
Status,1732146349000,29,28,6,13,1575420030,0.00,142.0,1.0,0,0,0,0.0
Fix,GPS,37.4243883333,-122.1712283333,15.000000000000004,0.56928277,1.7,97.19,1732146350000,0.9,59.6,25234044000000,38.2,0,,,
Raw,1732146350000,19980000000,,100.01964133719422,-1416181548020999936,0.0,100.01964133719422,2071.3715034710067,0.0,0,15,0.0,16431,344767922462872,396,25.91200065612793,127.2143865211768,0.14999,16,0.0,0.0,1575420030,,,,0,11.309194221732453,1,6.0,25.91200065612793,0.0,0.0,0.0,66.7128,C,25234044000000,
Raw,1732146350000,19980000000,,100.01964133719422,-1416181548020999936,0.0,100.01964133719422,2071.3715034710067,0.0,0,30,0.0,16431,344767932310866,42,39.41899871826172,700.8596342223823,0.14999,16,0.0,0.0,1575420030,,,,0,27.178975944128755,1,6.0,39.41899871826172,0.0,0.0,0.0,66.7128,C,25234044000000,
Raw,1732146350000,19980000000,,100.01964133719422,-1416181548020999936,0.0,100.01964133719422,2071.3715034710067,0.0,0,22,0.0,16431,344767930911512,58,35.23699951171875,453.55962639703847,0.14999,16,0.0,0.0,1575420030,,,,0,22.6255335024074,1,6.0,35.23699951171875,0.0,0.0,0.0,66.7128,C,25234044000000,
Raw,1732146350000,19980000000,,100.01964133719422,-1416181548020999936,0.0,100.01964133719422,2071.3715034710067,0.0,0,13,0.0,16431,344767930232974,51,38.143001556396484,306.5472180998218,0.14999,16,0.0,0.0,1575420030,,,,0,25.81005109468171,1,6.0,38.143001556396484,0.0,0.0,0.0,66.7128,C,25234044000000,
Raw,1732146350000,19980000000,,100.01964133719422,-1416181548020999936,0.0,100.01964133719422,2071.3715034710067,0.0,0,14,0.0,16431,344767933172671,51,36.11800003051758,600.7639544116208,0.14999,16,0.0,0.0,1575420030,,,,0,23.5975796694239,1,6.0,36.11800003051758,0.0,0.0,0.0,66.7128,C,25234044000000,
Raw,1732146350000,19980000000,,100.01964133719422,-1416181548020999936,0.0,100.01964133719422,2071.3715034710067,0.0,0,21,0.0,16431,344767920040818,235,27.600000381469727,440.10289968323985,0.14999,16,0.0,0.0,1575420030,,,,0,14.210101101363575,6,6.0,27.600000381469727,0.0,0.0,8.335840064110737,66.7128,C,25234044000000,
Raw,1732146350000,19980000000,,100.01964133719422,-1416181548020999936,0.0,100.01964133719422,2071.3715034710067,0.0,0,19,0.0,16431,344767920426240,235,28.100000381469727,423.46883542638625,0.14999,16,0.0,0.0,1575420030,,,,0,14.761354584617878,6,6.0,28.100000381469727,0.0,0.0,8.335840064110737,66.7128,C,25234044000000,
Raw,1732146350000,19980000000,,100.01964133719422,-1416181548020999936,0.0,100.01964133719422,2071.3715034710067,0.0,0,29,0.0,16431,344767921390258,74,29.299999237060547,899.9309278874852,0.14999,16,0.0,0.0,1575420030,,,,0,16.231910943232673,6,6.0,29.299999237060547,0.0,0.0,8.335840064110737,66.7128,C,25234044000000,
Raw,1732146350000,19980000000,,100.01964133719422,-1416181548020999936,0.0,100.01964133719422,2071.3715034710067,0.0,0,27,0.0,16431,344767920494142,31,40.79999923706055,865.1517858449465,0.14999,16,0.0,0.0,1575420030,,,,0,28.52964678419783,6,6.0,40.79999923706055,0.0,0.0,8.335840064110737,66.7128,C,25234044000000,
Raw,1732146350000,19980000000,,100.01964133719422,-1416181548020999936,0.0,100.01964133719422,2071.3715034710067,0.0,0,8,0.0,17,596232,74,5.0,414.43607752250523,0.14999,16,0.0,0.0,1605374980,,,,0,16.858332237761854,3,6.0,30.0,0.0,0.0,34.31760707542767,66.7128,C,25234044000000,
Raw,1732146350000,19980000000,,100.01964133719422,-1416181548020999936,0.0,100.01964133719422,2071.3715034710067,0.0,0,9,0.0,17,89694,42,5.0,746.6908719633215,0.14999,17,14854.32940663301,0.00022499999613501132,1600875010,,,,0,27.52200940399152,3,6.0,40.0,0.0,0.0,34.31760707542767,66.7128,C,25234044000000,
Raw,1732146350000,19980000000,,100.01964133719422,-1416181548020999936,0.0,100.01964133719422,2071.3715034710067,0.0,0,20,0.0,17,101645,487,5.0,-160.67303372421236,0.14999,16,0.0,0.0,1603124990,,,,0,2.426667817449138,3,6.0,20.0,0.0,0.0,34.31760707542767,66.7128,C,25234044000000,
Raw,1732146350000,19980000000,,100.01964133719422,-1416181548020999936,0.0,100.01964133719422,2071.3715034710067,0.0,0,16,0.0,17,762027,487,5.0,1107.6024125957977,0.14999,16,0.0,0.0,1601437440,,,,0,1.233485690546142,3,6.0,19.0,0.0,0.0,34.31760707542767,66.7128,C,25234044000000,
Raw,1732146350000,19980000000,,100.01964133719422,-1416181548020999936,0.0,100.01964133719422,2071.3715034710067,0.0,0,7,0.0,16431,344767927164230,58,33.54899978637695,966.9301894908536,0.14999,16,0.0,0.0,1575420030,,,,0,20.72453746418197,1,6.0,33.54899978637695,0.0,0.0,0.0,66.7128,C,25234044000000,
Raw,1732146350000,19980000000,,100.01964133719422,-1416181548020999936,0.0,100.01964133719422,2071.3715034710067,0.0,0,17,0.0,16431,344767929429022,58,34.0620002746582,124.61169312823003,0.14999,16,0.0,0.0,1575420030,,,,0,21.306288759741946,1,6.0,34.0620002746582,0.0,0.0,0.0,66.7128,C,25234044000000,
Raw,1732146350000,19980000000,,100.01964133719422,-1416181548020999936,0.0,100.01964133719422,2071.3715034710067,0.0,0,19,0.0,16431,344767920740993,51,38.31800079345703,-76.57336555761997,0.14999,16,0.0,0.0,1575420030,,,,0,26.000415061717355,1,6.0,38.31800079345703,0.0,0.0,0.0,66.7128,C,25234044000000,
Raw,1732146350000,19980000000,,100.01964133719422,-1416181548020999936,0.0,100.01964133719422,2071.3715034710067,0.0,0,2,0.0,16431,344767920448373,487,20.6560001373291,393.21753062772666,0.14999,16,0.0,0.0,1575420030,,,,0,2.933701484713117,1,6.0,20.6560001373291,0.0,0.0,0.0,66.7128,C,25234044000000,
Fix,FLP,37.4243887000,-122.1712409000,2.0,0.0667317,1.716,,1732146350196,0.9,,25234044000000,0.950378,0,,,
Status,1732146350000,29,0,1,14,1575420030,38.40,318.0,74.0,1,0,0,33.4
Status,1732146350000,29,1,1,30,1575420030,41.70,73.0,70.0,1,0,0,36.7
Status,1732146350000,29,2,1,22,1575420030,36.10,270.0,59.0,1,0,0,31.099998
Status,1732146350000,29,3,1,13,1575420030,38.60,303.0,47.0,1,0,0,33.6
Status,1732146350000,29,4,1,17,1575420030,44.00,176.0,44.0,1,0,0,39.0
Status,1732146350000,29,5,1,7,1575420030,35.90,103.0,38.0,1,0,0,30.900002
Status,1732146350000,29,6,2,131,1575420030,39.00,3.0,23.0,0,0,0,34.0
Status,1732146350000,29,7,1,19,1575420030,41.50,193.0,17.0,1,0,0,36.5
Status,1732146350000,29,8,1,15,1575420030,33.60,316.0,17.0,1,0,0,28.599998
Status,1732146350000,29,9,1,2,1575420030,29.70,88.0,16.0,1,0,0,24.7
Status,1732146350000,29,10,1,21,1575420030,0.00,69.0,13.0,0,0,0,0.0
Status,1732146350000,29,11,1,8,1575420030,0.00,39.0,9.0,0,0,0,0.0
Status,1732146350000,29,12,1,5,1575420030,24.70,263.0,7.0,1,0,0,19.7
Status,1732146350000,29,13,1,9,1575420030,0.00,159.0,1.0,0,0,0,0.0
Status,1732146350000,29,14,3,9,1602000000,45.90,16.0,54.0,1,0,0,40.9
Status,1732146350000,29,15,3,8,1602000000,34.10,304.0,38.0,1,0,0,29.099998
Status,1732146350000,29,16,3,16,1602000000,22.40,67.0,15.0,1,0,0,17.4
Status,1732146350000,29,17,3,20,1602000000,25.10,150.0,10.0,1,0,0,20.1
Status,1732146350000,29,18,3,11,1602000000,0.00,271.0,1.0,0,0,0,0.0
Status,1732146350000,29,19,3,17,1602000000,34.40,0.0,0.0,0,0,0,29.400002
Status,1732146350000,29,20,6,29,1575420030,32.00,204.0,61.0,1,0,0,27.0
Status,1732146350000,29,21,6,27,1575420030,41.90,36.0,59.0,1,0,0,36.9
Status,1732146350000,29,22,6,21,1575420030,32.20,268.0,57.0,1,0,0,27.2
Status,1732146350000,29,23,6,19,1575420030,30.10,298.0,50.0,1,0,0,25.1
Status,1732146350000,29,24,6,7,1575420030,0.00,161.0,17.0,0,0,0,0.0
Status,1732146350000,29,25,6,30,1575420030,0.00,58.0,11.0,0,0,0,0.0
Status,1732146350000,29,26,6,15,1575420030,0.00,95.0,10.0,0,0,0,0.0
Status,1732146350000,29,27,6,34,1575420030,0.00,48.0,6.0,0,0,0,0.0
Status,1732146350000,29,28,6,13,1575420030,0.00,142.0,1.0,0,0,0,0.0
Fix,GPS,37.4243833333,-122.1712216667,15.2,0.5512675,1.7,103.56,1732146351000,0.9,57.7,25235044000000,38.2,0,,,
Raw,1732146351000,20980000000,,100.22659196144282,-1416181548020999936,0.0,100.22659196144282,2074.32557304603,0.0,0,15,0.0,16431,344768922462445,235,28.63599967956543,126.62394650955709,0.14999,16,0.0,0.0,1575420030,,,,0,14.862501458471195,1,6.0,28.63599967956543,0.0,0.0,0.0,66.7128,C,25235044000000,
Raw,1732146351000,20980000000,,100.22659196144282,-1416181548020999936,0.0,100.22659196144282,2074.32557304603,0.0,0,30,0.0,16431,344768932308521,51,36.74100112915039,701.5815515518779,0.14999,16,0.0,0.0,1575420030,,,,0,24.28680675785444,1,6.0,36.74100112915039,0.0,0.0,0.0,66.7128,C,25235044000000,
Raw,1732146351000,20980000000,,100.22659196144282,-1416181548020999936,0.0,100.22659196144282,2074.32557304603,0.0,0,22,0.0,16431,344768930909994,74,31.097999572753906,453.28319882058577,0.14999,16,0.0,0.0,1575420030,,,,0,17.87083178536269,1,6.0,31.097999572753906,0.0,0.0,0.0,66.7128,C,25235044000000,
Raw,1732146351000,20980000000,,100.22659196144282,-1416181548020999936,0.0,100.22659196144282,2074.32557304603,0.0,0,13,0.0,16431,344768930231949,58,33.63199996948242,307.3639570568031,0.14999,16,0.0,0.0,1575420030,,,,0,20.81368960677748,1,6.0,33.63199996948242,0.0,0.0,0.0,66.7128,C,25235044000000,
Raw,1732146351000,20980000000,,100.22659196144282,-1416181548020999936,0.0,100.22659196144282,2074.32557304603,0.0,0,14,0.0,16431,344768933170654,58,33.41400146484375,601.9839524213096,0.14999,16,0.0,0.0,1575420030,,,,0,20.569543499264412,1,6.0,33.41400146484375,0.0,0.0,0.0,66.7128,C,25235044000000,
Raw,1732146351000,20980000000,,100.22659196144282,-1416181548020999936,0.0,100.22659196144282,2074.32557304603,0.0,0,21,0.0,16431,344768920039347,74,27.200000762939453,441.1375286122485,0.14999,16,0.0,0.0,1575420030,,,,0,13.765286363644735,6,6.0,27.200000762939453,0.0,0.0,8.334680299877304,66.7128,C,25235044000000,
Raw,1732146351000,20980000000,,100.22659196144282,-1416181548020999936,0.0,100.22659196144282,2074.32557304603,0.0,0,19,0.0,16431,344768920424823,316,25.100000381469727,424.5226981397061,0.14999,16,0.0,0.0,1575420030,,,,0,11.194904551243864,6,6.0,25.100000381469727,0.0,0.0,8.334680299877304,66.7128,C,25235044000000,
Raw,1732146351000,20980000000,,100.22659196144282,-1416181548020999936,0.0,100.22659196144282,2074.32557304603,0.0,0,29,0.0,16431,344768921387252,235,27.0,901.2700452763377,0.14999,16,0.0,0.0,1575420030,,,,0,13.47524640672926,6,6.0,27.0,0.0,0.0,8.334680299877304,66.7128,C,25235044000000,
Raw,1732146351000,20980000000,,100.22659196144282,-1416181548020999936,0.0,100.22659196144282,2074.32557304603,0.0,0,27,0.0,16431,344768920491256,51,36.900001525878906,866.3647221753713,0.14999,16,0.0,0.0,1575420030,,,,0,24.446725909942145,6,6.0,36.900001525878906,0.0,0.0,8.334680299877304,66.7128,C,25235044000000,
