# 
# Header Description:
# 
# Version: v3.1.0.3 Platform: 13 Manufacturer: samsung Model: SM-S135DL GNSS Hardware Model Name: MediaTek,MT6631,MTK_MNLD_default,MNL_VER_default
# 
# Raw,utcTimeMillis,TimeNanos,LeapSecond,TimeUncertaintyNanos,FullBiasNanos,BiasNanos,BiasUncertaintyNanos,DriftNanosPerSecond,DriftUncertaintyNanosPerSecond,HardwareClockDiscontinuityCount,Svid,TimeOffsetNanos,State,ReceivedSvTimeNanos,ReceivedSvTimeUncertaintyNanos,Cn0DbHz,PseudorangeRateMetersPerSecond,PseudorangeRateUncertaintyMetersPerSecond,AccumulatedDeltaRangeState,AccumulatedDeltaRangeMeters,AccumulatedDeltaRangeUncertaintyMeters,CarrierFrequencyHz,CarrierCycles,CarrierPhase,CarrierPhaseUncertainty,MultipathIndicator,SnrInDb,ConstellationType,AgcDb,BasebandCn0DbHz,FullInterSignalBiasNanos,FullInterSignalBiasUncertaintyNanos,SatelliteInterSignalBiasNanos,SatelliteInterSignalBiasUncertaintyNanos,CodeType,ChipsetElapsedRealtimeNanos,IsFullTracking
# 
# UncalAccel,utcTimeMillis,elapsedRealtimeNanos,UncalAccelXMps2,UncalAccelYMps2,UncalAccelZMps2,BiasXMps2,BiasYMps2,BiasZMps2
# 
# Accel,utcTimeMillis,elapsedRealtimeNanos,AccelXMps2,AccelYMps2,AccelZMps2
# 
# UncalGyro,utcTimeMillis,elapsedRealtimeNanos,UncalGyroXRadPerSec,UncalGyroYRadPerSec,UncalGyroZRadPerSec,DriftXRadPerSec,DriftYRadPerSec,DriftZRadPerSec
# 
# Gyro,utcTimeMillis,elapsedRealtimeNanos,GyroXRadPerSec,GyroYRadPerSec,GyroZRadPerSec
# 
# UncalMag,utcTimeMillis,elapsedRealtimeNanos,UncalMagXMicroT,UncalMagYMicroT,UncalMagZMicroT,BiasXMicroT,BiasYMicroT,BiasZMicroT
# 
# Mag,utcTimeMillis,elapsedRealtimeNanos,MagXMicroT,MagYMicroT,MagZMicroT
# 
# Pressure,utcTimeMillis,elapsedRealtimeNanos,PressureHpa
# 
# OrientationDeg,utcTimeMillis,elapsedRealtimeNanos,yawDeg,rollDeg,pitchDeg
# 
# Fix,Provider,LatitudeDegrees,LongitudeDegrees,AltitudeMeters,SpeedMps,AccuracyMeters,BearingDegrees,UnixTimeMillis,SpeedAccuracyMps,BearingAccuracyDegrees,elapsedRealtimeNanos,VerticalAccuracyMeters,MockLocation,NumberOfUsedSignals,VerticalSpeedAccuracyMps,SolutionType
# 
# Nav,Svid,Type,Status,MessageId,Sub-messageId,Data(Bytes)
# 
# Status,UnixTimeMillis,SignalCount,SignalIndex,ConstellationType,Svid,CarrierFrequencyHz,Cn0DbHz,AzimuthDegrees,ElevationDegrees,UsedInFix,HasAlmanacData,HasEphemerisData,BasebandCn0DbHz
# 
# Agc,utcTimeMillis,TimeNanos,LeapSecond,TimeUncertaintyNanos,FullBiasNanos,BiasNanos,BiasUncertaintyNanos,DriftNanosPerSecond,DriftUncertaintyNanosPerSecond,HardwareClockDiscontinuityCount,AgcDb,CarrierFrequencyHz,ConstellationType
# 
Fix,FLP,37.4243857000,-122.1712621000,2.200000047683716,0.19055773,1.6,264.733,1732146162195,1.4,179.9,25046042000000,0.9685331,0,,,
Status,,28,0,1,14,1575420030,46.10,313.0,74.0,1,0,0,41.1
Status,,28,1,1,30,1575420030,45.50,69.0,71.0,1,0,0,40.5
Status,,28,2,1,22,1575420030,45.50,268.0,58.0,1,0,0,40.5
Status,,28,3,1,13,1575420030,46.70,305.0,46.0,1,0,0,41.7
Status,,28,4,1,17,1575420030,35.60,176.0,43.0,1,0,0,30.599998
Status,,28,5,1,7,1575420030,47.70,101.0,39.0,1,0,0,42.7
Status,,28,6,2,131,1575420030,40.00,2.0,24.0,0,0,0,35.0
Status,,28,7,1,2,1575420030,26.20,89.0,16.0,1,0,0,21.2
Status,,28,8,1,19,1575420030,34.30,193.0,16.0,1,0,0,29.3
Status,,28,9,1,15,1575420030,46.20,317.0,16.0,1,0,0,41.2
Status,,28,10,1,21,1575420030,22.70,70.0,13.0,0,0,0,17.7
Status,,28,11,1,8,1575420030,0.00,40.0,10.0,0,0,0,0.0
Status,,28,12,1,5,1575420030,0.00,264.0,7.0,0,0,0,0.0
Status,,28,13,1,9,1575420030,0.00,159.0,2.0,0,0,0,0.0
Status,,28,14,3,9,1602000000,39.70,13.0,54.0,1,0,0,34.7
Status,,28,15,3,8,1602000000,31.70,306.0,38.0,1,0,0,26.7
Status,,28,16,3,19,1602000000,29.50,89.0,31.0,1,0,0,24.5
Status,,28,17,3,16,1602000000,0.00,65.0,16.0,0,0,0,0.0
Status,,28,18,3,20,1602000000,19.50,150.0,8.0,1,0,0,14.5
Status,,28,19,3,17,1602000000,46.00,0.0,0.0,0,0,0,41.0
Status,,28,20,6,29,1575420030,0.00,206.0,63.0,0,0,0,0.0
Status,,28,21,6,27,1575420030,42.50,35.0,60.0,1,0,0,37.5
Status,,28,22,6,21,1575420030,30.10,266.0,56.0,1,0,0,25.1
Status,,28,23,6,19,1575420030,30.90,299.0,50.0,1,0,0,25.9
Status,,28,24,6,7,1575420030,0.00,160.0,18.0,0,0,0,0.0
Status,,28,25,6,30,1575420030,0.00,57.0,12.0,0,0,0,0.0
Status,,28,26,6,15,1575420030,0.00,96.0,10.0,0,0,0,0.0
Status,,28,27,6,34,1575420030,0.00,49.0,6.0,0,0,0,0.0
Fix,GPS,37.4243783333,-122.1712533333,14.3,0.16265222,1.7,65.8,1732146163000,1.0,179.9,25047042000000,34.0,0,,,
Fix,FLP,37.4243823000,-122.1712580000,2.200000047683716,0.06506452,1.616,,1732146163194,1.0,,25047042000000,0.9784849,0,,,
Raw,1732146163000,12901000000,,683691.9930954367,-1416181368099000064,0.0,85.06436032912025,1901.828025381142,0.0,0,30,0.0,16431,344580931483027,42,40.459999084472656,636.4744947823484,0.14999,17,8148.412353196765,0.00022499999613501132,1575420030,,,,0,28.29187948444668,1,6.0,40.459999084472656,0.0,0.0,0.0,66.7128,C,25047042000000,
Raw,1732146163000,12901000000,,683691.9930954367,-1416181368099000064,0.0,85.06436032912025,1901.828025381142,0.0,0,17,0.0,16431,344580928241371,74,30.586000442504883,58.785274242096634,0.14999,17,1022.99315843194,0.0006249999860301614,1575420030,,,,0,17.263308050447193,1,6.0,30.586000442504883,0.0,0.0,0.0,66.7128,C,25047042000000,
Raw,1732146163000,12901000000,,683691.9930954367,-1416181368099000064,0.0,85.06436032912025,1901.828025381142,0.0,0,22,0.0,16431,344580929928881,42,40.459999084472656,388.4510829581903,0.14999,16,0.0,0.0,1575420030,,,,0,28.29187948444668,1,6.0,40.459999084472656,0.0,0.0,0.0,66.7128,C,25047042000000,
Raw,1732146163000,12901000000,,683691.9930954367,-1416181368099000064,0.0,85.06436032912025,1901.828025381142,0.0,0,21,0.0,17,817059,1797,17.667999267578125,521.4756519274895,0.14999,16,0.0,0.0,1575420030,,,,0,0.0,1,6.0,17.667999267578125,0.0,0.0,0.0,66.7128,C,25047042000000,
Raw,1732146163000,12901000000,,683691.9930954367,-1416181368099000064,0.0,85.06436032912025,1901.828025381142,0.0,0,14,0.0,16431,344580932282733,42,41.11000061035156,537.5240613895929,0.14999,16,0.0,0.0,1575420030,,,,0,28.98155710029425,1,6.0,41.11000061035156,0.0,0.0,0.0,66.7128,C,25047042000000,
Raw,1732146163000,12901000000,,683691.9930954367,-1416181368099000064,0.0,85.06436032912025,1901.828025381142,0.0,0,15,0.0,16431,344580921275174,42,41.24300003051758,57.73261944759826,0.14999,16,0.0,0.0,1575420030,,,,0,29.11900269775431,1,6.0,41.24300003051758,0.0,0.0,0.0,66.7128,C,25047042000000,
Raw,1732146163000,12901000000,,683691.9930954367,-1416181368099000064,0.0,85.06436032912025,1901.828025381142,0.0,0,21,0.0,16431,344580919051867,316,25.100000381469727,380.8274426917058,0.14999,16,0.0,0.0,1575420030,,,,0,11.156471348546438,6,6.0,25.100000381469727,0.0,0.0,12.051867309215256,66.7128,C,25047042000000,
Raw,1732146163000,12901000000,,683691.9930954367,-1416181368099000064,0.0,85.06436032912025,1901.828025381142,0.0,0,19,0.0,16431,344580919424376,235,25.899999618530273,356.8344349947273,0.14999,16,0.0,0.0,1575420030,,,,0,12.207296157722402,6,6.0,25.899999618530273,0.0,0.0,12.051867309215256,66.7128,C,25047042000000,
Raw,1732146163000,12901000000,,683691.9930954367,-1416181368099000064,0.0,85.06436032912025,1901.828025381142,0.0,0,27,0.0,16431,344580919771459,42,37.54499816894531,809.2024727035898,0.14999,17,10002.789806677882,0.00022499999613501132,1575420030,,,,0,26.007386081062695,6,6.0,37.54499816894531,0.0,0.0,12.051867309215256,66.7128,C,25047042000000,
Raw,1732146163000,12901000000,,683691.9930954367,-1416181368099000064,0.0,85.06436032912025,1901.828025381142,0.0,0,9,0.0,17,292001,58,5.0,687.5382722978278,0.14999,16,0.0,0.0,1600875010,,,,0,22.11109568480216,3,6.0,35.0,0.0,0.0,48.67584222389945,66.7128,C,25047042000000,
Raw,1732146163000,12901000000,,683691.9930954367,-1416181368099000064,0.0,85.06436032912025,1901.828025381142,0.0,0,19,0.0,17,604440,396,5.0,236.22453348969523,0.14999,16,0.0,0.0,1603687550,,,,0,7.414852440293836,3,6.0,23.0,0.0,0.0,48.67584222389945,66.7128,C,25047042000000,
Raw,1732146163000,12901000000,,683691.9930954367,-1416181368099000064,0.0,85.06436032912025,1901.828025381142,0.0,0,20,0.0,17,740268,797,5.0,-209.70460522446638,0.14999,16,0.0,0.0,1603124990,,,,0,0.0,3,6.0,15.0,0.0,0.0,48.67584222389945,66.7128,C,25047042000000,
Raw,1732146163000,12901000000,,683691.9930954367,-1416181368099000064,0.0,85.06436032912025,1901.828025381142,0.0,0,8,0.0,17,583737,316,5.0,332.13507347647715,0.14999,16,0.0,0.0,1605374980,,,,0,13.106439245892743,3,6.0,25.0,0.0,0.0,48.67584222389945,66.7128,C,25047042000000,
Raw,1732146163000,12901000000,,683691.9930954367,-1416181368099000064,0.0,85.06436032912025,1901.828025381142,0.0,0,19,0.0,16431,344580919431400,235,29.32699966430664,-130.1328113106904,0.14999,16,0.0,0.0,1575420030,,,,0,15.723431270084838,1,6.0,29.32699966430664,0.0,0.0,0.0,66.7128,C,25047042000000,
Raw,1732146163000,12901000000,,683691.9930954367,-1416181368099000064,0.0,85.06436032912025,1901.828025381142,0.0,0,13,0.0,16431,344580929156472,31,41.691001892089844,234.27297500307643,0.14999,16,0.0,0.0,1575420030,,,,0,29.592852915052582,1,6.0,41.691001892089844,0.0,0.0,0.0,66.7128,C,25047042000000,
Raw,1732146163000,12901000000,,683691.9930954367,-1416181368099000064,0.0,85.06436032912025,1901.828025381142,0.0,0,2,0.0,16431,344580919428563,396,21.20800018310547,328.1603934264155,0.14999,16,0.0,0.0,1575420030,,,,0,6.796193451802349,1,6.0,21.20800018310547,0.0,0.0,0.0,66.7128,C,25047042000000,
Raw,1732146163000,12901000000,,683691.9930954367,-1416181368099000064,0.0,85.06436032912025,1901.828025381142,0.0,0,7,0.0,16431,344580926503284,31,42.74599838256836,905.24075319302,0.14999,16,0.0,0.0,1575420030,,,,0,30.69978624066588,1,6.0,42.74599838256836,0.0,0.0,0.0,66.7128,C,25047042000000,
Status,1732146163000,28,0,1,14,1575420030,46.80,313.0,74.0,1,0,0,41.8
Status,1732146163000,28,1,1,30,1575420030,48.20,69.0,71.0,1,0,0,43.2
Status,1732146163000,28,2,1,22,1575420030,43.80,268.0,58.0,1,0,0,38.8
Status,1732146163000,28,3,1,13,1575420030,45.80,305.0,46.0,1,0,0,40.8
Status,1732146163000,28,4,1,17,1575420030,37.80,176.0,43.0,1,0,0,32.8
Status,1732146163000,28,5,1,7,1575420030,46.60,101.0,39.0,1,0,0,41.6
Status,1732146163000,28,6,2,131,1575420030,39.00,2.0,24.0,0,0,0,34.0
Status,1732146163000,28,7,1,2,1575420030,26.20,89.0,16.0,0,0,0,21.2
Status,1732146163000,28,8,1,19,1575420030,37.50,193.0,16.0,1,0,0,32.5
Status,1732146163000,28,9,1,15,1575420030,45.30,317.0,16.0,1,0,0,40.3
Status,1732146163000,28,10,1,21,1575420030,22.60,70.0,13.0,0,0,0,17.6
Status,1732146163000,28,11,1,8,1575420030,0.00,40.0,10.0,0,0,0,0.0
Status,1732146163000,28,12,1,5,1575420030,0.00,264.0,7.0,0,0,0,0.0
Status,1732146163000,28,13,1,9,1575420030,0.00,159.0,2.0,0,0,0,0.0
Status,1732146163000,28,14,3,9,1602000000,38.00,13.0,54.0,1,0,0,33.0
Status,1732146163000,28,15,3,8,1602000000,29.90,306.0,38.0,1,0,0,24.9
Status,1732146163000,28,16,3,19,1602000000,29.40,89.0,31.0,1,0,0,24.4
Status,1732146163000,28,17,3,16,1602000000,0.00,65.0,16.0,0,0,0,0.0
Status,1732146163000,28,18,3,20,1602000000,0.00,150.0,8.0,0,0,0,0.0
Status,1732146163000,28,19,3,17,1602000000,34.10,0.0,0.0,0,0,0,29.099998
Status,1732146163000,28,20,6,29,1575420030,0.00,206.0,63.0,0,0,0,0.0
Status,1732146163000,28,21,6,27,1575420030,39.70,35.0,60.0,1,0,0,34.7
Status,1732146163000,28,22,6,21,1575420030,24.70,266.0,56.0,1,0,0,19.7
Status,1732146163000,28,23,6,19,1575420030,29.30,299.0,50.0,1,0,0,24.3
Status,1732146163000,28,24,6,7,1575420030,0.00,160.0,18.0,0,0,0,0.0
Status,1732146163000,28,25,6,30,1575420030,0.00,57.0,12.0,0,0,0,0.0
Status,1732146163000,28,26,6,15,1575420030,0.00,96.0,10.0,0,0,0,0.0
Status,1732146163000,28,27,6,34,1575420030,0.00,49.0,6.0,0,0,0,0.0
Fix,GPS,37.4243783333,-122.1712516667,14.2,0.1621375,1.6,66.04,1732146164000,0.8,179.9,25048042000000,33.7,0,,,
Fix,FLP,37.4243807000,-122.1712545000,2.200000047683716,0.1370108,1.616,64.72099,1732146164194,0.8,179.9,25048042000000,0.98850054,0,,,
Raw,1732146164000,13901000000,,84.56719657387372,-1416181368099000064,0.0,84.56719657387372,1902.0827271865555,0.0,0,30,0.0,16431,344581931480905,31,43.21900177001953,636.6399332024741,0.14999,17,8785.190447921748,0.00022499999613501132,1575420030,,,,0,31.192986924646373,1,6.0,43.21900177001953,0.0,0.0,0.0,66.7128,C,25048042000000,
Raw,1732146164000,13901000000,,84.56719657387372,-1416181368099000064,0.0,84.56719657387372,1902.0827271865555,0.0,0,17,0.0,16431,344581928241178,58,32.8380012512207,58.819885762173485,0.14999,16,0.0,0.0,1575420030,,,,0,19.906279662900918,1,6.0,32.8380012512207,0.0,0.0,0.0,66.7128,C,25048042000000,
Raw,1732146164000,13901000000,,84.56719657387372,-1416181368099000064,0.0,84.56719657387372,1902.0827271865555,0.0,0,22,0.0,16431,344581929927579,42,38.76499938964844,388.6797048243624,0.14999,17,5369.453478817672,0.00022499999613501132,1575420030,,,,0,26.48195769310859,1,6.0,38.76499938964844,0.0,0.0,0.0,66.7128,C,25048042000000,
Raw,1732146164000,13901000000,,84.56719657387372,-1416181368099000064,0.0,84.56719657387372,1902.0827271865555,0.0,0,21,0.0,17,815323,797,17.610000610351562,520.4005577179614,0.14999,16,0.0,0.0,1575420030,,,,0,0.0,1,6.0,17.610000610351562,0.0,0.0,0.0,66.7128,C,25048042000000,
Raw,1732146164000,13901000000,,84.56719657387372,-1416181368099000064,0.0,84.56719657387372,1902.0827271865555,0.0,0,14,0.0,16431,344581932280940,31,41.77899932861328,537.7400001081395,0.14999,17,7421.730849590417,0.00022499999613501132,1575420030,,,,0,29.684598047274573,1,6.0,41.77899932861328,0.0,0.0,0.0,66.7128,C,25048042000000,
Raw,1732146164000,13901000000,,84.56719657387372,-1416181368099000064,0.0,84.56719657387372,1902.0827271865555,0.0,0,15,0.0,16431,344581921274984,42,40.33399963378906,58.075389642399614,0.14999,17,5891.060256721264,0.00022499999613501132,1575420030,,,,0,28.156918881776125,1,6.0,40.33399963378906,0.0,0.0,0.0,66.7128,C,25048042000000,
Raw,1732146164000,13901000000,,84.56719657387372,-1416181368099000064,0.0,84.56719657387372,1902.0827271865555,0.0,0,21,0.0,16431,344581919050603,396,19.700000762939453,381.0726037540488,0.14999,16,0.0,0.0,1575420030,,,,0,3.7840866911427025,6,6.0,19.700000762939453,0.0,0.0,8.10231195977906,66.7128,C,25048042000000,
Raw,1732146164000,13901000000,,84.56719657387372,-1416181368099000064,0.0,84.56719657387372,1902.0827271865555,0.0,0,19,0.0,16431,344581919423187,316,24.299999237060547,357.0222199130503,0.14999,16,0.0,0.0,1575420030,,,,0,10.2220409752806,6,6.0,24.299999237060547,0.0,0.0,8.10231195977906,66.7128,C,25048042000000,
Raw,1732146164000,13901000000,,84.56719657387372,-1416181368099000064,0.0,84.56719657387372,1902.0827271865555,0.0,0,27,0.0,16431,344581919768764,51,34.70000076293945,809.3243795877262,0.14999,17,10812.310531147119,0.00022499999613501132,1575420030,,,,0,22.16076714937322,6,6.0,34.70000076293945,0.0,0.0,8.10231195977906,66.7128,C,25048042000000,
Raw,1732146164000,13901000000,,84.56719657387372,-1416181368099000064,0.0,84.56719657387372,1902.0827271865555,0.0,0,9,0.0,17,289713,58,5.0,687.8285923663664,0.14999,16,0.0,0.0,1600875010,,,,0,20.300591461234774,3,6.0,33.0,0.0,0.0,48.80193050260631,66.7128,C,25048042000000,
Raw,1732146164000,13901000000,,84.56719657387372,-1416181368099000064,0.0,84.56719657387372,1902.0827271865555,0.0,0,19,0.0,17,603646,396,5.0,236.94853591962405,0.14999,16,0.0,0.0,1603687550,,,,0,8.596704003791118,3,6.0,23.0,0.0,0.0,48.80193050260631,66.7128,C,25048042000000,
Raw,1732146164000,13901000000,,84.56719657387372,-1416181368099000064,0.0,84.56719657387372,1902.0827271865555,0.0,0,8,0.0,17,582630,316,5.0,332.4069814193242,0.14999,16,0.0,0.0,1605374980,,,,0,11.020599913279625,3,6.0,25.0,0.0,0.0,48.80193050260631,66.7128,C,25048042000000,
Raw,1732146164000,13901000000,,84.56719657387372,-1416181368099000064,0.0,84.56719657387372,1902.0827271865555,0.0,0,19,0.0,16431,344581919431834,74,32.540000915527344,-130.06814119532532,0.14999,16,0.0,0.0,1575420030,,,,0,19.56195489007905,1,6.0,32.540000915527344,0.0,0.0,0.0,66.7128,C,25048042000000,
Raw,1732146164000,13901000000,,84.56719657387372,-1416181368099000064,0.0,84.56719657387372,1902.0827271865555,0.0,0,13,0.0,16431,344581929155696,42,40.79800033569336,234.56524489945693,0.14999,17,3684.4462676845956,0.00022499999613501132,1575420030,,,,0,28.648704346485154,1,6.0,40.79800033569336,0.0,0.0,0.0,66.7128,C,25048042000000,
Raw,1732146164000,13901000000,,84.56719657387372,-1416181368099000064,0.0,84.56719657387372,1902.0827271865555,0.0,0,2,0.0,17,427464,487,21.160999298095703,328.7781742159751,0.14999,16,0.0,0.0,1575420030,,,,0,2.732862718830304,1,6.0,21.160999298095703,0.0,0.0,0.0,66.7128,C,25048042000000,
Raw,1732146164000,13901000000,,84.56719657387372,-1416181368099000064,0.0,84.56719657387372,1902.0827271865555,0.0,0,7,0.0,16431,344581926500262,31,41.630001068115234,905.3553196473952,0.14999,17,12040.191860419747,0.00022499999613501132,1575420030,,,,0,29.52804981407162,1,6.0,41.630001068115234,0.0,0.0,0.0,66.7128,C,25048042000000,
Status,1732146164000,28,0,1,14,1575420030,43.70,313.0,74.0,1,0,0,38.7
Status,1732146164000,28,1,1,30,1575420030,48.30,69.0,71.0,1,0,0,43.3
Status,1732146164000,28,2,1,22,1575420030,43.70,268.0,58.0,1,0,0,38.7
Status,1732146164000,28,3,1,13,1575420030,41.70,305.0,46.0,1,0,0,36.7
Status,1732146164000,28,4,1,17,1575420030,44.00,176.0,43.0,1,0,0,39.0
Status,1732146164000,28,5,1,7,1575420030,46.50,101.0,39.0,1,0,0,41.5
Status,1732146164000,28,6,2,131,1575420030,41.00,2.0,24.0,0,0,0,36.0
Status,1732146164000,28,7,1,2,1575420030,0.00,89.0,16.0,0,0,0,0.0
Status,1732146164000,28,8,1,19,1575420030,41.80,193.0,16.0,1,0,0,36.8
Status,1732146164000,28,9,1,15,1575420030,42.00,317.0,16.0,1,0,0,37.0
Status,1732146164000,28,10,1,21,1575420030,21.50,70.0,13.0,0,0,0,16.5
Status,1732146164000,28,11,1,8,1575420030,0.00,40.0,10.0,0,0,0,0.0
Status,1732146164000,28,12,1,5,1575420030,0.00,264.0,7.0,0,0,0,0.0
Status,1732146164000,28,13,1,9,1575420030,0.00,159.0,2.0,0,0,0,0.0
Status,1732146164000,28,14,3,9,1602000000,33.50,13.0,54.0,1,0,0,28.5
Status,1732146164000,28,15,3,8,1602000000,36.50,306.0,38.0,1,0,0,31.5
Status,1732146164000,28,16,3,19,1602000000,29.40,89.0,31.0,1,0,0,24.4
Status,1732146164000,28,17,3,16,1602000000,0.00,65.0,16.0,0,0,0,0.0
Status,1732146164000,28,18,3,20,1602000000,0.00,150.0,8.0,0,0,0,0.0
Status,1732146164000,28,19,3,17,1602000000,42.30,0.0,0.0,0,0,0,37.3
Status,1732146164000,28,20,6,29,1575420030,0.00,206.0,63.0,0,0,0,0.0
Status,1732146164000,28,21,6,27,1575420030,42.90,35.0,60.0,1,0,0,37.9
Status,1732146164000,28,22,6,21,1575420030,41.70,266.0,56.0,1,0,0,36.7
Status,1732146164000,28,23,6,19,1575420030,34.80,299.0,50.0,1,0,0,29.8
Status,1732146164000,28,24,6,7,1575420030,0.00,160.0,18.0,0,0,0,0.0
Status,1732146164000,28,25,6,30,1575420030,0.00,57.0,12.0,0,0,0,0.0
Status,1732146164000,28,26,6,15,1575420030,0.00,96.0,10.0,0,0,0,0.0
Status,1732146164000,28,27,6,34,1575420030,0.00,49.0,6.0,0,0,0,0.0
Fix,GPS,37.4243816667,-122.1712483333,14.2,0.5656797,1.6,63.24,1732146165000,0.7,50.6,25049042000000,32.2,0,,,
Fix,FLP,37.4243817000,-122.1712501000,2.200000047683716,0.4561969,1.633,62.228935,1732146165194,0.7,50.6,25049042000000,1.0025812,0,,,
Raw,1732146165000,14901000000,,80.4171010838769,-1416181368099000064,0.0,80.4171010838769,1901.5705244923638,0.0,0,30,0.0,16431,344582931478783,28,43.2760009765625,636.3615543725406,0.14999,17,9421.807729742668,0.00022499999613501132,1575420030,,,,0,32.39133685965882,1,6.0,43.2760009765625,0.0,0.0,0.0,66.7128,C,25049042000000,
Raw,1732146165000,14901000000,,80.4171010838769,-1416181368099000064,0.0,80.4171010838769,1901.5705244923638,0.0,0,17,0.0,16431,344582928240983,42,38.95500183105469,59.12451359726599,0.14999,17,1140.8841044798783,0.00022499999613501132,1575420030,,,,0,26.68411590144238,1,6.0,38.95500183105469,0.0,0.0,0.0,66.7128,C,25049042000000,
Raw,1732146165000,14901000000,,80.4171010838769,-1416181368099000064,0.0,80.4171010838769,1901.5705244923638,0.0,0,22,0.0,16431,344582929926282,51,38.65999984741211,389.2631993027586,0.14999,17,5758.376524115191,0.00022499999613501132,1575420030,,,,0,24.218581451654146,1,6.0,38.65999984741211,0.0,0.0,0.0,66.7128,C,25049042000000,
Raw,1732146165000,14901000000,,80.4171010838769,-1416181368099000064,0.0,80.4171010838769,1901.5705244923638,0.0,0,21,0.0,17,813585,797,16.509000778198242,522.7022470322801,0.14999,16,0.0,0.0,1575420030,,,,0,0.0,1,6.0,16.509000778198242,0.0,0.0,0.0,66.7128,C,25049042000000,
Raw,1732146165000,14901000000,,80.4171010838769,-1416181368099000064,0.0,80.4171010838769,1901.5705244923638,0.0,0,14,0.0,16431,344582932279145,42,38.68000030517578,538.0193081063973,0.14999,17,7959.558943566645,0.00022499999613501132,1575420030,,,,0,26.389095063698093,1,6.0,38.68000030517578,0.0,0.0,0.0,66.7128,C,25049042000000,
Raw,1732146165000,14901000000,,80.4171010838769,-1416181368099000064,0.0,80.4171010838769,1901.5705244923638,0.0,0,19,0.0,16431,344582919432280,51,36.79100036621094,-129.40643397323865,0.14999,16,0.0,0.0,1575420030,,,,0,24.337626344881706,1,6.0,36.79100036621094,0.0,0.0,0.0,66.7128,C,25049042000000,
Raw,1732146165000,14901000000,,80.4171010838769,-1416181368099000064,0.0,80.4171010838769,1901.5705244923638,0.0,0,13,0.0,16431,344582929154926,235,36.70500183105469,234.57016949157523,0.14999,16,0.0,0.0,1575420030,,,,0,24.244228782212,1,6.0,36.70500183105469,0.0,0.0,0.0,66.7128,C,25049042000000,
Raw,1732146165000,14901000000,,80.4171010838769,-1416181368099000064,0.0,80.4171010838769,1901.5705244923638,0.0,0,15,0.0,16431,344582921274789,51,36.972999572753906,57.97415675347685,0.14999,17,5949.233087084363,0.00022499999613501132,1575420030,,,,0,24.537982514420968,1,6.0,36.972999572753906,0.0,0.0,0.0,66.7128,C,25049042000000,
Raw,1732146165000,14901000000,,80.4171010838769,-1416181368099000064,0.0,80.4171010838769,1901.5705244923638,0.0,0,21,0.0,16431,344582919049332,51,36.70000076293945,381.22389558643846,0.14999,16,0.0,0.0,1575420030,,,,0,24.261285026550027,6,6.0,36.70000076293945,0.0,0.0,6.044013761230645,66.7128,C,25049042000000,
Raw,1732146165000,14901000000,,80.4171010838769,-1416181368099000064,0.0,80.4171010838769,1901.5705244923638,0.0,0,19,0.0,16431,344582919421999,74,29.799999237060547,357.04626214343926,0.14999,16,0.0,0.0,1575420030,,,,0,16.71226280555068,6,6.0,29.799999237060547,0.0,0.0,6.044013761230645,66.7128,C,25049042000000,
Raw,1732146165000,14901000000,,80.4171010838769,-1416181368099000064,0.0,80.4171010838769,1901.5705244923638,0.0,0,27,0.0,16431,344582919766061,42,37.900001525878906,808.967300200732,0.14999,17,11621.602822487497,0.00022499999613501132,1575420030,,,,0,25.542214943634608,6,6.0,37.900001525878906,0.0,0.0,6.044013761230645,66.7128,C,25049042000000,
Raw,1732146165000,14901000000,,80.4171010838769,-1416181368099000064,0.0,80.4171010838769,1901.5705244923638,0.0,0,9,0.0,17,287421,235,5.0,687.8098015713791,0.14999,16,0.0,0.0,1600875010,,,,0,15.237667219577487,3,6.0,29.0,0.0,0.0,46.46697560650695,66.7128,C,25049042000000,
Raw,1732146165000,14901000000,,80.4171010838769,-1416181368099000064,0.0,80.4171010838769,1901.5705244923638,0.0,0,19,0.0,17,602855,487,5.0,236.03049709603417,0.14999,16,0.0,0.0,1603687550,,,,0,10.820915495147606,3,6.0,20.0,0.0,0.0,46.46697560650695,66.7128,C,25049042000000,
Raw,1732146165000,14901000000,,80.4171010838769,-1416181368099000064,0.0,80.4171010838769,1901.5705244923638,0.0,0,8,0.0,17,581527,74,5.0,332.6449920523948,0.14999,16,0.0,0.0,1605374980,,,,0,18.650637217141636,3,6.0,30.0,0.0,0.0,46.46697560650695,66.7128,C,25049042000000,
Raw,1732146165000,14901000000,,80.4171010838769,-1416181368099000064,0.0,80.4171010838769,1901.5705244923638,0.0,0,7,0.0,16431,344582926497244,42,41.53099822998047,904.937100984668,0.14999,17,12945.47678975928,0.00022499999613501132,1575420030,,,,0,27.436932232439478,1,6.0,41.53099822998047,0.0,0.0,0.0,66.7128,C,25049042000000,
Status,1732146165000,28,0,1,14,1575420030,43.70,313.0,74.0,1,0,0,38.7
Status,1732146165000,28,1,1,30,1575420030,44.80,69.0,71.0,1,0,0,39.8
Status,1732146165000,28,2,1,22,1575420030,43.50,268.0,58.0,1,0,0,38.5
Status,1732146165000,28,3,1,13,1575420030,44.30,305.0,46.0,1,0,0,39.3
Status,1732146165000,28,4,1,17,1575420030,38.30,176.0,43.0,1,0,0,33.3
Status,1732146165000,28,5,1,7,1575420030,38.20,101.0,39.0,1,0,0,33.2
Status,1732146165000,28,6,2,131,1575420030,40.00,2.0,24.0,0,0,0,35.0
Status,1732146165000,28,7,1,2,1575420030,0.00,89.0,16.0,0,0,0,0.0
Status,1732146165000,28,8,1,19,1575420030,33.90,193.0,16.0,1,0,0,28.900002
Status,1732146165000,28,9,1,15,1575420030,41.90,317.0,16.0,1,0,0,36.9
Status,1732146165000,28,10,1,21,1575420030,24.00,70.0,13.0,1,0,0,19.0
Status,1732146165000,28,11,1,8,1575420030,0.00,40.0,10.0,0,0,0,0.0
Status,1732146165000,28,12,1,5,1575420030,0.00,264.0,7.0,0,0,0,0.0
Status,1732146165000,28,13,1,9,1575420030,0.00,159.0,2.0,0,0,0,0.0
Status,1732146165000,28,14,3,9,1602000000,33.50,13.0,54.0,1,0,0,28.5
Status,1732146165000,28,15,3,8,1602000000,35.80,306.0,38.0,1,0,0,30.8
Status,1732146165000,28,16,3,19,1602000000,25.70,89.0,31.0,1,0,0,20.7
Status,1732146165000,28,17,3,16,1602000000,23.40,65.0,16.0,1,0,0,18.4
Status,1732146165000,28,18,3,20,1602000000,0.00,150.0,8.0,0,0,0,0.0
Status,1732146165000,28,19,3,17,1602000000,37.30,0.0,0.0,0,0,0,32.3
Status,1732146165000,28,20,6,29,1575420030,0.00,206.0,63.0,0,0,0,0.0
Status,1732146165000,28,21,6,27,1575420030,38.90,35.0,60.0,1,0,0,33.9
Status,1732146165000,28,22,6,21,1575420030,32.90,266.0,56.0,1,0,0,27.900002
Status,1732146165000,28,23,6,19,1575420030,31.10,299.0,50.0,1,0,0,26.1
Status,1732146165000,28,24,6,7,1575420030,0.00,160.0,18.0,0,0,0,0.0
Status,1732146165000,28,25,6,30,1575420030,0.00,57.0,12.0,0,0,0,0.0
Status,1732146165000,28,26,6,15,1575420030,0.00,96.0,10.0,0,0,0,0.0
Status,1732146165000,28,27,6,34,1575420030,0.00,49.0,6.0,0,0,0,0.0
Fix,GPS,37.4243783333,-122.1712400000,14.3,1.2847466,1.6,103.86,1732146166000,1.4,49.2,25050042000000,32.9,0,,,
Fix,FLP,37.4243809000,-122.1712423000,2.200000047683716,0.71942115,1.65,91.32856,1732146166194,1.4,49.2,25050042000000,1.012577,0,,,
Raw,1732146166000,15901000000,,83.74294420133609,-1416181368099000064,0.0,83.74294420133609,1899.7772158796452,0.0,0,30,0.0,16431,344583931476661,42,39.76300048828125,635.7019377791834,0.14999,17,10057.845788355833,0.00022499999613501132,1575420030,,,,0,27.54851720392172,1,6.0,39.76300048828125,0.0,0.0,0.0,66.7128,C,25050042000000,
Raw,1732146166000,15901000000,,83.74294420133609,-1416181368099000064,0.0,83.74294420133609,1899.7772158796452,0.0,0,17,0.0,16431,344583928240784,58,33.340999603271484,57.95362213351179,0.14999,16,0.0,0.0,1575420030,,,,0,20.477836421914535,1,6.0,33.340999603271484,0.0,0.0,0.0,66.7128,C,25050042000000,
Raw,1732146166000,15901000000,,83.74294420133609,-1416181368099000064,0.0,83.74294420133609,1899.7772158796452,0.0,0,22,0.0,16431,344583929924983,42,38.547000885009766,388.5397720747362,0.14999,16,0.0,0.0,1575420030,,,,0,26.247912634672108,1,6.0,38.547000885009766,0.0,0.0,0.0,66.7128,C,25050042000000,
Raw,1732146166000,15901000000,,83.74294420133609,-1416181368099000064,0.0,83.74294420133609,1899.7772158796452,0.0,0,21,0.0,16431,344583919811845,487,19.0,522.747683363334,0.14999,16,0.0,0.0,1575420030,,,,0,0.5499733303289425,1,6.0,19.0,0.0,0.0,0.0,66.7128,C,25050042000000,
Raw,1732146166000,15901000000,,83.74294420133609,-1416181368099000064,0.0,83.74294420133609,1899.7772158796452,0.0,0,14,0.0,16431,344583932277351,42,38.74300003051758,537.2456361012432,0.14999,17,8497.065797920335,0.00022499999613501132,1575420030,,,,0,27.74468645036511,1,6.0,38.74300003051758,0.0,0.0,0.0,66.7128,C,25050042000000,
Raw,1732146166000,15901000000,,83.74294420133609,-1416181368099000064,0.0,83.74294420133609,1899.7772158796452,0.0,0,15,0.0,16431,344583921274590,51,36.90999984741211,58.88762213300845,0.14999,16,0.0,0.0,1575420030,,,,0,23.154229569273987,1,6.0,36.90999984741211,0.0,0.0,0.0,66.7128,C,25050042000000,
Raw,1732146166000,15901000000,,83.74294420133609,-1416181368099000064,0.0,83.74294420133609,1899.7772158796452,0.0,0,21,0.0,16431,344583919048057,235,27.899999618530273,380.7018191342725,0.14999,16,0.0,0.0,1575420030,,,,0,14.633241795466764,6,6.0,27.899999618530273,0.0,0.0,5.860756893216853,66.7128,C,25050042000000,
Raw,1732146166000,15901000000,,83.74294420133609,-1416181368099000064,0.0,83.74294420133609,1899.7772158796452,0.0,0,19,0.0,16431,344583919420805,235,26.100000381469727,357.39688381058016,0.14999,16,0.0,0.0,1575420030,,,,0,12.476126579106364,6,6.0,26.100000381469727,0.0,0.0,5.860756893216853,66.7128,C,25050042000000,
Raw,1732146166000,15901000000,,83.74294420133609,-1416181368099000064,0.0,83.74294420133609,1899.7772158796452,0.0,0,27,0.0,16431,344583919763363,58,33.900001525878906,808.3108427796772,0.14999,16,0.0,0.0,1575420030,,,,0,21.27029745283856,6,6.0,33.900001525878906,0.0,0.0,5.860756893216853,66.7128,C,25050042000000,
Raw,1732146166000,15901000000,,83.74294420133609,-1416181368099000064,0.0,83.74294420133609,1899.7772158796452,0.0,0,9,0.0,17,285132,235,5.0,687.1052153388991,0.14999,16,0.0,0.0,1600875010,,,,0,16.056839373155615,3,6.0,28.0,0.0,0.0,45.13038932041327,66.7128,C,25050042000000,
Raw,1732146166000,15901000000,,83.74294420133609,-1416181368099000064,0.0,83.74294420133609,1899.7772158796452,0.0,0,19,0.0,17,602069,396,5.0,235.8133671083022,0.14999,16,0.0,0.0,1603687550,,,,0,5.219907686029263,3,6.0,22.0,0.0,0.0,45.13038932041327,66.7128,C,25050042000000,
Raw,1732146166000,15901000000,,83.74294420133609,-1416181368099000064,0.0,83.74294420133609,1899.7772158796452,0.0,0,8,0.0,17,580415,74,5.0,332.3691860329023,0.14999,16,0.0,0.0,1605374980,,,,0,17.894764124632776,3,6.0,31.0,0.0,0.0,45.13038932041327,66.7128,C,25050042000000,
Raw,1732146166000,15901000000,,83.74294420133609,-1416181368099000064,0.0,83.74294420133609,1899.7772158796452,0.0,0,16,0.0,17,181865,487,5.0,1040.0038085432693,0.14999,16,0.0,0.0,1601437440,,,,0,1.6594071088672928,3,6.0,18.0,0.0,0.0,45.13038932041327,66.7128,C,25050042000000,
Raw,1732146166000,15901000000,,83.74294420133609,-1416181368099000064,0.0,83.74294420133609,1899.7772158796452,0.0,0,13,0.0,16431,344583929154146,42,39.303001403808594,234.38763437428403,0.14999,16,0.0,0.0,1575420030,,,,0,27.056335154291244,1,6.0,39.303001403808594,0.0,0.0,0.0,66.7128,C,25050042000000,
Raw,1732146166000,15901000000,,83.74294420133609,-1416181368099000064,0.0,83.74294420133609,1899.7772158796452,0.0,0,19,0.0,16431,344583919432690,235,28.891000747680664,-130.43864706460437,0.14999,16,0.0,0.0,1575420030,,,,0,15.183323624343231,1,6.0,28.891000747680664,0.0,0.0,0.0,66.7128,C,25050042000000,
Raw,1732146166000,15901000000,,83.74294420133609,-1416181368099000064,0.0,83.74294420133609,1899.7772158796452,0.0,0,7,0.0,16431,344583926494227,58,33.15800094604492,903.9034941408158,0.14999,16,0.0,0.0,1575420030,,,,0,20.277998858055287,1,6.0,33.15800094604492,0.0,0.0,0.0,66.7128,C,25050042000000,
Status,1732146166000,28,0,1,14,1575420030,40.70,313.0,74.0,1,0,0,35.7
Status,1732146166000,28,1,1,30,1575420030,49.50,69.0,71.0,1,0,0,44.5
Status,1732146166000,28,2,1,22,1575420030,34.50,268.0,58.0,1,0,0,29.5
Status,1732146166000,28,3,1,13,1575420030,34.70,305.0,46.0,1,0,0,29.7
Status,1732146166000,28,4,1,17,1575420030,45.60,176.0,43.0,1,0,0,40.6
Status,1732146166000,28,5,1,7,1575420030,34.40,101.0,39.0,1,0,0,29.400002
Status,1732146166000,28,6,2,131,1575420030,41.00,2.0,24.0,0,0,0,36.0
Status,1732146166000,28,7,1,2,1575420030,25.50,89.0,16.0,1,0,0,20.5
Status,1732146166000,28,8,1,19,1575420030,34.90,193.0,16.0,1,0,0,29.900002
Status,1732146166000,28,9,1,15,1575420030,37.20,317.0,16.0,1,0,0,32.2
Status,1732146166000,28,10,1,21,1575420030,27.50,70.0,13.0,1,0,0,22.5
Status,1732146166000,28,11,1,8,1575420030,0.00,40.0,10.0,0,0,0,0.0
Status,1732146166000,28,12,1,5,1575420030,0.00,264.0,7.0,0,0,0,0.0
Status,1732146166000,28,13,1,9,1575420030,0.00,159.0,2.0,0,0,0,0.0
Status,1732146166000,28,14,3,9,1602000000,40.20,13.0,54.0,1,0,0,35.2
Status,1732146166000,28,15,3,8,1602000000,38.60,306.0,38.0,1,0,0,33.6
Status,1732146166000,28,16,3,19,1602000000,29.80,89.0,31.0,1,0,0,24.8
Status,1732146166000,28,17,3,16,1602000000,0.00,65.0,16.0,0,0,0,0.0
Status,1732146166000,28,18,3,20,1602000000,0.00,150.0,8.0,0,0,0,0.0
Status,1732146166000,28,19,3,17,1602000000,39.50,0.0,0.0,0,0,0,34.5
Status,1732146166000,28,20,6,29,1575420030,0.00,206.0,63.0,0,0,0,0.0
Status,1732146166000,28,21,6,27,1575420030,42.20,35.0,60.0,1,0,0,37.2
Status,1732146166000,28,22,6,21,1575420030,36.50,266.0,56.0,1,0,0,31.5
Status,1732146166000,28,23,6,19,1575420030,36.10,299.0,50.0,1,0,0,31.099998
Status,1732146166000,28,24,6,7,1575420030,0.00,160.0,18.0,0,0,0,0.0
Status,1732146166000,28,25,6,30,1575420030,0.00,57.0,12.0,0,0,0,0.0
Status,1732146166000,28,26,6,15,1575420030,0.00,96.0,10.0,0,0,0,0.0
Status,1732146166000,28,27,6,34,1575420030,0.00,49.0,6.0,0,0,0,0.0
Fix,GPS,37.4243783333,-122.1712300000,14.400000000000002,0.8575272,1.7,95.23,1732146167000,1.7,78.6,25051042000000,32.3,0,,,
Fix,FLP,37.4243795000,-122.1712320000,2.200000047683716,0.77584404,1.65,93.643936,1732146167195,1.7,78.6,25051042000000,1.0317113,0,,,
Raw,1732146167000,16901000000,,81.35940463794839,-1416181368099000064,0.0,81.35940463794839,1900.5267784028065,0.0,0,30,0.0,16431,344584931474537,28,44.48899841308594,636.1940253236853,0.14999,16,0.0,0.0,1575420030,,,,0,32.517389790381834,1,6.0,44.48899841308594,0.0,0.0,0.0,66.7128,C,25051042000000,
Raw,1732146167000,16901000000,,81.35940463794839,-1416181368099000064,0.0,81.35940463794839,1900.5267784028065,0.0,0,17,0.0,16431,344584928240586,42,40.64500045776367,58.53532796288394,0.14999,16,0.0,0.0,1575420030,,,,0,28.487849941376876,1,6.0,40.64500045776367,0.0,0.0,0.0,66.7128,C,25051042000000,
Raw,1732146167000,16901000000,,81.35940463794839,-1416181368099000064,0.0,81.35940463794839,1900.5267784028065,0.0,0,22,0.0,16431,344584929923683,235,29.476999282836914,388.7958508648887,0.14999,16,0.0,0.0,1575420030,,,,0,15.903689664438517,1,6.0,29.476999282836914,0.0,0.0,0.0,66.7128,C,25051042000000,
Raw,1732146167000,16901000000,,81.35940463794839,-1416181368099000064,0.0,81.35940463794839,1900.5267784028065,0.0,0,21,0.0,16431,344584919810104,487,22.503000259399414,522.1581260616223,0.14999,16,0.0,0.0,1575420030,,,,0,6.338935792612265,1,6.0,22.503000259399414,0.0,0.0,0.0,66.7128,C,25051042000000,
Raw,1732146167000,16901000000,,81.35940463794839,-1416181368099000064,0.0,81.35940463794839,1900.5267784028065,0.0,0,14,0.0,16431,344584932275559,51,35.667999267578125,537.2073079078696,0.14999,17,9034.68633311484,0.00022499999613501132,1575420030,,,,0,23.105704919951467,1,6.0,35.667999267578125,0.0,0.0,0.0,66.7128,C,25051042000000,
Raw,1732146167000,16901000000,,81.35940463794839,-1416181368099000064,0.0,81.35940463794839,1900.5267784028065,0.0,0,15,0.0,16431,344584921274400,74,32.20800018310547,58.972501659425106,0.14999,16,0.0,0.0,1575420030,,,,0,19.172857741570056,1,6.0,32.20800018310547,0.0,0.0,0.0,66.7128,C,25051042000000,
Raw,1732146167000,16901000000,,81.35940463794839,-1416181368099000064,0.0,81.35940463794839,1900.5267784028065,0.0,0,21,0.0,16431,344584919046782,58,31.5,381.1738366429716,0.14999,16,0.0,0.0,1575420030,,,,0,18.66872992762434,6,6.0,31.5,0.0,0.0,5.727867998883803,66.7128,C,25051042000000,
Raw,1732146167000,16901000000,,81.35940463794839,-1416181368099000064,0.0,81.35940463794839,1900.5267784028065,0.0,0,19,0.0,16431,344584919419611,74,31.100000381469727,357.1677044434136,0.14999,16,0.0,0.0,1575420030,,,,0,18.25345535272543,6,6.0,31.100000381469727,0.0,0.0,5.727867998883803,66.7128,C,25051042000000,
Raw,1732146167000,16901000000,,81.35940463794839,-1416181368099000064,0.0,81.35940463794839,1900.5267784028065,0.0,0,27,0.0,16431,344584919760665,51,37.20000076293945,808.6620684062287,0.14999,16,0.0,0.0,1575420030,,,,0,24.766035848652056,6,6.0,37.20000076293945,0.0,0.0,5.727867998883803,66.7128,C,25051042000000,
Raw,1732146167000,16901000000,,81.35940463794839,-1416181368099000064,0.0,81.35940463794839,1900.5267784028065,0.0,0,9,0.0,17,282836,58,5.0,687.48734055667,0.14999,16,0.0,0.0,1600875010,,,,0,22.61082785318561,3,6.0,35.0,0.0,0.0,43.803824906540584,66.7128,C,25051042000000,
Raw,1732146167000,16901000000,,81.35940463794839,-1416181368099000064,0.0,81.35940463794839,1900.5267784028065,0.0,0,19,0.0,17,601276,396,5.0,236.7479274359507,0.14999,16,0.0,0.0,1603687550,,,,0,10.87843815331684,3,6.0,23.0,0.0,0.0,43.803824906540584,66.7128,C,25051042000000,
Raw,1732146167000,16901000000,,81.35940463794839,-1416181368099000064,0.0,81.35940463794839,1900.5267784028065,0.0,0,8,0.0,17,579308,58,5.0,332.3898390003922,0.14999,16,0.0,0.0,1605374980,,,,0,20.962800221499478,3,6.0,34.0,0.0,0.0,43.803824906540584,66.7128,C,25051042000000,
Raw,1732146167000,16901000000,,81.35940463794839,-1416181368099000064,0.0,81.35940463794839,1900.5267784028065,0.0,0,2,0.0,16431,344584919424050,487,20.545000076293945,327.6116963017609,0.14999,16,0.0,0.0,1575420030,,,,0,3.226512008370918,1,6.0,20.545000076293945,0.0,0.0,0.0,66.7128,C,25051042000000,
Raw,1732146167000,16901000000,,81.35940463794839,-1416181368099000064,0.0,81.35940463794839,1900.5267784028065,0.0,0,13,0.0,16431,344584929153347,74,29.725000381469727,235.3237714609264,0.14999,16,0.0,0.0,1575420030,,,,0,16.210411205428635,1,6.0,29.725000381469727,0.0,0.0,0.0,66.7128,C,25051042000000,
Raw,1732146167000,16901000000,,81.35940463794839,-1416181368099000064,0.0,81.35940463794839,1900.5267784028065,0.0,0,19,0.0,16431,344584919433133,74,29.885000228881836,-130.45843834991007,0.14999,16,0.0,0.0,1575420030,,,,0,16.402019481985732,1,6.0,29.885000228881836,0.0,0.0,0.0,66.7128,C,25051042000000,
Raw,1732146167000,16901000000,,81.35940463794839,-1416181368099000064,0.0,81.35940463794839,1900.5267784028065,0.0,0,7,0.0,16431,344584926491211,235,29.360000610351562,904.7577714980953,0.14999,16,0.0,0.0,1575420030,,,,0,15.768847789966847,1,6.0,29.360000610351562,0.0,0.0,0.0,66.7128,C,25051042000000,
Fix,NLP,37.4243013000,-122.1711084000,2.200000047683716,,22.151,,1732146166150,,,25049998000000,1.0,0,,,
Status,1732146167000,28,0,1,14,1575420030,44.50,313.0,74.0,1,0,0,39.5
Status,1732146167000,28,1,1,30,1575420030,42.60,69.0,71.0,1,0,0,37.6
Status,1732146167000,28,2,1,22,1575420030,39.30,268.0,58.0,1,0,0,34.3
Status,1732146167000,28,3,1,13,1575420030,42.40,305.0,46.0,1,0,0,37.4
Status,1732146167000,28,4,1,17,1575420030,45.80,176.0,43.0,1,0,0,40.8
Status,1732146167000,28,5,1,7,1575420030,35.40,101.0,39.0,1,0,0,30.400002
Status,1732146167000,28,6,2,131,1575420030,41.00,2.0,24.0,0,0,0,36.0
Status,1732146167000,28,7,1,2,1575420030,27.70,89.0,16.0,1,0,0,22.7
Status,1732146167000,28,8,1,19,1575420030,33.40,193.0,16.0,1,0,0,28.400002
Status,1732146167000,28,9,1,15,1575420030,39.20,317.0,16.0,1,0,0,34.2
Status,1732146167000,28,10,1,21,1575420030,28.70,70.0,13.0,1,0,0,23.7
Status,1732146167000,28,11,1,8,1575420030,0.00,40.0,10.0,0,0,0,0.0
Status,1732146167000,28,12,1,5,1575420030,0.00,264.0,7.0,0,0,0,0.0
Status,1732146167000,28,13,1,9,1575420030,0.00,159.0,2.0,0,0,0,0.0
Status,1732146167000,28,14,3,9,1602000000,43.40,13.0,54.0,1,0,0,38.4
Status,1732146167000,28,15,3,8,1602000000,42.00,306.0,38.0,1,0,0,37.0
Status,1732146167000,28,16,3,19,1602000000,30.40,89.0,31.0,1,0,0,25.4
Status,1732146167000,28,17,3,16,1602000000,0.00,65.0,16.0,0,0,0,0.0
Status,1732146167000,28,18,3,20,1602000000,0.00,150.0,8.0,0,0,0,0.0
Status,1732146167000,28,19,3,17,1602000000,41.00,0.0,0.0,0,0,0,36.0
Status,1732146167000,28,20,6,29,1575420030,0.00,206.0,63.0,0,0,0,0.0
Status,1732146167000,28,21,6,27,1575420030,44.80,35.0,60.0,1,0,0,39.8
Status,1732146167000,28,22,6,21,1575420030,37.50,266.0,56.0,1,0,0,32.5
Status,1732146167000,28,23,6,19,1575420030,30.00,299.0,50.0,1,0,0,25.0
Status,1732146167000,28,24,6,7,1575420030,0.00,160.0,18.0,0,0,0,0.0
Status,1732146167000,28,25,6,30,1575420030,0.00,57.0,12.0,0,0,0,0.0
Status,1732146167000,28,26,6,15,1575420030,0.00,96.0,10.0,0,0,0,0.0
Status,1732146167000,28,27,6,34,1575420030,0.00,49.0,6.0,0,0,0,0.0
Fix,GPS,37.4243833333,-122.1712200000,14.500000000000004,0.84414446,1.7,63.72,1732146168000,1.8,82.2,25052042000000,32.7,0,,,
Fix,FLP,37.4243816000,-122.1712217000,2.200000047683716,0.7911866,1.65,78.94807,1732146168194,1.8,82.2,25052042000000,0.82677054,0,,,
Raw,1732146168000,17901000000,,82.31728293157228,-1416181368099000064,0.0,82.31728293157228,1900.4051200124782,0.0,0,30,0.0,16431,344585931472419,51,37.590999603271484,636.1560223392252,0.14999,17,11330.206074292215,0.00022499999613501132,1575420030,,,,0,25.21256853084985,1,6.0,37.590999603271484,0.0,0.0,0.0,66.7128,C,25052042000000,
Raw,1732146168000,17901000000,,82.31728293157228,-1416181368099000064,0.0,82.31728293157228,1900.4051200124782,0.0,0,17,0.0,16431,344585928240389,42,40.79800033569336,58.26805269442471,0.14999,17,1316.5638527188682,0.00022499999613501132,1575420030,,,,0,28.648704346485154,1,6.0,40.79800033569336,0.0,0.0,0.0,66.7128,C,25052042000000,
Raw,1732146168000,17901000000,,82.31728293157228,-1416181368099000064,0.0,82.31728293157228,1900.4051200124782,0.0,0,22,0.0,16431,344585929922391,58,34.3129997253418,388.1765369475941,0.14999,16,0.0,0.0,1575420030,,,,0,21.588973167952815,1,6.0,34.3129997253418,0.0,0.0,0.0,66.7128,C,25052042000000,
Raw,1732146168000,17901000000,,82.31728293157228,-1416181368099000064,0.0,82.31728293157228,1900.4051200124782,0.0,0,21,0.0,16431,344585919808373,396,23.68000030517578,522.2855150388716,0.14999,16,0.0,0.0,1575420030,,,,0,8.14875417213085,1,6.0,23.68000030517578,0.0,0.0,0.0,66.7128,C,25052042000000,
Raw,1732146168000,17901000000,,82.31728293157228,-1416181368099000064,0.0,82.31728293157228,1900.4051200124782,0.0,0,14,0.0,16431,344585932273764,42,39.492000579833984,537.0885601960354,0.14999,17,9572.131246785117,0.00022499999613501132,1575420030,,,,0,27.257773808548865,1,6.0,39.492000579833984,0.0,0.0,0.0,66.7128,C,25052042000000,
Raw,1732146168000,17901000000,,82.31728293157228,-1416181368099000064,0.0,82.31728293157228,1900.4051200124782,0.0,0,15,0.0,16431,344585921274208,58,34.159000396728516,58.02628309646507,0.14999,16,0.0,0.0,1575420030,,,,0,21.413376426792357,1,6.0,34.159000396728516,0.0,0.0,0.0,66.7128,C,25052042000000,
Raw,1732146168000,17901000000,,82.31728293157228,-1416181368099000064,0.0,82.31728293157228,1900.4051200124782,0.0,0,21,0.0,16431,344585919045506,58,32.5,381.2547207455941,0.14999,16,0.0,0.0,1575420030,,,,0,19.721466528202665,6,6.0,32.5,0.0,0.0,5.518892065104027,66.7128,C,25052042000000,
Raw,1732146168000,17901000000,,82.31728293157228,-1416181368099000064,0.0,82.31728293157228,1900.4051200124782,0.0,0,19,0.0,16431,344585919418418,316,25.0,356.9791529612231,0.14999,16,0.0,0.0,1575420030,,,,0,11.117867331053692,6,6.0,25.0,0.0,0.0,5.518892065104027,66.7128,C,25052042000000,
Raw,1732146168000,17901000000,,82.31728293157228,-1416181368099000064,0.0,82.31728293157228,1900.4051200124782,0.0,0,27,0.0,16431,344585919757972,42,39.79999923706055,808.5217639892729,0.14999,16,0.0,0.0,1575420030,,,,0,27.44874575297945,6,6.0,39.79999923706055,0.0,0.0,5.518892065104027,66.7128,C,25052042000000,
Raw,1732146168000,17901000000,,82.31728293157228,-1416181368099000064,0.0,82.31728293157228,1900.4051200124782,0.0,0,9,0.0,17,280550,51,5.0,686.925536934276,0.14999,17,12241.251408417871,0.00022499999613501132,1600875010,,,,0,26.013854164723746,3,6.0,38.0,0.0,0.0,42.670955219592216,66.7128,C,25052042000000,
Raw,1732146168000,17901000000,,82.31728293157228,-1416181368099000064,0.0,82.31728293157228,1900.4051200124782,0.0,0,19,0.0,17,600485,316,5.0,236.93105598577193,0.14999,16,0.0,0.0,1603687550,,,,0,11.593503542270224,3,6.0,26.0,0.0,0.0,42.670955219592216,66.7128,C,25052042000000,
Raw,1732146168000,17901000000,,82.31728293157228,-1416181368099000064,0.0,82.31728293157228,1900.4051200124782,0.0,0,8,0.0,17,578194,51,5.0,332.0416792073755,0.14999,16,0.0,0.0,1605374980,,,,0,24.554472105776956,3,6.0,37.0,0.0,0.0,42.670955219592216,66.7128,C,25052042000000,
Raw,1732146168000,17901000000,,82.31728293157228,-1416181368099000064,0.0,82.31728293157228,1900.4051200124782,0.0,0,2,0.0,16431,344585919422969,396,22.740999221801758,328.44757612622095,0.14999,16,0.0,0.0,1575420030,,,,0,6.732326328475342,1,6.0,22.740999221801758,0.0,0.0,0.0,66.7128,C,25052042000000,
Raw,1732146168000,17901000000,,82.31728293157228,-1416181368099000064,0.0,82.31728293157228,1900.4051200124782,0.0,0,13,0.0,16431,344585929152561,51,37.441001892089844,234.18721276675177,0.14999,16,0.0,0.0,1575420030,,,,0,25.050714972415985,1,6.0,37.441001892089844,0.0,0.0,0.0,66.7128,C,25052042000000,
Raw,1732146168000,17901000000,,82.31728293157228,-1416181368099000064,0.0,82.31728293157228,1900.4051200124782,0.0,0,19,0.0,16431,344585919433570,235,28.39299964904785,-130.94996839341758,0.14999,16,0.0,0.0,1575420030,,,,0,14.555457189318208,1,6.0,28.39299964904785,0.0,0.0,0.0,66.7128,C,25052042000000,
Raw,1732146168000,17901000000,,82.31728293157228,-1416181368099000064,0.0,82.31728293157228,1900.4051200124782,0.0,0,7,0.0,16431,344585926488191,74,30.409000396728516,903.723235485919,0.14999,16,0.0,0.0,1575420030,,,,0,17.050975730391503,1,6.0,30.409000396728516,0.0,0.0,0.0,66.7128,C,25052042000000,
Status,1732146168000,28,0,1,14,1575420030,45.00,313.0,74.0,1,0,0,40.0
Status,1732146168000,28,1,1,30,1575420030,47.60,69.0,71.0,1,0,0,42.6
Status,1732146168000,28,2,1,22,1575420030,44.90,268.0,58.0,1,0,0,39.9
Status,1732146168000,28,3,1,13,1575420030,43.60,305.0,46.0,1,0,0,38.6
Status,1732146168000,28,4,1,17,1575420030,40.50,176.0,43.0,1,0,0,35.5
Status,1732146168000,28,5,1,7,1575420030,43.50,101.0,39.0,1,0,0,38.5
Status,1732146168000,28,6,2,131,1575420030,40.00,2.0,24.0,0,0,0,35.0
Status,1732146168000,28,7,1,2,1575420030,29.60,89.0,16.0,1,0,0,24.6
Status,1732146168000,28,8,1,19,1575420030,38.20,193.0,16.0,1,0,0,33.2
Status,1732146168000,28,9,1,15,1575420030,37.00,317.0,16.0,1,0,0,32.0
Status,1732146168000,28,10,1,21,1575420030,28.70,70.0,13.0,0,0,0,23.7
Status,1732146168000,28,11,1,8,1575420030,0.00,40.0,10.0,0,0,0,0.0
Status,1732146168000,28,12,1,5,1575420030,0.00,264.0,7.0,0,0,0,0.0
Status,1732146168000,28,13,1,9,1575420030,0.00,159.0,2.0,0,0,0,0.0
Status,1732146168000,28,14,3,9,1602000000,43.50,13.0,54.0,1,0,0,38.5
Status,1732146168000,28,15,3,8,1602000000,39.60,306.0,38.0,1,0,0,34.6
Status,1732146168000,28,16,3,19,1602000000,29.30,89.0,31.0,1,0,0,24.3
Status,1732146168000,28,17,3,16,1602000000,0.00,65.0,16.0,0,0,0,0.0
Status,1732146168000,28,18,3,20,1602000000,0.00,150.0,8.0,0,0,0,0.0
Status,1732146168000,28,19,3,17,1602000000,35.50,0.0,0.0,0,0,0,30.5
Status,1732146168000,28,20,6,29,1575420030,0.00,206.0,63.0,0,0,0,0.0
Status,1732146168000,28,21,6,27,1575420030,44.70,35.0,60.0,1,0,0,39.7
Status,1732146168000,28,22,6,21,1575420030,36.60,266.0,56.0,1,0,0,31.599998
Status,1732146168000,28,23,6,19,1575420030,32.60,299.0,50.0,1,0,0,27.599998
Status,1732146168000,28,24,6,7,1575420030,0.00,160.0,18.0,0,0,0,0.0
Status,1732146168000,28,25,6,30,1575420030,0.00,57.0,12.0,0,0,0,0.0
Status,1732146168000,28,26,6,15,1575420030,0.00,96.0,10.0,0,0,0,0.0
Status,1732146168000,28,27,6,34,1575420030,0.00,49.0,6.0,0,0,0,0.0
Fix,GPS,37.4243916667,-122.1712100000,14.599999999999998,1.0464302,1.7,46.06,1732146169000,1.7,62.8,25053042000000,32.9,0,,,
Fix,FLP,37.4243880000,-122.1712115000,2.200000047683716,0.8836825,1.65,61.28473,1732146169195,1.7,62.8,25053042000000,0.8369726,0,,,
Raw,1732146169000,18901000000,,82.63220060247298,-1416181368099000064,0.0,82.63220060247298,1896.5373093089272,0.0,0,30,0.0,16431,344586931470299,31,42.61600112915039,635.0645283087747,0.14999,17,11964.778782192381,0.00022499999613501132,1575420030,,,,0,30.564769693524184,1,6.0,42.61600112915039,0.0,0.0,0.0,66.7128,C,25053042000000,
Raw,1732146169000,18901000000,,82.63220060247298,-1416181368099000064,0.0,82.63220060247298,1896.5373093089272,0.0,0,17,0.0,16431,344586928240195,51,35.520999908447266,57.09511706035725,0.14999,16,0.0,0.0,1575420030,,,,0,22.93866343265615,1,6.0,35.520999908447266,0.0,0.0,0.0,66.7128,C,25053042000000,
Raw,1732146169000,18901000000,,82.63220060247298,-1416181368099000064,0.0,82.63220060247298,1896.5373093089272,0.0,0,22,0.0,16431,344586929921090,42,39.854000091552734,387.4606359829978,0.14999,16,0.0,0.0,1575420030,,,,0,27.647155621242415,1,6.0,39.854000091552734,0.0,0.0,0.0,66.7128,C,25053042000000,
Raw,1732146169000,18901000000,,82.63220060247298,-1416181368099000064,0.0,82.63220060247298,1896.5373093089272,0.0,0,21,0.0,17,806632,797,23.68000030517578,522.6032906057517,0.14999,16,0.0,0.0,1575420030,,,,0,8.14875417213085,1,6.0,23.68000030517578,0.0,0.0,0.0,66.7128,C,25053042000000,
Raw,1732146169000,18901000000,,82.63220060247298,-1416181368099000064,0.0,82.63220060247298,1896.5373093089272,0.0,0,14,0.0,16431,344586932271974,42,39.9630012512207,536.0609000294583,0.14999,17,10108.148110043308,0.00022499999613501132,1575420030,,,,0,27.76178466383537,1,6.0,39.9630012512207,0.0,0.0,0.0,66.7128,C,25053042000000,
Raw,1732146169000,18901000000,,82.63220060247298,-1416181368099000064,0.0,82.63220060247298,1896.5373093089272,0.0,0,15,0.0,16431,344586921274013,74,32.02399826049805,57.25024171208424,0.14999,16,0.0,0.0,1575420030,,,,0,18.955892928561685,1,6.0,32.02399826049805,0.0,0.0,0.0,66.7128,C,25053042000000,
Raw,1732146169000,18901000000,,82.63220060247298,-1416181368099000064,0.0,82.63220060247298,1896.5373093089272,0.0,0,21,0.0,16431,344586919044238,58,31.600000381469727,379.4885575949343,0.14999,16,0.0,0.0,1575420030,,,,0,18.781535274678195,6,6.0,31.600000381469727,0.0,0.0,5.7279159882740425,66.7128,C,25053042000000,
Raw,1732146169000,18901000000,,82.63220060247298,-1416181368099000064,0.0,82.63220060247298,1896.5373093089272,0.0,0,19,0.0,16431,344586919417228,74,27.600000381469727,355.8331167501416,0.14999,16,0.0,0.0,1575420030,,,,0,14.264134803692581,6,6.0,27.600000381469727,0.0,0.0,5.7279159882740425,66.7128,C,25053042000000,
Raw,1732146169000,18901000000,,82.63220060247298,-1416181368099000064,0.0,82.63220060247298,1896.5373093089272,0.0,0,27,0.0,16431,344586919755272,42,39.69499969482422,807.1185339860499,0.14999,16,0.0,0.0,1575420030,,,,0,25.25066459910461,6,6.0,39.69499969482422,0.0,0.0,5.7279159882740425,66.7128,C,25053042000000,
Raw,1732146169000,18901000000,,82.63220060247298,-1416181368099000064,0.0,82.63220060247298,1896.5373093089272,0.0,0,9,0.0,17,278259,42,5.0,686.2016112704588,0.14999,17,12927.144483178483,0.00022499999613501132,1600875010,,,,0,28.494207066785915,3,6.0,41.0,0.0,0.0,41.793987554439,66.7128,C,25053042000000,
Raw,1732146169000,18901000000,,82.63220060247298,-1416181368099000064,0.0,82.63220060247298,1896.5373093089272,0.0,0,19,0.0,17,599703,316,5.0,235.76583355449813,0.14999,16,0.0,0.0,1603687550,,,,0,10.14249019929799,3,6.0,24.0,0.0,0.0,41.793987554439,66.7128,C,25053042000000,
Raw,1732146169000,18901000000,,82.63220060247298,-1416181368099000064,0.0,82.63220060247298,1896.5373093089272,0.0,0,8,0.0,17,577085,58,5.0,331.7379939613487,0.14999,16,0.0,0.0,1605374980,,,,0,21.982510585946006,3,6.0,35.0,0.0,0.0,41.793987554439,66.7128,C,25053042000000,
Raw,1732146169000,18901000000,,82.63220060247298,-1416181368099000064,0.0,82.63220060247298,1896.5373093089272,0.0,0,2,0.0,16431,344586919421875,316,24.576000213623047,327.15491715357894,0.14999,16,0.0,0.0,1575420030,,,,0,9.460418703288145,1,6.0,24.576000213623047,0.0,0.0,0.0,66.7128,C,25053042000000,
Raw,1732146169000,18901000000,,82.63220060247298,-1416181368099000064,0.0,82.63220060247298,1896.5373093089272,0.0,0,13,0.0,16431,344586929151781,42,38.617000579833984,233.5912906620192,0.14999,16,0.0,0.0,1575420030,,,,0,26.322151459586458,1,6.0,38.617000579833984,0.0,0.0,0.0,66.7128,C,25053042000000,
Raw,1732146169000,18901000000,,82.63220060247298,-1416181368099000064,0.0,82.63220060247298,1896.5373093089272,0.0,0,19,0.0,16431,344586919434009,58,33.21200180053711,-131.63499774044195,0.14999,16,0.0,0.0,1575420030,,,,0,20.331740032668826,1,6.0,33.21200180053711,0.0,0.0,0.0,66.7128,C,25053042000000,
Raw,1732146169000,18901000000,,82.63220060247298,-1416181368099000064,0.0,82.63220060247298,1896.5373093089272,0.0,0,7,0.0,16431,344586926485181,42,38.50600051879883,903.5225351278895,0.14999,16,0.0,0.0,1575420030,,,,0,26.200337220372578,1,6.0,38.50600051879883,0.0,0.0,0.0,66.7128,C,25053042000000,
Status,1732146169000,28,0,1,14,1575420030,42.60,313.0,74.0,1,0,0,37.6
Status,1732146169000,28,1,1,30,1575420030,47.60,69.0,71.0,1,0,0,42.6
Status,1732146169000,28,2,1,22,1575420030,47.40,268.0,58.0,1,0,0,42.4
Status,1732146169000,28,3,1,13,1575420030,40.00,305.0,46.0,1,0,0,35.0
Status,1732146169000,28,4,1,17,1575420030,38.70,176.0,43.0,1,0,0,33.7
Status,1732146169000,28,5,1,7,1575420030,41.50,101.0,39.0,1,0,0,36.5
Status,1732146169000,28,6,2,131,1575420030,39.00,2.0,24.0,0,0,0,34.0
Status,1732146169000,28,7,1,2,1575420030,39.60,89.0,16.0,1,0,0,34.6
Status,1732146169000,28,8,1,19,1575420030,35.80,193.0,16.0,1,0,0,30.8
Status,1732146169000,28,9,1,15,1575420030,34.90,317.0,16.0,1,0,0,29.900002
Status,1732146169000,28,10,1,21,1575420030,28.70,70.0,13.0,1,0,0,23.7
Status,1732146169000,28,11,1,8,1575420030,0.00,40.0,10.0,0,0,0,0.0
Status,1732146169000,28,12,1,5,1575420030,32.70,264.0,7.0,1,0,0,27.7
Status,1732146169000,28,13,1,9,1575420030,0.00,159.0,2.0,0,0,0,0.0
Status,1732146169000,28,14,3,9,1602000000,43.60,13.0,54.0,1,0,0,38.6
Status,1732146169000,28,15,3,8,1602000000,35.10,306.0,38.0,1,0,0,30.099998
Status,1732146169000,28,16,3,19,1602000000,31.50,89.0,31.0,1,0,0,26.5
Status,1732146169000,28,17,3,16,1602000000,0.00,65.0,16.0,0,0,0,0.0
Status,1732146169000,28,18,3,20,1602000000,0.00,150.0,8.0,0,0,0,0.0
Status,1732146169000,28,19,3,17,1602000000,42.90,0.0,0.0,0,0,0,37.9
Status,1732146169000,28,20,6,29,1575420030,0.00,206.0,63.0,0,0,0,0.0
Status,1732146169000,28,21,6,27,1575420030,44.50,35.0,60.0,1,0,0,39.5
Status,1732146169000,28,22,6,21,1575420030,42.40,266.0,56.0,1,0,0,37.4
Status,1732146169000,28,23,6,19,1575420030,29.80,299.0,50.0,1,0,0,24.8
Status,1732146169000,28,24,6,7,1575420030,0.00,160.0,18.0,0,0,0,0.0
Status,1732146169000,28,25,6,30,1575420030,0.00,57.0,12.0,0,0,0,0.0
Status,1732146169000,28,26,6,15,1575420030,0.00,96.0,10.0,0,0,0,0.0
Status,1732146169000,28,27,6,34,1575420030,0.00,49.0,6.0,0,0,0,0.0
Fix,GPS,37.4243966667,-122.1712016667,14.7,0.44626418,1.7,39.0,1732146170000,2.3,179.9,25054042000000,33.6,0,,,
Raw,1732146170000,19901000000,,83.98694209209353,-1416181368099000064,0.0,83.98694209209353,1895.504852794289,0.0,0,30,0.0,16431,344587931468179,31,42.625999450683594,635.0519845363979,0.14999,17,12599.175978907055,0.00022499999613501132,1575420030,,,,0,30.772556512011796,1,6.0,42.625999450683594,0.0,0.0,0.0,66.7128,C,25054042000000,
Raw,1732146170000,19901000000,,83.98694209209353,-1416181368099000064,0.0,83.98694209209353,1895.504852794289,0.0,0,17,0.0,16431,344587928240001,58,33.73500061035156,56.91513715595763,0.14999,16,0.0,0.0,1575420030,,,,0,20.926985425739538,1,6.0,33.73500061035156,0.0,0.0,0.0,66.7128,C,25054042000000,
Raw,1732146170000,19901000000,,83.98694209209353,-1416181368099000064,0.0,83.98694209209353,1895.504852794289,0.0,0,22,0.0,16431,344587929919798,31,42.417999267578125,387.61548188422756,0.14999,16,0.0,0.0,1575420030,,,,0,30.356114701170732,1,6.0,42.417999267578125,0.0,0.0,0.0,66.7128,C,25054042000000,
Raw,1732146170000,19901000000,,83.98694209209353,-1416181368099000064,0.0,83.98694209209353,1895.504852794289,0.0,0,21,0.0,16431,344587919804889,797,23.68000030517578,521.6423911832691,0.14999,16,0.0,0.0,1575420030,,,,0,8.14875417213085,1,6.0,23.68000030517578,0.0,0.0,0.0,66.7128,C,25054042000000,
Raw,1732146170000,19901000000,,83.98694209209353,-1416181368099000064,0.0,83.98694209209353,1895.504852794289,0.0,0,14,0.0,16431,344587932270182,51,37.604000091552734,536.1750948165038,0.14999,17,10643.864666099116,0.00022499999613501132,1575420030,,,,0,25.227827014594737,1,6.0,37.604000091552734,0.0,0.0,0.0,66.7128,C,25054042000000,
Raw,1732146170000,19901000000,,83.98694209209353,-1416181368099000064,0.0,83.98694209209353,1895.504852794289,0.0,0,15,0.0,16431,344587921273823,74,29.91699981689453,57.406341990551645,0.14999,16,0.0,0.0,1575420030,,,,0,16.444031121992698,1,6.0,29.91699981689453,0.0,0.0,0.0,66.7128,C,25054042000000,
Raw,1732146170000,19901000000,,83.98694209209353,-1416181368099000064,0.0,83.98694209209353,1895.504852794289,0.0,0,21,0.0,16431,344587919042974,51,37.400001525878906,379.2822822269595,0.14999,16,0.0,0.0,1575420030,,,,0,24.964715362561506,6,6.0,37.400001525878906,0.0,0.0,5.353075801606374,66.7128,C,25054042000000,
Raw,1732146170000,19901000000,,83.98694209209353,-1416181368099000064,0.0,83.98694209209353,1895.504852794289,0.0,0,19,0.0,16431,344587919416042,316,24.799999237060547,355.93969235692856,0.14999,16,0.0,0.0,1575420030,,,,0,10.802698438054536,6,6.0,24.799999237060547,0.0,0.0,5.353075801606374,66.7128,C,25054042000000,
Raw,1732146170000,19901000000,,83.98694209209353,-1416181368099000064,0.0,83.98694209209353,1895.504852794289,0.0,0,27,0.0,16431,344587919752579,42,39.5,807.4426278975345,0.14999,16,0.0,0.0,1575420030,,,,0,27.130127226904275,6,6.0,39.5,0.0,0.0,5.353075801606374,66.7128,C,25054042000000,
Raw,1732146170000,19901000000,,83.98694209209353,-1416181368099000064,0.0,83.98694209209353,1895.504852794289,0.0,0,9,0.0,17,275970,42,5.0,686.4010863033775,0.14999,17,13612.792646100961,0.00022499999613501132,1600875010,,,,0,28.083550639828218,3,6.0,41.0,0.0,0.0,41.211100371474046,66.7128,C,25054042000000,
Raw,1732146170000,19901000000,,83.98694209209353,-1416181368099000064,0.0,83.98694209209353,1895.504852794289,0.0,0,19,0.0,17,598921,316,5.0,234.64789365970154,0.14999,16,0.0,0.0,1603687550,,,,0,12.913561062643193,3,6.0,26.0,0.0,0.0,41.211100371474046,66.7128,C,25054042000000,
Raw,1732146170000,19901000000,,83.98694209209353,-1416181368099000064,0.0,83.98694209209353,1895.504852794289,0.0,0,8,0.0,17,575979,235,5.0,331.8051047078059,0.14999,16,0.0,0.0,1605374980,,,,0,17.056920898069237,3,6.0,28.0,0.0,0.0,41.211100371474046,66.7128,C,25054042000000,
Raw,1732146170000,19901000000,,83.98694209209353,-1416181368099000064,0.0,83.98694209209353,1895.504852794289,0.0,0,2,0.0,16431,344587919420813,58,34.62900161743164,326.65613959714256,0.14999,16,0.0,0.0,1575420030,,,,0,21.94099857223558,1,6.0,34.62900161743164,0.0,0.0,0.0,66.7128,C,25054042000000,
Raw,1732146170000,19901000000,,83.98694209209353,-1416181368099000064,0.0,83.98694209209353,1895.504852794289,0.0,0,13,0.0,16431,344587929150999,58,34.97700119018555,232.96979319916272,0.14999,16,0.0,0.0,1575420030,,,,0,22.33266420572059,1,6.0,34.97700119018555,0.0,0.0,0.0,66.7128,C,25054042000000,
Raw,1732146170000,19901000000,,83.98694209209353,-1416181368099000064,0.0,83.98694209209353,1895.504852794289,0.0,0,19,0.0,16431,344587919434443,74,30.774999618530273,-130.46392044302291,0.14999,16,0.0,0.0,1575420030,,,,0,17.489172728437584,1,6.0,30.774999618530273,0.0,0.0,0.0,66.7128,C,25054042000000,
Raw,1732146170000,19901000000,,83.98694209209353,-1416181368099000064,0.0,83.98694209209353,1895.504852794289,0.0,0,5,0.0,16431,344587916521837,235,27.743000030517578,992.7507551355142,0.14999,16,0.0,0.0,1575420030,,,,0,13.73671433249238,1,6.0,27.743000030517578,0.0,0.0,0.0,66.7128,C,25054042000000,
Raw,1732146170000,19901000000,,83.98694209209353,-1416181368099000064,0.0,83.98694209209353,1895.504852794289,0.0,0,7,0.0,16431,344587926482165,51,36.49399948120117,903.5565426885556,0.14999,16,0.0,0.0,1575420030,,,,0,24.01063002175817,1,6.0,36.49399948120117,0.0,0.0,0.0,66.7128,C,25054042000000,
Fix,FLP,37.4243941000,-122.1712030000,2.200000047683716,0.7441679,1.666,55.31314,1732146170194,2.3,179.9,25054042000000,0.85100526,0,,,
Status,1732146170000,28,0,1,14,1575420030,40.10,313.0,74.0,1,0,0,35.1
Status,1732146170000,28,1,1,30,1575420030,47.50,69.0,71.0,1,0,0,42.5
Status,1732146170000,28,2,1,22,1575420030,41.90,268.0,58.0,1,0,0,36.9
Status,1732146170000,28,3,1,13,1575420030,40.90,305.0,46.0,1,0,0,35.9
Status,1732146170000,28,4,1,17,1575420030,39.40,176.0,43.0,1,0,0,34.4
Status,1732146170000,28,5,1,7,1575420030,42.20,101.0,39.0,1,0,0,37.2
Status,1732146170000,28,6,2,131,1575420030,39.00,2.0,24.0,0,0,0,34.0
Status,1732146170000,28,7,1,2,1575420030,34.10,89.0,16.0,1,0,0,29.099998
Status,1732146170000,28,8,1,19,1575420030,32.00,193.0,16.0,1,0,0,27.0
Status,1732146170000,28,9,1,15,1575420030,37.50,317.0,16.0,1,0,0,32.5
Status,1732146170000,28,10,1,21,1575420030,25.40,70.0,13.0,1,0,0,20.4
