# 
# Header Description:
# 
# Version: v3.1.0.3 Platform: 13 Manufacturer: samsung Model: SM-S135DL GNSS Hardware Model Name: MediaTek,MT6631,MTK_MNLD_default,MNL_VER_default
# 
# Raw,utcTimeMillis,TimeNanos,LeapSecond,TimeUncertaintyNanos,FullBiasNanos,BiasNanos,BiasUncertaintyNanos,DriftNanosPerSecond,DriftUncertaintyNanosPerSecond,HardwareClockDiscontinuityCount,Svid,TimeOffsetNanos,State,ReceivedSvTimeNanos,ReceivedSvTimeUncertaintyNanos,Cn0DbHz,PseudorangeRateMetersPerSecond,PseudorangeRateUncertaintyMetersPerSecond,AccumulatedDeltaRangeState,AccumulatedDeltaRangeMeters,AccumulatedDeltaRangeUncertaintyMeters,CarrierFrequencyHz,CarrierCycles,CarrierPhase,CarrierPhaseUncertainty,MultipathIndicator,SnrInDb,ConstellationType,AgcDb,BasebandCn0DbHz,FullInterSignalBiasNanos,FullInterSignalBiasUncertaintyNanos,SatelliteInterSignalBiasNanos,SatelliteInterSignalBiasUncertaintyNanos,CodeType,ChipsetElapsedRealtimeNanos,IsFullTracking
# 
# UncalAccel,utcTimeMillis,elapsedRealtimeNanos,UncalAccelXMps2,UncalAccelYMps2,UncalAccelZMps2,BiasXMps2,BiasYMps2,BiasZMps2
# 
# Accel,utcTimeMillis,elapsedRealtimeNanos,AccelXMps2,AccelYMps2,AccelZMps2
# 
# UncalGyro,utcTimeMillis,elapsedRealtimeNanos,UncalGyroXRadPerSec,UncalGyroYRadPerSec,UncalGyroZRadPerSec,DriftXRadPerSec,DriftYRadPerSec,DriftZRadPerSec
# 
# Gyro,utcTimeMillis,elapsedRealtimeNanos,GyroXRadPerSec,GyroYRadPerSec,GyroZRadPerSec
# 
# UncalMag,utcTimeMillis,elapsedRealtimeNanos,UncalMagXMicroT,UncalMagYMicroT,UncalMagZMicroT,BiasXMicroT,BiasYMicroT,BiasZMicroT
# 
# Mag,utcTimeMillis,elapsedRealtimeNanos,MagXMicroT,MagYMicroT,MagZMicroT
# 
# Pressure,utcTimeMillis,elapsedRealtimeNanos,PressureHpa
# 
# OrientationDeg,utcTimeMillis,elapsedRealtimeNanos,yawDeg,rollDeg,pitchDeg
# 
# Fix,Provider,LatitudeDegrees,LongitudeDegrees,AltitudeMeters,SpeedMps,AccuracyMeters,BearingDegrees,UnixTimeMillis,SpeedAccuracyMps,BearingAccuracyDegrees,elapsedRealtimeNanos,VerticalAccuracyMeters,MockLocation,NumberOfUsedSignals,VerticalSpeedAccuracyMps,SolutionType
# 
# Nav,Svid,Type,Status,MessageId,Sub-messageId,Data(Bytes)
# 
# Status,UnixTimeMillis,SignalCount,SignalIndex,ConstellationType,Svid,CarrierFrequencyHz,Cn0DbHz,AzimuthDegrees,ElevationDegrees,UsedInFix,HasAlmanacData,HasEphemerisData,BasebandCn0DbHz
# 
# Agc,utcTimeMillis,TimeNanos,LeapSecond,TimeUncertaintyNanos,FullBiasNanos,BiasNanos,BiasUncertaintyNanos,DriftNanosPerSecond,DriftUncertaintyNanosPerSecond,HardwareClockDiscontinuityCount,AgcDb,CarrierFrequencyHz,ConstellationType
# 
Fix,FLP,37.4244344000,-122.1711913000,2.200000047683716,0.08198177,1.785,,1732146429196,1.7,,25313044000000,0.90700877,0,,,
Status,,28,0,1,14,1575420030,39.60,321.0,74.0,1,0,0,34.6
Status,,28,1,1,30,1575420030,45.50,75.0,70.0,1,0,0,40.5
Status,,28,2,1,22,1575420030,46.40,271.0,60.0,1,0,0,41.4
Status,,28,3,1,13,1575420030,51.40,303.0,48.0,1,0,0,46.4
Status,,28,4,1,17,1575420030,40.80,175.0,45.0,1,0,0,35.8
Status,,28,5,1,7,1575420030,35.10,103.0,37.0,1,0,0,30.099998
Status,,28,6,2,131,1575420030,41.00,3.0,23.0,0,0,0,36.0
Status,,28,7,1,19,1575420030,45.70,193.0,18.0,1,0,0,40.7
Status,,28,8,1,15,1575420030,43.40,315.0,17.0,1,0,0,38.4
Status,,28,9,1,2,1575420030,24.70,87.0,16.0,1,0,0,19.7
Status,,28,10,1,21,1575420030,0.00,68.0,14.0,0,0,0,0.0
Status,,28,11,1,8,1575420030,0.00,39.0,9.0,0,0,0,0.0
Status,,28,12,1,5,1575420030,25.30,262.0,6.0,1,0,0,20.3
Status,,28,13,3,9,1602000000,34.10,17.0,54.0,1,0,0,29.099998
Status,,28,14,3,8,1602000000,46.40,303.0,39.0,1,0,0,41.4
Status,,28,15,3,16,1602000000,0.00,67.0,14.0,0,0,0,0.0
Status,,28,16,3,20,1602000000,24.80,149.0,10.0,1,0,0,19.8
Status,,28,17,3,11,1602000000,0.00,272.0,1.0,0,0,0,0.0
Status,,28,18,3,17,1602000000,45.90,0.0,0.0,0,0,0,40.9
Status,,28,19,6,29,1575420030,0.00,204.0,61.0,0,0,0,0.0
Status,,28,20,6,27,1575420030,34.90,36.0,59.0,1,0,0,29.900002
Status,,28,21,6,21,1575420030,38.90,269.0,57.0,1,0,0,33.9
Status,,28,22,6,19,1575420030,36.00,297.0,50.0,1,0,0,31.0
Status,,28,23,6,7,1575420030,0.00,161.0,16.0,0,0,0,0.0
Status,,28,24,6,15,1575420030,0.00,95.0,11.0,0,0,0,0.0
Status,,28,25,6,30,1575420030,0.00,58.0,10.0,0,0,0,0.0
Status,,28,26,6,34,1575420030,0.00,47.0,6.0,0,0,0,0.0
Status,,28,27,6,13,1575420030,0.00,142.0,1.0,0,0,0,0.0
Fix,GPS,37.4244316667,-122.1712033333,15.400000000000002,0.39427722,1.8,47.17,1732146430000,1.9,179.9,25314044000000,34.9,0,,,
Fix,FLP,37.4244335000,-122.1711971000,2.200000047683716,0.08498949,1.771,,1732146430196,1.9,,25314044000000,0.9170869,0,,,
Raw,1732146429999,7478000000,,693467.7664572869,-1416181640521999872,0.0,90.9261756835521,2142.4162656069975,0.0,0,14,0.0,16431,344847932692675,58,34.61600112915039,627.6155716872419,0.14999,16,0.0,0.0,1575420030,,,,0,21.924492303550224,1,6.0,34.61600112915039,0.0,0.0,0.0,66.7128,C,25314044000000,
Raw,1732146429999,7478000000,,693467.7664572869,-1416181640521999872,0.0,90.9261756835521,2142.4162656069975,0.0,0,30,0.0,16431,344847931804070,42,40.479000091552734,727.7990579046412,0.14999,16,0.0,0.0,1575420030,,,,0,28.308663817472492,1,6.0,40.479000091552734,0.0,0.0,0.0,66.7128,C,25314044000000,
Raw,1732146429999,7478000000,,693467.7664572869,-1416181640521999872,0.0,90.9261756835521,2142.4162656069975,0.0,0,15,0.0,16431,344847922109307,42,38.37900161743164,154.5225041944826,0.14999,16,0.0,0.0,1575420030,,,,0,26.061568869668395,1,6.0,38.37900161743164,0.0,0.0,0.0,66.7128,C,25314044000000,
Raw,1732146429999,7478000000,,693467.7664572869,-1416181640521999872,0.0,90.9261756835521,2142.4162656069975,0.0,0,13,0.0,16431,344847929831226,28,46.415000915527344,336.2549129704019,0.14999,16,0.0,0.0,1575420030,,,,0,34.51342376648859,1,6.0,46.415000915527344,0.0,0.0,0.0,66.7128,C,25314044000000,
Raw,1732146429999,7478000000,,693467.7664572869,-1416181640521999872,0.0,90.9261756835521,2142.4162656069975,0.0,0,19,0.0,16431,344847920442476,42,40.70600128173828,-56.08171962755678,0.14999,16,0.0,0.0,1575420030,,,,0,28.54810625907025,1,6.0,40.70600128173828,0.0,0.0,0.0,66.7128,C,25314044000000,
Raw,1732146429999,7478000000,,693467.7664572869,-1416181640521999872,0.0,90.9261756835521,2142.4162656069975,0.0,0,21,0.0,16431,344847919604046,58,33.900001525878906,464.67141101102635,0.14999,16,0.0,0.0,1575420030,,,,0,21.23393689387281,6,6.0,33.900001525878906,0.0,0.0,1.8662320948600066,66.7128,C,25314044000000,
Raw,1732146429999,7478000000,,693467.7664572869,-1416181640521999872,0.0,90.9261756835521,2142.4162656069975,0.0,0,19,0.0,16431,344847919993649,74,31.0,450.69086565445394,0.14999,16,0.0,0.0,1575420030,,,,0,18.134157209303297,6,6.0,31.0,0.0,0.0,1.8662320948600066,66.7128,C,25314044000000,
Raw,1732146429999,7478000000,,693467.7664572869,-1416181640521999872,0.0,90.9261756835521,2142.4162656069975,0.0,0,27,0.0,16431,344847919943967,58,29.899999618530273,888.5294750484245,0.14999,16,0.0,0.0,1575420030,,,,0,16.881821233133742,6,6.0,29.899999618530273,0.0,0.0,1.8662320948600066,66.7128,C,25314044000000,
Raw,1732146429999,7478000000,,693467.7664572869,-1416181640521999872,0.0,90.9261756835521,2142.4162656069975,0.0,0,9,0.0,17,571088,235,5.0,771.1336271888688,0.14999,16,0.0,0.0,1600875010,,,,0,16.001582732043815,3,6.0,29.0,0.0,0.0,29.003949623449547,66.7128,C,25314044000000,
Raw,1732146429999,7478000000,,693467.7664572869,-1416181640521999872,0.0,90.9261756835521,2142.4162656069975,0.0,0,8,0.0,17,165235,31,5.0,447.9333671295182,0.14999,16,0.0,0.0,1605374980,,,,0,29.145381427831683,3,6.0,42.0,0.0,0.0,29.003949623449547,66.7128,C,25314044000000,
Raw,1732146429999,7478000000,,693467.7664572869,-1416181640521999872,0.0,90.9261756835521,2142.4162656069975,0.0,0,20,0.0,17,825849,797,5.0,-139.44047394754935,0.14999,16,0.0,0.0,1603124990,,,,0,3.9633672345426336,3,6.0,17.0,0.0,0.0,29.003949623449547,66.7128,C,25314044000000,
Raw,1732146429999,7478000000,,693467.7664572869,-1416181640521999872,0.0,90.9261756835521,2142.4162656069975,0.0,0,2,0.0,16431,344847920023160,487,19.69099998474121,422.0909252599979,0.14999,16,0.0,0.0,1575420030,,,,0,1.6733715646694995,1,6.0,19.69099998474121,0.0,0.0,0.0,66.7128,C,25314044000000,
Raw,1732146429999,7478000000,,693467.7664572869,-1416181640521999872,0.0,90.9261756835521,2142.4162656069975,0.0,0,5,0.0,16431,344847916551200,487,20.27199935913086,1076.4002485245774,0.14999,16,0.0,0.0,1575420030,,,,0,2.657732018073133,1,6.0,20.27199935913086,0.0,0.0,0.0,66.7128,C,25314044000000,
Raw,1732146429999,7478000000,,693467.7664572869,-1416181640521999872,0.0,90.9261756835521,2142.4162656069975,0.0,0,7,0.0,16431,344847926586353,235,30.059999465942383,992.7238092541121,0.14999,16,0.0,0.0,1575420030,,,,0,16.616426756161403,1,6.0,30.059999465942383,0.0,0.0,0.0,66.7128,C,25314044000000,
Raw,1732146429999,7478000000,,693467.7664572869,-1416181640521999872,0.0,90.9261756835521,2142.4162656069975,0.0,0,22,0.0,16431,344847930471068,31,41.39400100708008,479.1293630525783,0.14999,16,0.0,0.0,1575420030,,,,0,29.277596398901622,1,6.0,41.39400100708008,0.0,0.0,0.0,66.7128,C,25314044000000,
Raw,1732146429999,7478000000,,693467.7664572869,-1416181640521999872,0.0,90.9261756835521,2142.4162656069975,0.0,0,17,0.0,16431,344847929075697,51,35.78200149536133,152.35940033571993,0.14999,16,0.0,0.0,1575420030,,,,0,24.275756546911104,1,6.0,35.78200149536133,0.0,0.0,0.0,66.7128,C,25314044000000,
Fix,GPS,37.4244216667,-122.1712033333,15.2,0.6655358,1.8,59.0,1732146431000,1.4,89.0,25315044000000,34.3,0,,,
Status,1732146431000,28,0,1,14,1575420030,44.70,321.0,74.0,1,0,0,39.7
Status,1732146431000,28,1,1,30,1575420030,45.60,75.0,70.0,1,0,0,40.6
Status,1732146431000,28,2,1,22,1575420030,45.30,271.0,60.0,1,0,0,40.3
Status,1732146431000,28,3,1,13,1575420030,50.30,303.0,48.0,1,0,0,45.3
Status,1732146431000,28,4,1,17,1575420030,37.20,175.0,45.0,1,0,0,32.2
Status,1732146431000,28,5,1,7,1575420030,36.40,103.0,37.0,1,0,0,31.400002
Status,1732146431000,28,6,2,131,1575420030,38.00,3.0,23.0,0,0,0,33.0
Status,1732146431000,28,7,1,19,1575420030,31.80,193.0,18.0,1,0,0,26.8
Status,1732146431000,28,8,1,15,1575420030,41.50,315.0,17.0,1,0,0,36.5
Status,1732146431000,28,9,1,2,1575420030,24.30,87.0,16.0,1,0,0,19.3
Status,1732146431000,28,10,1,21,1575420030,0.00,68.0,14.0,0,0,0,0.0
Status,1732146431000,28,11,1,8,1575420030,0.00,39.0,9.0,0,0,0,0.0
Status,1732146431000,28,12,1,5,1575420030,21.70,262.0,6.0,1,0,0,16.7
Status,1732146431000,28,13,3,9,1602000000,25.90,17.0,54.0,1,0,0,20.9
Status,1732146431000,28,14,3,8,1602000000,37.00,303.0,39.0,1,0,0,32.0
Status,1732146431000,28,15,3,16,1602000000,0.00,67.0,14.0,0,0,0,0.0
Status,1732146431000,28,16,3,20,1602000000,0.00,149.0,10.0,0,0,0,0.0
Status,1732146431000,28,17,3,11,1602000000,0.00,272.0,1.0,0,0,0,0.0
Status,1732146431000,28,18,3,17,1602000000,44.30,0.0,0.0,0,0,0,39.3
Status,1732146431000,28,19,6,29,1575420030,42.80,204.0,61.0,1,0,0,37.8
Status,1732146431000,28,20,6,27,1575420030,37.40,36.0,59.0,1,0,0,32.4
Status,1732146431000,28,21,6,21,1575420030,38.40,269.0,57.0,1,0,0,33.4
Status,1732146431000,28,22,6,19,1575420030,38.00,297.0,50.0,1,0,0,33.0
Status,1732146431000,28,23,6,7,1575420030,0.00,161.0,16.0,0,0,0,0.0
Status,1732146431000,28,24,6,15,1575420030,0.00,95.0,11.0,0,0,0,0.0
Status,1732146431000,28,25,6,30,1575420030,0.00,58.0,10.0,0,0,0,0.0
Status,1732146431000,28,26,6,34,1575420030,0.00,47.0,6.0,0,0,0,0.0
Status,1732146431000,28,27,6,13,1575420030,0.00,142.0,1.0,0,0,0,0.0
Fix,FLP,37.4244283000,-122.1711998000,0.23401397899639953,0.09453004,1.766,,1732146431197,1.4,,25315044000000,0.9313615,0,,,
Raw,1732146430999,8478000000,,692275.3269363435,-1416181640521999872,0.0,89.67499857727877,2140.5077780375177,0.0,0,14,0.0,16431,344848932690585,42,39.72600173950195,626.4307891570407,0.14999,16,0.0,0.0,1575420030,,,,0,27.506667408436535,1,6.0,39.72600173950195,0.0,0.0,0.0,66.7128,C,25315044000000,
Raw,1732146430999,8478000000,,692275.3269363435,-1416181640521999872,0.0,89.67499857727877,2140.5077780375177,0.0,0,30,0.0,16431,344848931801636,31,40.569000244140625,727.2224625010522,0.14999,16,0.0,0.0,1575420030,,,,0,30.218764870523486,1,6.0,40.569000244140625,0.0,0.0,0.0,66.7128,C,25315044000000,
Raw,1732146430999,8478000000,,692275.3269363435,-1416181640521999872,0.0,89.67499857727877,2140.5077780375177,0.0,0,15,0.0,16431,344848922108792,51,36.46900177001953,153.95873131376771,0.14999,16,0.0,0.0,1575420030,,,,0,23.97892339258753,1,6.0,36.46900177001953,0.0,0.0,0.0,66.7128,C,25315044000000,
Raw,1732146430999,8478000000,,692275.3269363435,-1416181640521999872,0.0,89.67499857727877,2140.5077780375177,0.0,0,13,0.0,16431,344848929830105,28,45.25899887084961,335.32755652442336,0.14999,16,0.0,0.0,1575420030,,,,0,33.314638822903675,1,6.0,45.25899887084961,0.0,0.0,0.0,66.7128,C,25315044000000,
Raw,1732146430999,8478000000,,692275.3269363435,-1416181640521999872,0.0,89.67499857727877,2140.5077780375177,0.0,0,19,0.0,16431,344848920442659,316,26.777999877929688,-55.30284427978711,0.14999,16,0.0,0.0,1575420030,,,,0,12.438141578460534,1,6.0,26.777999877929688,0.0,0.0,0.0,66.7128,C,25315044000000,
Raw,1732146430999,8478000000,,692275.3269363435,-1416181640521999872,0.0,89.67499857727877,2140.5077780375177,0.0,0,21,0.0,16431,344848919602494,58,33.400001525878906,464.1350021374595,0.14999,16,0.0,0.0,1575420030,,,,0,20.719531757912005,6,6.0,33.400001525878906,0.0,0.0,2.329683455481654,66.7128,C,25315044000000,
Raw,1732146430999,8478000000,,692275.3269363435,-1416181640521999872,0.0,89.67499857727877,2140.5077780375177,0.0,0,19,0.0,16431,344848919992144,58,33.0,449.89038714314637,0.14999,16,0.0,0.0,1575420030,,,,0,20.241288609803778,6,6.0,33.0,0.0,0.0,2.329683455481654,66.7128,C,25315044000000,
Raw,1732146430999,8478000000,,692275.3269363435,-1416181640521999872,0.0,89.67499857727877,2140.5077780375177,0.0,0,27,0.0,16431,344848919941034,58,32.400001525878906,888.0447279336838,0.14999,16,0.0,0.0,1575420030,,,,0,19.66248561140649,6,6.0,32.400001525878906,0.0,0.0,2.329683455481654,66.7128,C,25315044000000,
Raw,1732146430999,8478000000,,692275.3269363435,-1416181640521999872,0.0,89.67499857727877,2140.5077780375177,0.0,0,29,0.0,16431,344848920827269,42,37.79999923706055,927.0622712871099,0.14999,16,0.0,0.0,1575420030,,,,0,25.41626247322975,6,6.0,37.79999923706055,0.0,0.0,2.329683455481654,66.7128,C,25315044000000,
Raw,1732146430999,8478000000,,692275.3269363435,-1416181640521999872,0.0,89.67499857727877,2140.5077780375177,0.0,0,9,0.0,17,568517,396,5.0,771.4418693781739,0.14999,16,0.0,0.0,1600875010,,,,0,5.613376395329039,3,6.0,21.0,0.0,0.0,26.50309920780636,66.7128,C,25315044000000,
Raw,1732146430999,8478000000,,692275.3269363435,-1416181640521999872,0.0,89.67499857727877,2140.5077780375177,0.0,0,8,0.0,17,163742,74,5.0,446.6157260402791,0.14999,16,0.0,0.0,1605374980,,,,0,19.170306444844982,3,6.0,32.0,0.0,0.0,26.50309920780636,66.7128,C,25315044000000,
Raw,1732146430999,8478000000,,692275.3269363435,-1416181640521999872,0.0,89.67499857727877,2140.5077780375177,0.0,0,2,0.0,16431,344848920021772,487,19.315000534057617,422.39820122481444,0.14999,16,0.0,0.0,1575420030,,,,0,0.9491281115806061,1,6.0,19.315000534057617,0.0,0.0,0.0,66.7128,C,25315044000000,
Raw,1732146430999,8478000000,,692275.3269363435,-1416181640521999872,0.0,89.67499857727877,2140.5077780375177,0.0,0,5,0.0,16431,344848916547567,797,16.660999298095703,1077.4866321292448,0.14999,16,0.0,0.0,1575420030,,,,0,0.0,1,6.0,16.660999298095703,0.0,0.0,0.0,66.7128,C,25315044000000,
Raw,1732146430999,8478000000,,692275.3269363435,-1416181640521999872,0.0,89.67499857727877,2140.5077780375177,0.0,0,7,0.0,16431,344848926583040,74,31.409000396728516,992.9889938938418,0.14999,16,0.0,0.0,1575420030,,,,0,18.23797385920873,1,6.0,31.409000396728516,0.0,0.0,0.0,66.7128,C,25315044000000,
Raw,1732146430999,8478000000,,692275.3269363435,-1416181640521999872,0.0,89.67499857727877,2140.5077780375177,0.0,0,22,0.0,16431,344848930469468,42,40.3129997253418,478.74645278617106,0.14999,16,0.0,0.0,1575420030,,,,0,28.13428627430353,1,6.0,40.3129997253418,0.0,0.0,0.0,66.7128,C,25315044000000,
Raw,1732146430999,8478000000,,692275.3269363435,-1416181640521999872,0.0,89.67499857727877,2140.5077780375177,0.0,0,17,0.0,16431,344848929075180,74,32.15399932861328,152.92772614122345,0.14999,16,0.0,0.0,1575420030,,,,0,19.104830275587073,1,6.0,32.15399932861328,0.0,0.0,0.0,66.7128,C,25315044000000,
Status,1732146431000,28,0,1,14,1575420030,48.90,321.0,74.0,1,0,0,43.9
Status,1732146431000,28,1,1,30,1575420030,48.10,75.0,70.0,1,0,0,43.1
Status,1732146431000,28,2,1,22,1575420030,39.50,271.0,60.0,1,0,0,34.5
Status,1732146431000,28,3,1,13,1575420030,36.10,303.0,48.0,1,0,0,31.099998
Status,1732146431000,28,4,1,17,1575420030,43.70,175.0,45.0,1,0,0,38.7
Status,1732146431000,28,5,1,7,1575420030,36.70,103.0,37.0,1,0,0,31.7
Status,1732146431000,28,6,2,131,1575420030,43.00,3.0,23.0,0,0,0,38.0
Status,1732146431000,28,7,1,19,1575420030,33.50,193.0,18.0,1,0,0,28.5
Status,1732146431000,28,8,1,15,1575420030,40.00,315.0,17.0,1,0,0,35.0
Status,1732146431000,28,9,1,2,1575420030,22.90,87.0,16.0,1,0,0,17.9
Status,1732146431000,28,10,1,21,1575420030,0.00,68.0,14.0,0,0,0,0.0
Status,1732146431000,28,11,1,8,1575420030,0.00,39.0,9.0,0,0,0,0.0
Status,1732146431000,28,12,1,5,1575420030,21.70,262.0,6.0,1,0,0,16.7
Status,1732146431000,28,13,3,9,1602000000,34.40,17.0,54.0,1,0,0,29.400002
Status,1732146431000,28,14,3,8,1602000000,33.60,303.0,39.0,1,0,0,28.599998
Status,1732146431000,28,15,3,16,1602000000,23.80,67.0,14.0,1,0,0,18.8
Status,1732146431000,28,16,3,20,1602000000,0.00,149.0,10.0,0,0,0,0.0
Status,1732146431000,28,17,3,11,1602000000,0.00,272.0,1.0,0,0,0,0.0
Status,1732146431000,28,18,3,17,1602000000,42.10,0.0,0.0,0,0,0,37.1
Status,1732146431000,28,19,6,29,1575420030,42.60,204.0,61.0,1,0,0,37.6
Status,1732146431000,28,20,6,27,1575420030,37.60,36.0,59.0,1,0,0,32.6
Status,1732146431000,28,21,6,21,1575420030,32.10,269.0,57.0,1,0,0,27.099998
Status,1732146431000,28,22,6,19,1575420030,30.80,297.0,50.0,1,0,0,25.8
Status,1732146431000,28,23,6,7,1575420030,0.00,161.0,16.0,0,0,0,0.0
Status,1732146431000,28,24,6,15,1575420030,0.00,95.0,11.0,0,0,0,0.0
Status,1732146431000,28,25,6,30,1575420030,0.00,58.0,10.0,0,0,0,0.0
Status,1732146431000,28,26,6,34,1575420030,0.00,47.0,6.0,0,0,0,0.0
Status,1732146431000,28,27,6,13,1575420030,0.00,142.0,1.0,0,0,0,0.0
Fix,GPS,37.4244150000,-122.1712050000,15.2,0.5862686,1.8,83.91,1732146432000,1.2,92.2,25316044000000,33.2,0,,,
Raw,1732146431999,9478000000,,690919.9622026515,-1416181640521999872,0.0,87.27167247794011,2139.727936013228,0.0,0,14,0.0,16431,344849932688497,31,43.930999755859375,626.5190136894246,0.14999,16,0.0,0.0,1575420030,,,,0,31.934170328245834,1,6.0,43.930999755859375,0.0,0.0,0.0,66.7128,C,25316044000000,
Raw,1732146431999,9478000000,,690919.9622026515,-1416181640521999872,0.0,87.27167247794011,2139.727936013228,0.0,0,30,0.0,16431,344849931799209,31,43.14099884033203,727.1894305671265,0.14999,16,0.0,0.0,1575420030,,,,0,31.110935550815313,1,6.0,43.14099884033203,0.0,0.0,0.0,66.7128,C,25316044000000,
Raw,1732146431999,9478000000,,690919.9622026515,-1416181640521999872,0.0,87.27167247794011,2139.727936013228,0.0,0,15,0.0,16431,344849922108282,58,34.95100021362305,154.8739621131153,0.14999,16,0.0,0.0,1575420030,,,,0,22.29884713293731,1,6.0,34.95100021362305,0.0,0.0,0.0,66.7128,C,25316044000000,
Raw,1732146431999,9478000000,,690919.9622026515,-1416181640521999872,0.0,87.27167247794011,2139.727936013228,0.0,0,13,0.0,16431,344849929828986,74,31.12299919128418,336.2377465856121,0.14999,16,0.0,0.0,1575420030,,,,0,17.88698106888077,1,6.0,31.12299919128418,0.0,0.0,0.0,66.7128,C,25316044000000,
Raw,1732146431999,9478000000,,690919.9622026515,-1416181640521999872,0.0,87.27167247794011,2139.727936013228,0.0,0,19,0.0,16431,344849920442843,235,28.5310001373291,-55.981415906958226,0.14999,16,0.0,0.0,1575420030,,,,0,14.72474431426227,1,6.0,28.5310001373291,0.0,0.0,0.0,66.7128,C,25316044000000,
Raw,1732146431999,9478000000,,690919.9622026515,-1416181640521999872,0.0,87.27167247794011,2139.727936013228,0.0,0,21,0.0,16431,344849919600948,235,27.100000381469727,463.9034533910662,0.14999,16,0.0,0.0,1575420030,,,,0,13.685570063324093,6,6.0,27.100000381469727,0.0,0.0,0.8516748510874775,66.7128,C,25316044000000,
Raw,1732146431999,9478000000,,690919.9622026515,-1416181640521999872,0.0,87.27167247794011,2139.727936013228,0.0,0,19,0.0,16431,344849919990644,235,25.799999237060547,449.8873208876765,0.14999,16,0.0,0.0,1575420030,,,,0,12.026085362028814,6,6.0,25.799999237060547,0.0,0.0,0.8516748510874775,66.7128,C,25316044000000,
Raw,1732146431999,9478000000,,690919.9622026515,-1416181640521999872,0.0,87.27167247794011,2139.727936013228,0.0,0,27,0.0,16431,344849919938070,58,32.599998474121094,887.6382167918416,0.14999,16,0.0,0.0,1575420030,,,,0,19.80725378988488,6,6.0,32.599998474121094,0.0,0.0,0.8516748510874775,66.7128,C,25316044000000,
Raw,1732146431999,9478000000,,690919.9622026515,-1416181640521999872,0.0,87.27167247794011,2139.727936013228,0.0,0,29,0.0,16431,344849920824156,42,37.599998474121094,926.5482553701564,0.14999,16,0.0,0.0,1575420030,,,,0,25.179741422064655,6,6.0,37.599998474121094,0.0,0.0,0.8516748510874775,66.7128,C,25316044000000,
Raw,1732146431999,9478000000,,690919.9622026515,-1416181640521999872,0.0,87.27167247794011,2139.727936013228,0.0,0,9,0.0,17,565939,74,5.0,770.2078033482537,0.14999,16,0.0,0.0,1600875010,,,,0,16.26161206070405,3,6.0,30.0,0.0,0.0,25.021214148699404,66.7128,C,25316044000000,
Raw,1732146431999,9478000000,,690919.9622026515,-1416181640521999872,0.0,87.27167247794011,2139.727936013228,0.0,0,8,0.0,17,162245,235,5.0,446.30916852725034,0.14999,16,0.0,0.0,1605374980,,,,0,15.348316991576707,3,6.0,29.0,0.0,0.0,25.021214148699404,66.7128,C,25316044000000,
Raw,1732146431999,9478000000,,690919.9622026515,-1416181640521999872,0.0,87.27167247794011,2139.727936013228,0.0,0,16,0.0,17,140288,396,5.0,1119.8147900126426,0.14999,16,0.0,0.0,1601437440,,,,0,5.053451797226537,3,6.0,22.0,0.0,0.0,25.021214148699404,66.7128,C,25316044000000,
Raw,1732146431999,9478000000,,690919.9622026515,-1416181640521999872,0.0,87.27167247794011,2139.727936013228,0.0,0,2,0.0,16431,344849920020391,487,17.937999725341797,421.6685717982279,0.14999,16,0.0,0.0,1575420030,,,,0,0.0,1,6.0,17.937999725341797,0.0,0.0,0.0,66.7128,C,25316044000000,
Raw,1732146431999,9478000000,,690919.9622026515,-1416181640521999872,0.0,87.27167247794011,2139.727936013228,0.0,0,5,0.0,16431,344849916543975,797,16.660999298095703,1076.58840511023,0.14999,16,0.0,0.0,1575420030,,,,0,0.0,1,6.0,16.660999298095703,0.0,0.0,0.0,66.7128,C,25316044000000,
Raw,1732146431999,9478000000,,690919.9622026515,-1416181640521999872,0.0,87.27167247794011,2139.727936013228,0.0,0,7,0.0,16431,344849926579724,235,31.673999786376953,991.9200786536697,0.14999,16,0.0,0.0,1575420030,,,,0,18.542180074180983,1,6.0,31.673999786376953,0.0,0.0,0.0,66.7128,C,25316044000000,
Raw,1732146431999,9478000000,,690919.9622026515,-1416181640521999872,0.0,87.27167247794011,2139.727936013228,0.0,0,22,0.0,16431,344849930467871,58,34.45800018310547,478.4382476530304,0.14999,16,0.0,0.0,1575420030,,,,0,21.74258220685963,1,6.0,34.45800018310547,0.0,0.0,0.0,66.7128,C,25316044000000,
Raw,1732146431999,9478000000,,690919.9622026515,-1416181640521999872,0.0,87.27167247794011,2139.727936013228,0.0,0,17,0.0,16431,344849929074668,42,38.67300033569336,152.44135298191532,0.14999,16,0.0,0.0,1575420030,,,,0,26.377204643903557,1,6.0,38.67300033569336,0.0,0.0,0.0,66.7128,C,25316044000000,
Fix,FLP,37.4244223000,-122.1712018000,0.07268575021722068,0.09853208,1.8,,1732146432196,1.2,,25316044000000,0.9413097,0,,,
Status,1732146432000,28,0,1,14,1575420030,39.50,321.0,74.0,1,0,0,34.5
Status,1732146432000,28,1,1,30,1575420030,45.60,75.0,70.0,1,0,0,40.6
Status,1732146432000,28,2,1,22,1575420030,43.20,271.0,60.0,1,0,0,38.2
Status,1732146432000,28,3,1,13,1575420030,43.20,302.0,48.0,1,0,0,38.2
Status,1732146432000,28,4,1,17,1575420030,41.60,175.0,45.0,1,0,0,36.6
Status,1732146432000,28,5,1,7,1575420030,40.70,103.0,37.0,1,0,0,35.7
Status,1732146432000,28,6,2,131,1575420030,37.00,3.0,23.0,0,0,0,32.0
Status,1732146432000,28,7,1,19,1575420030,44.00,193.0,18.0,1,0,0,39.0
Status,1732146432000,28,8,1,15,1575420030,41.70,315.0,17.0,1,0,0,36.7
Status,1732146432000,28,9,1,2,1575420030,0.00,87.0,16.0,0,0,0,0.0
Status,1732146432000,28,10,1,21,1575420030,0.00,68.0,14.0,0,0,0,0.0
Status,1732146432000,28,11,1,8,1575420030,0.00,39.0,9.0,0,0,0,0.0
Status,1732146432000,28,12,1,5,1575420030,0.00,262.0,6.0,0,0,0,0.0
Status,1732146432000,28,13,3,9,1602000000,34.40,17.0,54.0,1,0,0,29.400002
Status,1732146432000,28,14,3,8,1602000000,34.20,303.0,39.0,1,0,0,29.2
Status,1732146432000,28,15,3,16,1602000000,23.70,67.0,14.0,1,0,0,18.7
Status,1732146432000,28,16,3,20,1602000000,0.00,149.0,10.0,0,0,0,0.0
Status,1732146432000,28,17,3,11,1602000000,0.00,272.0,1.0,0,0,0,0.0
Status,1732146432000,28,18,3,17,1602000000,35.60,0.0,0.0,0,0,0,30.599998
Status,1732146432000,28,19,6,29,1575420030,0.00,204.0,61.0,0,0,0,0.0
Status,1732146432000,28,20,6,27,1575420030,42.50,36.0,59.0,1,0,0,37.5
Status,1732146432000,28,21,6,21,1575420030,35.50,269.0,57.0,1,0,0,30.5
Status,1732146432000,28,22,6,19,1575420030,31.90,297.0,50.0,1,0,0,26.9
Status,1732146432000,28,23,6,7,1575420030,0.00,161.0,16.0,0,0,0,0.0
Status,1732146432000,28,24,6,15,1575420030,0.00,95.0,11.0,0,0,0,0.0
Status,1732146432000,28,25,6,30,1575420030,0.00,58.0,10.0,0,0,0,0.0
Status,1732146432000,28,26,6,34,1575420030,0.00,47.0,6.0,0,0,0,0.0
Status,1732146432000,28,27,6,13,1575420030,0.00,142.0,1.0,0,0,0,0.0
Fix,GPS,37.4244100000,-122.1712033333,15.3,0.6645064,1.8,95.46,1732146433000,1.0,69.1,25317044000000,34.7,0,,,
Fix,FLP,37.4244166000,-122.1712017000,0.06588370401217869,0.124169655,1.8,62.440327,1732146433196,1.0,69.1,25317044000000,0.9493704,0,,,
Raw,1732146432999,10478000000,,690109.7141676593,-1416181640521999872,0.0,91.26823462852573,2136.9322573039726,0.0,0,14,0.0,16431,344850932686407,58,34.46699905395508,625.9155188628497,0.14999,16,0.0,0.0,1575420030,,,,0,21.754063886836953,1,6.0,34.46699905395508,0.0,0.0,0.0,66.7128,C,25317044000000,
Raw,1732146432999,10478000000,,690109.7141676593,-1416181640521999872,0.0,91.26823462852573,2136.9322573039726,0.0,0,30,0.0,16431,344850931796788,42,40.58599853515625,726.3533649090017,0.14999,16,0.0,0.0,1575420030,,,,0,28.42122551764102,1,6.0,40.58599853515625,0.0,0.0,0.0,66.7128,C,25317044000000,
Raw,1732146432999,10478000000,,690109.7141676593,-1416181640521999872,0.0,91.26823462852573,2136.9322573039726,0.0,0,15,0.0,16431,344850922107766,51,36.689998626708984,153.8133164710287,0.14999,16,0.0,0.0,1575420030,,,,0,24.22410591123367,1,6.0,36.689998626708984,0.0,0.0,0.0,66.7128,C,25317044000000,
Raw,1732146432999,10478000000,,690109.7141676593,-1416181640521999872,0.0,91.26823462852573,2136.9322573039726,0.0,0,13,0.0,16431,344850929827866,51,38.154998779296875,335.3385903982733,0.14999,16,0.0,0.0,1575420030,,,,0,25.820672314050938,1,6.0,38.154998779296875,0.0,0.0,0.0,66.7128,C,25317044000000,
Raw,1732146432999,10478000000,,690109.7141676593,-1416181640521999872,0.0,91.26823462852573,2136.9322573039726,0.0,0,21,0.0,16431,344850919599398,74,30.5,463.206112563746,0.14999,16,0.0,0.0,1575420030,,,,0,17.502505907933116,6,6.0,30.5,0.0,0.0,1.2986392332599874,66.7128,C,25317044000000,
Raw,1732146432999,10478000000,,690109.7141676593,-1416181640521999872,0.0,91.26823462852573,2136.9322573039726,0.0,0,19,0.0,16431,344850919989144,235,26.899999618530273,449.2584597658506,0.14999,16,0.0,0.0,1575420030,,,,0,13.359996052020117,6,6.0,26.899999618530273,0.0,0.0,1.2986392332599874,66.7128,C,25317044000000,
Raw,1732146432999,10478000000,,690109.7141676593,-1416181640521999872,0.0,91.26823462852573,2136.9322573039726,0.0,0,27,0.0,16431,344850919935105,42,37.5,886.7244726618127,0.14999,16,0.0,0.0,1575420030,,,,0,25.1098501135897,6,6.0,37.5,0.0,0.0,1.2986392332599874,66.7128,C,25317044000000,
Raw,1732146432999,10478000000,,690109.7141676593,-1416181640521999872,0.0,91.26823462852573,2136.9322573039726,0.0,0,22,0.0,16431,344850930466268,51,38.18000030517578,478.0014456238189,0.14999,16,0.0,0.0,1575420030,,,,0,25.84936231416696,1,6.0,38.18000030517578,0.0,0.0,0.0,66.7128,C,25317044000000,
Raw,1732146432999,10478000000,,690109.7141676593,-1416181640521999872,0.0,91.26823462852573,2136.9322573039726,0.0,0,9,0.0,17,563371,74,5.0,769.653040559018,0.14999,16,0.0,0.0,1600875010,,,,0,16.896101864700377,3,6.0,30.0,0.0,0.0,23.902720517652302,66.7128,C,25317044000000,
Raw,1732146432999,10478000000,,690109.7141676593,-1416181640521999872,0.0,91.26823462852573,2136.9322573039726,0.0,0,8,0.0,17,160756,235,5.0,446.74652816771504,0.14999,16,0.0,0.0,1605374980,,,,0,16.0200606747121,3,6.0,29.0,0.0,0.0,23.902720517652302,66.7128,C,25317044000000,
Raw,1732146432999,10478000000,,690109.7141676593,-1416181640521999872,0.0,91.26823462852573,2136.9322573039726,0.0,0,16,0.0,17,136543,487,5.0,1120.3310582954061,0.14999,16,0.0,0.0,1601437440,,,,0,0.0,3,6.0,19.0,0.0,0.0,23.902720517652302,66.7128,C,25317044000000,
Raw,1732146432999,10478000000,,690109.7141676593,-1416181640521999872,0.0,91.26823462852573,2136.9322573039726,0.0,0,7,0.0,16431,344850926576407,51,35.67499923706055,991.6032322551139,0.14999,16,0.0,0.0,1575420030,,,,0,23.10119159709696,1,6.0,35.67499923706055,0.0,0.0,0.0,66.7128,C,25317044000000,
Raw,1732146432999,10478000000,,690109.7141676593,-1416181640521999872,0.0,91.26823462852573,2136.9322573039726,0.0,0,19,0.0,16431,344850920443054,42,38.96699905395508,-56.282373527170094,0.14999,16,0.0,0.0,1575420030,,,,0,26.694774442075186,1,6.0,38.96699905395508,0.0,0.0,0.0,66.7128,C,25317044000000,
Raw,1732146432999,10478000000,,690109.7141676593,-1416181640521999872,0.0,91.26823462852573,2136.9322573039726,0.0,0,17,0.0,16431,344850929074163,51,36.58000183105469,152.01165909038406,0.14999,16,0.0,0.0,1575420030,,,,0,24.102379739919073,1,6.0,36.58000183105469,0.0,0.0,0.0,66.7128,C,25317044000000,
Status,1732146433000,28,0,1,14,1575420030,42.80,321.0,74.0,1,0,0,37.8
Status,1732146433000,28,1,1,30,1575420030,45.50,75.0,70.0,1,0,0,40.5
Status,1732146433000,28,2,1,22,1575420030,42.10,271.0,60.0,1,0,0,37.1
Status,1732146433000,28,3,1,13,1575420030,37.20,302.0,48.0,1,0,0,32.2
Status,1732146433000,28,4,1,17,1575420030,32.20,175.0,45.0,1,0,0,27.2
Status,1732146433000,28,5,1,7,1575420030,39.10,103.0,37.0,1,0,0,34.1
Status,1732146433000,28,6,2,131,1575420030,35.00,3.0,23.0,0,0,0,30.0
Status,1732146433000,28,7,1,19,1575420030,39.40,193.0,18.0,1,0,0,34.4
Status,1732146433000,28,8,1,15,1575420030,39.50,315.0,17.0,1,0,0,34.5
Status,1732146433000,28,9,1,2,1575420030,0.00,87.0,16.0,0,0,0,0.0
Status,1732146433000,28,10,1,21,1575420030,0.00,68.0,14.0,0,0,0,0.0
Status,1732146433000,28,11,1,8,1575420030,0.00,39.0,9.0,0,0,0,0.0
Status,1732146433000,28,12,1,5,1575420030,0.00,262.0,6.0,0,0,0,0.0
Status,1732146433000,28,13,3,9,1602000000,32.90,17.0,54.0,1,0,0,27.900002
Status,1732146433000,28,14,3,8,1602000000,34.50,303.0,39.0,1,0,0,29.5
Status,1732146433000,28,15,3,16,1602000000,23.70,67.0,14.0,1,0,0,18.7
Status,1732146433000,28,16,3,20,1602000000,0.00,149.0,10.0,0,0,0,0.0
Status,1732146433000,28,17,3,11,1602000000,0.00,272.0,1.0,0,0,0,0.0
Status,1732146433000,28,18,3,17,1602000000,40.20,0.0,0.0,0,0,0,35.2
Status,1732146433000,28,19,6,29,1575420030,0.00,204.0,61.0,0,0,0,0.0
Status,1732146433000,28,20,6,27,1575420030,42.60,36.0,59.0,1,0,0,37.6
Status,1732146433000,28,21,6,21,1575420030,37.20,269.0,57.0,1,0,0,32.2
Status,1732146433000,28,22,6,19,1575420030,28.00,297.0,50.0,1,0,0,23.0
Status,1732146433000,28,23,6,7,1575420030,0.00,161.0,16.0,0,0,0,0.0
Status,1732146433000,28,24,6,15,1575420030,0.00,95.0,11.0,0,0,0,0.0
Status,1732146433000,28,25,6,30,1575420030,0.00,58.0,10.0,0,0,0,0.0
Status,1732146433000,28,26,6,34,1575420030,0.00,47.0,6.0,0,0,0,0.0
Status,1732146433000,28,27,6,13,1575420030,0.00,142.0,1.0,0,0,0,0.0
Fix,GPS,37.4244050000,-122.1712000000,15.3,0.6645064,1.9,99.04,1732146434000,1.7,99.8,25318044000000,33.4,0,,,
Raw,1732146433999,11478000000,,87.170513017612,-1416181640521999872,0.0,87.170513017612,2138.908547965604,0.0,0,14,0.0,16431,344851932684318,51,37.75400161743164,626.2641428180935,0.14999,16,0.0,0.0,1575420030,,,,0,25.386103103907733,1,6.0,37.75400161743164,0.0,0.0,0.0,66.7128,C,25318044000000,
Raw,1732146433999,11478000000,,87.170513017612,-1416181640521999872,0.0,87.170513017612,2138.908547965604,0.0,0,30,0.0,16431,344851931794361,51,40.46900177001953,727.1901739017859,0.14999,16,0.0,0.0,1575420030,,,,0,25.927774653026347,1,6.0,40.46900177001953,0.0,0.0,0.0,66.7128,C,25318044000000,
Raw,1732146433999,11478000000,,87.170513017612,-1416181640521999872,0.0,87.170513017612,2138.908547965604,0.0,0,15,0.0,16431,344851922107254,58,34.45800018310547,154.59288869504155,0.14999,16,0.0,0.0,1575420030,,,,0,21.74258220685963,1,6.0,34.45800018310547,0.0,0.0,0.0,66.7128,C,25318044000000,
Raw,1732146433999,11478000000,,87.170513017612,-1416181640521999872,0.0,87.170513017612,2138.908547965604,0.0,0,13,0.0,16431,344851929826743,58,32.22800064086914,336.54453473705837,0.14999,16,0.0,0.0,1575420030,,,,0,19.197728376502347,1,6.0,32.22800064086914,0.0,0.0,0.0,66.7128,C,25318044000000,
Raw,1732146433999,11478000000,,87.170513017612,-1416181640521999872,0.0,87.170513017612,2138.908547965604,0.0,0,21,0.0,16431,344851919597847,58,32.20000076293945,463.77165086427686,0.14999,16,0.0,0.0,1575420030,,,,0,19.455668944642113,6,6.0,32.20000076293945,0.0,0.0,1.5956973058447201,66.7128,C,25318044000000,
Raw,1732146433999,11478000000,,87.170513017612,-1416181640521999872,0.0,87.170513017612,2138.908547965604,0.0,0,19,0.0,16431,344851919987641,316,23.0,450.14832426994724,0.14999,16,0.0,0.0,1575420030,,,,0,8.521825181113625,6,6.0,23.0,0.0,0.0,1.5956973058447201,66.7128,C,25318044000000,
Raw,1732146433999,11478000000,,87.170513017612,-1416181640521999872,0.0,87.170513017612,2138.908547965604,0.0,0,27,0.0,16431,344851919932142,42,37.6150016784668,887.5213274166558,0.14999,16,0.0,0.0,1575420030,,,,0,27.471093749272335,6,6.0,37.6150016784668,0.0,0.0,1.5956973058447201,66.7128,C,25318044000000,
Raw,1732146433999,11478000000,,87.170513017612,-1416181640521999872,0.0,87.170513017612,2138.908547965604,0.0,0,22,0.0,16431,344851930464675,51,37.051998138427734,478.7982074618296,0.14999,16,0.0,0.0,1575420030,,,,0,24.62071372054523,1,6.0,37.051998138427734,0.0,0.0,0.0,66.7128,C,25318044000000,
Raw,1732146433999,11478000000,,87.170513017612,-1416181640521999872,0.0,87.170513017612,2138.908547965604,0.0,0,9,0.0,17,560807,235,5.0,770.3279547089024,0.14999,16,0.0,0.0,1600875010,,,,0,14.629197940317445,3,6.0,28.0,0.0,0.0,23.49149729551137,66.7128,C,25318044000000,
Raw,1732146433999,11478000000,,87.170513017612,-1416181640521999872,0.0,87.170513017612,2138.908547965604,0.0,0,8,0.0,17,159253,74,5.0,448.06585614392355,0.14999,16,0.0,0.0,1605374980,,,,0,16.423346553042585,3,6.0,30.0,0.0,0.0,23.49149729551137,66.7128,C,25318044000000,
Raw,1732146433999,11478000000,,87.170513017612,-1416181640521999872,0.0,87.170513017612,2138.908547965604,0.0,0,16,0.0,17,132797,396,5.0,1123.3999661079952,0.14999,16,0.0,0.0,1601437440,,,,0,0.17935868022608314,3,6.0,22.0,0.0,0.0,23.49149729551137,66.7128,C,25318044000000,
Raw,1732146433999,11478000000,,87.170513017612,-1416181640521999872,0.0,87.170513017612,2138.908547965604,0.0,0,7,0.0,16431,344851926573081,58,34.08300018310547,992.7195350798207,0.14999,16,0.0,0.0,1575420030,,,,0,21.31879622546087,1,6.0,34.08300018310547,0.0,0.0,0.0,66.7128,C,25318044000000,
Raw,1732146433999,11478000000,,87.170513017612,-1416181640521999872,0.0,87.170513017612,2138.908547965604,0.0,0,19,0.0,16431,344851920443240,58,34.354000091552734,-55.882645314094624,0.14999,16,0.0,0.0,1575420030,,,,0,21.626922846288878,1,6.0,34.354000091552734,0.0,0.0,0.0,66.7128,C,25318044000000,
Raw,1732146433999,11478000000,,87.170513017612,-1416181640521999872,0.0,87.170513017612,2138.908547965604,0.0,0,17,0.0,16431,344851929073655,235,27.18600082397461,152.5294381390505,0.14999,16,0.0,0.0,1575420030,,,,0,12.990327938139854,1,6.0,27.18600082397461,0.0,0.0,0.0,66.7128,C,25318044000000,
Fix,FLP,37.4244112000,-122.1712000000,-0.010267313946750178,0.13511261,1.816,72.65702,1732146434197,1.7,99.8,25318044000000,0.9604026,0,,,
Status,1732146434000,28,0,1,14,1575420030,46.00,321.0,74.0,1,0,0,41.0
Status,1732146434000,28,1,1,30,1575420030,41.40,75.0,70.0,1,0,0,36.4
Status,1732146434000,28,2,1,22,1575420030,39.00,271.0,60.0,1,0,0,34.0
Status,1732146434000,28,3,1,13,1575420030,40.70,302.0,48.0,1,0,0,35.7
Status,1732146434000,28,4,1,17,1575420030,41.70,175.0,45.0,1,0,0,36.7
Status,1732146434000,28,5,1,7,1575420030,34.10,103.0,37.0,1,0,0,29.099998
Status,1732146434000,28,6,2,131,1575420030,34.00,3.0,23.0,0,0,0,29.0
Status,1732146434000,28,7,1,19,1575420030,34.40,193.0,18.0,1,0,0,29.400002
Status,1732146434000,28,8,1,15,1575420030,37.20,315.0,17.0,1,0,0,32.2
Status,1732146434000,28,9,1,2,1575420030,25.30,87.0,16.0,1,0,0,20.3
Status,1732146434000,28,10,1,21,1575420030,0.00,68.0,14.0,0,0,0,0.0
Status,1732146434000,28,11,1,8,1575420030,0.00,39.0,9.0,0,0,0,0.0
Status,1732146434000,28,12,1,5,1575420030,0.00,262.0,6.0,0,0,0,0.0
Status,1732146434000,28,13,3,9,1602000000,37.50,17.0,54.0,1,0,0,32.5
Status,1732146434000,28,14,3,8,1602000000,29.90,303.0,39.0,1,0,0,24.9
Status,1732146434000,28,15,3,16,1602000000,22.70,67.0,14.0,1,0,0,17.7
Status,1732146434000,28,16,3,20,1602000000,0.00,149.0,10.0,0,0,0,0.0
Status,1732146434000,28,17,3,11,1602000000,0.00,272.0,1.0,0,0,0,0.0
Status,1732146434000,28,18,3,17,1602000000,36.20,0.0,0.0,0,0,0,31.2
Status,1732146434000,28,19,6,29,1575420030,0.00,204.0,61.0,0,0,0,0.0
Status,1732146434000,28,20,6,27,1575420030,42.70,36.0,59.0,1,0,0,37.7
Status,1732146434000,28,21,6,21,1575420030,37.30,269.0,57.0,1,0,0,32.3
Status,1732146434000,28,22,6,19,1575420030,33.20,297.0,50.0,1,0,0,28.2
Status,1732146434000,28,23,6,7,1575420030,0.00,161.0,16.0,0,0,0,0.0
Status,1732146434000,28,24,6,15,1575420030,0.00,95.0,11.0,0,0,0,0.0
Status,1732146434000,28,25,6,30,1575420030,0.00,58.0,10.0,0,0,0,0.0
Status,1732146434000,28,26,6,34,1575420030,0.00,47.0,6.0,0,0,0,0.0
Status,1732146434000,28,27,6,13,1575420030,0.00,142.0,1.0,0,0,0,0.0
Fix,GPS,37.4244000000,-122.1711983333,15.099999999999998,0.68200696,1.9,79.23,1732146435000,1.7,103.6,25319044000000,33.4,0,,,
Fix,FLP,37.4244060000,-122.1711982000,0.40654189552449616,0.15302041,1.833,76.08806,1732146435196,1.7,103.6,25319044000000,0.97042865,0,,,
Raw,1732146434999,12478000000,,86.71077826268687,-1416181640521999872,0.0,86.71077826268687,2140.746653996831,0.0,0,14,0.0,16431,344852932682228,42,40.965999603271484,626.9583244731114,0.14999,16,0.0,0.0,1575420030,,,,0,28.826987551250237,1,6.0,40.965999603271484,0.0,0.0,0.0,66.7128,C,25319044000000,
Raw,1732146434999,12478000000,,86.71077826268687,-1416181640521999872,0.0,86.71077826268687,2140.746653996831,0.0,0,30,0.0,16431,344852931791932,51,36.40999984741211,727.704561486069,0.14999,16,0.0,0.0,1575420030,,,,0,23.9165308949956,1,6.0,36.40999984741211,0.0,0.0,0.0,66.7128,C,25319044000000,
Raw,1732146434999,12478000000,,86.71077826268687,-1416181640521999872,0.0,86.71077826268687,2140.746653996831,0.0,0,15,0.0,16431,344852922106739,74,32.15399932861328,154.91479906096438,0.14999,16,0.0,0.0,1575420030,,,,0,19.104830275587073,1,6.0,32.15399932861328,0.0,0.0,0.0,66.7128,C,25319044000000,
Raw,1732146434999,12478000000,,86.71077826268687,-1416181640521999872,0.0,86.71077826268687,2140.746653996831,0.0,0,13,0.0,16431,344852929825620,51,35.67499923706055,336.77046201509023,0.14999,16,0.0,0.0,1575420030,,,,0,23.10119159709696,1,6.0,35.67499923706055,0.0,0.0,0.0,66.7128,C,25319044000000,
Raw,1732146434999,12478000000,,86.71077826268687,-1416181640521999872,0.0,86.71077826268687,2140.746653996831,0.0,0,21,0.0,16431,344852919596294,58,32.29999923706055,464.3307314449545,0.14999,16,0.0,0.0,1575420030,,,,0,19.48551739201578,6,6.0,32.29999923706055,0.0,0.0,2.2580630236742363,66.7128,C,25319044000000,
Raw,1732146434999,12478000000,,86.71077826268687,-1416181640521999872,0.0,86.71077826268687,2140.746653996831,0.0,0,19,0.0,16431,344852919986141,235,28.200000762939453,450.50953845598417,0.14999,16,0.0,0.0,1575420030,,,,0,14.903315148266103,6,6.0,28.200000762939453,0.0,0.0,2.2580630236742363,66.7128,C,25319044000000,
Raw,1732146434999,12478000000,,86.71077826268687,-1416181640521999872,0.0,86.71077826268687,2140.746653996831,0.0,0,27,0.0,16431,344852919929179,42,37.729000091552734,888.0086762027045,0.14999,17,10665.173597987554,0.00022499999613501132,1575420030,,,,0,27.635871665080977,6,6.0,37.729000091552734,0.0,0.0,2.2580630236742363,66.7128,C,25319044000000,
Raw,1732146434999,12478000000,,86.71077826268687,-1416181640521999872,0.0,86.71077826268687,2140.746653996831,0.0,0,22,0.0,16431,344852930463074,58,34.03300094604492,479.36532534851165,0.14999,16,0.0,0.0,1575420030,,,,0,21.27040674299261,1,6.0,34.03300094604492,0.0,0.0,0.0,66.7128,C,25319044000000,
Raw,1732146434999,12478000000,,86.71077826268687,-1416181640521999872,0.0,86.71077826268687,2140.746653996831,0.0,0,9,0.0,17,558248,58,5.0,770.621566595541,0.14999,16,0.0,0.0,1600875010,,,,0,19.749983980400806,3,6.0,33.0,0.0,0.0,25.168362941849768,66.7128,C,25319044000000,
Raw,1732146434999,12478000000,,86.71077826268687,-1416181640521999872,0.0,86.71077826268687,2140.746653996831,0.0,0,8,0.0,17,157759,316,5.0,448.2212777028044,0.14999,16,0.0,0.0,1605374980,,,,0,10.928359510440469,3,6.0,25.0,0.0,0.0,25.168362941849768,66.7128,C,25319044000000,
Raw,1732146434999,12478000000,,86.71077826268687,-1416181640521999872,0.0,86.71077826268687,2140.746653996831,0.0,0,16,0.0,17,128919,487,5.0,1126.0871571449431,0.14999,16,0.0,0.0,1601437440,,,,0,0.3485476998374102,3,6.0,20.0,0.0,0.0,25.168362941849768,66.7128,C,25319044000000,
Raw,1732146434999,12478000000,,86.71077826268687,-1416181640521999872,0.0,86.71077826268687,2140.746653996831,0.0,0,2,0.0,16431,344852920016284,487,20.27199935913086,422.73804453939454,0.14999,16,0.0,0.0,1575420030,,,,0,2.657732018073133,1,6.0,20.27199935913086,0.0,0.0,0.0,66.7128,C,25319044000000,
Raw,1732146434999,12478000000,,86.71077826268687,-1416181640521999872,0.0,86.71077826268687,2140.746653996831,0.0,0,7,0.0,16431,344852926569769,235,29.11400032043457,993.4203138299405,0.14999,16,0.0,0.0,1575420030,,,,0,15.441768004723713,1,6.0,29.11400032043457,0.0,0.0,0.0,66.7128,C,25319044000000,
Raw,1732146434999,12478000000,,86.71077826268687,-1416181640521999872,0.0,86.71077826268687,2140.746653996831,0.0,0,19,0.0,16431,344852920443422,235,29.35700035095215,-54.350957790049385,0.14999,16,0.0,0.0,1575420030,,,,0,15.744930496196945,1,6.0,29.35700035095215,0.0,0.0,0.0,66.7128,C,25319044000000,
Raw,1732146434999,12478000000,,86.71077826268687,-1416181640521999872,0.0,86.71077826268687,2140.746653996831,0.0,0,17,0.0,16431,344852929073142,51,36.70500183105469,153.57749355034403,0.14999,16,0.0,0.0,1575420030,,,,0,24.24135693902563,1,6.0,36.70500183105469,0.0,0.0,0.0,66.7128,C,25319044000000,
Status,1732146435000,28,0,1,14,1575420030,43.80,321.0,74.0,1,0,0,38.8
Status,1732146435000,28,1,1,30,1575420030,45.70,75.0,70.0,1,0,0,40.7
Status,1732146435000,28,2,1,22,1575420030,38.20,271.0,60.0,1,0,0,33.2
Status,1732146435000,28,3,1,13,1575420030,33.30,302.0,48.0,1,0,0,28.3
Status,1732146435000,28,4,1,17,1575420030,39.70,175.0,45.0,1,0,0,34.7
Status,1732146435000,28,5,1,7,1575420030,43.00,103.0,37.0,1,0,0,38.0
Status,1732146435000,28,6,2,131,1575420030,37.00,3.0,23.0,0,0,0,32.0
Status,1732146435000,28,7,1,19,1575420030,36.50,193.0,18.0,1,0,0,31.5
Status,1732146435000,28,8,1,15,1575420030,39.00,315.0,17.0,1,0,0,34.0
Status,1732146435000,28,9,1,2,1575420030,23.10,87.0,16.0,1,0,0,18.1
Status,1732146435000,28,10,1,21,1575420030,0.00,68.0,14.0,0,0,0,0.0
Status,1732146435000,28,11,1,8,1575420030,0.00,39.0,9.0,0,0,0,0.0
Status,1732146435000,28,12,1,5,1575420030,28.10,262.0,6.0,1,0,0,23.1
Status,1732146435000,28,13,3,9,1602000000,42.00,17.0,54.0,1,0,0,37.0
Status,1732146435000,28,14,3,8,1602000000,34.80,303.0,39.0,1,0,0,29.8
Status,1732146435000,28,15,3,16,1602000000,22.50,67.0,14.0,1,0,0,17.5
Status,1732146435000,28,16,3,20,1602000000,0.00,149.0,10.0,0,0,0,0.0
Status,1732146435000,28,17,3,11,1602000000,0.00,272.0,1.0,0,0,0,0.0
Status,1732146435000,28,18,3,17,1602000000,42.00,0.0,0.0,0,0,0,37.0
Status,1732146435000,28,19,6,29,1575420030,0.00,204.0,61.0,0,0,0,0.0
Status,1732146435000,28,20,6,27,1575420030,42.80,36.0,59.0,1,0,0,37.8
Status,1732146435000,28,21,6,21,1575420030,36.90,269.0,57.0,1,0,0,31.900002
Status,1732146435000,28,22,6,19,1575420030,27.20,297.0,50.0,1,0,0,22.2
Status,1732146435000,28,23,6,7,1575420030,0.00,161.0,16.0,0,0,0,0.0
Status,1732146435000,28,24,6,15,1575420030,0.00,95.0,11.0,0,0,0,0.0
Status,1732146435000,28,25,6,30,1575420030,0.00,58.0,10.0,0,0,0,0.0
Status,1732146435000,28,26,6,34,1575420030,0.00,47.0,6.0,0,0,0,0.0
Status,1732146435000,28,27,6,13,1575420030,0.00,142.0,1.0,0,0,0,0.0
Fix,GPS,37.4243916667,-122.1712000000,15.000000000000004,0.8276733,1.9,113.34,1732146436000,1.5,65.7,25320044000000,33.4,0,,,
Fix,FLP,37.4243990000,-122.1711979000,2.200000047683716,0.17727551,1.85,90.448235,1732146436196,1.5,65.7,25320044000000,0.9806203,0,,,
Raw,1732146435999,13478000000,,86.73727695150868,-1416181640521999872,0.0,86.73727695150868,2142.5387872469205,0.0,0,14,0.0,16431,344853932680135,42,38.82699966430664,627.8930213488512,0.14999,16,0.0,0.0,1575420030,,,,0,26.54405360131074,1,6.0,38.82699966430664,0.0,0.0,0.0,66.7128,C,25320044000000,
Raw,1732146435999,13478000000,,86.73727695150868,-1416181640521999872,0.0,86.73727695150868,2142.5387872469205,0.0,0,30,0.0,16431,344853931789504,42,40.733001708984375,728.2003657038679,0.14999,17,9779.683757736537,0.00022499999613501132,1575420030,,,,0,28.57953894586339,1,6.0,40.733001708984375,0.0,0.0,0.0,66.7128,C,25320044000000,
Raw,1732146435999,13478000000,,86.73727695150868,-1416181640521999872,0.0,86.73727695150868,2142.5387872469205,0.0,0,15,0.0,16431,344853922106217,58,33.95399856567383,155.8088912809362,0.14999,16,0.0,0.0,1575420030,,,,0,21.17281145063088,1,6.0,33.95399856567383,0.0,0.0,0.0,66.7128,C,25320044000000,
Raw,1732146435999,13478000000,,86.73727695150868,-1416181640521999872,0.0,86.73727695150868,2142.5387872469205,0.0,0,13,0.0,16431,344853929824497,235,28.32200050354004,337.27376926710707,0.14999,16,0.0,0.0,1575420030,,,,0,14.46310135004122,1,6.0,28.32200050354004,0.0,0.0,0.0,66.7128,C,25320044000000,
Raw,1732146435999,13478000000,,86.73727695150868,-1416181640521999872,0.0,86.73727695150868,2142.5387872469205,0.0,0,21,0.0,16431,344853919594746,58,31.899999618530273,464.9511835934462,0.14999,16,0.0,0.0,1575420030,,,,0,19.058005959289023,6,6.0,31.899999618530273,0.0,0.0,2.4374173051008055,66.7128,C,25320044000000,
Raw,1732146435999,13478000000,,86.73727695150868,-1416181640521999872,0.0,86.73727695150868,2142.5387872469205,0.0,0,19,0.0,16431,344853919984637,235,22.200000762939453,450.915956680994,0.14999,16,0.0,0.0,1575420030,,,,0,7.399506341534996,6,6.0,22.200000762939453,0.0,0.0,2.4374173051008055,66.7128,C,25320044000000,
Raw,1732146435999,13478000000,,86.73727695150868,-1416181640521999872,0.0,86.73727695150868,2142.5387872469205,0.0,0,27,0.0,16431,344853919926216,42,37.84199905395508,888.8436268588403,0.14999,16,0.0,0.0,1575420030,,,,0,27.688178953801092,6,6.0,37.84199905395508,0.0,0.0,2.4374173051008055,66.7128,C,25320044000000,
Raw,1732146435999,13478000000,,86.73727695150868,-1416181640521999872,0.0,86.73727695150868,2142.5387872469205,0.0,0,22,0.0,16431,344853930461476,58,33.1619987487793,480.26174048929397,0.14999,17,8075.492786391952,0.00039999998989515007,1575420030,,,,0,20.268559871258745,1,6.0,33.1619987487793,0.0,0.0,0.0,66.7128,C,25320044000000,
Raw,1732146435999,13478000000,,86.73727695150868,-1416181640521999872,0.0,86.73727695150868,2142.5387872469205,0.0,0,9,0.0,17,555680,51,5.0,771.4000815761826,0.14999,17,10348.386608109518,0.00022499999613501132,1600875010,,,,0,24.598423570274303,3,6.0,37.0,0.0,0.0,26.50065111052591,66.7128,C,25320044000000,
Raw,1732146435999,13478000000,,86.73727695150868,-1416181640521999872,0.0,86.73727695150868,2142.5387872469205,0.0,0,8,0.0,17,156260,74,5.0,449.6373965178231,0.14999,16,0.0,0.0,1605374980,,,,0,16.734245989736156,3,6.0,30.0,0.0,0.0,26.50065111052591,66.7128,C,25320044000000,
Raw,1732146435999,13478000000,,86.73727695150868,-1416181640521999872,0.0,86.73727695150868,2142.5387872469205,0.0,0,16,0.0,17,125163,396,5.0,1125.181676690082,0.14999,16,0.0,0.0,1601437440,,,,0,0.0,3,6.0,22.0,0.0,0.0,26.50065111052591,66.7128,C,25320044000000,
Raw,1732146435999,13478000000,,86.73727695150868,-1416181640521999872,0.0,86.73727695150868,2142.5387872469205,0.0,0,5,0.0,16431,344853916529624,396,23.131999969482422,1078.4764751450264,0.14999,16,0.0,0.0,1575420030,,,,0,7.278867046136735,1,6.0,23.131999969482422,0.0,0.0,0.0,66.7128,C,25320044000000,
Raw,1732146435999,13478000000,,86.73727695150868,-1416181640521999872,0.0,86.73727695150868,2142.5387872469205,0.0,0,2,0.0,16431,344853920014906,487,18.097999572753906,420.93954633105216,0.14999,16,0.0,0.0,1575420030,,,,0,0.0,1,6.0,18.097999572753906,0.0,0.0,0.0,66.7128,C,25320044000000,
Raw,1732146435999,13478000000,,86.73727695150868,-1416181640521999872,0.0,86.73727695150868,2142.5387872469205,0.0,0,7,0.0,16431,344853926566455,51,37.981998443603516,993.8126086964222,0.14999,16,0.0,0.0,1575420030,,,,0,25.631841189394105,1,6.0,37.981998443603516,0.0,0.0,0.0,66.7128,C,25320044000000,
Raw,1732146435999,13478000000,,86.73727695150868,-1416181640521999872,0.0,86.73727695150868,2142.5387872469205,0.0,0,19,0.0,16431,344853920443604,74,31.50200080871582,-54.67133502823726,0.14999,16,0.0,0.0,1575420030,,,,0,18.340564299529753,1,6.0,31.50200080871582,0.0,0.0,0.0,66.7128,C,25320044000000,
Raw,1732146435999,13478000000,,86.73727695150868,-1416181640521999872,0.0,86.73727695150868,2142.5387872469205,0.0,0,17,0.0,16431,344853929072626,58,34.680999755859375,153.74195634372933,0.14999,16,0.0,0.0,1575420030,,,,0,21.991738236629278,1,6.0,34.680999755859375,0.0,0.0,0.0,66.7128,C,25320044000000,
Status,1732146436000,28,0,1,14,1575420030,39.60,321.0,74.0,1,0,0,34.6
Status,1732146436000,28,1,1,30,1575420030,45.70,75.0,70.0,1,0,0,40.7
Status,1732146436000,28,2,1,22,1575420030,43.00,271.0,60.0,1,0,0,38.0
Status,1732146436000,28,3,1,13,1575420030,36.80,302.0,48.0,1,0,0,31.8
Status,1732146436000,28,4,1,17,1575420030,41.30,175.0,45.0,1,0,0,36.3
Status,1732146436000,28,5,1,7,1575420030,0.00,103.0,37.0,0,0,0,0.0
Status,1732146436000,28,6,2,131,1575420030,37.00,3.0,23.0,0,0,0,32.0
Status,1732146436000,28,7,1,19,1575420030,39.00,193.0,18.0,1,0,0,34.0
Status,1732146436000,28,8,1,15,1575420030,35.20,315.0,17.0,1,0,0,30.2
Status,1732146436000,28,9,1,2,1575420030,0.00,87.0,16.0,0,0,0,0.0
Status,1732146436000,28,10,1,21,1575420030,0.00,68.0,14.0,0,0,0,0.0
Status,1732146436000,28,11,1,8,1575420030,0.00,39.0,9.0,0,0,0,0.0
Status,1732146436000,28,12,1,5,1575420030,0.00,262.0,6.0,0,0,0,0.0
Status,1732146436000,28,13,3,9,1602000000,42.50,17.0,54.0,1,0,0,37.5
Status,1732146436000,28,14,3,8,1602000000,38.90,303.0,39.0,1,0,0,33.9
Status,1732146436000,28,15,3,16,1602000000,22.90,67.0,14.0,1,0,0,17.9
Status,1732146436000,28,16,3,20,1602000000,0.00,149.0,10.0,0,0,0,0.0
Status,1732146436000,28,17,3,11,1602000000,0.00,272.0,1.0,0,0,0,0.0
Status,1732146436000,28,18,3,17,1602000000,34.40,0.0,0.0,0,0,0,29.400002
Status,1732146436000,28,19,6,29,1575420030,0.00,204.0,61.0,0,0,0,0.0
Status,1732146436000,28,20,6,27,1575420030,42.80,36.0,59.0,1,0,0,37.8
Status,1732146436000,28,21,6,21,1575420030,37.10,269.0,57.0,1,0,0,32.1
Status,1732146436000,28,22,6,19,1575420030,34.20,297.0,50.0,1,0,0,29.2
Status,1732146436000,28,23,6,7,1575420030,0.00,161.0,16.0,0,0,0,0.0
Status,1732146436000,28,24,6,15,1575420030,0.00,95.0,11.0,0,0,0,0.0
Status,1732146436000,28,25,6,30,1575420030,0.00,58.0,10.0,0,0,0,0.0
Status,1732146436000,28,26,6,34,1575420030,0.00,47.0,6.0,0,0,0,0.0
Status,1732146436000,28,27,6,13,1575420030,0.00,142.0,1.0,0,0,0,0.0
Fix,GPS,37.4243883333,-122.1711950000,14.8,0.768995,1.9,108.34,1732146437000,1.8,80.8,25321044000000,33.7,0,,,
Raw,1732146436999,14478000000,,87.56963480533298,-1416181640521999872,0.0,87.56963480533298,2145.5975488657996,0.0,0,14,0.0,16431,344854932678036,58,34.5880012512207,628.7349872258347,0.14999,16,0.0,0.0,1575420030,,,,0,21.89067309286412,1,6.0,34.5880012512207,0.0,0.0,0.0,66.7128,C,25321044000000,
Raw,1732146436999,14478000000,,87.56963480533298,-1416181640521999872,0.0,87.56963480533298,2145.5975488657996,0.0,0,30,0.0,16431,344854931787073,42,40.65800094604492,729.2785261688658,0.14999,17,10508.852909179039,0.00022499999613501132,1575420030,,,,0,26.994868099250276,1,6.0,40.65800094604492,0.0,0.0,0.0,66.7128,C,25321044000000,
Raw,1732146436999,14478000000,,87.56963480533298,-1416181640521999872,0.0,87.56963480533298,2145.5975488657996,0.0,0,15,0.0,16431,344854922105696,74,30.216999053955078,156.72138103372737,0.14999,16,0.0,0.0,1575420030,,,,0,16.801021677098937,1,6.0,30.216999053955078,0.0,0.0,0.0,66.7128,C,25321044000000,
Raw,1732146436999,14478000000,,87.56963480533298,-1416181640521999872,0.0,87.56963480533298,2145.5975488657996,0.0,0,13,0.0,16431,344854929823368,74,31.80299949645996,337.09146644189696,0.14999,16,0.0,0.0,1575420030,,,,0,18.690378942736462,1,6.0,31.80299949645996,0.0,0.0,0.0,66.7128,C,25321044000000,
Raw,1732146436999,14478000000,,87.56963480533298,-1416181640521999872,0.0,87.56963480533298,2145.5975488657996,0.0,0,21,0.0,16431,344854919593189,58,32.099998474121094,466.0968481371981,0.14999,16,0.0,0.0,1575420030,,,,0,19.3352387361833,6,6.0,32.099998474121094,0.0,0.0,2.594029347879531,66.7128,C,25321044000000,
Raw,1732146436999,14478000000,,87.56963480533298,-1416181640521999872,0.0,87.56963480533298,2145.5975488657996,0.0,0,19,0.0,16431,344854919983131,74,29.200000762939453,451.93994663269046,0.14999,16,0.0,0.0,1575420030,,,,0,16.126050015345747,6,6.0,29.200000762939453,0.0,0.0,2.594029347879531,66.7128,C,25321044000000,
Raw,1732146436999,14478000000,,87.56963480533298,-1416181640521999872,0.0,87.56963480533298,2145.5975488657996,0.0,0,27,0.0,16431,344854919923253,42,37.82899856567383,889.6505166315849,0.14999,16,0.0,0.0,1575420030,,,,0,25.1487480274025,6,6.0,37.82899856567383,0.0,0.0,2.594029347879531,66.7128,C,25321044000000,
Raw,1732146436999,14478000000,,87.56963480533298,-1416181640521999872,0.0,87.56963480533298,2145.5975488657996,0.0,0,22,0.0,16431,344854930459870,51,38.00699996948242,480.7692986863941,0.14999,16,0.0,0.0,1575420030,,,,0,25.661160675927324,1,6.0,38.00699996948242,0.0,0.0,0.0,66.7128,C,25321044000000,
Raw,1732146436999,14478000000,,87.56963480533298,-1416181640521999872,0.0,87.56963480533298,2145.5975488657996,0.0,0,9,0.0,17,553108,51,5.0,772.2240419344822,0.14999,17,11120.485200913598,0.00022499999613501132,1600875010,,,,0,25.041263211275467,3,6.0,38.0,0.0,0.0,27.653193949470637,66.7128,C,25321044000000,
Raw,1732146436999,14478000000,,87.56963480533298,-1416181640521999872,0.0,87.56963480533298,2145.5975488657996,0.0,0,8,0.0,17,154756,58,5.0,450.3010725614221,0.14999,16,0.0,0.0,1605374980,,,,0,21.314547392211708,3,6.0,34.0,0.0,0.0,27.653193949470637,66.7128,C,25321044000000,
Raw,1732146436999,14478000000,,87.56963480533298,-1416181640521999872,0.0,87.56963480533298,2145.5975488657996,0.0,0,16,0.0,17,121392,487,5.0,1129.8156598457088,0.14999,16,0.0,0.0,1601437440,,,,0,0.7031230390460417,3,6.0,19.0,0.0,0.0,27.653193949470637,66.7128,C,25321044000000,
Raw,1732146436999,14478000000,,87.56963480533298,-1416181640521999872,0.0,87.56963480533298,2145.5975488657996,0.0,0,19,0.0,16431,344854920443773,58,33.9739990234375,-53.921682024264015,0.14999,16,0.0,0.0,1575420030,,,,0,21.197313271217006,1,6.0,33.9739990234375,0.0,0.0,0.0,66.7128,C,25321044000000,
Raw,1732146436999,14478000000,,87.56963480533298,-1416181640521999872,0.0,87.56963480533298,2145.5975488657996,0.0,0,17,0.0,16431,344854929072111,51,36.297000885009766,154.61495644274157,0.14999,16,0.0,0.0,1575420030,,,,0,23.79038505237237,1,6.0,36.297000885009766,0.0,0.0,0.0,66.7128,C,25321044000000,
Fix,FLP,37.4243937000,-122.1711953000,2.200000047683716,0.19927587,1.866,97.09065,1732146437196,1.8,80.8,25321044000000,0.9904102,0,,,
Status,1732146437000,28,0,1,14,1575420030,40.00,321.0,74.0,1,0,0,35.0
Status,1732146437000,28,1,1,30,1575420030,43.10,75.0,70.0,1,0,0,38.1
Status,1732146437000,28,2,1,22,1575420030,37.90,271.0,60.0,1,0,0,32.9
Status,1732146437000,28,3,1,13,1575420030,39.10,302.0,48.0,1,0,0,34.1
Status,1732146437000,28,4,1,17,1575420030,35.20,175.0,45.0,1,0,0,30.2
Status,1732146437000,28,5,1,7,1575420030,39.40,103.0,37.0,1,0,0,34.4
Status,1732146437000,28,6,2,131,1575420030,38.00,3.0,23.0,0,0,0,33.0
Status,1732146437000,28,7,1,19,1575420030,35.30,193.0,18.0,1,0,0,30.3
Status,1732146437000,28,8,1,15,1575420030,33.00,315.0,17.0,1,0,0,28.0
Status,1732146437000,28,9,1,2,1575420030,0.00,87.0,16.0,0,0,0,0.0
Status,1732146437000,28,10,1,21,1575420030,0.00,68.0,14.0,0,0,0,0.0
Status,1732146437000,28,11,1,8,1575420030,0.00,39.0,9.0,0,0,0,0.0
Status,1732146437000,28,12,1,5,1575420030,0.00,262.0,6.0,0,0,0,0.0
Status,1732146437000,28,13,3,9,1602000000,46.70,17.0,54.0,1,0,0,41.7
Status,1732146437000,28,14,3,8,1602000000,35.90,303.0,39.0,1,0,0,30.900002
Status,1732146437000,28,15,3,16,1602000000,22.20,67.0,14.0,1,0,0,17.2
Status,1732146437000,28,16,3,20,1602000000,0.00,149.0,10.0,0,0,0,0.0
Status,1732146437000,28,17,3,11,1602000000,0.00,272.0,1.0,0,0,0,0.0
Status,1732146437000,28,18,3,17,1602000000,35.00,0.0,0.0,0,0,0,30.0
Status,1732146437000,28,19,6,29,1575420030,0.00,204.0,61.0,0,0,0,0.0
Status,1732146437000,28,20,6,27,1575420030,42.80,36.0,59.0,1,0,0,37.8
Status,1732146437000,28,21,6,21,1575420030,35.00,269.0,57.0,1,0,0,30.0
Status,1732146437000,28,22,6,19,1575420030,25.90,297.0,50.0,1,0,0,20.9
Status,1732146437000,28,23,6,7,1575420030,0.00,161.0,16.0,0,0,0,0.0
Status,1732146437000,28,24,6,15,1575420030,0.00,95.0,11.0,0,0,0,0.0
Status,1732146437000,28,25,6,30,1575420030,0.00,58.0,10.0,0,0,0,0.0
Status,1732146437000,28,26,6,34,1575420030,0.00,47.0,6.0,0,0,0,0.0
Status,1732146437000,28,27,6,13,1575420030,0.00,142.0,1.0,0,0,0,0.0
Fix,GPS,37.4243900000,-122.1711966667,14.8,0.8786308,1.9,55.96,1732146438000,1.9,82.1,25322044000000,34.6,0,,,
Fix,FLP,37.4243920000,-122.1711946000,2.200000047683716,0.2147019,1.883,91.55236,1732146438196,1.9,82.1,25322044000000,1.0004102,0,,,
Raw,1732146437999,15478000000,,89.87047810045999,-1416181640521999872,0.0,89.87047810045999,2148.6959389060125,0.0,0,14,0.0,16431,344855932675943,58,34.986000061035156,629.1082341416702,0.14999,16,0.0,0.0,1575420030,,,,0,22.341846674408494,1,6.0,34.986000061035156,0.0,0.0,0.0,66.7128,C,25322044000000,
Raw,1732146437999,15478000000,,89.87047810045999,-1416181640521999872,0.0,89.87047810045999,2148.6959389060125,0.0,0,30,0.0,16431,344855931784634,51,38.055999755859375,729.5214107688145,0.14999,16,0.0,0.0,1575420030,,,,0,25.712232832702504,1,6.0,38.055999755859375,0.0,0.0,0.0,66.7128,C,25322044000000,
Raw,1732146437999,15478000000,,89.87047810045999,-1416181640521999872,0.0,89.87047810045999,2148.6959389060125,0.0,0,15,0.0,16431,344855922105177,235,28.025999069213867,156.74721191314043,0.14999,16,0.0,0.0,1575420030,,,,0,14.083033047764468,1,6.0,28.025999069213867,0.0,0.0,0.0,66.7128,C,25322044000000,
Raw,1732146437999,15478000000,,89.87047810045999,-1416181640521999872,0.0,89.87047810045999,2148.6959389060125,0.0,0,13,0.0,16431,344855929822238,74,34.09299850463867,339.0680397595743,0.14999,16,0.0,0.0,1575420030,,,,0,21.330851591224082,1,6.0,34.09299850463867,0.0,0.0,0.0,66.7128,C,25322044000000,
Raw,1732146437999,15478000000,,89.87047810045999,-1416181640521999872,0.0,89.87047810045999,2148.6959389060125,0.0,0,7,0.0,16431,344855926559803,58,34.43899917602539,995.3577227027523,0.14999,16,0.0,0.0,1575420030,,,,0,21.71957321423098,1,6.0,34.43899917602539,0.0,0.0,0.0,66.7128,C,25322044000000,
Raw,1732146437999,15478000000,,89.87047810045999,-1416181640521999872,0.0,89.87047810045999,2148.6959389060125,0.0,0,21,0.0,16431,344855919591631,58,30.0,466.99335619481286,0.14999,16,0.0,0.0,1575420030,,,,0,16.941931435928247,6,6.0,30.0,0.0,0.0,2.8043670534657363,66.7128,C,25322044000000,
