# 
# Header Description:
# 
# Version: v3.1.0.3 Platform: 13 Manufacturer: samsung Model: SM-S135DL GNSS Hardware Model Name: MediaTek,MT6631,MTK_MNLD_default,MNL_VER_default
# 
# Raw,utcTimeMillis,TimeNanos,LeapSecond,TimeUncertaintyNanos,FullBiasNanos,BiasNanos,BiasUncertaintyNanos,DriftNanosPerSecond,DriftUncertaintyNanosPerSecond,HardwareClockDiscontinuityCount,Svid,TimeOffsetNanos,State,ReceivedSvTimeNanos,ReceivedSvTimeUncertaintyNanos,Cn0DbHz,PseudorangeRateMetersPerSecond,PseudorangeRateUncertaintyMetersPerSecond,AccumulatedDeltaRangeState,AccumulatedDeltaRangeMeters,AccumulatedDeltaRangeUncertaintyMeters,CarrierFrequencyHz,CarrierCycles,CarrierPhase,CarrierPhaseUncertainty,MultipathIndicator,SnrInDb,ConstellationType,AgcDb,BasebandCn0DbHz,FullInterSignalBiasNanos,FullInterSignalBiasUncertaintyNanos,SatelliteInterSignalBiasNanos,SatelliteInterSignalBiasUncertaintyNanos,CodeType,ChipsetElapsedRealtimeNanos,IsFullTracking
# 
# UncalAccel,utcTimeMillis,elapsedRealtimeNanos,UncalAccelXMps2,UncalAccelYMps2,UncalAccelZMps2,BiasXMps2,BiasYMps2,BiasZMps2
# 
# Accel,utcTimeMillis,elapsedRealtimeNanos,AccelXMps2,AccelYMps2,AccelZMps2
# 
# UncalGyro,utcTimeMillis,elapsedRealtimeNanos,UncalGyroXRadPerSec,UncalGyroYRadPerSec,UncalGyroZRadPerSec,DriftXRadPerSec,DriftYRadPerSec,DriftZRadPerSec
# 
# Gyro,utcTimeMillis,elapsedRealtimeNanos,GyroXRadPerSec,GyroYRadPerSec,GyroZRadPerSec
# 
# UncalMag,utcTimeMillis,elapsedRealtimeNanos,UncalMagXMicroT,UncalMagYMicroT,UncalMagZMicroT,BiasXMicroT,BiasYMicroT,BiasZMicroT
# 
# Mag,utcTimeMillis,elapsedRealtimeNanos,MagXMicroT,MagYMicroT,MagZMicroT
# 
# Pressure,utcTimeMillis,elapsedRealtimeNanos,PressureHpa
# 
# OrientationDeg,utcTimeMillis,elapsedRealtimeNanos,yawDeg,rollDeg,pitchDeg
# 
# Fix,Provider,LatitudeDegrees,LongitudeDegrees,AltitudeMeters,SpeedMps,AccuracyMeters,BearingDegrees,UnixTimeMillis,SpeedAccuracyMps,BearingAccuracyDegrees,elapsedRealtimeNanos,VerticalAccuracyMeters,MockLocation,NumberOfUsedSignals,VerticalSpeedAccuracyMps,SolutionType
# 
# Nav,Svid,Type,Status,MessageId,Sub-messageId,Data(Bytes)
# 
# Status,UnixTimeMillis,SignalCount,SignalIndex,ConstellationType,Svid,CarrierFrequencyHz,Cn0DbHz,AzimuthDegrees,ElevationDegrees,UsedInFix,HasAlmanacData,HasEphemerisData,BasebandCn0DbHz
# 
# Agc,utcTimeMillis,TimeNanos,LeapSecond,TimeUncertaintyNanos,FullBiasNanos,BiasNanos,BiasUncertaintyNanos,DriftNanosPerSecond,DriftUncertaintyNanosPerSecond,HardwareClockDiscontinuityCount,AgcDb,CarrierFrequencyHz,ConstellationType
# 
Fix,FLP,37.4244275000,-122.1712090000,0.3538691375120724,0.21928714,1.958,328.04718,1732146760198,1.9,90.2,25644045000000,0.85201484,0,,,
Status,,29,0,1,14,1575420030,39.00,330.0,74.0,1,0,0,34.0
Status,,29,1,1,30,1575420030,47.30,81.0,68.0,1,0,0,42.3
Status,,29,2,1,22,1575420030,50.00,275.0,61.0,1,0,0,45.0
Status,,29,3,1,13,1575420030,41.00,300.0,50.0,1,0,0,36.0
Status,,29,4,1,17,1575420030,45.70,175.0,48.0,1,0,0,40.7
Status,,29,5,1,7,1575420030,32.80,106.0,36.0,1,0,0,27.8
Status,,29,6,2,131,1575420030,45.00,5.0,22.0,0,0,0,40.0
Status,,29,7,1,19,1575420030,37.70,193.0,20.0,1,0,0,32.7
Status,,29,8,1,15,1575420030,35.50,314.0,19.0,1,0,0,30.5
Status,,29,9,1,2,1575420030,25.70,85.0,17.0,1,0,0,20.7
Status,,29,10,1,21,1575420030,0.00,66.0,14.0,0,0,0,0.0
Status,,29,11,1,8,1575420030,0.00,39.0,7.0,0,0,0,0.0
Status,,29,12,1,5,1575420030,0.00,260.0,5.0,0,0,0,0.0
Status,,29,13,3,9,1602000000,30.50,22.0,53.0,1,0,0,25.5
Status,,29,14,3,8,1602000000,40.20,299.0,39.0,1,0,0,35.2
Status,,29,15,3,16,1602000000,24.20,70.0,13.0,1,0,0,19.2
Status,,29,16,3,20,1602000000,25.50,148.0,13.0,1,0,0,20.5
Status,,29,17,3,11,1602000000,0.00,274.0,3.0,0,0,0,0.0
Status,,29,18,3,17,1602000000,44.80,0.0,0.0,0,0,0,39.8
Status,,29,19,6,29,1575420030,38.70,202.0,59.0,1,0,0,33.7
Status,,29,20,6,21,1575420030,45.80,272.0,58.0,1,0,0,40.8
Status,,29,21,6,27,1575420030,0.00,38.0,57.0,0,0,0,0.0
Status,,29,22,6,19,1575420030,29.00,294.0,51.0,1,0,0,24.0
Status,,29,23,6,7,1575420030,26.20,161.0,14.0,1,0,0,21.2
Status,,29,24,6,15,1575420030,0.00,93.0,12.0,0,0,0,0.0
Status,,29,25,6,30,1575420030,0.00,60.0,9.0,0,0,0,0.0
Status,,29,26,6,34,1575420030,0.00,45.0,6.0,0,0,0,0.0
Status,,29,27,6,13,1575420030,0.00,141.0,3.0,0,0,0,0.0
Status,,29,28,6,4,1575420030,0.00,326.0,2.0,0,0,0,0.0
Fix,GPS,37.4244083333,-122.1712283333,14.599999999999998,0.8410561,1.9,229.86,1732146761000,2.0,93.1,25645045000000,30.9,0,,,
Fix,FLP,37.4244190000,-122.1712191000,-0.23844071696326719,0.20767656,1.981,316.949,1732146761197,2.0,93.1,25645045000000,0.86249495,0,,,
Raw,1732146761000,8886000000,,690611.3632952034,-1416181970114999808,0.0,78.0643547147023,2116.31947876432,0.0,0,30,0.0,16431,345178932205844,31,42.30400085449219,744.2980210871546,0.14999,16,0.0,0.0,1575420030,,,,0,30.236631079756883,1,6.0,42.30400085449219,0.0,0.0,0.0,66.7128,C,25645045000000,
Raw,1732146761000,8886000000,,690611.3632952034,-1416181970114999808,0.0,78.0643547147023,2116.31947876432,0.0,0,22,0.0,16431,345178931148564,28,44.96900177001953,493.42368855223674,0.14999,16,0.0,0.0,1575420030,,,,0,33.01451292691908,1,6.0,44.96900177001953,0.0,0.0,0.0,66.7128,C,25645045000000,
Raw,1732146761000,8886000000,,690611.3632952034,-1416181970114999808,0.0,78.0643547147023,2116.31947876432,0.0,0,14,0.0,16431,345178933207631,58,33.99100112915039,639.861173948848,0.14999,16,0.0,0.0,1575420030,,,,0,21.223337234691666,1,6.0,33.99100112915039,0.0,0.0,0.0,66.7128,C,25645045000000,
Raw,1732146761000,8886000000,,690611.3632952034,-1416181970114999808,0.0,78.0643547147023,2116.31947876432,0.0,0,29,0.0,16431,345178921011517,58,33.70000076293945,944.297786200225,0.14999,16,0.0,0.0,1575420030,,,,0,21.022703146086666,6,6.0,33.70000076293945,0.0,0.0,2.630854702564849,66.7128,C,25645045000000,
Raw,1732146761000,8886000000,,690611.3632952034,-1416181970114999808,0.0,78.0643547147023,2116.31947876432,0.0,0,7,0.0,16431,345178909551604,316,21.200000762939453,1225.2985433110284,0.14999,16,0.0,0.0,1575420030,,,,0,6.031438561273179,6,6.0,21.200000762939453,0.0,0.0,2.630854702564849,66.7128,C,25645045000000,
Raw,1732146761000,8886000000,,690611.3632952034,-1416181970114999808,0.0,78.0643547147023,2116.31947876432,0.0,0,19,0.0,16431,345178920700665,235,24.0,469.16152402094247,0.14999,16,0.0,0.0,1575420030,,,,0,9.82833073205179,6,6.0,24.0,0.0,0.0,2.630854702564849,66.7128,C,25645045000000,
Raw,1732146761000,8886000000,,690611.3632952034,-1416181970114999808,0.0,78.0643547147023,2116.31947876432,0.0,0,21,0.0,16431,345178920302652,31,40.79999923706055,470.0334091179657,0.14999,16,0.0,0.0,1575420030,,,,0,28.55449311063736,6,6.0,40.79999923706055,0.0,0.0,2.630854702564849,66.7128,C,25645045000000,
Raw,1732146761000,8886000000,,690611.3632952034,-1416181970114999808,0.0,78.0643547147023,2116.31947876432,0.0,0,9,0.0,17,931465,316,5.0,776.2204005472312,0.14999,16,0.0,0.0,1600875010,,,,0,11.651202561442762,3,6.0,24.0,0.0,0.0,34.7681029611403,66.7128,C,25645045000000,
Raw,1732146761000,8886000000,,690611.3632952034,-1416181970114999808,0.0,78.0643547147023,2116.31947876432,0.0,0,8,0.0,17,859868,58,5.0,494.1442679092976,0.14999,16,0.0,0.0,1605374980,,,,0,22.61309659804325,3,6.0,35.0,0.0,0.0,34.7681029611403,66.7128,C,25645045000000,
Raw,1732146761000,8886000000,,690611.3632952034,-1416181970114999808,0.0,78.0643547147023,2116.31947876432,0.0,0,16,0.0,17,119957,487,5.0,1119.9274037740386,0.14999,16,0.0,0.0,1601437440,,,,0,4.2734250773928615,3,6.0,20.0,0.0,0.0,34.7681029611403,66.7128,C,25645045000000,
Raw,1732146761000,8886000000,,690611.3632952034,-1416181970114999808,0.0,78.0643547147023,2116.31947876432,0.0,0,20,0.0,17,199655,487,5.0,-147.40508077900952,0.14999,16,0.0,0.0,1603124990,,,,0,5.0,3,6.0,19.0,0.0,0.0,34.7681029611403,66.7128,C,25645045000000,
Raw,1732146761000,8886000000,,690611.3632952034,-1416181970114999808,0.0,78.0643547147023,2116.31947876432,0.0,0,2,0.0,16431,345178920761081,487,20.665000915527344,442.3475845208682,0.14999,16,0.0,0.0,1575420030,,,,0,3.3861106246026926,1,6.0,20.665000915527344,0.0,0.0,0.0,66.7128,C,25645045000000,
Raw,1732146761000,8886000000,,690611.3632952034,-1416181970114999808,0.0,78.0643547147023,2116.31947876432,0.0,0,15,0.0,16431,345178923140122,74,30.500999450683594,178.7090808826023,0.14999,16,0.0,0.0,1575420030,,,,0,17.163076154578143,1,6.0,30.500999450683594,0.0,0.0,0.0,66.7128,C,25645045000000,
Raw,1732146761000,8886000000,,690611.3632952034,-1416181970114999808,0.0,78.0643547147023,2116.31947876432,0.0,0,19,0.0,16431,345178921719481,74,32.69300079345703,-57.77847390439806,0.14999,16,0.0,0.0,1575420030,,,,0,19.738317795989282,1,6.0,32.69300079345703,0.0,0.0,0.0,66.7128,C,25645045000000,
Raw,1732146761000,8886000000,,690611.3632952034,-1416181970114999808,0.0,78.0643547147023,2116.31947876432,0.0,0,13,0.0,16431,345178930658541,51,35.95199966430664,365.8251141582069,0.14999,16,0.0,0.0,1575420030,,,,0,23.417885537209393,1,6.0,35.95199966430664,0.0,0.0,0.0,66.7128,C,25645045000000,
Raw,1732146761000,8886000000,,690611.3632952034,-1416181970114999808,0.0,78.0643547147023,2116.31947876432,0.0,0,7,0.0,16431,345178926697372,235,27.820999145507812,1005.218056959277,0.14999,16,0.0,0.0,1575420030,,,,0,13.820917785487655,1,6.0,27.820999145507812,0.0,0.0,0.0,66.7128,C,25645045000000,
Raw,1732146761000,8886000000,,690611.3632952034,-1416181970114999808,0.0,78.0643547147023,2116.31947876432,0.0,0,17,0.0,16431,345178930109456,42,40.71900177001953,174.3938838097189,0.14999,16,0.0,0.0,1575420030,,,,0,28.564520112776076,1,6.0,40.71900177001953,0.0,0.0,0.0,66.7128,C,25645045000000,
Status,1732146761000,29,0,1,14,1575420030,40.10,330.0,74.0,1,0,0,35.1
Status,1732146761000,29,1,1,30,1575420030,44.00,81.0,68.0,1,0,0,39.0
Status,1732146761000,29,2,1,22,1575420030,47.20,275.0,61.0,1,0,0,42.2
Status,1732146761000,29,3,1,13,1575420030,45.80,300.0,50.0,1,0,0,40.8
Status,1732146761000,29,4,1,17,1575420030,40.20,175.0,48.0,1,0,0,35.2
Status,1732146761000,29,5,1,7,1575420030,43.20,106.0,36.0,1,0,0,38.2
Status,1732146761000,29,6,2,131,1575420030,39.00,6.0,22.0,0,0,0,34.0
Status,1732146761000,29,7,1,19,1575420030,34.10,193.0,20.0,1,0,0,29.099998
Status,1732146761000,29,8,1,15,1575420030,34.60,314.0,19.0,1,0,0,29.599998
Status,1732146761000,29,9,1,2,1575420030,27.10,85.0,17.0,1,0,0,22.1
Status,1732146761000,29,10,1,21,1575420030,24.40,66.0,14.0,1,0,0,19.4
Status,1732146761000,29,11,1,8,1575420030,0.00,39.0,7.0,0,0,0,0.0
Status,1732146761000,29,12,1,5,1575420030,0.00,260.0,5.0,0,0,0,0.0
Status,1732146761000,29,13,3,9,1602000000,25.70,22.0,53.0,1,0,0,20.7
Status,1732146761000,29,14,3,8,1602000000,42.80,299.0,39.0,1,0,0,37.8
Status,1732146761000,29,15,3,16,1602000000,24.20,70.0,13.0,1,0,0,19.2
Status,1732146761000,29,16,3,20,1602000000,25.50,148.0,13.0,1,0,0,20.5
Status,1732146761000,29,17,3,11,1602000000,0.00,274.0,3.0,0,0,0,0.0
Status,1732146761000,29,18,3,17,1602000000,45.90,0.0,0.0,0,0,0,40.9
Status,1732146761000,29,19,6,29,1575420030,42.80,202.0,59.0,1,0,0,37.8
Status,1732146761000,29,20,6,21,1575420030,41.40,272.0,58.0,1,0,0,36.4
Status,1732146761000,29,21,6,27,1575420030,0.00,38.0,57.0,0,0,0,0.0
Status,1732146761000,29,22,6,19,1575420030,34.50,294.0,51.0,1,0,0,29.5
Status,1732146761000,29,23,6,7,1575420030,23.60,161.0,14.0,1,0,0,18.6
Status,1732146761000,29,24,6,15,1575420030,0.00,93.0,12.0,0,0,0,0.0
Status,1732146761000,29,25,6,30,1575420030,0.00,60.0,9.0,0,0,0,0.0
Status,1732146761000,29,26,6,34,1575420030,0.00,45.0,6.0,0,0,0,0.0
Status,1732146761000,29,27,6,13,1575420030,0.00,141.0,3.0,0,0,0,0.0
Status,1732146761000,29,28,6,4,1575420030,0.00,326.0,2.0,0,0,0,0.0
Fix,GPS,37.4244016667,-122.1712283333,14.500000000000004,0.51060444,1.8,201.04,1732146762000,1.5,104.1,25646045000000,29.6,0,,,
Raw,1732146762000,9886000000,,688599.7112042091,-1416181970114999808,0.0,75.46806853534532,2113.07427251897,0.0,0,30,0.0,16431,345179932203365,42,39.04100036621094,743.8425427746264,0.14999,16,0.0,0.0,1575420030,,,,0,26.77966084258653,1,6.0,39.04100036621094,0.0,0.0,0.0,66.7128,C,25646045000000,
Raw,1732146762000,9886000000,,688599.7112042091,-1416181970114999808,0.0,75.46806853534532,2113.07427251897,0.0,0,22,0.0,16431,345179931146915,31,42.20199966430664,492.88175112714083,0.14999,16,0.0,0.0,1575420030,,,,0,30.128497947218534,1,6.0,42.20199966430664,0.0,0.0,0.0,66.7128,C,25646045000000,
Raw,1732146762000,9886000000,,688599.7112042091,-1416181970114999808,0.0,75.46806853534532,2113.07427251897,0.0,0,14,0.0,16431,345179933205501,58,35.12799835205078,639.3156127672877,0.14999,16,0.0,0.0,1575420030,,,,0,22.501225267834002,1,6.0,35.12799835205078,0.0,0.0,0.0,66.7128,C,25646045000000,
Raw,1732146762000,9886000000,,688599.7112042091,-1416181970114999808,0.0,75.46806853534532,2113.07427251897,0.0,0,29,0.0,16431,345179921008372,42,37.79999923706055,943.5377265110207,0.14999,16,0.0,0.0,1575420030,,,,0,25.43097628780115,6,6.0,37.79999923706055,0.0,0.0,3.038320957746026,66.7128,C,25646045000000,
Raw,1732146762000,9886000000,,688599.7112042091,-1416181970114999808,0.0,75.46806853534532,2113.07427251897,0.0,0,7,0.0,16431,345179909547518,487,18.600000381469727,1224.3849850146644,0.14999,16,0.0,0.0,1575420030,,,,0,2.009195367727299,6,6.0,18.600000381469727,0.0,0.0,3.038320957746026,66.7128,C,25646045000000,
Raw,1732146762000,9886000000,,688599.7112042091,-1416181970114999808,0.0,75.46806853534532,2113.07427251897,0.0,0,19,0.0,16431,345179920699099,74,29.5,468.8203798707085,0.14999,16,0.0,0.0,1575420030,,,,0,16.46550630872124,6,6.0,29.5,0.0,0.0,3.038320957746026,66.7128,C,25646045000000,
Raw,1732146762000,9886000000,,688599.7112042091,-1416181970114999808,0.0,75.46806853534532,2113.07427251897,0.0,0,21,0.0,16431,345179920301087,51,36.400001525878906,469.5243177931306,0.14999,16,0.0,0.0,1575420030,,,,0,23.885360935064234,6,6.0,36.400001525878906,0.0,0.0,3.038320957746026,66.7128,C,25646045000000,
Raw,1732146762000,9886000000,,688599.7112042091,-1416181970114999808,0.0,75.46806853534532,2113.07427251897,0.0,0,9,0.0,17,928874,487,5.0,777.4115815024602,0.14999,16,0.0,0.0,1600875010,,,,0,5.257760447041974,3,6.0,18.0,0.0,0.0,33.722406431773265,66.7128,C,25646045000000,
Raw,1732146762000,9886000000,,688599.7112042091,-1416181970114999808,0.0,75.46806853534532,2113.07427251897,0.0,0,8,0.0,17,858216,51,5.0,493.915945478416,0.14999,16,0.0,0.0,1605374980,,,,0,25.40077698877011,3,6.0,38.0,0.0,0.0,33.722406431773265,66.7128,C,25646045000000,
Raw,1732146762000,9886000000,,688599.7112042091,-1416181970114999808,0.0,75.46806853534532,2113.07427251897,0.0,0,16,0.0,17,116207,396,5.0,1119.0760364253028,0.14999,16,0.0,0.0,1601437440,,,,0,3.9901801547347846,3,6.0,23.0,0.0,0.0,33.722406431773265,66.7128,C,25646045000000,
Raw,1732146762000,9886000000,,688599.7112042091,-1416181970114999808,0.0,75.46806853534532,2113.07427251897,0.0,0,20,0.0,17,200151,396,5.0,-149.09168728842656,0.14999,16,0.0,0.0,1603124990,,,,0,5.434384993864726,3,6.0,22.0,0.0,0.0,33.722406431773265,66.7128,C,25646045000000,
Raw,1732146762000,9886000000,,688599.7112042091,-1416181970114999808,0.0,75.46806853534532,2113.07427251897,0.0,0,21,0.0,16431,345179920745522,487,19.39699935913086,650.1877648704616,0.14999,16,0.0,0.0,1575420030,,,,0,1.2291686478936237,1,6.0,19.39699935913086,0.0,0.0,0.0,66.7128,C,25646045000000,
Raw,1732146762000,9886000000,,688599.7112042091,-1416181970114999808,0.0,75.46806853534532,2113.07427251897,0.0,0,2,0.0,16431,345179920759560,487,22.05900001525879,442.5160427380476,0.14999,16,0.0,0.0,1575420030,,,,0,5.689430221562869,1,6.0,22.05900001525879,0.0,0.0,0.0,66.7128,C,25646045000000,
Raw,1732146762000,9886000000,,688599.7112042091,-1416181970114999808,0.0,75.46806853534532,2113.07427251897,0.0,0,15,0.0,16431,345179923139527,74,29.631000518798828,177.91097175052147,0.14999,16,0.0,0.0,1575420030,,,,0,16.094522250646644,1,6.0,29.631000518798828,0.0,0.0,0.0,66.7128,C,25646045000000,
Raw,1732146762000,9886000000,,688599.7112042091,-1416181970114999808,0.0,75.46806853534532,2113.07427251897,0.0,0,19,0.0,16431,345179921719667,235,29.125999450683594,-59.191042049279474,0.14999,16,0.0,0.0,1575420030,,,,0,15.483970075676762,1,6.0,29.125999450683594,0.0,0.0,0.0,66.7128,C,25646045000000,
Raw,1732146762000,9886000000,,688599.7112042091,-1416181970114999808,0.0,75.46806853534532,2113.07427251897,0.0,0,13,0.0,16431,345179930657320,42,40.827999114990234,365.1951148051839,0.14999,16,0.0,0.0,1575420030,,,,0,28.679006275488653,1,6.0,40.827999114990234,0.0,0.0,0.0,66.7128,C,25646045000000,
Raw,1732146762000,9886000000,,688599.7112042091,-1416181970114999808,0.0,75.46806853534532,2113.07427251897,0.0,0,7,0.0,16431,345179926694016,51,38.231998443603516,1004.7178856503543,0.14999,16,0.0,0.0,1575420030,,,,0,25.906459575733148,1,6.0,38.231998443603516,0.0,0.0,0.0,66.7128,C,25646045000000,
Raw,1732146762000,9886000000,,688599.7112042091,-1416181970114999808,0.0,75.46806853534532,2113.07427251897,0.0,0,17,0.0,16431,345179930108875,58,35.24399948120117,173.87471100856612,0.14999,16,0.0,0.0,1575420030,,,,0,22.631166201317065,1,6.0,35.24399948120117,0.0,0.0,0.0,66.7128,C,25646045000000,
Fix,FLP,37.4244111000,-122.1712244000,-0.48878601259542,0.18788333,1.981,307.0479,1732146762197,1.5,104.1,25646045000000,0.8694138,0,,,
Status,1732146762000,29,0,1,14,1575420030,45.60,330.0,74.0,1,0,0,40.6
Status,1732146762000,29,1,1,30,1575420030,40.40,81.0,68.0,1,0,0,35.4
Status,1732146762000,29,2,1,22,1575420030,38.80,275.0,61.0,1,0,0,33.8
Status,1732146762000,29,3,1,13,1575420030,45.80,300.0,50.0,1,0,0,40.8
Status,1732146762000,29,4,1,17,1575420030,44.00,175.0,48.0,1,0,0,39.0
Status,1732146762000,29,5,1,7,1575420030,35.70,106.0,36.0,1,0,0,30.7
Status,1732146762000,29,6,2,131,1575420030,38.00,6.0,22.0,0,0,0,33.0
Status,1732146762000,29,7,1,19,1575420030,41.50,193.0,20.0,1,0,0,36.5
Status,1732146762000,29,8,1,15,1575420030,34.00,314.0,19.0,1,0,0,29.0
Status,1732146762000,29,9,1,2,1575420030,0.00,85.0,17.0,0,0,0,0.0
Status,1732146762000,29,10,1,21,1575420030,0.00,66.0,14.0,0,0,0,0.0
Status,1732146762000,29,11,1,8,1575420030,0.00,39.0,7.0,0,0,0,0.0
Status,1732146762000,29,12,1,5,1575420030,0.00,260.0,5.0,0,0,0,0.0
Status,1732146762000,29,13,3,9,1602000000,30.70,22.0,53.0,1,0,0,25.7
Status,1732146762000,29,14,3,8,1602000000,40.80,299.0,39.0,1,0,0,35.8
Status,1732146762000,29,15,3,16,1602000000,23.70,70.0,13.0,1,0,0,18.7
Status,1732146762000,29,16,3,20,1602000000,25.60,148.0,13.0,1,0,0,20.6
Status,1732146762000,29,17,3,11,1602000000,0.00,274.0,3.0,0,0,0,0.0
Status,1732146762000,29,18,3,17,1602000000,43.80,0.0,0.0,0,0,0,38.8
Status,1732146762000,29,19,6,29,1575420030,39.10,202.0,59.0,1,0,0,34.1
Status,1732146762000,29,20,6,21,1575420030,35.60,272.0,58.0,1,0,0,30.599998
Status,1732146762000,29,21,6,27,1575420030,0.00,38.0,57.0,0,0,0,0.0
Status,1732146762000,29,22,6,19,1575420030,35.30,294.0,51.0,1,0,0,30.3
Status,1732146762000,29,23,6,7,1575420030,21.70,161.0,14.0,1,0,0,16.7
Status,1732146762000,29,24,6,15,1575420030,0.00,93.0,12.0,0,0,0,0.0
Status,1732146762000,29,25,6,30,1575420030,0.00,60.0,9.0,0,0,0,0.0
Status,1732146762000,29,26,6,34,1575420030,0.00,45.0,6.0,0,0,0,0.0
Status,1732146762000,29,27,6,13,1575420030,0.00,141.0,3.0,0,0,0,0.0
Status,1732146762000,29,28,6,4,1575420030,0.00,326.0,2.0,0,0,0,0.0
Fix,GPS,37.4243950000,-122.1712350000,14.500000000000004,0.42721945,1.8,209.62,1732146763000,1.2,103.2,25647045000000,31.5,0,,,
Raw,1732146763000,10886000000,,687296.7785767312,-1416181970114999808,0.0,80.88530396721063,2111.576035984134,0.0,0,30,0.0,16431,345180932200876,58,35.374000549316406,743.3483646013949,0.14999,16,0.0,0.0,1575420030,,,,0,22.778721668913015,1,6.0,35.374000549316406,0.0,0.0,0.0,66.7128,C,25647045000000,
Raw,1732146763000,10886000000,,687296.7785767312,-1416181970114999808,0.0,80.88530396721063,2111.576035984134,0.0,0,22,0.0,16431,345180931145271,58,33.819000244140625,492.661120108557,0.14999,16,0.0,0.0,1575420030,,,,0,21.022703146086666,1,6.0,33.819000244140625,0.0,0.0,0.0,66.7128,C,25647045000000,
Raw,1732146763000,10886000000,,687296.7785767312,-1416181970114999808,0.0,80.88530396721063,2111.576035984134,0.0,0,14,0.0,16431,345180933203373,42,40.62699890136719,638.9371160504204,0.14999,16,0.0,0.0,1575420030,,,,0,28.468792981947026,1,6.0,40.62699890136719,0.0,0.0,0.0,66.7128,C,25647045000000,
Raw,1732146763000,10886000000,,687296.7785767312,-1416181970114999808,0.0,80.88530396721063,2111.576035984134,0.0,0,29,0.0,16431,345180921005225,58,34.099998474121094,943.3922187514493,0.14999,17,9853.340451984644,0.00039999998989515007,1575420030,,,,0,21.430840153304235,6,6.0,34.099998474121094,0.0,0.0,3.7799534353981583,66.7128,C,25647045000000,
Raw,1732146763000,10886000000,,687296.7785767312,-1416181970114999808,0.0,80.88530396721063,2111.576035984134,0.0,0,7,0.0,16431,345180909543432,487,16.700000762939453,1225.9749778510538,0.14999,16,0.0,0.0,1575420030,,,,0,0.0,6,6.0,16.700000762939453,0.0,0.0,3.7799534353981583,66.7128,C,25647045000000,
Raw,1732146763000,10886000000,,687296.7785767312,-1416181970114999808,0.0,80.88530396721063,2111.576035984134,0.0,0,19,0.0,16431,345180920697535,74,30.299999237060547,468.3094766676412,0.14999,16,0.0,0.0,1575420030,,,,0,17.292442859713614,6,6.0,30.299999237060547,0.0,0.0,3.7799534353981583,66.7128,C,25647045000000,
Raw,1732146763000,10886000000,,687296.7785767312,-1416181970114999808,0.0,80.88530396721063,2111.576035984134,0.0,0,21,0.0,16431,345180920299524,74,30.600000381469727,469.07994304207676,0.14999,16,0.0,0.0,1575420030,,,,0,17.68691636935365,6,6.0,30.600000381469727,0.0,0.0,3.7799534353981583,66.7128,C,25647045000000,
Raw,1732146763000,10886000000,,687296.7785767312,-1416181970114999808,0.0,80.88530396721063,2111.576035984134,0.0,0,9,0.0,17,926277,316,5.0,775.363796326107,0.14999,16,0.0,0.0,1600875010,,,,0,11.985316431499815,3,6.0,26.0,0.0,0.0,34.001530266929535,66.7128,C,25647045000000,
Raw,1732146763000,10886000000,,687296.7785767312,-1416181970114999808,0.0,80.88530396721063,2111.576035984134,0.0,0,8,0.0,17,856569,51,5.0,493.3100795071729,0.14999,16,0.0,0.0,1605374980,,,,0,23.343689385945623,3,6.0,36.0,0.0,0.0,34.001530266929535,66.7128,C,25647045000000,
Raw,1732146763000,10886000000,,687296.7785767312,-1416181970114999808,0.0,80.88530396721063,2111.576035984134,0.0,0,16,0.0,17,112463,487,5.0,1120.9519879067398,0.14999,16,0.0,0.0,1601437440,,,,0,2.14076318516855,3,6.0,19.0,0.0,0.0,34.001530266929535,66.7128,C,25647045000000,
Raw,1732146763000,10886000000,,687296.7785767312,-1416181970114999808,0.0,80.88530396721063,2111.576035984134,0.0,0,20,0.0,17,200643,487,5.0,-148.02316531488975,0.14999,16,0.0,0.0,1603124990,,,,0,6.242958134976888,3,6.0,20.0,0.0,0.0,34.001530266929535,66.7128,C,25647045000000,
Raw,1732146763000,10886000000,,687296.7785767312,-1416181970114999808,0.0,80.88530396721063,2111.576035984134,0.0,0,15,0.0,16431,345180923138979,235,28.95599937438965,177.63932939093846,0.14999,16,0.0,0.0,1575420030,,,,0,15.255079633637472,1,6.0,28.95599937438965,0.0,0.0,0.0,66.7128,C,25647045000000,
Raw,1732146763000,10886000000,,687296.7785767312,-1416181970114999808,0.0,80.88530396721063,2111.576035984134,0.0,0,7,0.0,16431,345180926690696,74,30.72800064086914,1004.4032692557765,0.14999,16,0.0,0.0,1575420030,,,,0,17.419911033019048,1,6.0,30.72800064086914,0.0,0.0,0.0,66.7128,C,25647045000000,
Raw,1732146763000,10886000000,,687296.7785767312,-1416181970114999808,0.0,80.88530396721063,2111.576035984134,0.0,0,19,0.0,16431,345180921719877,51,36.472999572753906,-58.85603040998529,0.14999,16,0.0,0.0,1575420030,,,,0,23.987800132898258,1,6.0,36.472999572753906,0.0,0.0,0.0,66.7128,C,25647045000000,
Raw,1732146763000,10886000000,,687296.7785767312,-1416181970114999808,0.0,80.88530396721063,2111.576035984134,0.0,0,13,0.0,16431,345180930656119,42,40.779998779296875,364.9505112438354,0.14999,16,0.0,0.0,1575420030,,,,0,28.629414992401077,1,6.0,40.779998779296875,0.0,0.0,0.0,66.7128,C,25647045000000,
Raw,1732146763000,10886000000,,687296.7785767312,-1416181970114999808,0.0,80.88530396721063,2111.576035984134,0.0,0,17,0.0,16431,345180930108292,42,39.025001525878906,173.45872234981695,0.14999,16,0.0,0.0,1575420030,,,,0,26.76118021936361,1,6.0,39.025001525878906,0.0,0.0,0.0,66.7128,C,25647045000000,
Fix,FLP,37.4244036000,-122.1712305000,-0.5722327969455447,0.17485012,1.85,292.44815,1732146763197,1.2,103.2,25647045000000,0.87476516,0,,,
Status,1732146763000,29,0,1,14,1575420030,43.40,330.0,74.0,1,0,0,38.4
Status,1732146763000,29,1,1,30,1575420030,46.90,81.0,68.0,1,0,0,41.9
Status,1732146763000,29,2,1,22,1575420030,47.80,275.0,61.0,1,0,0,42.8
Status,1732146763000,29,3,1,13,1575420030,49.50,300.0,50.0,1,0,0,44.5
Status,1732146763000,29,4,1,17,1575420030,37.70,175.0,48.0,1,0,0,32.7
Status,1732146763000,29,5,1,7,1575420030,37.00,106.0,36.0,1,0,0,32.0
Status,1732146763000,29,6,2,131,1575420030,40.00,6.0,22.0,0,0,0,35.0
Status,1732146763000,29,7,1,19,1575420030,43.30,193.0,20.0,1,0,0,38.3
Status,1732146763000,29,8,1,15,1575420030,31.10,314.0,19.0,0,0,0,26.1
Status,1732146763000,29,9,1,2,1575420030,0.00,85.0,17.0,0,0,0,0.0
Status,1732146763000,29,10,1,21,1575420030,0.00,66.0,14.0,0,0,0,0.0
Status,1732146763000,29,11,1,8,1575420030,0.00,39.0,7.0,0,0,0,0.0
Status,1732146763000,29,12,1,5,1575420030,0.00,260.0,5.0,0,0,0,0.0
Status,1732146763000,29,13,3,9,1602000000,30.20,22.0,53.0,1,0,0,25.2
Status,1732146763000,29,14,3,8,1602000000,46.00,299.0,39.0,1,0,0,41.0
Status,1732146763000,29,15,3,16,1602000000,22.30,70.0,13.0,1,0,0,17.3
Status,1732146763000,29,16,3,20,1602000000,25.60,148.0,13.0,1,0,0,20.6
Status,1732146763000,29,17,3,11,1602000000,0.00,274.0,3.0,0,0,0,0.0
Status,1732146763000,29,18,3,17,1602000000,50.10,0.0,0.0,0,0,0,45.1
Status,1732146763000,29,19,6,29,1575420030,40.20,202.0,59.0,1,0,0,35.2
Status,1732146763000,29,20,6,21,1575420030,45.20,272.0,58.0,1,0,0,40.2
Status,1732146763000,29,21,6,27,1575420030,0.00,38.0,57.0,0,0,0,0.0
Status,1732146763000,29,22,6,19,1575420030,42.40,294.0,51.0,1,0,0,37.4
Status,1732146763000,29,23,6,7,1575420030,27.00,161.0,14.0,1,0,0,22.0
Status,1732146763000,29,24,6,15,1575420030,0.00,93.0,12.0,0,0,0,0.0
Status,1732146763000,29,25,6,30,1575420030,0.00,60.0,9.0,0,0,0,0.0
Status,1732146763000,29,26,6,34,1575420030,0.00,45.0,6.0,0,0,0,0.0
Status,1732146763000,29,27,6,13,1575420030,0.00,141.0,3.0,0,0,0,0.0
Status,1732146763000,29,28,6,4,1575420030,0.00,326.0,2.0,0,0,0,0.0
Fix,GPS,37.4243900000,-122.1712383333,14.400000000000002,0.37111473,1.8,191.2,1732146764000,1.0,103.1,25648045000000,30.3,0,,,
Raw,1732146764000,11886000000,,685514.0869654566,-1416181970114999808,0.0,77.54392428358031,2111.556112113292,0.0,0,30,0.0,16431,345181932198398,31,41.92599868774414,743.2835551107812,0.14999,16,0.0,0.0,1575420030,,,,0,29.83915427194214,1,6.0,41.92599868774414,0.0,0.0,0.0,66.7128,C,25648045000000,
Raw,1732146764000,11886000000,,685514.0869654566,-1416181970114999808,0.0,77.54392428358031,2111.556112113292,0.0,0,22,0.0,16431,345181931143630,31,42.79800033569336,492.83961334363784,0.14999,16,0.0,0.0,1575420030,,,,0,30.754087744480472,1,6.0,42.79800033569336,0.0,0.0,0.0,66.7128,C,25648045000000,
Raw,1732146764000,11886000000,,685514.0869654566,-1416181970114999808,0.0,77.54392428358031,2111.556112113292,0.0,0,14,0.0,16431,345181933201240,42,38.43299865722656,639.342837399187,0.14999,16,0.0,0.0,1575420030,,,,0,26.121517732445763,1,6.0,38.43299865722656,0.0,0.0,0.0,66.7128,C,25648045000000,
Raw,1732146764000,11886000000,,685514.0869654566,-1416181970114999808,0.0,77.54392428358031,2111.556112113292,0.0,0,29,0.0,16431,345181921002076,51,35.20000076293945,943.3193719548311,0.14999,16,0.0,0.0,1575420030,,,,0,22.631166201317065,6,6.0,35.20000076293945,0.0,0.0,4.22822285698054,66.7128,C,25648045000000,
Raw,1732146764000,11886000000,,685514.0869654566,-1416181970114999808,0.0,77.54392428358031,2111.556112113292,0.0,0,7,0.0,16431,345181909539346,396,22.0,1224.2036113577785,0.14999,16,0.0,0.0,1575420030,,,,0,7.102795686730332,6,6.0,22.0,0.0,0.0,4.22822285698054,66.7128,C,25648045000000,
Raw,1732146764000,11886000000,,685514.0869654566,-1416181970114999808,0.0,77.54392428358031,2111.556112113292,0.0,0,19,0.0,16431,345181920695971,51,37.400001525878906,468.49540324931576,0.14999,16,0.0,0.0,1575420030,,,,0,24.96594506343609,6,6.0,37.400001525878906,0.0,0.0,4.22822285698054,66.7128,C,25648045000000,
Raw,1732146764000,11886000000,,685514.0869654566,-1416181970114999808,0.0,77.54392428358031,2111.556112113292,0.0,0,21,0.0,16431,345181920297961,42,40.20000076293945,469.12161624141766,0.14999,16,0.0,0.0,1575420030,,,,0,27.930649389894832,6,6.0,40.20000076293945,0.0,0.0,4.22822285698054,66.7128,C,25648045000000,
Raw,1732146764000,11886000000,,685514.0869654566,-1416181970114999808,0.0,77.54392428358031,2111.556112113292,0.0,0,9,0.0,17,923692,316,5.0,775.2932051157411,0.14999,16,0.0,0.0,1600875010,,,,0,11.354220140664381,3,6.0,26.0,0.0,0.0,34.3633417921142,66.7128,C,25648045000000,
Raw,1732146764000,11886000000,,685514.0869654566,-1416181970114999808,0.0,77.54392428358031,2111.556112113292,0.0,0,8,0.0,17,854921,42,5.0,493.9921745328158,0.14999,16,0.0,0.0,1605374980,,,,0,28.68120377453913,3,6.0,41.0,0.0,0.0,34.3633417921142,66.7128,C,25648045000000,
Raw,1732146764000,11886000000,,685514.0869654566,-1416181970114999808,0.0,77.54392428358031,2111.556112113292,0.0,0,16,0.0,17,108732,487,5.0,1120.7518973842593,0.14999,16,0.0,0.0,1601437440,,,,0,0.0,3,6.0,19.0,0.0,0.0,34.3633417921142,66.7128,C,25648045000000,
Raw,1732146764000,11886000000,,685514.0869654566,-1416181970114999808,0.0,77.54392428358031,2111.556112113292,0.0,0,20,0.0,17,201134,487,5.0,-150.90612927579193,0.14999,16,0.0,0.0,1603124990,,,,0,5.277528069679769,3,6.0,19.0,0.0,0.0,34.3633417921142,66.7128,C,25648045000000,
Raw,1732146764000,11886000000,,685514.0869654566,-1416181970114999808,0.0,77.54392428358031,2111.556112113292,0.0,0,15,0.0,17,138347,396,26.128999710083008,177.51194041368916,0.14999,16,0.0,0.0,1575420030,,,,0,11.587073122107512,1,6.0,26.128999710083008,0.0,0.0,0.0,66.7128,C,25648045000000,
Raw,1732146764000,11886000000,,685514.0869654566,-1416181970114999808,0.0,77.54392428358031,2111.556112113292,0.0,0,7,0.0,16431,345181926687339,74,32.00199890136719,1003.7716206289781,0.14999,16,0.0,0.0,1575420030,,,,0,18.941553013166278,1,6.0,32.00199890136719,0.0,0.0,0.0,66.7128,C,25648045000000,
Raw,1732146764000,11886000000,,685514.0869654566,-1416181970114999808,0.0,77.54392428358031,2111.556112113292,0.0,0,19,0.0,16431,345181921720068,51,38.284000396728516,-58.77282338655221,0.14999,16,0.0,0.0,1575420030,,,,0,25.960725364975062,1,6.0,38.284000396728516,0.0,0.0,0.0,66.7128,C,25648045000000,
Raw,1732146764000,11886000000,,685514.0869654566,-1416181970114999808,0.0,77.54392428358031,2111.556112113292,0.0,0,13,0.0,16431,345181930654896,28,44.459999084472656,365.3021085377167,0.14999,16,0.0,0.0,1575420030,,,,0,32.48540096148402,1,6.0,44.459999084472656,0.0,0.0,0.0,66.7128,C,25648045000000,
Raw,1732146764000,11886000000,,685514.0869654566,-1416181970114999808,0.0,77.54392428358031,2111.556112113292,0.0,0,17,0.0,16431,345181930107706,58,32.68199920654297,174.05436570405226,0.14999,16,0.0,0.0,1575420030,,,,0,19.724464699531143,1,6.0,32.68199920654297,0.0,0.0,0.0,66.7128,C,25648045000000,
Fix,FLP,37.4243970000,-122.1712351000,-0.5722327969455447,0.15062696,1.85,276.9035,1732146764197,1.0,103.1,25648045000000,0.8890251,0,,,
Status,1732146764000,29,0,1,14,1575420030,45.90,330.0,74.0,1,0,0,40.9
Status,1732146764000,29,1,1,30,1575420030,46.40,81.0,68.0,1,0,0,41.4
Status,1732146764000,29,2,1,22,1575420030,45.10,275.0,61.0,1,0,0,40.1
Status,1732146764000,29,3,1,13,1575420030,48.20,300.0,50.0,1,0,0,43.2
Status,1732146764000,29,4,1,17,1575420030,39.70,175.0,48.0,1,0,0,34.7
Status,1732146764000,29,5,1,7,1575420030,42.70,106.0,36.0,1,0,0,37.7
Status,1732146764000,29,6,2,131,1575420030,36.00,6.0,22.0,0,0,0,31.0
Status,1732146764000,29,7,1,19,1575420030,34.30,193.0,20.0,1,0,0,29.3
Status,1732146764000,29,8,1,15,1575420030,36.00,314.0,19.0,1,0,0,31.0
Status,1732146764000,29,9,1,2,1575420030,0.00,85.0,17.0,0,0,0,0.0
Status,1732146764000,29,10,1,21,1575420030,0.00,66.0,14.0,0,0,0,0.0
Status,1732146764000,29,11,1,8,1575420030,0.00,39.0,7.0,0,0,0,0.0
Status,1732146764000,29,12,1,5,1575420030,0.00,260.0,5.0,0,0,0,0.0
Status,1732146764000,29,13,3,9,1602000000,34.10,22.0,53.0,1,0,0,29.099998
Status,1732146764000,29,14,3,8,1602000000,34.70,299.0,39.0,1,0,0,29.7
Status,1732146764000,29,15,3,16,1602000000,25.30,70.0,13.0,1,0,0,20.3
Status,1732146764000,29,16,3,20,1602000000,25.60,148.0,13.0,1,0,0,20.6
Status,1732146764000,29,17,3,11,1602000000,0.00,274.0,3.0,0,0,0,0.0
Status,1732146764000,29,18,3,17,1602000000,43.20,0.0,0.0,0,0,0,38.2
Status,1732146764000,29,19,6,29,1575420030,40.20,202.0,59.0,1,0,0,35.2
Status,1732146764000,29,20,6,21,1575420030,38.10,272.0,58.0,1,0,0,33.1
Status,1732146764000,29,21,6,27,1575420030,0.00,38.0,57.0,0,0,0,0.0
Status,1732146764000,29,22,6,19,1575420030,37.20,294.0,51.0,1,0,0,32.2
Status,1732146764000,29,23,6,7,1575420030,25.20,161.0,14.0,1,0,0,20.2
Status,1732146764000,29,24,6,15,1575420030,0.00,93.0,12.0,0,0,0,0.0
Status,1732146764000,29,25,6,30,1575420030,0.00,60.0,9.0,0,0,0,0.0
Status,1732146764000,29,26,6,34,1575420030,0.00,45.0,6.0,0,0,0,0.0
Status,1732146764000,29,27,6,13,1575420030,0.00,141.0,3.0,0,0,0,0.0
Status,1732146764000,29,28,6,4,1575420030,0.00,326.0,2.0,0,0,0,0.0
Fix,GPS,37.4243916667,-122.1712366667,14.3,0.27846473,1.8,164.74,1732146765000,0.9,130.4,25649045000000,31.2,0,,,
Fix,FLP,37.4243943000,-122.1712364000,-0.738615085141288,0.11255107,1.833,261.29138,1732146765197,0.9,130.4,25649045000000,0.900051,0,,,
Raw,1732146765000,12886000000,,80.5343633488648,-1416181970114999808,0.0,80.5343633488648,2112.4286958837865,0.0,0,30,0.0,16431,345182932195918,31,41.4379997253418,743.6533641038171,0.14999,16,0.0,0.0,1575420030,,,,0,29.326760956369974,1,6.0,41.4379997253418,0.0,0.0,0.0,66.7128,C,25649045000000,
Raw,1732146765000,12886000000,,80.5343633488648,-1416181970114999808,0.0,80.5343633488648,2112.4286958837865,0.0,0,22,0.0,16431,345182931141986,42,40.14699935913086,493.23153654278997,0.14999,17,6397.1392534828565,0.00022499999613501132,1575420030,,,,0,27.957557371879265,1,6.0,40.14699935913086,0.0,0.0,0.0,66.7128,C,25649045000000,
Raw,1732146765000,12886000000,,80.5343633488648,-1416181970114999808,0.0,80.5343633488648,2112.4286958837865,0.0,0,14,0.0,16431,345182933199110,42,40.94300079345703,639.4788676418515,0.14999,16,0.0,0.0,1575420030,,,,0,28.80175972666845,1,6.0,40.94300079345703,0.0,0.0,0.0,66.7128,C,25649045000000,
Raw,1732146765000,12886000000,,80.5343633488648,-1416181970114999808,0.0,80.5343633488648,2112.4286958837865,0.0,0,29,0.0,16431,345182920998928,51,35.20500183105469,943.8070924082093,0.14999,16,0.0,0.0,1575420030,,,,0,22.7396179916665,6,6.0,35.20500183105469,0.0,0.0,4.721218001688004,66.7128,C,25649045000000,
Raw,1732146765000,12886000000,,80.5343633488648,-1416181970114999808,0.0,80.5343633488648,2112.4286958837865,0.0,0,7,0.0,16431,345182909535263,396,20.200000762939453,1224.576207855787,0.14999,16,0.0,0.0,1575420030,,,,0,4.494637956618733,6,6.0,20.200000762939453,0.0,0.0,4.721218001688004,66.7128,C,25649045000000,
Raw,1732146765000,12886000000,,80.5343633488648,-1416181970114999808,0.0,80.5343633488648,2112.4286958837865,0.0,0,19,0.0,16431,345182920694407,58,32.20000076293945,469.0417542239517,0.14999,16,0.0,0.0,1575420030,,,,0,19.41396929686358,6,6.0,32.20000076293945,0.0,0.0,4.721218001688004,66.7128,C,25649045000000,
Raw,1732146765000,12886000000,,80.5343633488648,-1416181970114999808,0.0,80.5343633488648,2112.4286958837865,0.0,0,21,0.0,16431,345182920296396,58,33.099998474121094,469.6478507218344,0.14999,16,0.0,0.0,1575420030,,,,0,20.378550260088755,6,6.0,33.099998474121094,0.0,0.0,4.721218001688004,66.7128,C,25649045000000,
Raw,1732146765000,12886000000,,80.5343633488648,-1416181970114999808,0.0,80.5343633488648,2112.4286958837865,0.0,0,9,0.0,17,921093,235,5.0,775.5671575331716,0.14999,16,0.0,0.0,1600875010,,,,0,15.940248499941138,3,6.0,28.0,0.0,0.0,34.82585770657087,66.7128,C,25649045000000,
Raw,1732146765000,12886000000,,80.5343633488648,-1416181970114999808,0.0,80.5343633488648,2112.4286958837865,0.0,0,8,0.0,17,853273,74,5.0,494.378654014961,0.14999,16,0.0,0.0,1605374980,,,,0,16.68216315787172,3,6.0,30.0,0.0,0.0,34.82585770657087,66.7128,C,25649045000000,
Raw,1732146765000,12886000000,,80.5343633488648,-1416181970114999808,0.0,80.5343633488648,2112.4286958837865,0.0,0,16,0.0,17,104984,487,5.0,1119.6426701159633,0.14999,16,0.0,0.0,1601437440,,,,0,4.625780725607928,3,6.0,19.0,0.0,0.0,34.82585770657087,66.7128,C,25649045000000,
Raw,1732146765000,12886000000,,80.5343633488648,-1416181970114999808,0.0,80.5343633488648,2112.4286958837865,0.0,0,20,0.0,17,201632,797,5.0,-147.98764531423126,0.14999,16,0.0,0.0,1603124990,,,,0,5.277528069679769,3,6.0,16.0,0.0,0.0,34.82585770657087,66.7128,C,25649045000000,
Raw,1732146765000,12886000000,,80.5343633488648,-1416181970114999808,0.0,80.5343633488648,2112.4286958837865,0.0,0,15,0.0,16431,345182923137757,74,31.027000427246094,178.6084984115065,0.14999,16,0.0,0.0,1575420030,,,,0,17.791461940056507,1,6.0,31.027000427246094,0.0,0.0,0.0,66.7128,C,25649045000000,
Raw,1732146765000,12886000000,,80.5343633488648,-1416181970114999808,0.0,80.5343633488648,2112.4286958837865,0.0,0,7,0.0,16431,345182926683982,51,37.70500183105469,1004.4894960762633,0.14999,16,0.0,0.0,1575420030,,,,0,25.33703480196364,1,6.0,37.70500183105469,0.0,0.0,0.0,66.7128,C,25649045000000,
Raw,1732146765000,12886000000,,80.5343633488648,-1416181970114999808,0.0,80.5343633488648,2112.4286958837865,0.0,0,19,0.0,16431,345182921720264,235,29.341999053955078,-58.43753299676076,0.14999,16,0.0,0.0,1575420030,,,,0,15.750907026000219,1,6.0,29.341999053955078,0.0,0.0,0.0,66.7128,C,25649045000000,
Raw,1732146765000,12886000000,,80.5343633488648,-1416181970114999808,0.0,80.5343633488648,2112.4286958837865,0.0,0,13,0.0,16431,345182930653675,31,43.196998596191406,365.70281237753267,0.14999,17,7473.883088128169,0.00022499999613501132,1575420030,,,,0,31.172216102196984,1,6.0,43.196998596191406,0.0,0.0,0.0,66.7128,C,25649045000000,
Raw,1732146765000,12886000000,,80.5343633488648,-1416181970114999808,0.0,80.5343633488648,2112.4286958837865,0.0,0,17,0.0,16431,345182930107125,58,34.67599868774414,174.05650279119794,0.14999,17,2910.2953264112302,0.00039999998989515007,1575420030,,,,0,21.99319433838532,1,6.0,34.67599868774414,0.0,0.0,0.0,66.7128,C,25649045000000,
Status,1732146765000,29,0,1,14,1575420030,39.70,330.0,74.0,1,0,0,34.7
Status,1732146765000,29,1,1,30,1575420030,46.00,81.0,68.0,1,0,0,41.0
Status,1732146765000,29,2,1,22,1575420030,43.00,275.0,61.0,1,0,0,38.0
Status,1732146765000,29,3,1,13,1575420030,46.10,300.0,50.0,1,0,0,41.1
Status,1732146765000,29,4,1,17,1575420030,35.50,175.0,48.0,1,0,0,30.5
Status,1732146765000,29,5,1,7,1575420030,38.20,106.0,36.0,1,0,0,33.2
Status,1732146765000,29,6,2,131,1575420030,37.00,6.0,22.0,0,0,0,32.0
Status,1732146765000,29,7,1,19,1575420030,42.00,193.0,20.0,1,0,0,37.0
Status,1732146765000,29,8,1,15,1575420030,40.20,314.0,19.0,1,0,0,35.2
Status,1732146765000,29,9,1,2,1575420030,29.40,85.0,17.0,1,0,0,24.4
Status,1732146765000,29,10,1,21,1575420030,0.00,66.0,14.0,0,0,0,0.0
Status,1732146765000,29,11,1,8,1575420030,0.00,39.0,7.0,0,0,0,0.0
Status,1732146765000,29,12,1,5,1575420030,0.00,260.0,5.0,0,0,0,0.0
Status,1732146765000,29,13,3,9,1602000000,34.50,22.0,53.0,1,0,0,29.5
Status,1732146765000,29,14,3,8,1602000000,33.80,299.0,39.0,1,0,0,28.8
Status,1732146765000,29,15,3,16,1602000000,22.50,70.0,13.0,1,0,0,17.5
Status,1732146765000,29,16,3,20,1602000000,25.60,148.0,13.0,1,0,0,20.6
Status,1732146765000,29,17,3,11,1602000000,0.00,274.0,3.0,0,0,0,0.0
Status,1732146765000,29,18,3,17,1602000000,43.10,0.0,0.0,0,0,0,38.1
Status,1732146765000,29,19,6,29,1575420030,40.10,202.0,59.0,1,0,0,35.1
Status,1732146765000,29,20,6,21,1575420030,33.90,272.0,58.0,1,0,0,28.900002
Status,1732146765000,29,21,6,27,1575420030,0.00,38.0,57.0,0,0,0,0.0
Status,1732146765000,29,22,6,19,1575420030,33.90,294.0,51.0,1,0,0,28.900002
Status,1732146765000,29,23,6,7,1575420030,23.50,161.0,14.0,1,0,0,18.5
Status,1732146765000,29,24,6,15,1575420030,0.00,93.0,12.0,0,0,0,0.0
Status,1732146765000,29,25,6,30,1575420030,0.00,60.0,9.0,0,0,0,0.0
Status,1732146765000,29,26,6,34,1575420030,0.00,45.0,6.0,0,0,0,0.0
Status,1732146765000,29,27,6,13,1575420030,0.00,141.0,3.0,0,0,0,0.0
Status,1732146765000,29,28,6,4,1575420030,0.00,326.0,2.0,0,0,0,0.0
Fix,GPS,37.4243916667,-122.1712350000,14.2,0.231625,1.8,133.06,1732146766000,0.9,150.1,25650045000000,31.4,0,,,
Raw,1732146766000,13886000000,,80.9376014995312,-1416181970114999808,0.0,80.9376014995312,2111.935844623983,0.0,0,30,0.0,16431,345183932193436,42,41.02299880981445,743.209593312174,0.14999,17,10307.292065461157,0.00022499999613501132,1575420030,,,,0,28.889080212706368,1,6.0,41.02299880981445,0.0,0.0,0.0,66.7128,C,25650045000000,
Raw,1732146766000,13886000000,,80.9376014995312,-1416181970114999808,0.0,80.9376014995312,2111.935844623983,0.0,0,22,0.0,16431,345183931140341,51,37.95500183105469,492.98948819433303,0.14999,17,6890.418253105107,0.00022499999613501132,1575420030,,,,0,25.60882626944286,1,6.0,37.95500183105469,0.0,0.0,0.0,66.7128,C,25650045000000,
Raw,1732146766000,13886000000,,80.9376014995312,-1416181970114999808,0.0,80.9376014995312,2111.935844623983,0.0,0,14,0.0,16431,345183933196976,58,34.73699951171875,639.3115708850773,0.14999,16,0.0,0.0,1575420030,,,,0,22.067614900710005,1,6.0,34.73699951171875,0.0,0.0,0.0,66.7128,C,25650045000000,
Raw,1732146766000,13886000000,,80.9376014995312,-1416181970114999808,0.0,80.9376014995312,2111.935844623983,0.0,0,29,0.0,16431,345183920995779,58,35.14899826049805,943.9696039481138,0.14999,16,0.0,0.0,1575420030,,,,0,21.453592987894545,6,6.0,35.14899826049805,0.0,0.0,4.956850459677969,66.7128,C,25650045000000,
Raw,1732146766000,13886000000,,80.9376014995312,-1416181970114999808,0.0,80.9376014995312,2111.935844623983,0.0,0,7,0.0,16431,345183909531179,487,18.5,1224.300151946664,0.14999,16,0.0,0.0,1575420030,,,,0,1.7933857660571721,6,6.0,18.5,0.0,0.0,4.956850459677969,66.7128,C,25650045000000,
Raw,1732146766000,13886000000,,80.9376014995312,-1416181970114999808,0.0,80.9376014995312,2111.935844623983,0.0,0,19,0.0,16431,345183920692842,74,28.899999618530273,469.24036395325174,0.14999,16,0.0,0.0,1575420030,,,,0,15.684937926829434,6,6.0,28.899999618530273,0.0,0.0,4.956850459677969,66.7128,C,25650045000000,
Raw,1732146766000,13886000000,,80.9376014995312,-1416181970114999808,0.0,80.9376014995312,2111.935844623983,0.0,0,21,0.0,16431,345183920294831,74,28.899999618530273,469.64106779306763,0.14999,16,0.0,0.0,1575420030,,,,0,15.750907026000219,6,6.0,28.899999618530273,0.0,0.0,4.956850459677969,66.7128,C,25650045000000,
Raw,1732146766000,13886000000,,80.9376014995312,-1416181970114999808,0.0,80.9376014995312,2111.935844623983,0.0,0,9,0.0,17,918504,235,5.0,775.2945767066161,0.14999,16,0.0,0.0,1600875010,,,,0,16.453007240226665,3,6.0,28.0,0.0,0.0,35.03196782165718,66.7128,C,25650045000000,
Raw,1732146766000,13886000000,,80.9376014995312,-1416181970114999808,0.0,80.9376014995312,2111.935844623983,0.0,0,8,0.0,17,851629,235,5.0,494.8633832651873,0.14999,16,0.0,0.0,1605374980,,,,0,15.669067884384145,3,6.0,29.0,0.0,0.0,35.03196782165718,66.7128,C,25650045000000,
Raw,1732146766000,13886000000,,80.9376014995312,-1416181970114999808,0.0,80.9376014995312,2111.935844623983,0.0,0,16,0.0,17,101248,487,5.0,1122.3310494474715,0.14999,16,0.0,0.0,1601437440,,,,0,0.0,3,6.0,18.0,0.0,0.0,35.03196782165718,66.7128,C,25650045000000,
Raw,1732146766000,13886000000,,80.9376014995312,-1416181970114999808,0.0,80.9376014995312,2111.935844623983,0.0,0,20,0.0,17,202125,797,5.0,-148.2766448054502,0.14999,16,0.0,0.0,1603124990,,,,0,5.277528069679769,3,6.0,17.0,0.0,0.0,35.03196782165718,66.7128,C,25650045000000,
Raw,1732146766000,13886000000,,80.9376014995312,-1416181970114999808,0.0,80.9376014995312,2111.935844623983,0.0,0,2,0.0,16431,345183920753653,487,24.358999252319336,442.7579052528397,0.14999,16,0.0,0.0,1575420030,,,,0,9.10597060282935,1,6.0,24.358999252319336,0.0,0.0,0.0,66.7128,C,25650045000000,
Raw,1732146766000,13886000000,,80.9376014995312,-1416181970114999808,0.0,80.9376014995312,2111.935844623983,0.0,0,15,0.0,16431,345183923137159,58,35.16999816894531,177.85001830845323,0.14999,16,0.0,0.0,1575420030,,,,0,22.551432862185994,1,6.0,35.16999816894531,0.0,0.0,0.0,66.7128,C,25650045000000,
Raw,1732146766000,13886000000,,80.9376014995312,-1416181970114999808,0.0,80.9376014995312,2111.935844623983,0.0,0,7,0.0,16431,345183926680621,58,33.237998962402344,1004.1278637644805,0.14999,16,0.0,0.0,1575420030,,,,0,20.36568227308623,1,6.0,33.237998962402344,0.0,0.0,0.0,66.7128,C,25650045000000,
Raw,1732146766000,13886000000,,80.9376014995312,-1416181970114999808,0.0,80.9376014995312,2111.935844623983,0.0,0,19,0.0,16431,345183921720459,51,36.95800018310547,-58.86996793484845,0.14999,16,0.0,0.0,1575420030,,,,0,24.52261186047003,1,6.0,36.95800018310547,0.0,0.0,0.0,66.7128,C,25650045000000,
Raw,1732146766000,13886000000,,80.9376014995312,-1416181970114999808,0.0,80.9376014995312,2111.935844623983,0.0,0,13,0.0,16431,345183930652455,42,41.077999114990234,365.45458505971976,0.14999,16,0.0,0.0,1575420030,,,,0,28.94680996033888,1,6.0,41.077999114990234,0.0,0.0,0.0,66.7128,C,25650045000000,
Raw,1732146766000,13886000000,,80.9376014995312,-1416181970114999808,0.0,80.9376014995312,2111.935844623983,0.0,0,17,0.0,16431,345183930106541,74,30.500999450683594,174.04186839009162,0.14999,16,0.0,0.0,1575420030,,,,0,17.163076154578143,1,6.0,30.500999450683594,0.0,0.0,0.0,66.7128,C,25650045000000,
Fix,FLP,37.4243928000,-122.1712360000,-0.738615085141288,0.08549491,1.816,,1732146766197,0.9,,25650045000000,0.9102041,0,,,
Status,1732146766000,29,0,1,14,1575420030,45.30,330.0,74.0,1,0,0,40.3
Status,1732146766000,29,1,1,30,1575420030,46.10,81.0,68.0,1,0,0,41.1
Status,1732146766000,29,2,1,22,1575420030,39.40,275.0,61.0,1,0,0,34.4
Status,1732146766000,29,3,1,13,1575420030,45.40,300.0,50.0,1,0,0,40.4
Status,1732146766000,29,4,1,17,1575420030,42.50,175.0,48.0,1,0,0,37.5
Status,1732146766000,29,5,1,7,1575420030,34.90,106.0,36.0,1,0,0,29.900002
Status,1732146766000,29,6,2,131,1575420030,44.00,6.0,22.0,0,0,0,39.0
Status,1732146766000,29,7,1,19,1575420030,45.90,193.0,20.0,1,0,0,40.9
Status,1732146766000,29,8,1,15,1575420030,35.60,314.0,19.0,1,0,0,30.599998
Status,1732146766000,29,9,1,2,1575420030,0.00,85.0,17.0,0,0,0,0.0
Status,1732146766000,29,10,1,21,1575420030,24.20,66.0,14.0,1,0,0,19.2
Status,1732146766000,29,11,1,8,1575420030,0.00,39.0,7.0,0,0,0,0.0
Status,1732146766000,29,12,1,5,1575420030,0.00,260.0,5.0,0,0,0,0.0
Status,1732146766000,29,13,3,9,1602000000,37.40,22.0,53.0,1,0,0,32.4
Status,1732146766000,29,14,3,8,1602000000,34.20,299.0,39.0,1,0,0,29.2
Status,1732146766000,29,15,3,16,1602000000,20.00,70.0,13.0,1,0,0,15.0
Status,1732146766000,29,16,3,20,1602000000,25.50,148.0,13.0,1,0,0,20.5
Status,1732146766000,29,17,3,11,1602000000,0.00,274.0,3.0,0,0,0,0.0
Status,1732146766000,29,18,3,17,1602000000,43.10,0.0,0.0,0,0,0,38.1
Status,1732146766000,29,19,6,29,1575420030,40.10,202.0,59.0,1,0,0,35.1
Status,1732146766000,29,20,6,21,1575420030,45.80,272.0,58.0,1,0,0,40.8
Status,1732146766000,29,21,6,27,1575420030,0.00,38.0,57.0,0,0,0,0.0
Status,1732146766000,29,22,6,19,1575420030,33.80,294.0,51.0,1,0,0,28.8
Status,1732146766000,29,23,6,7,1575420030,27.80,161.0,14.0,1,0,0,22.8
Status,1732146766000,29,24,6,15,1575420030,0.00,93.0,12.0,0,0,0,0.0
Status,1732146766000,29,25,6,30,1575420030,0.00,60.0,9.0,0,0,0,0.0
Status,1732146766000,29,26,6,34,1575420030,0.00,45.0,6.0,0,0,0,0.0
Status,1732146766000,29,27,6,13,1575420030,0.00,141.0,3.0,0,0,0,0.0
Status,1732146766000,29,28,6,4,1575420030,0.00,326.0,2.0,0,0,0,0.0
Fix,GPS,37.4243883333,-122.1712333333,14.2,0.31192166,1.8,133.96,1732146767000,0.9,109.9,25651045000000,37.1,0,,,
Fix,FLP,37.4243903000,-122.1712348000,-0.7355891998947719,0.07534111,1.8,,1732146767197,0.9,,25651045000000,0.9262057,0,,,
Raw,1732146767000,14886000000,,95.81810085372487,-1416181970114999808,0.0,95.81810085372487,2110.856470811432,0.0,0,30,0.0,16431,345184932190959,42,41.05699920654297,743.2980965950551,0.14999,17,11050.589311286465,0.00022499999613501132,1575420030,,,,0,28.922802511008587,1,6.0,41.05699920654297,0.0,0.0,0.0,66.7128,C,25651045000000,
Raw,1732146767000,14886000000,,95.81810085372487,-1416181970114999808,0.0,95.81810085372487,2110.856470811432,0.0,0,21,0.0,16431,345184920734764,797,19.21299934387207,650.4730660044105,0.14999,16,0.0,0.0,1575420030,,,,0,0.8721640289493777,1,6.0,19.21299934387207,0.0,0.0,0.0,66.7128,C,25651045000000,
Raw,1732146767000,14886000000,,95.81810085372487,-1416181970114999808,0.0,95.81810085372487,2110.856470811432,0.0,0,22,0.0,16431,345184931138693,58,34.354000091552734,492.77382822628374,0.14999,16,0.0,0.0,1575420030,,,,0,21.633501340896494,1,6.0,34.354000091552734,0.0,0.0,0.0,66.7128,C,25651045000000,
Raw,1732146767000,14886000000,,95.81810085372487,-1416181970114999808,0.0,95.81810085372487,2110.856470811432,0.0,0,14,0.0,16431,345184933194842,42,40.277000427246094,639.5020039331243,0.14999,17,9510.039144569175,0.00022499999613501132,1575420030,,,,0,28.096150757564136,1,6.0,40.277000427246094,0.0,0.0,0.0,66.7128,C,25651045000000,
Raw,1732146767000,14886000000,,95.81810085372487,-1416181970114999808,0.0,95.81810085372487,2110.856470811432,0.0,0,7,0.0,16431,345184926677323,74,29.895999908447266,1003.884793330867,0.14999,16,0.0,0.0,1575420030,,,,0,16.425059718112106,1,6.0,29.895999908447266,0.0,0.0,0.0,66.7128,C,25651045000000,
Raw,1732146767000,14886000000,,95.81810085372487,-1416181970114999808,0.0,95.81810085372487,2110.856470811432,0.0,0,29,0.0,16431,345184920992631,58,35.066001892089844,943.6454171197967,0.14999,16,0.0,0.0,1575420030,,,,0,20.82954128133383,6,6.0,35.066001892089844,0.0,0.0,5.298359197633434,66.7128,C,25651045000000,
Raw,1732146767000,14886000000,,95.81810085372487,-1416181970114999808,0.0,95.81810085372487,2110.856470811432,0.0,0,7,0.0,16431,345184909527096,316,22.799999237060547,1223.9820976292867,0.14999,16,0.0,0.0,1575420030,,,,0,8.21432794977454,6,6.0,22.799999237060547,0.0,0.0,5.298359197633434,66.7128,C,25651045000000,
Raw,1732146767000,14886000000,,95.81810085372487,-1416181970114999808,0.0,95.81810085372487,2110.856470811432,0.0,0,19,0.0,16431,345184920691281,235,28.799999237060547,468.7221203204232,0.14999,16,0.0,0.0,1575420030,,,,0,13.457789132305649,6,6.0,28.799999237060547,0.0,0.0,5.298359197633434,66.7128,C,25651045000000,
Raw,1732146767000,14886000000,,95.81810085372487,-1416181970114999808,0.0,95.81810085372487,2110.856470811432,0.0,0,21,0.0,16431,345184920293263,31,40.79999923706055,469.4497520351127,0.14999,16,0.0,0.0,1575420030,,,,0,28.57453555307638,6,6.0,40.79999923706055,0.0,0.0,5.298359197633434,66.7128,C,25651045000000,
Raw,1732146767000,14886000000,,95.81810085372487,-1416181970114999808,0.0,95.81810085372487,2110.856470811432,0.0,0,15,0.0,16431,345184923136587,235,30.558000564575195,179.08892489353966,0.14999,16,0.0,0.0,1575420030,,,,0,17.218755124970357,1,6.0,30.558000564575195,0.0,0.0,0.0,66.7128,C,25651045000000,
Raw,1732146767000,14886000000,,95.81810085372487,-1416181970114999808,0.0,95.81810085372487,2110.856470811432,0.0,0,19,0.0,16431,345184921720661,42,40.87900161743164,-59.09863625943672,0.14999,16,0.0,0.0,1575420030,,,,0,28.733231642306507,1,6.0,40.87900161743164,0.0,0.0,0.0,66.7128,C,25651045000000,
Raw,1732146767000,14886000000,,95.81810085372487,-1416181970114999808,0.0,95.81810085372487,2110.856470811432,0.0,0,9,0.0,17,915918,58,5.0,775.3116758728576,0.14999,16,0.0,0.0,1600875010,,,,0,19.636378319019006,3,6.0,33.0,0.0,0.0,35.23355659510907,66.7128,C,25651045000000,
Raw,1732146767000,14886000000,,95.81810085372487,-1416181970114999808,0.0,95.81810085372487,2110.856470811432,0.0,0,8,0.0,17,849975,235,5.0,493.8003253337044,0.14999,16,0.0,0.0,1605374980,,,,0,16.05439229900559,3,6.0,29.0,0.0,0.0,35.23355659510907,66.7128,C,25651045000000,
Raw,1732146767000,14886000000,,95.81810085372487,-1416181970114999808,0.0,95.81810085372487,2110.856470811432,0.0,0,16,0.0,17,97513,797,5.0,1117.5453302172366,0.14999,16,0.0,0.0,1601437440,,,,0,0.0,3,6.0,17.0,0.0,0.0,35.23355659510907,66.7128,C,25651045000000,
Raw,1732146767000,14886000000,,95.81810085372487,-1416181970114999808,0.0,95.81810085372487,2110.856470811432,0.0,0,20,0.0,17,202637,487,5.0,-149.22171423171113,0.14999,16,0.0,0.0,1603124990,,,,0,1.9981155420832106,3,6.0,19.0,0.0,0.0,35.23355659510907,66.7128,C,25651045000000,
Raw,1732146767000,14886000000,,95.81810085372487,-1416181970114999808,0.0,95.81810085372487,2110.856470811432,0.0,0,13,0.0,16431,345184930651232,42,40.44499969482422,365.6766562892061,0.14999,16,0.0,0.0,1575420030,,,,0,28.274114348224547,1,6.0,40.44499969482422,0.0,0.0,0.0,66.7128,C,25651045000000,
Raw,1732146767000,14886000000,,95.81810085372487,-1416181970114999808,0.0,95.81810085372487,2110.856470811432,0.0,0,17,0.0,16431,345184930105960,51,37.499000549316406,173.63716912648164,0.14999,16,0.0,0.0,1575420030,,,,0,25.108833050341755,1,6.0,37.499000549316406,0.0,0.0,0.0,66.7128,C,25651045000000,
Status,1732146767000,29,0,1,14,1575420030,46.00,330.0,74.0,1,0,0,41.0
Status,1732146767000,29,1,1,30,1575420030,46.60,81.0,68.0,1,0,0,41.6
Status,1732146767000,29,2,1,22,1575420030,44.20,275.0,61.0,1,0,0,39.2
Status,1732146767000,29,3,1,13,1575420030,42.60,300.0,50.0,1,0,0,37.6
Status,1732146767000,29,4,1,17,1575420030,42.20,175.0,48.0,1,0,0,37.2
Status,1732146767000,29,5,1,7,1575420030,35.50,106.0,36.0,1,0,0,30.5
Status,1732146767000,29,6,2,131,1575420030,34.00,6.0,22.0,0,0,0,29.0
Status,1732146767000,29,7,1,19,1575420030,35.10,193.0,20.0,1,0,0,30.099998
Status,1732146767000,29,8,1,15,1575420030,35.30,314.0,19.0,1,0,0,30.3
Status,1732146767000,29,9,1,2,1575420030,0.00,85.0,17.0,0,0,0,0.0
Status,1732146767000,29,10,1,21,1575420030,24.20,66.0,14.0,1,0,0,19.2
Status,1732146767000,29,11,1,8,1575420030,0.00,39.0,7.0,0,0,0,0.0
Status,1732146767000,29,12,1,5,1575420030,0.00,260.0,5.0,0,0,0,0.0
Status,1732146767000,29,13,3,9,1602000000,35.60,22.0,53.0,1,0,0,30.599998
Status,1732146767000,29,14,3,8,1602000000,37.50,299.0,39.0,1,0,0,32.5
Status,1732146767000,29,15,3,16,1602000000,22.80,70.0,13.0,1,0,0,17.8
Status,1732146767000,29,16,3,20,1602000000,25.50,148.0,13.0,1,0,0,20.5
Status,1732146767000,29,17,3,11,1602000000,0.00,274.0,3.0,0,0,0,0.0
Status,1732146767000,29,18,3,17,1602000000,45.90,0.0,0.0,0,0,0,40.9
Status,1732146767000,29,19,6,29,1575420030,38.70,202.0,59.0,1,0,0,33.7
Status,1732146767000,29,20,6,21,1575420030,40.00,272.0,58.0,1,0,0,35.0
Status,1732146767000,29,21,6,27,1575420030,0.00,38.0,57.0,0,0,0,0.0
Status,1732146767000,29,22,6,19,1575420030,31.60,294.0,51.0,1,0,0,26.6
Status,1732146767000,29,23,6,7,1575420030,24.40,161.0,14.0,1,0,0,19.4
Status,1732146767000,29,24,6,15,1575420030,0.00,93.0,12.0,0,0,0,0.0
Status,1732146767000,29,25,6,30,1575420030,0.00,60.0,9.0,0,0,0,0.0
Status,1732146767000,29,26,6,34,1575420030,0.00,45.0,6.0,0,0,0,0.0
Status,1732146767000,29,27,6,13,1575420030,0.00,141.0,3.0,0,0,0,0.0
Status,1732146767000,29,28,6,4,1575420030,0.00,326.0,2.0,0,0,0,0.0
Fix,GPS,37.4243850000,-122.1712316667,14.2,0.37832084,1.9,142.1,1732146768000,0.9,97.3,25652045000000,36.8,0,,,
Fix,FLP,37.4243872000,-122.1712332000,-0.5692052692664111,0.095071554,1.816,,1732146768197,0.9,,25652045000000,0.9362294,0,,,
Raw,1732146768000,15886000000,,97.64233039718144,-1416181970114999808,0.0,97.64233039718144,2111.1454699693695,0.0,0,30,0.0,16431,345185932188476,31,41.55799865722656,743.9533460972885,0.14999,16,0.0,0.0,1575420030,,,,0,29.44980552199624,1,6.0,41.55799865722656,0.0,0.0,0.0,66.7128,C,25652045000000,
Raw,1732146768000,15886000000,,97.64233039718144,-1416181970114999808,0.0,97.64233039718144,2111.1454699693695,0.0,0,21,0.0,16431,345185920732594,487,19.21299934387207,650.8175087021955,0.14999,16,0.0,0.0,1575420030,,,,0,0.8721640289493777,1,6.0,19.21299934387207,0.0,0.0,0.0,66.7128,C,25652045000000,
Raw,1732146768000,15886000000,,97.64233039718144,-1416181970114999808,0.0,97.64233039718144,2111.1454699693695,0.0,0,22,0.0,16431,345185931137051,42,39.20899963378906,493.12040801121435,0.14999,16,0.0,0.0,1575420030,,,,0,26.9563084452564,1,6.0,39.20899963378906,0.0,0.0,0.0,66.7128,C,25652045000000,
Raw,1732146768000,15886000000,,97.64233039718144,-1416181970114999808,0.0,97.64233039718144,2111.1454699693695,0.0,0,14,0.0,16431,345185933192709,42,40.98099899291992,639.5781492772934,0.14999,17,10149.097717437824,0.00022499999613501132,1575420030,,,,0,28.840677247448227,1,6.0,40.98099899291992,0.0,0.0,0.0,66.7128,C,25652045000000,
Raw,1732146768000,15886000000,,97.64233039718144,-1416181970114999808,0.0,97.64233039718144,2111.1454699693695,0.0,0,29,0.0,16431,345185920989479,58,33.70000076293945,943.7257901798409,0.14999,16,0.0,0.0,1575420030,,,,0,21.082195773450707,6,6.0,33.70000076293945,0.0,0.0,5.334237421636295,66.7128,C,25652045000000,
Raw,1732146768000,15886000000,,97.64233039718144,-1416181970114999808,0.0,97.64233039718144,2111.1454699693695,0.0,0,7,0.0,16431,345185909523015,487,19.399999618530273,1223.9036758227232,0.14999,16,0.0,0.0,1575420030,,,,0,3.2022754103781215,6,6.0,19.399999618530273,0.0,0.0,5.334237421636295,66.7128,C,25652045000000,
Raw,1732146768000,15886000000,,97.64233039718144,-1416181970114999808,0.0,97.64233039718144,2111.1454699693695,0.0,0,19,0.0,16431,345185920689717,316,26.600000381469727,468.7879983546098,0.14999,16,0.0,0.0,1575420030,,,,0,13.078814374828424,6,6.0,26.600000381469727,0.0,0.0,5.334237421636295,66.7128,C,25652045000000,
Raw,1732146768000,15886000000,,97.64233039718144,-1416181970114999808,0.0,97.64233039718144,2111.1454699693695,0.0,0,21,0.0,16431,345185920291695,51,35.0,469.0267481555157,0.14999,16,0.0,0.0,1575420030,,,,0,22.44059053895835,6,6.0,35.0,0.0,0.0,5.334237421636295,66.7128,C,25652045000000,
Raw,1732146768000,15886000000,,97.64233039718144,-1416181970114999808,0.0,97.64233039718144,2111.1454699693695,0.0,0,9,0.0,17,913340,74,5.0,775.9169132062927,0.14999,16,0.0,0.0,1600875010,,,,0,17.68858568942568,3,6.0,31.0,0.0,0.0,34.81125359698256,66.7128,C,25652045000000,
Raw,1732146768000,15886000000,,97.64233039718144,-1416181970114999808,0.0,97.64233039718144,2111.1454699693695,0.0,0,8,0.0,17,848328,58,5.0,494.85604302729354,0.14999,16,0.0,0.0,1605374980,,,,0,19.69532067335801,3,6.0,33.0,0.0,0.0,34.81125359698256,66.7128,C,25652045000000,
Raw,1732146768000,15886000000,,97.64233039718144,-1416181970114999808,0.0,97.64233039718144,2111.1454699693695,0.0,0,16,0.0,17,93783,487,5.0,1120.1460499731127,0.14999,16,0.0,0.0,1601437440,,,,0,0.5105421311498954,3,6.0,20.0,0.0,0.0,34.81125359698256,66.7128,C,25652045000000,
Raw,1732146768000,15886000000,,97.64233039718144,-1416181970114999808,0.0,97.64233039718144,2111.1454699693695,0.0,0,20,0.0,17,203115,396,5.0,-149.03270034645894,0.14999,16,0.0,0.0,1603124990,,,,0,6.5645560008060455,3,6.0,21.0,0.0,0.0,34.81125359698256,66.7128,C,25652045000000,
Raw,1732146768000,15886000000,,97.64233039718144,-1416181970114999808,0.0,97.64233039718144,2111.1454699693695,0.0,0,15,0.0,16431,345185923135970,74,30.256000518798828,178.8977020524171,0.14999,16,0.0,0.0,1575420030,,,,0,16.8599390992294,1,6.0,30.256000518798828,0.0,0.0,0.0,66.7128,C,25652045000000,
Raw,1732146768000,15886000000,,97.64233039718144,-1416181970114999808,0.0,97.64233039718144,2111.1454699693695,0.0,0,19,0.0,16431,345185921720745,74,30.107999801635742,-59.28149658564139,0.14999,16,0.0,0.0,1575420030,,,,0,16.684657351199515,1,6.0,30.107999801635742,0.0,0.0,0.0,66.7128,C,25652045000000,
Raw,1732146768000,15886000000,,97.64233039718144,-1416181970114999808,0.0,97.64233039718144,2111.1454699693695,0.0,0,13,0.0,16431,345185930650012,51,37.56800079345703,365.92688131891606,0.14999,16,0.0,0.0,1575420030,,,,0,25.190495862146932,1,6.0,37.56800079345703,0.0,0.0,0.0,66.7128,C,25652045000000,
Raw,1732146768000,15886000000,,97.64233039718144,-1416181970114999808,0.0,97.64233039718144,2111.1454699693695,0.0,0,7,0.0,16431,345185926673903,74,30.472999572753906,1004.4030834221116,0.14999,16,0.0,0.0,1575420030,,,,0,17.125757559520977,1,6.0,30.472999572753906,0.0,0.0,0.0,66.7128,C,25652045000000,
