# 
# Header Description:
# 
# Version: v3.1.0.3 Platform: 13 Manufacturer: samsung Model: SM-S135DL GNSS Hardware Model Name: MediaTek,MT6631,MTK_MNLD_default,MNL_VER_default
# 
# Raw,utcTimeMillis,TimeNanos,LeapSecond,TimeUncertaintyNanos,FullBiasNanos,BiasNanos,BiasUncertaintyNanos,DriftNanosPerSecond,DriftUncertaintyNanosPerSecond,HardwareClockDiscontinuityCount,Svid,TimeOffsetNanos,State,ReceivedSvTimeNanos,ReceivedSvTimeUncertaintyNanos,Cn0DbHz,PseudorangeRateMetersPerSecond,PseudorangeRateUncertaintyMetersPerSecond,AccumulatedDeltaRangeState,AccumulatedDeltaRangeMeters,AccumulatedDeltaRangeUncertaintyMeters,CarrierFrequencyHz,CarrierCycles,CarrierPhase,CarrierPhaseUncertainty,MultipathIndicator,SnrInDb,ConstellationType,AgcDb,BasebandCn0DbHz,FullInterSignalBiasNanos,FullInterSignalBiasUncertaintyNanos,SatelliteInterSignalBiasNanos,SatelliteInterSignalBiasUncertaintyNanos,CodeType,ChipsetElapsedRealtimeNanos,IsFullTracking
# 
# UncalAccel,utcTimeMillis,elapsedRealtimeNanos,UncalAccelXMps2,UncalAccelYMps2,UncalAccelZMps2,BiasXMps2,BiasYMps2,BiasZMps2
# 
# Accel,utcTimeMillis,elapsedRealtimeNanos,AccelXMps2,AccelYMps2,AccelZMps2
# 
# UncalGyro,utcTimeMillis,elapsedRealtimeNanos,UncalGyroXRadPerSec,UncalGyroYRadPerSec,UncalGyroZRadPerSec,DriftXRadPerSec,DriftYRadPerSec,DriftZRadPerSec
# 
# Gyro,utcTimeMillis,elapsedRealtimeNanos,GyroXRadPerSec,GyroYRadPerSec,GyroZRadPerSec
# 
# UncalMag,utcTimeMillis,elapsedRealtimeNanos,UncalMagXMicroT,UncalMagYMicroT,UncalMagZMicroT,BiasXMicroT,BiasYMicroT,BiasZMicroT
# 
# Mag,utcTimeMillis,elapsedRealtimeNanos,MagXMicroT,MagYMicroT,MagZMicroT
# 
# Pressure,utcTimeMillis,elapsedRealtimeNanos,PressureHpa
# 
# OrientationDeg,utcTimeMillis,elapsedRealtimeNanos,yawDeg,rollDeg,pitchDeg
# 
# Fix,Provider,LatitudeDegrees,LongitudeDegrees,AltitudeMeters,SpeedMps,AccuracyMeters,BearingDegrees,UnixTimeMillis,SpeedAccuracyMps,BearingAccuracyDegrees,elapsedRealtimeNanos,VerticalAccuracyMeters,MockLocation,NumberOfUsedSignals,VerticalSpeedAccuracyMps,SolutionType
# 
# Nav,Svid,Type,Status,MessageId,Sub-messageId,Data(Bytes)
# 
# Status,UnixTimeMillis,SignalCount,SignalIndex,ConstellationType,Svid,CarrierFrequencyHz,Cn0DbHz,AzimuthDegrees,ElevationDegrees,UsedInFix,HasAlmanacData,HasEphemerisData,BasebandCn0DbHz
# 
# Agc,utcTimeMillis,TimeNanos,LeapSecond,TimeUncertaintyNanos,FullBiasNanos,BiasNanos,BiasUncertaintyNanos,DriftNanosPerSecond,DriftUncertaintyNanosPerSecond,HardwareClockDiscontinuityCount,AgcDb,CarrierFrequencyHz,ConstellationType
# 
Fix,FLP,37.4243440000,-122.1712914000,-0.41276423153502684,0.039666157,2.162,,1732145792338,0.7,,24676186000000,1.0243313,0,,,
Status,,29,0,1,14,1575420030,47.40,303.0,73.0,1,0,0,42.4
Status,,29,1,1,30,1575420030,48.80,61.0,72.0,1,0,0,43.8
Status,,29,2,1,22,1575420030,48.00,263.0,56.0,1,0,0,43.0
Status,,29,3,1,13,1575420030,47.80,307.0,44.0,1,0,0,42.8
Status,,29,4,1,7,1575420030,41.60,99.0,41.0,1,0,0,36.6
Status,,29,5,1,17,1575420030,43.00,176.0,40.0,1,0,0,38.0
Status,,29,6,2,131,1575420030,44.00,3.0,23.0,0,0,0,39.0
Status,,29,7,1,2,1575420030,24.00,92.0,14.0,1,0,0,19.0
Status,,29,8,1,15,1575420030,0.00,318.0,14.0,0,0,0,0.0
Status,,29,9,1,21,1575420030,0.00,73.0,13.0,0,0,0,0.0
Status,,29,10,1,19,1575420030,47.60,193.0,13.0,1,0,0,42.6
Status,,29,11,1,8,1575420030,0.00,40.0,12.0,0,0,0,0.0
Status,,29,12,1,5,1575420030,0.00,266.0,9.0,0,0,0,0.0
Status,,29,13,1,9,1575420030,0.00,159.0,5.0,0,0,0,0.0
Status,,29,14,3,9,1602000000,47.00,8.0,55.0,1,0,0,42.0
Status,,29,15,3,7,1602000000,48.50,237.0,48.0,1,0,0,43.5
Status,,29,16,3,8,1602000000,33.60,309.0,37.0,1,0,0,28.599998
Status,,29,17,3,19,1602000000,0.00,92.0,29.0,0,0,0,0.0
Status,,29,18,3,16,1602000000,0.00,63.0,17.0,0,0,0,0.0
Status,,29,19,3,20,1602000000,0.00,152.0,6.0,0,0,0,0.0
Status,,29,20,3,17,1602000000,37.90,0.0,0.0,0,0,0,32.9
Status,,29,21,6,29,1575420030,42.60,208.0,65.0,1,0,0,37.6
Status,,29,22,6,27,1575420030,40.50,33.0,62.0,1,0,0,35.5
Status,,29,23,6,21,1575420030,43.60,263.0,55.0,1,0,0,38.6
Status,,29,24,6,19,1575420030,43.60,302.0,48.0,1,0,0,38.6
Status,,29,25,6,7,1575420030,24.80,160.0,20.0,1,0,0,19.8
Status,,29,26,6,30,1575420030,0.00,56.0,13.0,0,0,0,0.0
Status,,29,27,6,15,1575420030,0.00,98.0,8.0,0,0,0,0.0
Status,,29,28,6,34,1575420030,0.00,51.0,5.0,0,0,0,0.0
Fix,GPS,37.4243400000,-122.1712683333,15.599999999999998,0.096767776,1.8,116.93,1732145794000,0.9,179.9,24678046000000,36.8,0,,,
Fix,FLP,37.4243418000,-122.1712790000,-0.4962357556354946,0.077757426,2.157,,1732145794199,0.9,,24678046000000,1.0433283,0,,,
Raw,1732145794000,6372000000,,97.6174413526026,-1416181005628999936,0.0,97.6174413526026,1067.7400326940694,0.0,0,22,0.0,16431,344211930248751,31,42.98400115966797,112.47027386497606,0.14999,16,0.0,0.0,1575420030,,,,0,30.94914086749486,1,6.0,42.98400115966797,0.0,0.0,0.0,66.7128,C,24678046000000,
Raw,1732145794000,6372000000,,97.6174413526026,-1416181005628999936,0.0,97.6174413526026,1067.7400326940694,0.0,0,17,0.0,16431,344211928153158,51,38.013999938964844,-220.44611408732843,0.14999,16,0.0,0.0,1575420030,,,,0,25.670502391726973,1,6.0,38.013999938964844,0.0,0.0,0.0,66.7128,C,24678046000000,
Raw,1732145794000,6372000000,,97.6174413526026,-1416181005628999936,0.0,97.6174413526026,1067.7400326940694,0.0,0,13,0.0,16431,344211929278346,31,42.83700180053711,-54.72276449498232,0.14999,16,0.0,0.0,1575420030,,,,0,30.79320277678585,1,6.0,42.83700180053711,0.0,0.0,0.0,66.7128,C,24678046000000,
Raw,1732145794000,6372000000,,97.6174413526026,-1416181005628999936,0.0,97.6174413526026,1067.7400326940694,0.0,0,30,0.0,16431,344211932108003,31,43.80699920654297,360.37602975008093,0.14999,16,0.0,0.0,1575420030,,,,0,31.806882322204984,1,6.0,43.80699920654297,0.0,0.0,0.0,66.7128,C,24678046000000,
Raw,1732145794000,6372000000,,97.6174413526026,-1416181005628999936,0.0,97.6174413526026,1067.7400326940694,0.0,0,14,0.0,16431,344211932786919,31,42.375999450683594,262.777489810636,0.14999,16,0.0,0.0,1575420030,,,,0,30.31181354696866,1,6.0,42.375999450683594,0.0,0.0,0.0,66.7128,C,24678046000000,
Raw,1732145794000,6372000000,,97.6174413526026,-1416181005628999936,0.0,97.6174413526026,1067.7400326940694,0.0,0,7,0.0,16431,344211927461672,51,36.597999572753906,633.2706294836372,0.14999,16,0.0,0.0,1575420030,,,,0,24.129341455339503,1,6.0,36.597999572753906,0.0,0.0,0.0,66.7128,C,24678046000000,
Raw,1732145794000,6372000000,,97.6174413526026,-1416181005628999936,0.0,97.6174413526026,1067.7400326940694,0.0,0,7,0.0,16431,344211911097572,487,19.799999237060547,896.2199225174198,0.14999,16,0.0,0.0,1575420030,,,,0,3.9541099648236138,6,6.0,19.799999237060547,0.0,0.0,-5.357906313706134,66.7128,C,24678046000000,
Raw,1732145794000,6372000000,,97.6174413526026,-1416181005628999936,0.0,97.6174413526026,1067.7400326940694,0.0,0,19,0.0,16431,344211919703581,42,38.599998474121094,78.38243305565021,0.14999,16,0.0,0.0,1575420030,,,,0,26.22030150394899,6,6.0,38.599998474121094,0.0,0.0,-5.357906313706134,66.7128,C,24678046000000,
Raw,1732145794000,6372000000,,97.6174413526026,-1416181005628999936,0.0,97.6174413526026,1067.7400326940694,0.0,0,21,0.0,16431,344211919368484,42,38.599998474121094,114.81651680044067,0.14999,16,0.0,0.0,1575420030,,,,0,26.19489486166443,6,6.0,38.599998474121094,0.0,0.0,-5.357906313706134,66.7128,C,24678046000000,
Raw,1732145794000,6372000000,,97.6174413526026,-1416181005628999936,0.0,97.6174413526026,1067.7400326940694,0.0,0,27,0.0,16431,344211920618630,51,35.5,548.4620450685372,0.14999,17,3163.497967515975,0.00022499999613501132,1575420030,,,,0,23.011473138145696,6,6.0,35.5,0.0,0.0,-5.357906313706134,66.7128,C,24678046000000,
Raw,1732145794000,6372000000,,97.6174413526026,-1416181005628999936,0.0,97.6174413526026,1067.7400326940694,0.0,0,29,0.0,16431,344211921552953,42,37.599998474121094,555.0919398122784,0.14999,16,0.0,0.0,1575420030,,,,0,25.184160035736475,6,6.0,37.599998474121094,0.0,0.0,-5.357906313706134,66.7128,C,24678046000000,
Raw,1732145794000,6372000000,,97.6174413526026,-1416181005628999936,0.0,97.6174413526026,1067.7400326940694,0.0,0,9,0.0,32995,9393933986496,31,5.0,421.99887325670807,0.14999,16,0.0,0.0,1600875010,,,,0,29.800020239216245,3,6.0,42.0,0.0,0.0,8.36825595702515,66.7128,C,24678046000000,
Raw,1732145794000,6372000000,,97.6174413526026,-1416181005628999936,0.0,97.6174413526026,1067.7400326940694,0.0,0,8,0.0,17,813855,235,5.0,23.051903126497045,0.14999,16,0.0,0.0,1605374980,,,,0,15.43406774744806,3,6.0,29.0,0.0,0.0,8.36825595702515,66.7128,C,24678046000000,
Raw,1732145794000,6372000000,,97.6174413526026,-1416181005628999936,0.0,97.6174413526026,1067.7400326940694,0.0,0,7,0.0,32995,9393932712521,31,5.0,741.0265597792367,0.14999,16,0.0,0.0,1604812540,,,,0,31.31079529396962,3,6.0,44.0,0.0,0.0,8.36825595702515,66.7128,C,24678046000000,
Raw,1732145794000,6372000000,,97.6174413526026,-1416181005628999936,0.0,97.6174413526026,1067.7400326940694,0.0,0,2,0.0,16431,344211919672117,487,19.033000946044922,49.35540044097073,0.14999,16,0.0,0.0,1575420030,,,,0,0.5751816081709968,1,6.0,19.033000946044922,0.0,0.0,0.0,66.7128,C,24678046000000,
Raw,1732145794000,6372000000,,97.6174413526026,-1416181005628999936,0.0,97.6174413526026,1067.7400326940694,0.0,0,19,0.0,16431,344211919127613,31,42.59600067138672,-382.00047124260567,0.14999,16,0.0,0.0,1575420030,,,,0,30.542356765171395,1,6.0,42.59600067138672,0.0,0.0,0.0,66.7128,C,24678046000000,
Status,1732145794000,29,0,1,14,1575420030,47.40,303.0,73.0,1,0,0,42.4
Status,1732145794000,29,1,1,30,1575420030,48.80,61.0,72.0,1,0,0,43.8
Status,1732145794000,29,2,1,22,1575420030,48.00,263.0,56.0,1,0,0,43.0
Status,1732145794000,29,3,1,13,1575420030,51.30,307.0,44.0,1,0,0,46.3
Status,1732145794000,29,4,1,7,1575420030,38.90,99.0,41.0,1,0,0,33.9
Status,1732145794000,29,5,1,17,1575420030,42.90,176.0,40.0,1,0,0,37.9
Status,1732145794000,29,6,2,131,1575420030,43.00,3.0,23.0,0,0,0,38.0
Status,1732145794000,29,7,1,2,1575420030,21.70,92.0,14.0,1,0,0,16.7
Status,1732145794000,29,8,1,15,1575420030,32.40,318.0,14.0,1,0,0,27.400002
Status,1732145794000,29,9,1,21,1575420030,0.00,73.0,13.0,0,0,0,0.0
Status,1732145794000,29,10,1,19,1575420030,48.40,193.0,13.0,1,0,0,43.4
Status,1732145794000,29,11,1,8,1575420030,0.00,40.0,12.0,0,0,0,0.0
Status,1732145794000,29,12,1,5,1575420030,0.00,266.0,9.0,0,0,0,0.0
Status,1732145794000,29,13,1,9,1575420030,0.00,159.0,5.0,0,0,0,0.0
Status,1732145794000,29,14,3,9,1602000000,50.20,8.0,55.0,1,0,0,45.2
Status,1732145794000,29,15,3,7,1602000000,50.70,237.0,48.0,1,0,0,45.7
Status,1732145794000,29,16,3,8,1602000000,36.90,309.0,37.0,1,0,0,31.900002
Status,1732145794000,29,17,3,19,1602000000,0.00,92.0,29.0,0,0,0,0.0
Status,1732145794000,29,18,3,16,1602000000,0.00,63.0,17.0,0,0,0,0.0
Status,1732145794000,29,19,3,20,1602000000,0.00,152.0,6.0,0,0,0,0.0
Status,1732145794000,29,20,3,17,1602000000,43.20,0.0,0.0,0,0,0,38.2
Status,1732145794000,29,21,6,29,1575420030,41.50,208.0,65.0,1,0,0,36.5
Status,1732145794000,29,22,6,27,1575420030,40.60,33.0,62.0,1,0,0,35.6
Status,1732145794000,29,23,6,21,1575420030,45.20,263.0,55.0,1,0,0,40.2
Status,1732145794000,29,24,6,19,1575420030,45.20,302.0,48.0,1,0,0,40.2
Status,1732145794000,29,25,6,7,1575420030,22.00,160.0,20.0,1,0,0,17.0
Status,1732145794000,29,26,6,30,1575420030,0.00,56.0,13.0,0,0,0,0.0
Status,1732145794000,29,27,6,15,1575420030,0.00,98.0,8.0,0,0,0,0.0
Status,1732145794000,29,28,6,34,1575420030,0.00,51.0,5.0,0,0,0,0.0
Fix,GPS,37.4243450000,-122.1712616667,15.8,0.09367944,1.7,122.07,1732145795000,0.6,179.9,24679046000000,37.2,0,,,
Fix,FLP,37.4243431000,-122.1712702000,-0.4962357556354946,0.096710965,2.033,,1732145795199,0.6,,24679046000000,1.0506628,0,,,
Raw,1732145795000,7372000000,,99.2043533470215,-1416181005628999936,0.0,99.2043533470215,1061.2543162040126,0.0,0,22,0.0,16431,344212930248378,31,43.03900146484375,110.56094910476347,0.14999,16,0.0,0.0,1575420030,,,,0,32.09862453079027,1,6.0,43.03900146484375,0.0,0.0,0.0,66.7128,C,24679046000000,
Raw,1732145795000,7372000000,,99.2043533470215,-1416181005628999936,0.0,99.2043533470215,1061.2543162040126,0.0,0,17,0.0,16431,344212928153896,51,37.93899917602539,-222.15648068011942,0.14999,16,0.0,0.0,1575420030,,,,0,24.0401298531538,1,6.0,37.93899917602539,0.0,0.0,0.0,66.7128,C,24679046000000,
Raw,1732145795000,7372000000,,99.2043533470215,-1416181005628999936,0.0,99.2043533470215,1061.2543162040126,0.0,0,13,0.0,16431,344212929278533,28,46.32500076293945,-56.547093582737745,0.14999,16,0.0,0.0,1575420030,,,,0,34.42114774523486,1,6.0,46.32500076293945,0.0,0.0,0.0,66.7128,C,24679046000000,
Raw,1732145795000,7372000000,,99.2043533470215,-1416181005628999936,0.0,99.2043533470215,1061.2543162040126,0.0,0,30,0.0,16431,344212932106806,31,43.80400085449219,358.5330243790089,0.14999,16,0.0,0.0,1575420030,,,,0,31.756732704612183,1,6.0,43.80400085449219,0.0,0.0,0.0,66.7128,C,24679046000000,
Raw,1732145795000,7372000000,,99.2043533470215,-1416181005628999936,0.0,99.2043533470215,1061.2543162040126,0.0,0,14,0.0,16431,344212932786045,31,42.3849983215332,261.0472854741231,0.14999,16,0.0,0.0,1575420030,,,,0,30.51532196012406,1,6.0,42.3849983215332,0.0,0.0,0.0,66.7128,C,24679046000000,
Raw,1732145795000,7372000000,,99.2043533470215,-1416181005628999936,0.0,99.2043533470215,1061.2543162040126,0.0,0,7,0.0,16431,344212927459558,58,33.90599822998047,631.1335423379525,0.14999,16,0.0,0.0,1575420030,,,,0,21.122458925590614,1,6.0,33.90599822998047,0.0,0.0,0.0,66.7128,C,24679046000000,
Raw,1732145795000,7372000000,,99.2043533470215,-1416181005628999936,0.0,99.2043533470215,1061.2543162040126,0.0,0,7,0.0,16431,344212911094585,487,17.0,894.3771029800125,0.14999,16,0.0,0.0,1575420030,,,,0,0.0,6,6.0,17.0,0.0,0.0,-2.7421331600703196,66.7128,C,24679046000000,
Raw,1732145795000,7372000000,,99.2043533470215,-1416181005628999936,0.0,99.2043533470215,1061.2543162040126,0.0,0,19,0.0,16431,344212919703332,42,40.20000076293945,76.43842708773646,0.14999,17,1024.7310074543823,0.00022499999613501132,1575420030,,,,0,27.89906768444398,6,6.0,40.20000076293945,0.0,0.0,-2.7421331600703196,66.7128,C,24679046000000,
Raw,1732145795000,7372000000,,99.2043533470215,-1416181005628999936,0.0,99.2043533470215,1061.2543162040126,0.0,0,21,0.0,16431,344212919368101,42,40.20000076293945,112.84598307687068,0.14999,17,1233.0727412507806,0.00022499999613501132,1575420030,,,,0,27.909516876246208,6,6.0,40.20000076293945,0.0,0.0,-2.7421331600703196,66.7128,C,24679046000000,
Raw,1732145795000,7372000000,,99.2043533470215,-1416181005628999936,0.0,99.2043533470215,1061.2543162040126,0.0,0,27,0.0,16431,344212920616810,51,35.584999084472656,546.4985730242313,0.14999,16,0.0,0.0,1575420030,,,,0,24.75197351428215,6,6.0,35.584999084472656,0.0,0.0,-2.7421331600703196,66.7128,C,24679046000000,
Raw,1732145795000,7372000000,,99.2043533470215,-1416181005628999936,0.0,99.2043533470215,1061.2543162040126,0.0,0,29,0.0,16431,344212921551106,51,36.5,553.1739040990262,0.14999,16,0.0,0.0,1575420030,,,,0,23.999274229201,6,6.0,36.5,0.0,0.0,-2.7421331600703196,66.7128,C,24679046000000,
Raw,1732145795000,7372000000,,99.2043533470215,-1416181005628999936,0.0,99.2043533470215,1061.2543162040126,0.0,0,9,0.0,32995,9394933985096,28,5.0,420.11261576573236,0.14999,16,0.0,0.0,1600875010,,,,0,33.03473364076376,3,6.0,45.0,0.0,0.0,9.007409353900409,66.7128,C,24679046000000,
Raw,1732145795000,7372000000,,99.2043533470215,-1416181005628999936,0.0,99.2043533470215,1061.2543162040126,0.0,0,8,0.0,17,813780,74,5.0,21.850976378922674,0.14999,16,0.0,0.0,1605374980,,,,0,19.072797649390083,3,6.0,32.0,0.0,0.0,9.007409353900409,66.7128,C,24679046000000,
Raw,1732145795000,7372000000,,99.2043533470215,-1416181005628999936,0.0,99.2043533470215,1061.2543162040126,0.0,0,7,0.0,32995,9394932710048,28,5.0,739.2697581118033,0.14999,16,0.0,0.0,1604812540,,,,0,33.57349251296412,3,6.0,46.0,0.0,0.0,9.007409353900409,66.7128,C,24679046000000,
Raw,1732145795000,7372000000,,99.2043533470215,-1416181005628999936,0.0,99.2043533470215,1061.2543162040126,0.0,0,15,0.0,16431,344212921184881,235,27.43000030517578,-225.7228610005214,0.14999,16,0.0,0.0,1575420030,,,,0,13.330292862401365,1,6.0,27.43000030517578,0.0,0.0,0.0,66.7128,C,24679046000000,
Raw,1732145795000,7372000000,,99.2043533470215,-1416181005628999936,0.0,99.2043533470215,1061.2543162040126,0.0,0,2,0.0,16431,344212919671988,797,16.676000595092773,48.10095351566188,0.14999,16,0.0,0.0,1575420030,,,,0,0.0,1,6.0,16.676000595092773,0.0,0.0,0.0,66.7128,C,24679046000000,
Raw,1732145795000,7372000000,,99.2043533470215,-1416181005628999936,0.0,99.2043533470215,1061.2543162040126,0.0,0,19,0.0,16431,344212919128890,31,43.37099838256836,-383.98522124153607,0.14999,16,0.0,0.0,1575420030,,,,0,31.351786777533725,1,6.0,43.37099838256836,0.0,0.0,0.0,66.7128,C,24679046000000,
Status,1732145795000,29,0,1,14,1575420030,47.40,303.0,73.0,1,0,0,42.4
Status,1732145795000,29,1,1,30,1575420030,48.70,61.0,72.0,1,0,0,43.7
Status,1732145795000,29,2,1,22,1575420030,48.10,263.0,56.0,1,0,0,43.1
Status,1732145795000,29,3,1,13,1575420030,48.60,307.0,44.0,1,0,0,43.6
Status,1732145795000,29,4,1,7,1575420030,38.90,99.0,41.0,1,0,0,33.9
Status,1732145795000,29,5,1,17,1575420030,42.90,176.0,40.0,1,0,0,37.9
Status,1732145795000,29,6,2,131,1575420030,42.00,3.0,23.0,0,0,0,37.0
Status,1732145795000,29,7,1,2,1575420030,21.60,92.0,14.0,1,0,0,16.6
Status,1732145795000,29,8,1,15,1575420030,0.00,318.0,14.0,0,0,0,0.0
Status,1732145795000,29,9,1,21,1575420030,0.00,73.0,13.0,0,0,0,0.0
Status,1732145795000,29,10,1,19,1575420030,48.40,193.0,13.0,1,0,0,43.4
Status,1732145795000,29,11,1,8,1575420030,0.00,40.0,12.0,0,0,0,0.0
Status,1732145795000,29,12,1,5,1575420030,0.00,266.0,9.0,0,0,0,0.0
Status,1732145795000,29,13,1,9,1575420030,0.00,159.0,5.0,0,0,0,0.0
Status,1732145795000,29,14,3,9,1602000000,50.20,8.0,55.0,1,0,0,45.2
Status,1732145795000,29,15,3,7,1602000000,49.70,237.0,48.0,1,0,0,44.7
Status,1732145795000,29,16,3,8,1602000000,35.70,309.0,37.0,1,0,0,30.7
Status,1732145795000,29,17,3,19,1602000000,0.00,92.0,29.0,0,0,0,0.0
Status,1732145795000,29,18,3,16,1602000000,0.00,63.0,17.0,0,0,0,0.0
Status,1732145795000,29,19,3,20,1602000000,0.00,152.0,6.0,0,0,0,0.0
Status,1732145795000,29,20,3,17,1602000000,37.70,0.0,0.0,0,0,0,32.7
Status,1732145795000,29,21,6,29,1575420030,40.50,208.0,65.0,1,0,0,35.5
Status,1732145795000,29,22,6,27,1575420030,40.60,33.0,62.0,1,0,0,35.6
Status,1732145795000,29,23,6,21,1575420030,44.30,263.0,55.0,1,0,0,39.3
Status,1732145795000,29,24,6,19,1575420030,44.80,302.0,48.0,1,0,0,39.8
Status,1732145795000,29,25,6,7,1575420030,22.00,160.0,20.0,1,0,0,17.0
Status,1732145795000,29,26,6,30,1575420030,0.00,56.0,13.0,0,0,0,0.0
Status,1732145795000,29,27,6,15,1575420030,0.00,98.0,8.0,0,0,0,0.0
Status,1732145795000,29,28,6,34,1575420030,0.00,51.0,5.0,0,0,0,0.0
Fix,GPS,37.4243500000,-122.1712583333,16.000000000000004,0.060737222,1.6,56.48,1732145796000,0.5,179.9,24680046000000,36.4,0,,,
Fix,FLP,37.4243461000,-122.1712642000,-0.4962357556354946,0.06331693,1.8,,1732145796198,0.5,,24680046000000,1.0617257,0,,,
Raw,1732145796000,8372000000,,97.4173873859009,-1416181005628999936,0.0,97.4173873859009,1053.487504620103,0.0,0,22,0.0,16431,344213930248010,31,43.071998596191406,108.34741463520426,0.14999,16,0.0,0.0,1575420030,,,,0,31.702918695414454,1,6.0,43.071998596191406,0.0,0.0,0.0,66.7128,C,24680046000000,
Raw,1732145796000,8372000000,,97.4173873859009,-1416181005628999936,0.0,97.4173873859009,1053.487504620103,0.0,0,17,0.0,16431,344213928154635,51,37.941001892089844,-224.45222331716315,0.14999,16,0.0,0.0,1575420030,,,,0,25.636652428238357,1,6.0,37.941001892089844,0.0,0.0,0.0,66.7128,C,24680046000000,
Raw,1732145796000,8372000000,,97.4173873859009,-1416181005628999936,0.0,97.4173873859009,1053.487504620103,0.0,0,13,0.0,16431,344213929278726,31,43.58300018310547,-58.84058298659528,0.14999,16,0.0,0.0,1575420030,,,,0,31.573758105217845,1,6.0,43.58300018310547,0.0,0.0,0.0,66.7128,C,24680046000000,
Raw,1732145796000,8372000000,,97.4173873859009,-1416181005628999936,0.0,97.4173873859009,1053.487504620103,0.0,0,30,0.0,16431,344213932105615,31,43.736000061035156,356.28961714782633,0.14999,16,0.0,0.0,1575420030,,,,0,30.402415484856448,1,6.0,43.736000061035156,0.0,0.0,0.0,66.7128,C,24680046000000,
Raw,1732145796000,8372000000,,97.4173873859009,-1416181005628999936,0.0,97.4173873859009,1053.487504620103,0.0,0,14,0.0,16431,344213932785179,31,42.4109992980957,258.6852234479388,0.14999,16,0.0,0.0,1575420030,,,,0,30.8752336814186,1,6.0,42.4109992980957,0.0,0.0,0.0,66.7128,C,24680046000000,
Raw,1732145796000,8372000000,,97.4173873859009,-1416181005628999936,0.0,97.4173873859009,1053.487504620103,0.0,0,7,0.0,16431,344213927457456,58,33.933998107910156,629.1968767998,0.14999,16,0.0,0.0,1575420030,,,,0,21.156610567116164,1,6.0,33.933998107910156,0.0,0.0,0.0,66.7128,C,24680046000000,
Raw,1732145796000,8372000000,,97.4173873859009,-1416181005628999936,0.0,97.4173873859009,1053.487504620103,0.0,0,7,0.0,16431,344213911091605,487,16.979999542236328,891.178441023917,0.14999,16,0.0,0.0,1575420030,,,,0,0.0,6,6.0,16.979999542236328,0.0,0.0,-0.8150015946324298,66.7128,C,24680046000000,
Raw,1732145796000,8372000000,,97.4173873859009,-1416181005628999936,0.0,97.4173873859009,1053.487504620103,0.0,0,19,0.0,16431,344213919703078,42,39.79999923706055,74.2458685930963,0.14999,17,1099.0258083743524,0.00022499999613501132,1575420030,,,,0,27.536102128344414,6,6.0,39.79999923706055,0.0,0.0,-0.8150015946324298,66.7128,C,24680046000000,
Raw,1732145796000,8372000000,,97.4173873859009,-1416181005628999936,0.0,97.4173873859009,1053.487504620103,0.0,0,21,0.0,16431,344213919367725,42,39.29999923706055,110.5884524871601,0.14999,17,1343.7535762985754,0.00022499999613501132,1575420030,,,,0,26.996397393376363,6,6.0,39.29999923706055,0.0,0.0,-0.8150015946324298,66.7128,C,24680046000000,
Raw,1732145796000,8372000000,,97.4173873859009,-1416181005628999936,0.0,97.4173873859009,1053.487504620103,0.0,0,27,0.0,16431,344213920614997,51,35.64500045776367,544.2153277011481,0.14999,17,4254.418184260443,0.00022499999613501132,1575420030,,,,0,24.37593547005153,6,6.0,35.64500045776367,0.0,0.0,-0.8150015946324298,66.7128,C,24680046000000,
Raw,1732145796000,8372000000,,97.4173873859009,-1416181005628999936,0.0,97.4173873859009,1053.487504620103,0.0,0,29,0.0,16431,344213921549266,51,35.5,550.9616472359129,0.14999,16,0.0,0.0,1575420030,,,,0,22.983898862168388,6,6.0,35.5,0.0,0.0,-0.8150015946324298,66.7128,C,24680046000000,
Raw,1732145796000,8372000000,,97.4173873859009,-1416181005628999936,0.0,97.4173873859009,1053.487504620103,0.0,0,9,0.0,32995,9395933983701,31,5.0,417.7201955221912,0.14999,16,0.0,0.0,1600875010,,,,0,32.10463714547813,3,6.0,44.0,0.0,0.0,9.520555657127483,66.7128,C,24680046000000,
Raw,1732145796000,8372000000,,97.4173873859009,-1416181005628999936,0.0,97.4173873859009,1053.487504620103,0.0,0,8,0.0,17,813720,74,5.0,19.652734700131212,0.14999,16,0.0,0.0,1605374980,,,,0,17.76841739015077,3,6.0,31.0,0.0,0.0,9.520555657127483,66.7128,C,24680046000000,
Raw,1732145796000,8372000000,,97.4173873859009,-1416181005628999936,0.0,97.4173873859009,1053.487504620103,0.0,0,7,0.0,32995,9395932707584,28,5.0,737.0532326435462,0.14999,16,0.0,0.0,1604812540,,,,0,32.50257902750907,3,6.0,45.0,0.0,0.0,9.520555657127483,66.7128,C,24680046000000,
Raw,1732145796000,8372000000,,97.4173873859009,-1416181005628999936,0.0,97.4173873859009,1053.487504620103,0.0,0,2,0.0,16431,344213919671823,487,16.586999893188477,46.73976837910932,0.14999,16,0.0,0.0,1575420030,,,,0,0.0,1,6.0,16.586999893188477,0.0,0.0,0.0,66.7128,C,24680046000000,
Raw,1732145796000,8372000000,,97.4173873859009,-1416181005628999936,0.0,97.4173873859009,1053.487504620103,0.0,0,19,0.0,16431,344213919130173,31,43.3849983215332,-386.18093890847854,0.14999,16,0.0,0.0,1575420030,,,,0,31.662338253425595,1,6.0,43.3849983215332,0.0,0.0,0.0,66.7128,C,24680046000000,
Status,1732145796000,29,0,1,14,1575420030,47.50,303.0,73.0,1,0,0,42.5
Status,1732145796000,29,1,1,30,1575420030,48.70,61.0,72.0,1,0,0,43.7
Status,1732145796000,29,2,1,22,1575420030,48.10,263.0,56.0,1,0,0,43.1
Status,1732145796000,29,3,1,13,1575420030,49.10,307.0,44.0,1,0,0,44.1
Status,1732145796000,29,4,1,7,1575420030,39.00,99.0,41.0,1,0,0,34.0
Status,1732145796000,29,5,1,17,1575420030,42.90,176.0,40.0,1,0,0,37.9
Status,1732145796000,29,6,2,131,1575420030,42.00,3.0,23.0,0,0,0,37.0
Status,1732145796000,29,7,1,2,1575420030,28.00,92.0,14.0,1,0,0,23.0
Status,1732145796000,29,8,1,15,1575420030,33.10,318.0,14.0,1,0,0,28.099998
Status,1732145796000,29,9,1,21,1575420030,0.00,73.0,13.0,0,0,0,0.0
Status,1732145796000,29,10,1,19,1575420030,48.40,193.0,13.0,1,0,0,43.4
Status,1732145796000,29,11,1,8,1575420030,0.00,40.0,12.0,0,0,0,0.0
Status,1732145796000,29,12,1,5,1575420030,0.00,266.0,9.0,0,0,0,0.0
Status,1732145796000,29,13,1,9,1575420030,0.00,159.0,5.0,0,0,0,0.0
Status,1732145796000,29,14,3,9,1602000000,50.10,8.0,55.0,1,0,0,45.1
Status,1732145796000,29,15,3,7,1602000000,50.40,237.0,48.0,1,0,0,45.4
Status,1732145796000,29,16,3,8,1602000000,39.10,309.0,37.0,1,0,0,34.1
Status,1732145796000,29,17,3,19,1602000000,0.00,92.0,29.0,0,0,0,0.0
Status,1732145796000,29,18,3,16,1602000000,28.80,63.0,17.0,1,0,0,23.8
Status,1732145796000,29,19,3,20,1602000000,0.00,152.0,6.0,0,0,0,0.0
Status,1732145796000,29,20,3,17,1602000000,42.00,0.0,0.0,0,0,0,37.0
Status,1732145796000,29,21,6,29,1575420030,40.50,208.0,65.0,1,0,0,35.5
Status,1732145796000,29,22,6,27,1575420030,40.60,33.0,62.0,1,0,0,35.6
Status,1732145796000,29,23,6,21,1575420030,44.30,263.0,55.0,1,0,0,39.3
Status,1732145796000,29,24,6,19,1575420030,44.80,302.0,48.0,1,0,0,39.8
Status,1732145796000,29,25,6,7,1575420030,22.10,160.0,20.0,1,0,0,17.1
Status,1732145796000,29,26,6,30,1575420030,0.00,56.0,13.0,0,0,0,0.0
Status,1732145796000,29,27,6,15,1575420030,0.00,98.0,8.0,0,0,0,0.0
Status,1732145796000,29,28,6,34,1575420030,0.00,51.0,5.0,0,0,0,0.0
Fix,GPS,37.4243550000,-122.1712550000,16.000000000000004,0.007206111,1.6,133.11,1732145797000,0.4,179.9,24681046000000,34.8,0,,,
Raw,1732145797000,9372000000,,93.25346040742902,-1416181005628999936,0.0,93.25346040742902,1050.207734684043,0.0,0,22,0.0,16431,344214930247650,31,43.119998931884766,107.36407579769201,0.14999,16,0.0,0.0,1575420030,,,,0,32.05661679813112,1,6.0,43.119998931884766,0.0,0.0,0.0,66.7128,C,24681046000000,
Raw,1732145797000,9372000000,,93.25346040742902,-1416181005628999936,0.0,93.25346040742902,1050.207734684043,0.0,0,17,0.0,16431,344214928155379,51,37.944000244140625,-225.29623336446,0.14999,16,0.0,0.0,1575420030,,,,0,25.670502391726973,1,6.0,37.944000244140625,0.0,0.0,0.0,66.7128,C,24681046000000,
Raw,1732145797000,9372000000,,93.25346040742902,-1416181005628999936,0.0,93.25346040742902,1050.207734684043,0.0,0,13,0.0,16431,344214929278923,31,44.09700012207031,-59.49302175464798,0.14999,16,0.0,0.0,1575420030,,,,0,32.10828983924835,1,6.0,44.09700012207031,0.0,0.0,0.0,66.7128,C,24681046000000,
Raw,1732145797000,9372000000,,93.25346040742902,-1416181005628999936,0.0,93.25346040742902,1050.207734684043,0.0,0,30,0.0,16431,344214932104429,31,43.6879997253418,355.38161063219945,0.14999,16,0.0,0.0,1575420030,,,,0,30.740595021360168,1,6.0,43.6879997253418,0.0,0.0,0.0,66.7128,C,24681046000000,
Raw,1732145797000,9372000000,,93.25346040742902,-1416181005628999936,0.0,93.25346040742902,1050.207734684043,0.0,0,14,0.0,16431,344214932784317,31,42.45899963378906,257.85995937158293,0.14999,16,0.0,0.0,1575420030,,,,0,31.358809935092886,1,6.0,42.45899963378906,0.0,0.0,0.0,66.7128,C,24681046000000,
Raw,1732145797000,9372000000,,93.25346040742902,-1416181005628999936,0.0,93.25346040742902,1050.207734684043,0.0,0,7,0.0,16431,344214927455357,58,34.005001068115234,627.9542999998329,0.14999,16,0.0,0.0,1575420030,,,,0,22.769536628950057,1,6.0,34.005001068115234,0.0,0.0,0.0,66.7128,C,24681046000000,
Raw,1732145797000,9372000000,,93.25346040742902,-1416181005628999936,0.0,93.25346040742902,1050.207734684043,0.0,0,7,0.0,16431,344214911088631,487,17.06100082397461,890.8156937101452,0.14999,16,0.0,0.0,1575420030,,,,0,2.026194951143232,6,6.0,17.06100082397461,0.0,0.0,1.0338618010823428,66.7128,C,24681046000000,
Raw,1732145797000,9372000000,,93.25346040742902,-1416181005628999936,0.0,93.25346040742902,1050.207734684043,0.0,0,19,0.0,16431,344214919702831,42,39.80500030517578,73.15623289929434,0.14999,17,1172.125855626542,0.00022499999613501132,1575420030,,,,0,27.57417434175241,6,6.0,39.80500030517578,0.0,0.0,1.0338618010823428,66.7128,C,24681046000000,
Raw,1732145797000,9372000000,,93.25346040742902,-1416181005628999936,0.0,93.25346040742902,1050.207734684043,0.0,0,21,0.0,16431,344214919367358,42,39.349998474121094,109.48288155659792,0.14999,16,0.0,0.0,1575420030,,,,0,28.008162230069672,6,6.0,39.349998474121094,0.0,0.0,1.0338618010823428,66.7128,C,24681046000000,
Raw,1732145797000,9372000000,,93.25346040742902,-1416181005628999936,0.0,93.25346040742902,1050.207734684043,0.0,0,27,0.0,16431,344214920613188,51,35.63199996948242,543.1023234239923,0.14999,16,0.0,0.0,1575420030,,,,0,22.825969245247713,6,6.0,35.63199996948242,0.0,0.0,1.0338618010823428,66.7128,C,24681046000000,
Raw,1732145797000,9372000000,,93.25346040742902,-1416181005628999936,0.0,93.25346040742902,1050.207734684043,0.0,0,29,0.0,16431,344214921547428,51,35.52000045776367,549.9137311998679,0.14999,16,0.0,0.0,1575420030,,,,0,23.432418201066064,6,6.0,35.52000045776367,0.0,0.0,1.0338618010823428,66.7128,C,24681046000000,
Raw,1732145797000,9372000000,,93.25346040742902,-1416181005628999936,0.0,93.25346040742902,1050.207734684043,0.0,0,9,0.0,32995,9396933982312,28,5.0,416.92833039036634,0.14999,16,0.0,0.0,1600875010,,,,0,32.5021150655602,3,6.0,45.0,0.0,0.0,10.120558315795813,66.7128,C,24681046000000,
Raw,1732145797000,9372000000,,93.25346040742902,-1416181005628999936,0.0,93.25346040742902,1050.207734684043,0.0,0,8,0.0,17,813663,58,5.0,18.813804777876324,0.14999,16,0.0,0.0,1605374980,,,,0,21.51083415868672,3,6.0,34.0,0.0,0.0,10.120558315795813,66.7128,C,24681046000000,
Raw,1732145797000,9372000000,,93.25346040742902,-1416181005628999936,0.0,93.25346040742902,1050.207734684043,0.0,0,16,0.0,17,340722,316,45.400001525878906,799.9615432475962,0.14999,16,0.0,0.0,1601437440,,,,0,9.596353585752635,3,6.0,45.400001525878906,0.0,0.0,10.120558315795813,66.7128,C,24681046000000,
Raw,1732145797000,9372000000,,93.25346040742902,-1416181005628999936,0.0,93.25346040742902,1050.207734684043,0.0,0,7,0.0,32995,9396932705125,28,5.0,736.2467092612281,0.14999,16,0.0,0.0,1604812540,,,,0,33.2494291349527,3,6.0,45.0,0.0,0.0,10.120558315795813,66.7128,C,24681046000000,
Raw,1732145797000,9372000000,,93.25346040742902,-1416181005628999936,0.0,93.25346040742902,1050.207734684043,0.0,0,15,0.0,16431,344214921186422,235,28.059999465942383,-229.04668192988814,0.14999,16,0.0,0.0,1575420030,,,,0,14.131403097125464,1,6.0,28.059999465942383,0.0,0.0,0.0,66.7128,C,24681046000000,
Raw,1732145797000,9372000000,,93.25346040742902,-1416181005628999936,0.0,93.25346040742902,1050.207734684043,0.0,0,2,0.0,16431,344214919671678,396,22.989999771118164,44.79093073590966,0.14999,16,0.0,0.0,1575420030,,,,0,7.097313428915861,1,6.0,22.989999771118164,0.0,0.0,0.0,66.7128,C,24681046000000,
Raw,1732145797000,9372000000,,93.25346040742902,-1416181005628999936,0.0,93.25346040742902,1050.207734684043,0.0,0,19,0.0,16431,344214919131464,28,43.42900085449219,-387.20009718488916,0.14999,16,0.0,0.0,1575420030,,,,0,32.29937119439395,1,6.0,43.42900085449219,0.0,0.0,0.0,66.7128,C,24681046000000,
Fix,FLP,37.4243503000,-122.1712597000,-0.4962357556354946,0.010380286,1.72,,1732145797198,0.4,,24681046000000,1.0716666,0,,,
Status,1732145797000,29,0,1,14,1575420030,47.50,303.0,73.0,1,0,0,42.5
Status,1732145797000,29,1,1,30,1575420030,48.60,61.0,72.0,1,0,0,43.6
Status,1732145797000,29,2,1,22,1575420030,48.20,263.0,56.0,1,0,0,43.2
Status,1732145797000,29,3,1,13,1575420030,49.10,307.0,44.0,1,0,0,44.1
Status,1732145797000,29,4,1,7,1575420030,39.00,99.0,41.0,1,0,0,34.0
Status,1732145797000,29,5,1,17,1575420030,42.90,176.0,40.0,1,0,0,37.9
Status,1732145797000,29,6,2,131,1575420030,41.00,3.0,23.0,0,0,0,36.0
Status,1732145797000,29,7,1,2,1575420030,27.90,92.0,14.0,1,0,0,22.9
Status,1732145797000,29,8,1,15,1575420030,0.00,318.0,14.0,0,0,0,0.0
Status,1732145797000,29,9,1,21,1575420030,0.00,73.0,13.0,0,0,0,0.0
Status,1732145797000,29,10,1,19,1575420030,48.50,193.0,13.0,1,0,0,43.5
Status,1732145797000,29,11,1,8,1575420030,0.00,40.0,12.0,0,0,0,0.0
Status,1732145797000,29,12,1,5,1575420030,0.00,266.0,9.0,0,0,0,0.0
Status,1732145797000,29,13,1,9,1575420030,0.00,159.0,5.0,0,0,0,0.0
Status,1732145797000,29,14,3,9,1602000000,50.10,8.0,55.0,1,0,0,45.1
Status,1732145797000,29,15,3,7,1602000000,50.40,237.0,48.0,1,0,0,45.4
Status,1732145797000,29,16,3,8,1602000000,35.80,309.0,37.0,1,0,0,30.8
Status,1732145797000,29,17,3,19,1602000000,0.00,92.0,29.0,0,0,0,0.0
Status,1732145797000,29,18,3,16,1602000000,30.30,63.0,17.0,1,0,0,25.3
Status,1732145797000,29,19,3,20,1602000000,0.00,152.0,6.0,0,0,0,0.0
Status,1732145797000,29,20,3,17,1602000000,41.90,0.0,0.0,0,0,0,36.9
Status,1732145797000,29,21,6,29,1575420030,40.60,208.0,65.0,1,0,0,35.6
Status,1732145797000,29,22,6,27,1575420030,40.70,33.0,62.0,1,0,0,35.7
Status,1732145797000,29,23,6,21,1575420030,44.40,263.0,55.0,1,0,0,39.4
Status,1732145797000,29,24,6,19,1575420030,44.80,302.0,48.0,1,0,0,39.8
Status,1732145797000,29,25,6,7,1575420030,22.10,160.0,20.0,1,0,0,17.1
Status,1732145797000,29,26,6,30,1575420030,0.00,56.0,13.0,0,0,0,0.0
Status,1732145797000,29,27,6,15,1575420030,0.00,98.0,8.0,0,0,0,0.0
Status,1732145797000,29,28,6,34,1575420030,0.00,51.0,5.0,0,0,0,0.0
Fix,GPS,37.4243600000,-122.1712533333,16.099999999999998,0.06434028,1.5,92.65,1732145798000,0.6,179.9,24682046000000,34.6,0,,,
Fix,FLP,37.4243547000,-122.1712567000,-0.41276423153502684,0.049213085,1.64,,1732145798198,0.6,,24682046000000,1.0806669,0,,,
Raw,1732145798000,10372000000,,92.65981979328843,-1416181005628999936,0.0,92.65981979328843,1049.9994123747288,0.0,0,22,0.0,16431,344215930247291,31,43.15800094604492,107.88345766171773,0.14999,16,0.0,0.0,1575420030,,,,0,31.89972722601938,1,6.0,43.15800094604492,0.0,0.0,0.0,66.7128,C,24682046000000,
Raw,1732145798000,10372000000,,92.65981979328843,-1416181005628999936,0.0,92.65981979328843,1049.9994123747288,0.0,0,17,0.0,16431,344215928156130,51,37.87099838256836,-224.8130193774542,0.14999,16,0.0,0.0,1575420030,,,,0,24.01563954659637,1,6.0,37.87099838256836,0.0,0.0,0.0,66.7128,C,24682046000000,
Raw,1732145798000,10372000000,,92.65981979328843,-1416181005628999936,0.0,92.65981979328843,1049.9994123747288,0.0,0,13,0.0,16431,344215929279124,31,44.09299850463867,-59.07835716076082,0.14999,16,0.0,0.0,1575420030,,,,0,32.043650362227254,1,6.0,44.09299850463867,0.0,0.0,0.0,66.7128,C,24682046000000,
Raw,1732145798000,10372000000,,92.65981979328843,-1416181005628999936,0.0,92.65981979328843,1049.9994123747288,0.0,0,30,0.0,16431,344215932103242,31,43.624000549316406,355.83432466896306,0.14999,16,0.0,0.0,1575420030,,,,0,30.35920201443791,1,6.0,43.624000549316406,0.0,0.0,0.0,66.7128,C,24682046000000,
Raw,1732145798000,10372000000,,92.65981979328843,-1416181005628999936,0.0,92.65981979328843,1049.9994123747288,0.0,0,14,0.0,16431,344215932783456,31,42.47999954223633,258.323382073283,0.14999,16,0.0,0.0,1575420030,,,,0,30.852938337485874,1,6.0,42.47999954223633,0.0,0.0,0.0,66.7128,C,24682046000000,
Raw,1732145798000,10372000000,,92.65981979328843,-1416181005628999936,0.0,92.65981979328843,1049.9994123747288,0.0,0,7,0.0,16431,344215927453262,58,33.979000091552734,628.7699239548251,0.14999,16,0.0,0.0,1575420030,,,,0,20.665817800721094,1,6.0,33.979000091552734,0.0,0.0,0.0,66.7128,C,24682046000000,
Raw,1732145798000,10372000000,,92.65981979328843,-1416181005628999936,0.0,92.65981979328843,1049.9994123747288,0.0,0,7,0.0,16431,344215911085657,316,17.131999969482422,891.3290592092716,0.14999,16,0.0,0.0,1575420030,,,,0,1.8181397431478863,6,6.0,17.131999969482422,0.0,0.0,2.4204233333395893,66.7128,C,24682046000000,
Raw,1732145798000,10372000000,,92.65981979328843,-1416181005628999936,0.0,92.65981979328843,1049.9994123747288,0.0,0,19,0.0,16431,344215919702585,42,39.79899978637695,73.46116271409221,0.14999,16,0.0,0.0,1575420030,,,,0,27.431914071600637,6,6.0,39.79899978637695,0.0,0.0,2.4204233333395893,66.7128,C,24682046000000,
Raw,1732145798000,10372000000,,92.65981979328843,-1416181005628999936,0.0,92.65981979328843,1049.9994123747288,0.0,0,21,0.0,16431,344215919366993,42,39.35200119018555,109.78095875500473,0.14999,16,0.0,0.0,1575420030,,,,0,27.036904613671375,6,6.0,39.35200119018555,0.0,0.0,2.4204233333395893,66.7128,C,24682046000000,
Raw,1732145798000,10372000000,,92.65981979328843,-1416181005628999936,0.0,92.65981979328843,1049.9994123747288,0.0,0,27,0.0,16431,344215920611381,51,35.650001525878906,543.3730366152511,0.14999,16,0.0,0.0,1575420030,,,,0,23.476022156283815,6,6.0,35.650001525878906,0.0,0.0,2.4204233333395893,66.7128,C,24682046000000,
Raw,1732145798000,10372000000,,92.65981979328843,-1416181005628999936,0.0,92.65981979328843,1049.9994123747288,0.0,0,29,0.0,16431,344215921545592,51,35.55400085449219,550.2331328113154,0.14999,16,0.0,0.0,1575420030,,,,0,23.690817712119873,6,6.0,35.55400085449219,0.0,0.0,2.4204233333395893,66.7128,C,24682046000000,
Raw,1732145798000,10372000000,,92.65981979328843,-1416181005628999936,0.0,92.65981979328843,1049.9994123747288,0.0,0,9,0.0,32995,9397933980924,31,5.0,417.26281568507943,0.14999,16,0.0,0.0,1600875010,,,,0,32.15590897990231,3,6.0,44.0,0.0,0.0,10.515222172946403,66.7128,C,24682046000000,
Raw,1732145798000,10372000000,,92.65981979328843,-1416181005628999936,0.0,92.65981979328843,1049.9994123747288,0.0,0,8,0.0,17,813607,74,5.0,19.0473702358249,0.14999,16,0.0,0.0,1605374980,,,,0,17.850103474687607,3,6.0,31.0,0.0,0.0,10.515222172946403,66.7128,C,24682046000000,
Raw,1732145798000,10372000000,,92.65981979328843,-1416181005628999936,0.0,92.65981979328843,1049.9994123747288,0.0,0,16,0.0,17,338172,316,45.400001525878906,799.2418937804932,0.14999,16,0.0,0.0,1601437440,,,,0,11.413693673209025,3,6.0,45.400001525878906,0.0,0.0,10.515222172946403,66.7128,C,24682046000000,
Raw,1732145798000,10372000000,,92.65981979328843,-1416181005628999936,0.0,92.65981979328843,1049.9994123747288,0.0,0,7,0.0,32995,9397932702668,28,5.0,736.8035770794878,0.14999,16,0.0,0.0,1604812540,,,,0,33.255398424306506,3,6.0,45.0,0.0,0.0,10.515222172946403,66.7128,C,24682046000000,
Raw,1732145798000,10372000000,,92.65981979328843,-1416181005628999936,0.0,92.65981979328843,1049.9994123747288,0.0,0,2,0.0,16431,344215919671561,487,22.94099998474121,45.86021764341141,0.14999,16,0.0,0.0,1575420030,,,,0,5.599264467548864,1,6.0,22.94099998474121,0.0,0.0,0.0,66.7128,C,24682046000000,
Raw,1732145798000,10372000000,,92.65981979328843,-1416181005628999936,0.0,92.65981979328843,1049.9994123747288,0.0,0,19,0.0,16431,344215919132756,31,43.46799850463867,-386.6797629233311,0.14999,16,0.0,0.0,1575420030,,,,0,32.22979515441914,1,6.0,43.46799850463867,0.0,0.0,0.0,66.7128,C,24682046000000,
Status,1732145798000,29,0,1,14,1575420030,47.60,304.0,73.0,1,0,0,42.6
Status,1732145798000,29,1,1,30,1575420030,48.60,61.0,72.0,1,0,0,43.6
Status,1732145798000,29,2,1,22,1575420030,48.20,263.0,56.0,1,0,0,43.2
Status,1732145798000,29,3,1,13,1575420030,49.20,307.0,44.0,1,0,0,44.2
Status,1732145798000,29,4,1,7,1575420030,39.10,99.0,41.0,1,0,0,34.1
Status,1732145798000,29,5,1,17,1575420030,42.90,176.0,40.0,1,0,0,37.9
Status,1732145798000,29,6,2,131,1575420030,43.00,3.0,23.0,0,0,0,38.0
Status,1732145798000,29,7,1,2,1575420030,28.10,92.0,14.0,1,0,0,23.1
Status,1732145798000,29,8,1,15,1575420030,0.00,318.0,14.0,0,0,0,0.0
Status,1732145798000,29,9,1,21,1575420030,0.00,73.0,13.0,0,0,0,0.0
Status,1732145798000,29,10,1,19,1575420030,48.50,193.0,13.0,1,0,0,43.5
Status,1732145798000,29,11,1,8,1575420030,0.00,40.0,12.0,0,0,0,0.0
Status,1732145798000,29,12,1,5,1575420030,0.00,266.0,9.0,0,0,0,0.0
Status,1732145798000,29,13,1,9,1575420030,0.00,159.0,5.0,0,0,0,0.0
Status,1732145798000,29,14,3,9,1602000000,50.10,8.0,55.0,1,0,0,45.1
Status,1732145798000,29,15,3,7,1602000000,50.30,237.0,48.0,1,0,0,45.3
Status,1732145798000,29,16,3,8,1602000000,35.80,309.0,37.0,1,0,0,30.8
Status,1732145798000,29,17,3,19,1602000000,0.00,92.0,29.0,0,0,0,0.0
Status,1732145798000,29,18,3,16,1602000000,29.50,63.0,17.0,1,0,0,24.5
Status,1732145798000,29,19,3,20,1602000000,0.00,152.0,6.0,0,0,0,0.0
Status,1732145798000,29,20,3,17,1602000000,41.90,0.0,0.0,0,0,0,36.9
Status,1732145798000,29,21,6,29,1575420030,40.60,208.0,65.0,1,0,0,35.6
Status,1732145798000,29,22,6,27,1575420030,40.70,33.0,62.0,1,0,0,35.7
Status,1732145798000,29,23,6,21,1575420030,44.30,263.0,55.0,1,0,0,39.3
Status,1732145798000,29,24,6,19,1575420030,44.80,302.0,48.0,1,0,0,39.8
Status,1732145798000,29,25,6,7,1575420030,27.10,160.0,20.0,1,0,0,22.1
Status,1732145798000,29,26,6,30,1575420030,0.00,56.0,13.0,0,0,0,0.0
Status,1732145798000,29,27,6,15,1575420030,0.00,98.0,8.0,0,0,0,0.0
Status,1732145798000,29,28,6,34,1575420030,0.00,51.0,5.0,0,0,0,0.0
Fix,GPS,37.4243650000,-122.1712500000,16.000000000000004,0.114783056,1.5,42.28,1732145799000,0.4,125.2,24683046000000,34.6,0,,,
Fix,FLP,37.4243593000,-122.1712533000,-0.41276423153502684,0.105898954,1.616,45.02267,1732145799198,0.4,125.2,24683046000000,1.0906564,0,,,
Raw,1732145799000,11372000000,,92.637252962736,-1416181005628999936,0.0,92.637252962736,1056.918243761644,0.0,0,22,0.0,16431,344216930246929,31,43.17100143432617,109.76060996870451,0.14999,16,0.0,0.0,1575420030,,,,0,31.418278602290897,1,6.0,43.17100143432617,0.0,0.0,0.0,66.7128,C,24683046000000,
Raw,1732145799000,11372000000,,92.637252962736,-1416181005628999936,0.0,92.637252962736,1056.918243761644,0.0,0,17,0.0,16431,344216928156873,42,37.92399978637695,-223.17145769907103,0.14999,16,0.0,0.0,1575420030,,,,0,26.665353706633915,1,6.0,37.92399978637695,0.0,0.0,0.0,66.7128,C,24683046000000,
Raw,1732145799000,11372000000,,92.637252962736,-1416181005628999936,0.0,92.637252962736,1056.918243761644,0.0,0,13,0.0,16431,344216929279318,28,44.176998138427734,-57.343971566789,0.14999,16,0.0,0.0,1575420030,,,,0,33.85539054047882,1,6.0,44.176998138427734,0.0,0.0,0.0,66.7128,C,24683046000000,
Raw,1732145799000,11372000000,,92.637252962736,-1416181005628999936,0.0,92.637252962736,1056.918243761644,0.0,0,30,0.0,16431,344216932102053,31,43.638999938964844,357.5975144809854,0.14999,16,0.0,0.0,1575420030,,,,0,31.93593219924945,1,6.0,43.638999938964844,0.0,0.0,0.0,66.7128,C,24683046000000,
Raw,1732145799000,11372000000,,92.637252962736,-1416181005628999936,0.0,92.637252962736,1056.918243761644,0.0,0,14,0.0,16431,344216932782589,31,42.560001373291016,260.0569314157631,0.14999,16,0.0,0.0,1575420030,,,,0,32.09540036978886,1,6.0,42.560001373291016,0.0,0.0,0.0,66.7128,C,24683046000000,
Raw,1732145799000,11372000000,,92.637252962736,-1416181005628999936,0.0,92.637252962736,1056.918243761644,0.0,0,7,0.0,16431,344216927451157,51,34.06100082397461,630.5717207107184,0.14999,16,0.0,0.0,1575420030,,,,0,23.05723662461017,1,6.0,34.06100082397461,0.0,0.0,0.0,66.7128,C,24683046000000,
Raw,1732145799000,11372000000,,92.637252962736,-1416181005628999936,0.0,92.637252962736,1056.918243761644,0.0,0,7,0.0,16431,344216911082677,396,22.100000381469727,892.6704995189347,0.14999,16,0.0,0.0,1575420030,,,,0,7.267630447366454,6,6.0,22.100000381469727,0.0,0.0,3.37430108790105,66.7128,C,24683046000000,
Raw,1732145799000,11372000000,,92.637252962736,-1416181005628999936,0.0,92.637252962736,1056.918243761644,0.0,0,19,0.0,16431,344216919702335,42,39.81399917602539,75.52452035325085,0.14999,16,0.0,0.0,1575420030,,,,0,27.809738328522858,6,6.0,39.81399917602539,0.0,0.0,3.37430108790105,66.7128,C,24683046000000,
Raw,1732145799000,11372000000,,92.637252962736,-1416181005628999936,0.0,92.637252962736,1056.918243761644,0.0,0,21,0.0,16431,344216919366623,42,39.32899856567383,111.78015732137662,0.14999,16,0.0,0.0,1575420030,,,,0,26.574496292011286,6,6.0,39.32899856567383,0.0,0.0,3.37430108790105,66.7128,C,24683046000000,
Raw,1732145799000,11372000000,,92.637252962736,-1416181005628999936,0.0,92.637252962736,1056.918243761644,0.0,0,27,0.0,16431,344216920609568,51,35.70199966430664,545.3448247160587,0.14999,16,0.0,0.0,1575420030,,,,0,24.297151350432564,6,6.0,35.70199966430664,0.0,0.0,3.37430108790105,66.7128,C,24683046000000,
Raw,1732145799000,11372000000,,92.637252962736,-1416181005628999936,0.0,92.637252962736,1056.918243761644,0.0,0,29,0.0,16431,344216921543753,51,35.62099838256836,552.2758164552604,0.14999,16,0.0,0.0,1575420030,,,,0,24.454011408228865,6,6.0,35.62099838256836,0.0,0.0,3.37430108790105,66.7128,C,24683046000000,
Raw,1732145799000,11372000000,,92.637252962736,-1416181005628999936,0.0,92.637252962736,1056.918243761644,0.0,0,9,0.0,32995,9398933979530,28,5.0,418.92550386343254,0.14999,16,0.0,0.0,1600875010,,,,0,32.75765541014239,3,6.0,45.0,0.0,0.0,10.977514821552825,66.7128,C,24683046000000,
Raw,1732145799000,11372000000,,92.637252962736,-1416181005628999936,0.0,92.637252962736,1056.918243761644,0.0,0,8,0.0,17,813537,74,5.0,20.984828307459257,0.14999,16,0.0,0.0,1605374980,,,,0,17.546755864713617,3,6.0,31.0,0.0,0.0,10.977514821552825,66.7128,C,24683046000000,
Raw,1732145799000,11372000000,,92.637252962736,-1416181005628999936,0.0,92.637252962736,1056.918243761644,0.0,0,16,0.0,17,335521,316,45.33000183105469,801.764277502671,0.14999,16,0.0,0.0,1601437440,,,,0,10.474137369054926,3,6.0,45.33000183105469,0.0,0.0,10.977514821552825,66.7128,C,24683046000000,
Raw,1732145799000,11372000000,,92.637252962736,-1416181005628999936,0.0,92.637252962736,1056.918243761644,0.0,0,7,0.0,32995,9398932700206,31,5.0,738.7399811603779,0.14999,16,0.0,0.0,1604812540,,,,0,31.77017832277091,3,6.0,44.0,0.0,0.0,10.977514821552825,66.7128,C,24683046000000,
Raw,1732145799000,11372000000,,92.637252962736,-1416181005628999936,0.0,92.637252962736,1056.918243761644,0.0,0,2,0.0,16431,344216919671428,316,23.062999725341797,47.00358249556086,0.14999,16,0.0,0.0,1575420030,,,,0,10.590424899126399,1,6.0,23.062999725341797,0.0,0.0,0.0,66.7128,C,24683046000000,
Raw,1732145799000,11372000000,,92.637252962736,-1416181005628999936,0.0,92.637252962736,1056.918243761644,0.0,0,19,0.0,16431,344216919134043,31,43.483001708984375,-385.08716841563387,0.14999,17,-2583.8815841581677,0.00022499999613501132,1575420030,,,,0,31.773481436446747,1,6.0,43.483001708984375,0.0,0.0,0.0,66.7128,C,24683046000000,
Status,1732145799000,29,0,1,14,1575420030,47.60,304.0,73.0,1,0,0,42.6
Status,1732145799000,29,1,1,30,1575420030,48.60,61.0,72.0,1,0,0,43.6
Status,1732145799000,29,2,1,22,1575420030,48.10,263.0,56.0,1,0,0,43.1
Status,1732145799000,29,3,1,13,1575420030,49.20,307.0,44.0,1,0,0,44.2
Status,1732145799000,29,4,1,7,1575420030,39.10,99.0,41.0,1,0,0,34.1
Status,1732145799000,29,5,1,17,1575420030,43.00,176.0,40.0,1,0,0,38.0
Status,1732145799000,29,6,2,131,1575420030,45.00,3.0,23.0,0,0,0,40.0
Status,1732145799000,29,7,1,2,1575420030,28.10,92.0,14.0,1,0,0,23.1
Status,1732145799000,29,8,1,15,1575420030,0.00,318.0,14.0,0,0,0,0.0
Status,1732145799000,29,9,1,21,1575420030,0.00,73.0,13.0,0,0,0,0.0
Status,1732145799000,29,10,1,19,1575420030,48.50,193.0,13.0,1,0,0,43.5
Status,1732145799000,29,11,1,8,1575420030,0.00,40.0,12.0,0,0,0,0.0
Status,1732145799000,29,12,1,5,1575420030,0.00,266.0,9.0,0,0,0,0.0
Status,1732145799000,29,13,1,9,1575420030,0.00,159.0,5.0,0,0,0,0.0
Status,1732145799000,29,14,3,9,1602000000,50.10,8.0,55.0,1,0,0,45.1
Status,1732145799000,29,15,3,7,1602000000,47.50,237.0,48.0,1,0,0,42.5
Status,1732145799000,29,16,3,8,1602000000,35.90,309.0,37.0,1,0,0,30.900002
Status,1732145799000,29,17,3,19,1602000000,0.00,92.0,29.0,0,0,0,0.0
Status,1732145799000,29,18,3,16,1602000000,31.20,63.0,17.0,1,0,0,26.2
Status,1732145799000,29,19,3,20,1602000000,0.00,152.0,6.0,0,0,0,0.0
Status,1732145799000,29,20,3,17,1602000000,42.10,0.0,0.0,0,0,0,37.1
Status,1732145799000,29,21,6,29,1575420030,38.00,208.0,65.0,1,0,0,33.0
Status,1732145799000,29,22,6,27,1575420030,40.70,33.0,62.0,1,0,0,35.7
Status,1732145799000,29,23,6,21,1575420030,44.30,263.0,55.0,1,0,0,39.3
Status,1732145799000,29,24,6,19,1575420030,44.70,302.0,48.0,1,0,0,39.7
Status,1732145799000,29,25,6,7,1575420030,27.20,160.0,20.0,1,0,0,22.2
Status,1732145799000,29,26,6,30,1575420030,0.00,56.0,13.0,0,0,0,0.0
Status,1732145799000,29,27,6,15,1575420030,0.00,98.0,8.0,0,0,0,0.0
Status,1732145799000,29,28,6,34,1575420030,0.00,51.0,5.0,0,0,0,0.0
Fix,GPS,37.4243683333,-122.1712483333,15.8,0.05147222,1.4,96.29,1732145800000,0.4,179.9,24684046000000,34.7,0,,,
Fix,FLP,37.4243637000,-122.1712506000,-0.32980086342434145,0.055159897,1.55,,1732145800198,0.4,,24684046000000,1.1016715,0,,,
Raw,1732145800000,12372000000,,92.74268784176476,-1416181005628999936,0.0,92.74268784176476,1065.3711010685176,0.0,0,22,0.0,16431,344217930246560,31,43.12300109863281,112.19828306727146,0.14999,16,0.0,0.0,1575420030,,,,0,30.155990740637115,1,6.0,43.12300109863281,0.0,0.0,0.0,66.7128,C,24684046000000,
Raw,1732145800000,12372000000,,92.74268784176476,-1416181005628999936,0.0,92.74268784176476,1065.3711010685176,0.0,0,17,0.0,16431,344217928157612,42,38.016998291015625,-220.5121314967636,0.14999,16,0.0,0.0,1575420030,,,,0,27.59044005743857,1,6.0,38.016998291015625,0.0,0.0,0.0,66.7128,C,24684046000000,
Raw,1732145800000,12372000000,,92.74268784176476,-1416181005628999936,0.0,92.74268784176476,1065.3711010685176,0.0,0,13,0.0,16431,344217929279504,31,44.16899871826172,-54.84527533852951,0.14999,16,0.0,0.0,1575420030,,,,0,32.037159878354856,1,6.0,44.16899871826172,0.0,0.0,0.0,66.7128,C,24684046000000,
Raw,1732145800000,12372000000,,92.74268784176476,-1416181005628999936,0.0,92.74268784176476,1065.3711010685176,0.0,0,30,0.0,16431,344217932100855,31,43.619998931884766,360.1889417080011,0.14999,16,0.0,0.0,1575420030,,,,0,31.249307639433198,1,6.0,43.619998931884766,0.0,0.0,0.0,66.7128,C,24684046000000,
Raw,1732145800000,12372000000,,92.74268784176476,-1416181005628999936,0.0,92.74268784176476,1065.3711010685176,0.0,0,14,0.0,16431,344217932781718,31,42.62900161743164,262.54185272361616,0.14999,16,0.0,0.0,1575420030,,,,0,31.955616943398294,1,6.0,42.62900161743164,0.0,0.0,0.0,66.7128,C,24684046000000,
Raw,1732145800000,12372000000,,92.74268784176476,-1416181005628999936,0.0,92.74268784176476,1065.3711010685176,0.0,0,7,0.0,16431,344217927449059,58,34.053001403808594,632.9517853731843,0.14999,16,0.0,0.0,1575420030,,,,0,21.122458925590614,1,6.0,34.053001403808594,0.0,0.0,0.0,66.7128,C,24684046000000,
Raw,1732145800000,12372000000,,92.74268784176476,-1416181005628999936,0.0,92.74268784176476,1065.3711010685176,0.0,0,7,0.0,16431,344217911079690,316,22.190000534057617,895.46618117282,0.14999,16,0.0,0.0,1575420030,,,,0,9.660349043374161,6,6.0,22.190000534057617,0.0,0.0,4.145109616017668,66.7128,C,24684046000000,
Raw,1732145800000,12372000000,,92.74268784176476,-1416181005628999936,0.0,92.74268784176476,1065.3711010685176,0.0,0,19,0.0,16431,344217919702078,42,39.71799850463867,78.46452507709424,0.14999,16,0.0,0.0,1575420030,,,,0,25.486125169837017,6,6.0,39.71799850463867,0.0,0.0,4.145109616017668,66.7128,C,24684046000000,
Raw,1732145800000,12372000000,,92.74268784176476,-1416181005628999936,0.0,92.74268784176476,1065.3711010685176,0.0,0,21,0.0,16431,344217919366245,42,39.34700012207031,114.70984827682128,0.14999,16,0.0,0.0,1575420030,,,,0,27.409819586839856,6,6.0,39.34700012207031,0.0,0.0,4.145109616017668,66.7128,C,24684046000000,
Raw,1732145800000,12372000000,,92.74268784176476,-1416181005628999936,0.0,92.74268784176476,1065.3711010685176,0.0,0,27,0.0,16431,344217920607747,51,35.6510009765625,548.26450388281,0.14999,16,0.0,0.0,1575420030,,,,0,22.1233021132845,6,6.0,35.6510009765625,0.0,0.0,4.145109616017668,66.7128,C,24684046000000,
Raw,1732145800000,12372000000,,92.74268784176476,-1416181005628999936,0.0,92.74268784176476,1065.3711010685176,0.0,0,29,0.0,16431,344217921541906,58,33.0,555.2514780135454,0.14999,16,0.0,0.0,1575420030,,,,0,20.272334430442385,6,6.0,33.0,0.0,0.0,4.145109616017668,66.7128,C,24684046000000,
Raw,1732145800000,12372000000,,92.74268784176476,-1416181005628999936,0.0,92.74268784176476,1065.3711010685176,0.0,0,9,0.0,32995,9399933978127,28,5.0,421.53591561670464,0.14999,16,0.0,0.0,1600875010,,,,0,33.636959629860385,3,6.0,46.0,0.0,0.0,11.650383637773354,66.7128,C,24684046000000,
Raw,1732145800000,12372000000,,92.74268784176476,-1416181005628999936,0.0,92.74268784176476,1065.3711010685176,0.0,0,8,0.0,17,813462,58,5.0,23.773275263602528,0.14999,16,0.0,0.0,1605374980,,,,0,19.871913316556704,3,6.0,33.0,0.0,0.0,11.650383637773354,66.7128,C,24684046000000,
Raw,1732145800000,12372000000,,92.74268784176476,-1416181005628999936,0.0,92.74268784176476,1065.3711010685176,0.0,0,16,0.0,17,332841,235,42.5,804.5013769111467,0.14999,16,0.0,0.0,1601437440,,,,0,12.613047475557524,3,6.0,42.5,0.0,0.0,11.650383637773354,66.7128,C,24684046000000,
Raw,1732145800000,12372000000,,92.74268784176476,-1416181005628999936,0.0,92.74268784176476,1065.3711010685176,0.0,0,7,0.0,32995,9399932697734,31,5.0,741.310603413317,0.14999,16,0.0,0.0,1604812540,,,,0,30.262750482863442,3,6.0,43.0,0.0,0.0,11.650383637773354,66.7128,C,24684046000000,
Raw,1732145800000,12372000000,,92.74268784176476,-1416181005628999936,0.0,92.74268784176476,1065.3711010685176,0.0,0,2,0.0,16431,344217919671265,396,23.06100082397461,50.00379732681311,0.14999,16,0.0,0.0,1575420030,,,,0,7.154457645805478,1,6.0,23.06100082397461,0.0,0.0,0.0,66.7128,C,24684046000000,
Raw,1732145800000,12372000000,,92.74268784176476,-1416181005628999936,0.0,92.74268784176476,1065.3711010685176,0.0,0,19,0.0,16431,344217919135323,28,43.534000396728516,-382.7480800762657,0.14999,16,0.0,0.0,1575420030,,,,0,32.535525111699684,1,6.0,43.534000396728516,0.0,0.0,0.0,66.7128,C,24684046000000,
