# 
# Header Description:
# 
# Version: v3.1.0.3 Platform: 13 Manufacturer: samsung Model: SM-S135DL GNSS Hardware Model Name: MediaTek,MT6631,MTK_MNLD_default,MNL_VER_default
# 
# Raw,utcTimeMillis,TimeNanos,LeapSecond,TimeUncertaintyNanos,FullBiasNanos,BiasNanos,BiasUncertaintyNanos,DriftNanosPerSecond,DriftUncertaintyNanosPerSecond,HardwareClockDiscontinuityCount,Svid,TimeOffsetNanos,State,ReceivedSvTimeNanos,ReceivedSvTimeUncertaintyNanos,Cn0DbHz,PseudorangeRateMetersPerSecond,PseudorangeRateUncertaintyMetersPerSecond,AccumulatedDeltaRangeState,AccumulatedDeltaRangeMeters,AccumulatedDeltaRangeUncertaintyMeters,CarrierFrequencyHz,CarrierCycles,CarrierPhase,CarrierPhaseUncertainty,MultipathIndicator,SnrInDb,ConstellationType,AgcDb,BasebandCn0DbHz,FullInterSignalBiasNanos,FullInterSignalBiasUncertaintyNanos,SatelliteInterSignalBiasNanos,SatelliteInterSignalBiasUncertaintyNanos,CodeType,ChipsetElapsedRealtimeNanos,IsFullTracking
# 
# UncalAccel,utcTimeMillis,elapsedRealtimeNanos,UncalAccelXMps2,UncalAccelYMps2,UncalAccelZMps2,BiasXMps2,BiasYMps2,BiasZMps2
# 
# Accel,utcTimeMillis,elapsedRealtimeNanos,AccelXMps2,AccelYMps2,AccelZMps2
# 
# UncalGyro,utcTimeMillis,elapsedRealtimeNanos,UncalGyroXRadPerSec,UncalGyroYRadPerSec,UncalGyroZRadPerSec,DriftXRadPerSec,DriftYRadPerSec,DriftZRadPerSec
# 
# Gyro,utcTimeMillis,elapsedRealtimeNanos,GyroXRadPerSec,GyroYRadPerSec,GyroZRadPerSec
# 
# UncalMag,utcTimeMillis,elapsedRealtimeNanos,UncalMagXMicroT,UncalMagYMicroT,UncalMagZMicroT,BiasXMicroT,BiasYMicroT,BiasZMicroT
# 
# Mag,utcTimeMillis,elapsedRealtimeNanos,MagXMicroT,MagYMicroT,MagZMicroT
# 
# Pressure,utcTimeMillis,elapsedRealtimeNanos,PressureHpa
# 
# OrientationDeg,utcTimeMillis,elapsedRealtimeNanos,yawDeg,rollDeg,pitchDeg
# 
# Fix,Provider,LatitudeDegrees,LongitudeDegrees,AltitudeMeters,SpeedMps,AccuracyMeters,BearingDegrees,UnixTimeMillis,SpeedAccuracyMps,BearingAccuracyDegrees,elapsedRealtimeNanos,VerticalAccuracyMeters,MockLocation,NumberOfUsedSignals,VerticalSpeedAccuracyMps,SolutionType
# 
# Nav,Svid,Type,Status,MessageId,Sub-messageId,Data(Bytes)
# 
# Status,UnixTimeMillis,SignalCount,SignalIndex,ConstellationType,Svid,CarrierFrequencyHz,Cn0DbHz,AzimuthDegrees,ElevationDegrees,UsedInFix,HasAlmanacData,HasEphemerisData,BasebandCn0DbHz
# 
# Agc,utcTimeMillis,TimeNanos,LeapSecond,TimeUncertaintyNanos,FullBiasNanos,BiasNanos,BiasUncertaintyNanos,DriftNanosPerSecond,DriftUncertaintyNanosPerSecond,HardwareClockDiscontinuityCount,AgcDb,CarrierFrequencyHz,ConstellationType
# 
Fix,FLP,37.4243853000,-122.1713271000,-0.8738976658155111,0.36523694,7.633,187.16377,1732145759740,1.9,179.9,24643588000000,0.940329,0,,,
Status,,31,0,1,14,1575420030,47.30,302.0,73.0,1,0,0,42.3
Status,,31,1,1,30,1575420030,44.50,60.0,72.0,1,0,0,39.5
Status,,31,2,1,22,1575420030,49.80,263.0,56.0,1,0,0,44.8
Status,,31,3,1,13,1575420030,47.80,307.0,44.0,1,0,0,42.8
Status,,31,4,1,7,1575420030,34.50,99.0,41.0,1,0,0,29.5
Status,,31,5,1,17,1575420030,44.90,176.0,39.0,1,0,0,39.9
Status,,31,6,2,131,1575420030,0.00,3.0,23.0,0,0,0,0.0
Status,,31,7,1,2,1575420030,22.30,92.0,14.0,1,0,0,17.3
Status,,31,8,1,15,1575420030,0.00,318.0,14.0,0,0,0,0.0
Status,,31,9,1,21,1575420030,0.00,73.0,13.0,0,0,0,0.0
Status,,31,10,1,19,1575420030,0.00,193.0,13.0,0,0,0,0.0
Status,,31,11,1,8,1575420030,0.00,40.0,13.0,0,0,0,0.0
Status,,31,12,1,5,1575420030,0.00,266.0,9.0,0,0,0,0.0
Status,,31,13,1,9,1575420030,0.00,159.0,5.0,0,0,0,0.0
Status,,31,14,3,9,1602000000,45.20,7.0,55.0,1,0,0,40.2
Status,,31,15,3,7,1602000000,42.30,238.0,48.0,1,0,0,37.3
Status,,31,16,3,8,1602000000,37.40,310.0,37.0,1,0,0,32.4
Status,,31,17,3,19,1602000000,0.00,93.0,29.0,0,0,0,0.0
Status,,31,18,3,18,1602000000,0.00,46.0,22.0,0,0,0,0.0
Status,,31,19,3,16,1602000000,0.00,63.0,17.0,0,0,0,0.0
Status,,31,20,3,6,1602000000,38.20,192.0,16.0,0,0,0,33.2
Status,,31,21,3,20,1602000000,0.00,152.0,5.0,0,0,0,0.0
Status,,31,22,6,29,1575420030,43.80,208.0,65.0,1,0,0,38.8
Status,,31,23,6,27,1575420030,39.70,33.0,62.0,1,0,0,34.7
Status,,31,24,6,18,1575420030,42.80,127.0,57.0,1,0,0,37.8
Status,,31,25,6,21,1575420030,34.00,262.0,54.0,1,0,0,29.0
Status,,31,26,6,19,1575420030,42.00,302.0,48.0,1,0,0,37.0
Status,,31,27,6,7,1575420030,0.00,160.0,20.0,0,0,0,0.0
Status,,31,28,6,30,1575420030,0.00,56.0,13.0,0,0,0,0.0
Status,,31,29,6,15,1575420030,0.00,98.0,8.0,0,0,0,0.0
Status,,31,30,6,34,1575420030,0.00,51.0,5.0,0,0,0,0.0
Fix,GPS,37.4243583333,-122.1713833333,17.400000000000002,0.14926945,3.4,199.26,1732145760034,1.6,179.9,24644088000000,43.1,0,,,
Raw,1732145760038,2514000000,,7140991.852436795,-1416180975524000256,0.0,117.36107042304168,1353.1642939277074,0.0,0,17,0.0,16431,344177965424026,42,39.85300064086914,-137.76276992177952,0.14999,16,0.0,0.0,1575420030,,,,0,27.639329128802185,1,6.0,39.85300064086914,0.0,0.0,0.0,66.7128,C,24644088000000,
Raw,1732145760038,2514000000,,7140991.852436795,-1416180975524000256,0.0,117.36107042304168,1353.1642939277074,0.0,0,22,0.0,16431,344177967557363,28,44.805999755859375,195.2093681299776,0.14999,16,0.0,0.0,1575420030,,,,0,32.84320396265371,1,6.0,44.805999755859375,0.0,0.0,0.0,66.7128,C,24644088000000,
Raw,1732145760038,2514000000,,7140991.852436795,-1416180975524000256,0.0,117.36107042304168,1353.1642939277074,0.0,0,13,0.0,16431,344177966567943,31,42.84400177001953,27.016591111584653,0.14999,16,0.0,0.0,1575420030,,,,0,30.800692227250362,1,6.0,42.84400177001953,0.0,0.0,0.0,66.7128,C,24644088000000,
Raw,1732145760038,2514000000,,7140991.852436795,-1416180975524000256,0.0,117.36107042304168,1353.1642939277074,0.0,0,7,0.0,16431,344177964829235,235,29.493999481201172,716.259344818938,0.14999,16,0.0,0.0,1575420030,,,,0,15.923321788119347,1,6.0,29.493999481201172,0.0,0.0,0.0,66.7128,C,24644088000000,
Raw,1732145760038,2514000000,,7140991.852436795,-1416180975524000256,0.0,117.36107042304168,1353.1642939277074,0.0,0,30,0.0,16431,344177969444720,42,39.47800064086914,443.2695053321501,0.14999,16,0.0,0.0,1575420030,,,,0,27.244826938670915,1,6.0,39.47800064086914,0.0,0.0,0.0,66.7128,C,24644088000000,
Raw,1732145760038,2514000000,,7140991.852436795,-1416180975524000256,0.0,117.36107042304168,1353.1642939277074,0.0,0,19,0.0,16431,344177957008289,51,37.0,160.79325215170812,0.14999,16,0.0,0.0,1575420030,,,,0,24.546720307281124,6,6.0,37.0,0.0,0.0,-7.9483218971316765,66.7128,C,24644088000000,
Raw,1732145760038,2514000000,,7140991.852436795,-1416180975524000256,0.0,117.36107042304168,1353.1642939277074,0.0,0,21,0.0,16431,344177956677440,74,29.0,198.81314747542908,0.14999,16,0.0,0.0,1575420030,,,,0,15.796826014024328,6,6.0,29.0,0.0,0.0,-7.9483218971316765,66.7128,C,24644088000000,
Raw,1732145760038,2514000000,,7140991.852436795,-1416180975524000256,0.0,117.36107042304168,1353.1642939277074,0.0,0,18,0.0,16431,344177955603909,51,37.79999923706055,-242.91874688460896,0.14999,16,0.0,0.0,1575420030,,,,0,25.36046208266545,6,6.0,37.79999923706055,0.0,0.0,-7.9483218971316765,66.7128,C,24644088000000,
Raw,1732145760038,2514000000,,7140991.852436795,-1416180975524000256,0.0,117.36107042304168,1353.1642939277074,0.0,0,27,0.0,16431,344177957976772,58,34.70000076293945,632.4737282703778,0.14999,16,0.0,0.0,1575420030,,,,0,22.078911346372337,6,6.0,34.70000076293945,0.0,0.0,-7.9483218971316765,66.7128,C,24644088000000,
Raw,1732145760038,2514000000,,7140991.852436795,-1416180975524000256,0.0,117.36107042304168,1353.1642939277074,0.0,0,29,0.0,16431,344177958911748,42,38.79999923706055,637.6072903448099,0.14999,16,0.0,0.0,1575420030,,,,0,26.4476153291173,6,6.0,38.79999923706055,0.0,0.0,-7.9483218971316765,66.7128,C,24644088000000,
Raw,1732145760038,2514000000,,7140991.852436795,-1416180975524000256,0.0,117.36107042304168,1353.1642939277074,0.0,0,9,0.0,17,330234,42,33.20000076293945,505.74839496209745,0.14999,16,0.0,0.0,1600875010,,,,0,27.86943584068996,3,6.0,33.20000076293945,0.0,0.0,-3.3146181362490124,66.7128,C,24644088000000,
Raw,1732145760038,2514000000,,7140991.852436795,-1416180975524000256,0.0,117.36107042304168,1353.1642939277074,0.0,0,7,0.0,17,92178,51,5.0,821.1755278136543,0.14999,16,0.0,0.0,1604812540,,,,0,24.834874870051244,3,6.0,38.0,0.0,0.0,-3.3146181362490124,66.7128,C,24644088000000,
Raw,1732145760038,2514000000,,7140991.852436795,-1416180975524000256,0.0,117.36107042304168,1353.1642939277074,0.0,0,8,0.0,17,112218,74,5.0,103.54422240480952,0.14999,16,0.0,0.0,1605374980,,,,0,19.62067619427621,3,6.0,32.0,0.0,0.0,-3.3146181362490124,66.7128,C,24644088000000,
Raw,1732145760038,2514000000,,7140991.852436795,-1416180975524000256,0.0,117.36107042304168,1353.1642939277074,0.0,0,6,0.0,17,196471,58,5.0,1230.9307645467725,0.14999,16,0.0,0.0,1599750020,,,,0,20.46656284915113,3,6.0,33.0,0.0,0.0,-3.3146181362490124,66.7128,C,24644088000000,
Raw,1732145760038,2514000000,,7140991.852436795,-1416180975524000256,0.0,117.36107042304168,1353.1642939277074,0.0,0,14,0.0,16431,344177970112572,31,42.301998138427734,345.9598902831185,0.14999,16,0.0,0.0,1575420030,,,,0,30.2313053438125,1,6.0,42.301998138427734,0.0,0.0,0.0,66.7128,C,24644088000000,
Raw,1732145760038,2514000000,,7140991.852436795,-1416180975524000256,0.0,117.36107042304168,1353.1642939277074,0.0,0,2,0.0,16431,344177956973702,487,17.3439998626709,133.36181061257145,0.14999,16,0.0,0.0,1575420030,,,,0,0.0,1,6.0,17.3439998626709,0.0,0.0,0.0,66.7128,C,24644088000000,
Fix,FLP,37.4243715000,-122.1713544000,-0.8738976658155111,0.34706134,6.575,191.55334,1732145760240,1.6,179.9,24644088000000,0.94532573,0,,,
Status,1732145760034,32,0,1,14,1575420030,46.60,302.0,73.0,1,0,0,41.6
Status,1732145760034,32,1,1,30,1575420030,43.80,60.0,72.0,1,0,0,38.8
Status,1732145760034,32,2,1,22,1575420030,50.10,263.0,56.0,1,0,0,45.1
Status,1732145760034,32,3,1,13,1575420030,47.80,307.0,44.0,1,0,0,42.8
Status,1732145760034,32,4,1,7,1575420030,32.30,99.0,41.0,1,0,0,27.3
Status,1732145760034,32,5,1,17,1575420030,44.70,176.0,39.0,1,0,0,39.7
Status,1732145760034,32,6,2,131,1575420030,0.00,3.0,23.0,0,0,0,0.0
Status,1732145760034,32,7,1,2,1575420030,26.70,92.0,14.0,1,0,0,21.7
Status,1732145760034,32,8,1,15,1575420030,33.90,318.0,14.0,1,0,0,28.900002
Status,1732145760034,32,9,1,21,1575420030,0.00,73.0,13.0,0,0,0,0.0
Status,1732145760034,32,10,1,19,1575420030,44.40,193.0,13.0,1,0,0,39.4
Status,1732145760034,32,11,1,8,1575420030,0.00,40.0,13.0,0,0,0,0.0
Status,1732145760034,32,12,1,5,1575420030,0.00,266.0,9.0,0,0,0,0.0
Status,1732145760034,32,13,1,9,1575420030,0.00,159.0,5.0,0,0,0,0.0
Status,1732145760034,32,14,3,9,1602000000,45.70,7.0,55.0,1,0,0,40.7
Status,1732145760034,32,15,3,7,1602000000,43.20,238.0,48.0,1,0,0,38.2
Status,1732145760034,32,16,3,8,1602000000,38.40,310.0,37.0,1,0,0,33.4
Status,1732145760034,32,17,3,19,1602000000,0.00,93.0,29.0,0,0,0,0.0
Status,1732145760034,32,18,3,18,1602000000,0.00,46.0,22.0,0,0,0,0.0
Status,1732145760034,32,19,3,16,1602000000,0.00,63.0,17.0,0,0,0,0.0
Status,1732145760034,32,20,3,6,1602000000,37.50,192.0,16.0,0,0,0,32.5
Status,1732145760034,32,21,3,20,1602000000,0.00,152.0,5.0,0,0,0,0.0
Status,1732145760034,32,22,3,17,1602000000,34.50,0.0,0.0,0,0,0,29.5
Status,1732145760034,32,23,6,29,1575420030,43.80,208.0,65.0,1,0,0,38.8
Status,1732145760034,32,24,6,27,1575420030,39.70,33.0,62.0,1,0,0,34.7
Status,1732145760034,32,25,6,18,1575420030,40.70,127.0,57.0,1,0,0,35.7
Status,1732145760034,32,26,6,21,1575420030,34.50,262.0,54.0,1,0,0,29.5
Status,1732145760034,32,27,6,19,1575420030,40.60,302.0,48.0,1,0,0,35.6
Status,1732145760034,32,28,6,7,1575420030,0.00,160.0,20.0,0,0,0,0.0
Status,1732145760034,32,29,6,30,1575420030,0.00,56.0,13.0,0,0,0,0.0
Status,1732145760034,32,30,6,15,1575420030,0.00,98.0,8.0,0,0,0,0.0
Status,1732145760034,32,31,6,34,1575420030,0.00,51.0,5.0,0,0,0,0.0
Raw,1732145760534,3014000000,,4775399.069578995,-1416180975520999936,0.0,113.69316836060888,1347.715038425497,0.0,0,17,0.0,16431,344178462424256,42,39.71500015258789,-139.07475559556514,0.14999,16,0.0,0.0,1575420030,,,,0,27.49693430634323,1,6.0,39.71500015258789,0.0,0.0,0.0,66.7128,C,24644588000000,
Raw,1732145760534,3014000000,,4775399.069578995,-1416180975520999936,0.0,113.69316836060888,1347.715038425497,0.0,0,22,0.0,16431,344178464557034,28,45.14099884033203,193.84774163847106,0.14999,16,0.0,0.0,1575420030,,,,0,33.191212423923595,1,6.0,45.14099884033203,0.0,0.0,0.0,66.7128,C,24644588000000,
Raw,1732145760534,3014000000,,4775399.069578995,-1416180975520999936,0.0,113.69316836060888,1347.715038425497,0.0,0,13,0.0,16431,344178463567899,31,42.75699996948242,25.84695402506814,0.14999,16,0.0,0.0,1575420030,,,,0,30.70962046618035,1,6.0,42.75699996948242,0.0,0.0,0.0,66.7128,C,24644588000000,
Raw,1732145760534,3014000000,,4775399.069578995,-1416180975520999936,0.0,113.69316836060888,1347.715038425497,0.0,0,7,0.0,16431,344178461828039,235,27.30699920654297,715.352848201838,0.14999,16,0.0,0.0,1575420030,,,,0,13.13368976575436,1,6.0,27.30699920654297,0.0,0.0,0.0,66.7128,C,24644588000000,
Raw,1732145760534,3014000000,,4775399.069578995,-1416180975520999936,0.0,113.69316836060888,1347.715038425497,0.0,0,30,0.0,16431,344178466443982,42,38.77899932861328,441.9212356353041,0.14999,16,0.0,0.0,1575420030,,,,0,26.491122559592984,1,6.0,38.77899932861328,0.0,0.0,0.0,66.7128,C,24644588000000,
Raw,1732145760534,3014000000,,4775399.069578995,-1416180975520999936,0.0,113.69316836060888,1347.715038425497,0.0,0,19,0.0,16431,344178454008048,51,35.599998474121094,159.54098877196114,0.14999,16,0.0,0.0,1575420030,,,,0,23.06179973983887,6,6.0,35.599998474121094,0.0,0.0,-9.6942948189278,66.7128,C,24644588000000,
Raw,1732145760534,3014000000,,4775399.069578995,-1416180975520999936,0.0,113.69316836060888,1347.715038425497,0.0,0,21,0.0,16431,344178453677128,74,29.5,197.1141631946097,0.14999,16,0.0,0.0,1575420030,,,,0,16.391842063959484,6,6.0,29.5,0.0,0.0,-9.6942948189278,66.7128,C,24644588000000,
Raw,1732145760534,3014000000,,4775399.069578995,-1416180975520999936,0.0,113.69316836060888,1347.715038425497,0.0,0,18,0.0,16431,344178452604335,51,35.70000076293945,-244.22664421776804,0.14999,16,0.0,0.0,1575420030,,,,0,23.198731997290764,6,6.0,35.70000076293945,0.0,0.0,-9.6942948189278,66.7128,C,24644588000000,
Raw,1732145760534,3014000000,,4775399.069578995,-1416180975520999936,0.0,113.69316836060888,1347.715038425497,0.0,0,27,0.0,16431,344178454975718,58,34.70000076293945,631.1546809173283,0.14999,16,0.0,0.0,1575420030,,,,0,22.078911346372337,6,6.0,34.70000076293945,0.0,0.0,-9.6942948189278,66.7128,C,24644588000000,
Raw,1732145760534,3014000000,,4775399.069578995,-1416180975520999936,0.0,113.69316836060888,1347.715038425497,0.0,0,29,0.0,16431,344178455910642,42,38.79999923706055,636.1563010897224,0.14999,16,0.0,0.0,1575420030,,,,0,26.46006821962034,6,6.0,38.79999923706055,0.0,0.0,-9.6942948189278,66.7128,C,24644588000000,
Raw,1732145760534,3014000000,,4775399.069578995,-1416180975520999936,0.0,113.69316836060888,1347.715038425497,0.0,0,9,0.0,17,329412,42,32.5,504.23886776478435,0.14999,16,0.0,0.0,1600875010,,,,0,28.393775348931015,3,6.0,32.5,0.0,0.0,-1.9634156530138427,66.7128,C,24644588000000,
Raw,1732145760534,3014000000,,4775399.069578995,-1416180975520999936,0.0,113.69316836060888,1347.715038425497,0.0,0,7,0.0,17,90811,51,5.0,819.4883232216234,0.14999,16,0.0,0.0,1604812540,,,,0,25.82272474544944,3,6.0,36.0,0.0,0.0,-1.9634156530138427,66.7128,C,24644588000000,
Raw,1732145760534,3014000000,,4775399.069578995,-1416180975520999936,0.0,113.69316836060888,1347.715038425497,0.0,0,8,0.0,17,112078,58,5.0,103.89919813301324,0.14999,16,0.0,0.0,1605374980,,,,0,20.739819438017307,3,6.0,33.0,0.0,0.0,-1.9634156530138427,66.7128,C,24644588000000,
Raw,1732145760534,3014000000,,4775399.069578995,-1416180975520999936,0.0,113.69316836060888,1347.715038425497,0.0,0,6,0.0,17,194465,58,5.0,1231.0473402542475,0.14999,16,0.0,0.0,1599750020,,,,0,19.711593245469015,3,6.0,33.0,0.0,0.0,-1.9634156530138427,66.7128,C,24644588000000,
Raw,1732145760534,3014000000,,4775399.069578995,-1416180975520999936,0.0,113.69316836060888,1347.715038425497,0.0,0,15,0.0,16431,344178455454911,74,28.861000061035156,-142.63825549416205,0.14999,16,0.0,0.0,1575420030,,,,0,15.135144053238939,1,6.0,28.861000061035156,0.0,0.0,0.0,66.7128,C,24644588000000,
Raw,1732145760534,3014000000,,4775399.069578995,-1416180975520999936,0.0,113.69316836060888,1347.715038425497,0.0,0,19,0.0,16431,344178453380808,42,39.40399932861328,-298.12054410913817,0.14999,16,0.0,0.0,1575420030,,,,0,27.16487735715857,1,6.0,39.40399932861328,0.0,0.0,0.0,66.7128,C,24644588000000,
Raw,1732145760534,3014000000,,4775399.069578995,-1416180975520999936,0.0,113.69316836060888,1347.715038425497,0.0,0,14,0.0,16431,344178467111995,31,41.632999420166016,344.5416542114594,0.14999,16,0.0,0.0,1575420030,,,,0,29.530687455103383,1,6.0,41.632999420166016,0.0,0.0,0.0,66.7128,C,24644588000000,
Raw,1732145760534,3014000000,,4775399.069578995,-1416180975520999936,0.0,113.69316836060888,1347.715038425497,0.0,0,2,0.0,16431,344178453973324,396,21.709999084472656,131.31318029135156,0.14999,16,0.0,0.0,1575420030,,,,0,5.073299081728107,1,6.0,21.709999084472656,0.0,0.0,0.0,66.7128,C,24644588000000,
Fix,FLP,37.4243717000,-122.1713587000,-0.8738976658155111,0.19511834,5.74,179.44275,1732145760740,1.2,179.9,24644588000000,0.9464422,0,,,
Status,1732145760034,32,0,1,14,1575420030,45.00,302.0,73.0,1,0,0,40.0
Status,1732145760034,32,1,1,30,1575420030,45.40,60.0,72.0,1,0,0,40.4
Status,1732145760034,32,2,1,22,1575420030,49.70,263.0,56.0,1,0,0,44.7
Status,1732145760034,32,3,1,13,1575420030,49.50,307.0,44.0,1,0,0,44.5
Status,1732145760034,32,4,1,7,1575420030,31.10,99.0,41.0,1,0,0,26.1
Status,1732145760034,32,5,1,17,1575420030,46.00,176.0,39.0,1,0,0,41.0
Status,1732145760034,32,6,2,131,1575420030,0.00,3.0,23.0,0,0,0,0.0
Status,1732145760034,32,7,1,2,1575420030,28.90,92.0,14.0,1,0,0,23.9
Status,1732145760034,32,8,1,15,1575420030,34.40,318.0,14.0,1,0,0,29.400002
Status,1732145760034,32,9,1,21,1575420030,0.00,73.0,13.0,0,0,0,0.0
Status,1732145760034,32,10,1,19,1575420030,45.30,193.0,13.0,1,0,0,40.3
Status,1732145760034,32,11,1,8,1575420030,24.50,40.0,13.0,1,0,0,19.5
Status,1732145760034,32,12,1,5,1575420030,0.00,266.0,9.0,0,0,0,0.0
Status,1732145760034,32,13,1,9,1575420030,0.00,159.0,5.0,0,0,0,0.0
Status,1732145760034,32,14,3,9,1602000000,44.60,7.0,55.0,1,0,0,39.6
Status,1732145760034,32,15,3,7,1602000000,41.60,238.0,48.0,1,0,0,36.6
Status,1732145760034,32,16,3,8,1602000000,40.50,310.0,37.0,1,0,0,35.5
Status,1732145760034,32,17,3,19,1602000000,0.00,93.0,29.0,0,0,0,0.0
Status,1732145760034,32,18,3,18,1602000000,0.00,46.0,22.0,0,0,0,0.0
Status,1732145760034,32,19,3,16,1602000000,0.00,63.0,17.0,0,0,0,0.0
Status,1732145760034,32,20,3,6,1602000000,37.80,192.0,16.0,0,0,0,32.8
Status,1732145760034,32,21,3,20,1602000000,0.00,152.0,5.0,0,0,0,0.0
Status,1732145760034,32,22,3,17,1602000000,39.10,0.0,0.0,0,0,0,34.1
Status,1732145760034,32,23,6,29,1575420030,43.80,208.0,65.0,1,0,0,38.8
Status,1732145760034,32,24,6,27,1575420030,34.20,33.0,62.0,1,0,0,29.2
Status,1732145760034,32,25,6,18,1575420030,41.70,127.0,57.0,1,0,0,36.7
Status,1732145760034,32,26,6,21,1575420030,36.70,262.0,54.0,1,0,0,31.7
Status,1732145760034,32,27,6,19,1575420030,41.40,302.0,48.0,1,0,0,36.4
Status,1732145760034,32,28,6,7,1575420030,0.00,160.0,20.0,0,0,0,0.0
Status,1732145760034,32,29,6,30,1575420030,0.00,56.0,13.0,0,0,0,0.0
Status,1732145760034,32,30,6,15,1575420030,0.00,98.0,8.0,0,0,0,0.0
Status,1732145760034,32,31,6,34,1575420030,0.00,51.0,5.0,0,0,0,0.0
Fix,GPS,37.4243816667,-122.1713433333,16.7,0.050442778,2.1,121.6,1732145761032,0.9,179.9,24645088000000,38.0,0,,,
Raw,1732145761034,3514000000,,3995916.9019522164,-1416180975520999936,0.0,104.68881846550865,1341.2980044659585,0.0,0,17,0.0,16431,344178962424490,42,40.9739990234375,-140.8151807836443,0.14999,16,0.0,0.0,1575420030,,,,0,28.834842560771996,1,6.0,40.9739990234375,0.0,0.0,0.0,66.7128,C,24645088000000,
Raw,1732145761034,3514000000,,3995916.9019522164,-1416180975520999936,0.0,104.68881846550865,1341.2980044659585,0.0,0,22,0.0,16431,344178964556709,28,44.69499969482422,192.0568626103872,0.14999,16,0.0,0.0,1575420030,,,,0,32.729529664862056,1,6.0,44.69499969482422,0.0,0.0,0.0,66.7128,C,24645088000000,
Raw,1732145761034,3514000000,,3995916.9019522164,-1416180975520999936,0.0,104.68881846550865,1341.2980044659585,0.0,0,13,0.0,16431,344178963567860,28,44.54199981689453,23.869172788569315,0.14999,16,0.0,0.0,1575420030,,,,0,32.57223257103626,1,6.0,44.54199981689453,0.0,0.0,0.0,66.7128,C,24645088000000,
Raw,1732145761034,3514000000,,3995916.9019522164,-1416180975520999936,0.0,104.68881846550865,1341.2980044659585,0.0,0,7,0.0,16431,344178961826849,396,26.079999923706055,713.5847337976974,0.14999,16,0.0,0.0,1575420030,,,,0,11.521160027318246,1,6.0,26.079999923706055,0.0,0.0,0.0,66.7128,C,24645088000000,
Raw,1732145761034,3514000000,,3995916.9019522164,-1416180975520999936,0.0,104.68881846550865,1341.2980044659585,0.0,0,30,0.0,16431,344178966443248,42,40.40800094604492,440.0951875861489,0.14999,16,0.0,0.0,1575420030,,,,0,28.237421893074103,1,6.0,40.40800094604492,0.0,0.0,0.0,66.7128,C,24645088000000,
Raw,1732145761034,3514000000,,3995916.9019522164,-1416180975520999936,0.0,104.68881846550865,1341.2980044659585,0.0,0,19,0.0,16431,344178954007794,51,36.400001525878906,157.798147746239,0.14999,16,0.0,0.0,1575420030,,,,0,23.93886541395651,6,6.0,36.400001525878906,0.0,0.0,-9.772347542934094,66.7128,C,24645088000000,
Raw,1732145761034,3514000000,,3995916.9019522164,-1416180975520999936,0.0,104.68881846550865,1341.2980044659585,0.0,0,21,0.0,16431,344178953676786,58,31.700000762939453,195.2202161701628,0.14999,16,0.0,0.0,1575420030,,,,0,18.854421101180346,6,6.0,31.700000762939453,0.0,0.0,-9.772347542934094,66.7128,C,24645088000000,
Raw,1732145761034,3514000000,,3995916.9019522164,-1416180975520999936,0.0,104.68881846550865,1341.2980044659585,0.0,0,18,0.0,16431,344178952604745,51,36.70000076293945,-246.0316466043799,0.14999,16,587.0960935925341,0.00022499999613501132,1575420030,,,,0,24.297151350432564,6,6.0,36.70000076293945,0.0,0.0,-9.772347542934094,66.7128,C,24645088000000,
Raw,1732145761034,3514000000,,3995916.9019522164,-1416180975520999936,0.0,104.68881846550865,1341.2980044659585,0.0,0,27,0.0,16431,344178954974632,74,29.200000762939453,629.3770425378644,0.14999,16,0.0,0.0,1575420030,,,,0,16.107783153433214,6,6.0,29.200000762939453,0.0,0.0,-9.772347542934094,66.7128,C,24645088000000,
Raw,1732145761034,3514000000,,3995916.9019522164,-1416180975520999936,0.0,104.68881846550865,1341.2980044659585,0.0,0,29,0.0,16431,344178955909582,42,38.79999923706055,634.353807457586,0.14999,17,1782.2321664039998,0.00022499999613501132,1575420030,,,,0,26.41921831601868,6,6.0,38.79999923706055,0.0,0.0,-9.772347542934094,66.7128,C,24645088000000,
Raw,1732145761034,3514000000,,3995916.9019522164,-1416180975520999936,0.0,104.68881846550865,1341.2980044659585,0.0,0,9,0.0,17,328569,42,32.79999923706055,502.5198072014694,0.14999,16,0.0,0.0,1600875010,,,,0,27.2748411412498,3,6.0,32.79999923706055,0.0,0.0,0.19718937520917457,66.7128,C,24645088000000,
Raw,1732145761034,3514000000,,3995916.9019522164,-1416180975520999936,0.0,104.68881846550865,1341.2980044659585,0.0,0,7,0.0,17,89445,51,5.0,819.548981223121,0.14999,16,0.0,0.0,1604812540,,,,0,24.16593987310729,3,6.0,37.0,0.0,0.0,0.19718937520917457,66.7128,C,24645088000000,
Raw,1732145761034,3514000000,,3995916.9019522164,-1416180975520999936,0.0,104.68881846550865,1341.2980044659585,0.0,0,8,0.0,17,111905,58,5.0,100.4229800045328,0.14999,16,0.0,0.0,1605374980,,,,0,23.01883564743355,3,6.0,35.0,0.0,0.0,0.19718937520917457,66.7128,C,24645088000000,
Raw,1732145761034,3514000000,,3995916.9019522164,-1416180975520999936,0.0,104.68881846550865,1341.2980044659585,0.0,0,6,0.0,17,192405,58,5.0,1228.996193426335,0.14999,16,0.0,0.0,1599750020,,,,0,20.084781859564647,3,6.0,33.0,0.0,0.0,0.19718937520917457,66.7128,C,24645088000000,
Raw,1732145761034,3514000000,,3995916.9019522164,-1416180975520999936,0.0,104.68881846550865,1341.2980044659585,0.0,0,15,0.0,16431,344178955455144,74,29.371999740600586,-144.7849595320024,0.14999,16,0.0,0.0,1575420030,,,,0,15.776457563115159,1,6.0,29.371999740600586,0.0,0.0,0.0,66.7128,C,24645088000000,
Raw,1732145761034,3514000000,,3995916.9019522164,-1416180975520999936,0.0,104.68881846550865,1341.2980044659585,0.0,0,19,0.0,16431,344178953381308,42,40.32699966430664,-300.03913732338475,0.14999,16,0.0,0.0,1575420030,,,,0,28.147120308821382,1,6.0,40.32699966430664,0.0,0.0,0.0,66.7128,C,24645088000000,
Raw,1732145761034,3514000000,,3995916.9019522164,-1416180975520999936,0.0,104.68881846550865,1341.2980044659585,0.0,0,14,0.0,16431,344178967111423,42,39.98699951171875,342.61599931794876,0.14999,16,0.0,0.0,1575420030,,,,0,27.78708518337806,1,6.0,39.98699951171875,0.0,0.0,0.0,66.7128,C,24645088000000,
Raw,1732145761034,3514000000,,3995916.9019522164,-1416180975520999936,0.0,104.68881846550865,1341.2980044659585,0.0,0,2,0.0,16431,344178953973208,316,23.856000900268555,129.38018496807967,0.14999,16,0.0,0.0,1575420030,,,,0,8.375840406283636,1,6.0,23.856000900268555,0.0,0.0,0.0,66.7128,C,24645088000000,
Raw,1732145761034,3514000000,,3995916.9019522164,-1416180975520999936,0.0,104.68881846550865,1341.2980044659585,0.0,0,8,0.0,16431,344178954126427,487,19.499000549316406,1053.0646506461862,0.14999,16,0.0,0.0,1575420030,,,,0,1.2921743573271307,1,6.0,19.499000549316406,0.0,0.0,0.0,66.7128,C,24645088000000,
Fix,FLP,37.4243754000,-122.1713530000,-0.7904269659400631,0.056077838,5.133,,1732145761240,0.9,,24645088000000,0.95109314,0,,,
Status,1732145761032,32,0,1,14,1575420030,42.40,302.0,73.0,1,0,0,37.4
Status,1732145761032,32,1,1,30,1575420030,48.00,60.0,72.0,1,0,0,43.0
Status,1732145761032,32,2,1,22,1575420030,50.60,263.0,56.0,1,0,0,45.6
Status,1732145761032,32,3,1,13,1575420030,46.70,307.0,44.0,1,0,0,41.7
Status,1732145761032,32,4,1,7,1575420030,39.00,99.0,41.0,1,0,0,34.0
Status,1732145761032,32,5,1,17,1575420030,44.60,176.0,39.0,1,0,0,39.6
Status,1732145761032,32,6,2,131,1575420030,44.00,3.0,23.0,0,0,0,39.0
Status,1732145761032,32,7,1,2,1575420030,30.70,92.0,14.0,1,0,0,25.7
Status,1732145761032,32,8,1,15,1575420030,31.20,318.0,14.0,1,0,0,26.2
Status,1732145761032,32,9,1,21,1575420030,0.00,73.0,13.0,0,0,0,0.0
Status,1732145761032,32,10,1,19,1575420030,43.90,193.0,13.0,1,0,0,38.9
Status,1732145761032,32,11,1,8,1575420030,28.40,40.0,13.0,1,0,0,23.4
Status,1732145761032,32,12,1,5,1575420030,0.00,266.0,9.0,0,0,0,0.0
Status,1732145761032,32,13,1,9,1575420030,0.00,159.0,5.0,0,0,0,0.0
Status,1732145761032,32,14,3,9,1602000000,45.50,7.0,55.0,1,0,0,40.5
Status,1732145761032,32,15,3,7,1602000000,47.50,238.0,48.0,1,0,0,42.5
Status,1732145761032,32,16,3,8,1602000000,36.90,310.0,37.0,1,0,0,31.900002
Status,1732145761032,32,17,3,19,1602000000,0.00,93.0,29.0,0,0,0,0.0
Status,1732145761032,32,18,3,18,1602000000,0.00,46.0,22.0,0,0,0,0.0
Status,1732145761032,32,19,3,16,1602000000,25.90,63.0,17.0,1,0,0,20.9
Status,1732145761032,32,20,3,6,1602000000,36.20,192.0,16.0,0,0,0,31.2
Status,1732145761032,32,21,3,20,1602000000,0.00,152.0,5.0,0,0,0,0.0
Status,1732145761032,32,22,3,17,1602000000,37.70,0.0,0.0,0,0,0,32.7
Status,1732145761032,32,23,6,29,1575420030,41.60,208.0,65.0,1,0,0,36.6
Status,1732145761032,32,24,6,27,1575420030,45.80,33.0,62.0,1,0,0,40.8
Status,1732145761032,32,25,6,18,1575420030,44.90,127.0,57.0,1,0,0,39.9
Status,1732145761032,32,26,6,21,1575420030,37.20,262.0,54.0,1,0,0,32.2
Status,1732145761032,32,27,6,19,1575420030,38.90,302.0,48.0,1,0,0,33.9
Status,1732145761032,32,28,6,7,1575420030,0.00,160.0,20.0,0,0,0,0.0
Status,1732145761032,32,29,6,30,1575420030,0.00,56.0,13.0,0,0,0,0.0
Status,1732145761032,32,30,6,15,1575420030,0.00,98.0,8.0,0,0,0,0.0
Status,1732145761032,32,31,6,34,1575420030,0.00,51.0,5.0,0,0,0,0.0
Fix,GPS,37.4243933333,-122.1713300000,16.8,0.03963361,1.8,162.04,1732145762036,1.1,179.9,24646088000000,36.7,0,,,
Fix,FLP,37.4243829000,-122.1713429000,-0.7904269659400631,0.034526292,4.657,,1732145762240,1.1,,24646088000000,0.9600999,0,,,
Raw,1732145762038,4514000000,,101.26435441757488,-1416180975524000256,0.0,101.26435441757488,1331.1796971812457,0.0,0,17,0.0,16431,344179965424967,42,39.56399917602539,-143.74512726037813,0.14999,16,0.0,0.0,1575420030,,,,0,27.334368127232178,1,6.0,39.56399917602539,0.0,0.0,0.0,66.7128,C,24646088000000,
Raw,1732145762038,4514000000,,101.26435441757488,-1416180975524000256,0.0,101.26435441757488,1331.1796971812457,0.0,0,22,0.0,16431,344179967556069,28,45.5890007019043,189.14303720407847,0.14999,16,0.0,0.0,1575420030,,,,0,33.65404229862499,1,6.0,45.5890007019043,0.0,0.0,0.0,66.7128,C,24646088000000,
Raw,1732145762038,4514000000,,101.26435441757488,-1416180975524000256,0.0,101.26435441757488,1331.1796971812457,0.0,0,13,0.0,16431,344179966567781,31,41.66400146484375,20.972815746755725,0.14999,16,0.0,0.0,1575420030,,,,0,29.562016019714427,1,6.0,41.66400146484375,0.0,0.0,0.0,66.7128,C,24646088000000,
Raw,1732145762038,4514000000,,101.26435441757488,-1416180975524000256,0.0,101.26435441757488,1331.1796971812457,0.0,0,7,0.0,16431,344179964824481,58,34.03300094604492,710.1450920367176,0.14999,16,0.0,0.0,1575420030,,,,0,21.26939575659351,1,6.0,34.03300094604492,0.0,0.0,0.0,66.7128,C,24646088000000,
Raw,1732145762038,4514000000,,101.26435441757488,-1416180975524000256,0.0,101.26435441757488,1331.1796971812457,0.0,0,30,0.0,16431,344179969441784,31,43.0369987487793,437.3090299075867,0.14999,16,0.0,0.0,1575420030,,,,0,31.002485434059142,1,6.0,43.0369987487793,0.0,0.0,0.0,66.7128,C,24646088000000,
Raw,1732145762038,4514000000,,101.26435441757488,-1416180975524000256,0.0,101.26435441757488,1331.1796971812457,0.0,0,19,0.0,16431,344179957007265,58,33.900001525878906,154.9687140529767,0.14999,17,1287.6256204421836,0.00039999998989515007,1575420030,,,,0,21.26939575659351,6,6.0,33.900001525878906,0.0,0.0,-13.000808819028757,66.7128,C,24646088000000,
Raw,1732145762038,4514000000,,101.26435441757488,-1416180975524000256,0.0,101.26435441757488,1331.1796971812457,0.0,0,21,0.0,16431,344179956676147,58,32.20000076293945,192.3376572779637,0.14999,17,1375.8511429709913,0.00039999998989515007,1575420030,,,,0,19.40318606811914,6,6.0,32.20000076293945,0.0,0.0,-13.000808819028757,66.7128,C,24646088000000,
Raw,1732145762038,4514000000,,101.26435441757488,-1416180975524000256,0.0,101.26435441757488,1331.1796971812457,0.0,0,18,0.0,16431,344179955605569,42,39.900001525878906,-248.92512322438841,0.14999,16,0.0,0.0,1575420030,,,,0,27.590575477175527,6,6.0,39.900001525878906,0.0,0.0,-13.000808819028757,66.7128,C,24646088000000,
Raw,1732145762038,4514000000,,101.26435441757488,-1416180975524000256,0.0,101.26435441757488,1331.1796971812457,0.0,0,27,0.0,16431,344179957972500,31,40.79999923706055,626.4932292684277,0.14999,16,0.0,0.0,1575420030,,,,0,28.483135185569633,6,6.0,40.79999923706055,0.0,0.0,-13.000808819028757,66.7128,C,24646088000000,
Raw,1732145762038,4514000000,,101.26435441757488,-1416180975524000256,0.0,101.26435441757488,1331.1796971812457,0.0,0,29,0.0,16431,344179958907468,51,36.599998474121094,631.5033977894045,0.14999,16,0.0,0.0,1575420030,,,,0,24.10092029445852,6,6.0,36.599998474121094,0.0,0.0,-13.000808819028757,66.7128,C,24646088000000,
Raw,1732145762038,4514000000,,101.26435441757488,-1416180975524000256,0.0,101.26435441757488,1331.1796971812457,0.0,0,9,0.0,32995,9361971326888,42,31.200000762939453,499.7358892025116,0.14999,16,0.0,0.0,1600875010,,,,0,28.18394859421054,3,6.0,31.200000762939453,0.0,0.0,0.029768978218815852,66.7128,C,24646088000000,
Raw,1732145762038,4514000000,,101.26435441757488,-1416180975524000256,0.0,101.26435441757488,1331.1796971812457,0.0,0,16,0.0,17,729868,487,42.5,884.4598897205307,0.14999,16,0.0,0.0,1601437440,,,,0,5.57062177172329,3,6.0,42.5,0.0,0.0,0.029768978218815852,66.7128,C,24646088000000,
Raw,1732145762038,4514000000,,101.26435441757488,-1416180975524000256,0.0,101.26435441757488,1331.1796971812457,0.0,0,7,0.0,17,86733,31,5.0,815.4144771120226,0.14999,16,0.0,0.0,1604812540,,,,0,30.276101753061127,3,6.0,42.0,0.0,0.0,0.029768978218815852,66.7128,C,24646088000000,
Raw,1732145762038,4514000000,,101.26435441757488,-1416180975524000256,0.0,101.26435441757488,1331.1796971812457,0.0,0,8,0.0,17,111576,74,5.0,97.68146953852384,0.14999,16,0.0,0.0,1605374980,,,,0,19.092942744554186,3,6.0,32.0,0.0,0.0,0.029768978218815852,66.7128,C,24646088000000,
Raw,1732145762038,4514000000,,101.26435441757488,-1416180975524000256,0.0,101.26435441757488,1331.1796971812457,0.0,0,6,0.0,32995,9361961188295,74,5.0,1225.7441521047783,0.14999,16,0.0,0.0,1599750020,,,,0,18.291048790646514,3,6.0,31.0,0.0,0.0,0.029768978218815852,66.7128,C,24646088000000,
Raw,1732145762038,4514000000,,101.26435441757488,-1416180975524000256,0.0,101.26435441757488,1331.1796971812457,0.0,0,15,0.0,16431,344179958455633,235,26.156999588012695,-148.1734505767342,0.14999,16,0.0,0.0,1575420030,,,,0,11.615037545673394,1,6.0,26.156999588012695,0.0,0.0,0.0,66.7128,C,24646088000000,
Raw,1732145762038,4514000000,,101.26435441757488,-1416180975524000256,0.0,101.26435441757488,1331.1796971812457,0.0,0,19,0.0,16431,344179956382315,42,38.86899948120117,-303.0534987423731,0.14999,16,0.0,0.0,1575420030,,,,0,26.58965469532729,1,6.0,38.86899948120117,0.0,0.0,0.0,66.7128,C,24646088000000,
Raw,1732145762038,4514000000,,101.26435441757488,-1416180975524000256,0.0,101.26435441757488,1331.1796971812457,0.0,0,14,0.0,16431,344179970110284,51,37.42499923706055,339.6421031794798,0.14999,16,0.0,0.0,1575420030,,,,0,25.02890481748362,1,6.0,37.42499923706055,0.0,0.0,0.0,66.7128,C,24646088000000,
Raw,1732145762038,4514000000,,101.26435441757488,-1416180975524000256,0.0,101.26435441757488,1331.1796971812457,0.0,0,2,0.0,16431,344179956972760,316,25.70800018310547,126.23810936292855,0.14999,16,0.0,0.0,1575420030,,,,0,11.020599913279625,1,6.0,25.70800018310547,0.0,0.0,0.0,66.7128,C,24646088000000,
Raw,1732145762038,4514000000,,101.26435441757488,-1416180975524000256,0.0,101.26435441757488,1331.1796971812457,0.0,0,8,0.0,16431,344179957122882,316,23.41200065612793,1048.9250199281623,0.14999,16,0.0,0.0,1575420030,,,,0,7.7132520400014615,1,6.0,23.41200065612793,0.0,0.0,0.0,66.7128,C,24646088000000,
Status,,32,0,1,14,1575420030,42.20,302.0,73.0,1,0,0,37.2
Status,,32,1,1,30,1575420030,48.10,60.0,72.0,1,0,0,43.1
Status,,32,2,1,22,1575420030,50.60,263.0,56.0,1,0,0,45.6
Status,,32,3,1,13,1575420030,46.70,307.0,44.0,1,0,0,41.7
Status,,32,4,1,7,1575420030,40.10,99.0,41.0,1,0,0,35.1
Status,,32,5,1,17,1575420030,44.60,176.0,39.0,1,0,0,39.6
Status,,32,6,2,131,1575420030,45.00,3.0,23.0,0,0,0,40.0
Status,,32,7,1,2,1575420030,31.10,92.0,14.0,1,0,0,26.1
Status,,32,8,1,15,1575420030,33.30,318.0,14.0,1,0,0,28.3
Status,,32,9,1,21,1575420030,0.00,73.0,13.0,0,0,0,0.0
Status,,32,10,1,19,1575420030,44.40,193.0,13.0,1,0,0,39.4
Status,,32,11,1,8,1575420030,28.40,40.0,13.0,1,0,0,23.4
Status,,32,12,1,5,1575420030,0.00,266.0,9.0,0,0,0,0.0
Status,,32,13,1,9,1575420030,0.00,159.0,5.0,0,0,0,0.0
Status,,32,14,3,9,1602000000,39.30,7.0,55.0,1,0,0,34.3
Status,,32,15,3,7,1602000000,46.40,238.0,48.0,1,0,0,41.4
Status,,32,16,3,8,1602000000,40.30,310.0,37.0,1,0,0,35.3
Status,,32,17,3,19,1602000000,0.00,93.0,29.0,0,0,0,0.0
Status,,32,18,3,18,1602000000,0.00,46.0,22.0,0,0,0,0.0
Status,,32,19,3,16,1602000000,19.50,63.0,17.0,1,0,0,14.5
Status,,32,20,3,6,1602000000,37.30,192.0,16.0,0,0,0,32.3
Status,,32,21,3,20,1602000000,0.00,152.0,5.0,0,0,0,0.0
Status,,32,22,3,17,1602000000,39.60,0.0,0.0,0,0,0,34.6
Status,,32,23,6,29,1575420030,40.60,208.0,65.0,1,0,0,35.6
Status,,32,24,6,27,1575420030,46.50,33.0,62.0,1,0,0,41.5
Status,,32,25,6,18,1575420030,45.50,127.0,57.0,1,0,0,40.5
Status,,32,26,6,21,1575420030,37.50,262.0,54.0,1,0,0,32.5
Status,,32,27,6,19,1575420030,38.60,302.0,48.0,1,0,0,33.6
Status,,32,28,6,7,1575420030,0.00,160.0,20.0,0,0,0,0.0
Status,,32,29,6,30,1575420030,0.00,56.0,13.0,0,0,0,0.0
Status,,32,30,6,15,1575420030,0.00,98.0,8.0,0,0,0,0.0
Status,,32,31,6,34,1575420030,0.00,51.0,5.0,0,0,0,0.0
Fix,GPS,37.4243900000,-122.1713250000,16.3,0.14463694,1.9,253.38,1732145764000,0.8,158.8,24648051000000,39.5,0,,,
Raw,1732145764001,6477000000,,108.12480451235149,-1416180975524000000,0.0,108.12480451235149,1304.1098352299548,0.0,0,17,0.0,16431,344181928425935,42,39.599998474121094,-151.95163481664002,0.14999,16,0.0,0.0,1575420030,,,,0,28.107724666273928,1,6.0,39.599998474121094,0.0,0.0,0.0,66.7128,C,24648051000000,
Raw,1732145764001,6477000000,,108.12480451235149,-1416180975524000000,0.0,108.12480451235149,1304.1098352299548,0.0,0,22,0.0,16431,344181930554852,28,45.571998596191406,180.91973493035644,0.14999,16,0.0,0.0,1575420030,,,,0,33.306366546432635,1,6.0,45.571998596191406,0.0,0.0,0.0,66.7128,C,24648051000000,
Raw,1732145764001,6477000000,,108.12480451235149,-1416180975524000000,0.0,108.12480451235149,1304.1098352299548,0.0,0,13,0.0,16431,344181929567663,31,41.69900131225586,12.941409961191338,0.14999,16,0.0,0.0,1575420030,,,,0,30.30844212738352,1,6.0,41.69900131225586,0.0,0.0,0.0,66.7128,C,24648051000000,
Raw,1732145764001,6477000000,,108.12480451235149,-1416180975524000000,0.0,108.12480451235149,1304.1098352299548,0.0,0,7,0.0,16431,344181927819873,58,35.0880012512207,702.4208692991374,0.14999,16,0.0,0.0,1575420030,,,,0,22.45323680522491,1,6.0,35.0880012512207,0.0,0.0,0.0,66.7128,C,24648051000000,
Raw,1732145764001,6477000000,,108.12480451235149,-1416180975524000000,0.0,108.12480451235149,1304.1098352299548,0.0,0,15,0.0,16431,344181921456643,235,28.270999908447266,-154.80046489867024,0.14999,16,0.0,0.0,1575420030,,,,0,14.409813516412987,1,6.0,28.270999908447266,0.0,0.0,0.0,66.7128,C,24648051000000,
Raw,1732145764001,6477000000,,108.12480451235149,-1416180975524000000,0.0,108.12480451235149,1304.1098352299548,0.0,0,30,0.0,16431,344181932438944,28,43.13100051879883,429.08965337003445,0.14999,16,0.0,0.0,1575420030,,,,0,32.96023573903993,1,6.0,43.13100051879883,0.0,0.0,0.0,66.7128,C,24648051000000,
Raw,1732145764001,6477000000,,108.12480451235149,-1416180975524000000,0.0,108.12480451235149,1304.1098352299548,0.0,0,19,0.0,16431,344181919384333,42,39.38600158691406,-311.0778428486735,0.14999,16,0.0,0.0,1575420030,,,,0,27.148124205177034,1,6.0,39.38600158691406,0.0,0.0,0.0,66.7128,C,24648051000000,
Raw,1732145764001,6477000000,,108.12480451235149,-1416180975524000000,0.0,108.12480451235149,1304.1098352299548,0.0,0,19,0.0,16431,344181920006275,58,33.599998474121094,147.03582333898677,0.14999,16,0.0,0.0,1575420030,,,,0,20.920471240855107,6,6.0,33.599998474121094,0.0,0.0,-12.747395278876576,66.7128,C,24648051000000,
Raw,1732145764001,6477000000,,108.12480451235149,-1416180975524000000,0.0,108.12480451235149,1304.1098352299548,0.0,0,21,0.0,16431,344181919674905,58,32.5,184.38632257273818,0.14999,16,0.0,0.0,1575420030,,,,0,19.754889564141394,6,6.0,32.5,0.0,0.0,-12.747395278876576,66.7128,C,24648051000000,
Raw,1732145764001,6477000000,,108.12480451235149,-1416180975524000000,0.0,108.12480451235149,1304.1098352299548,0.0,0,18,0.0,16431,344181918607226,31,40.5,-256.9983880429585,0.14999,16,0.0,0.0,1575420030,,,,0,28.247140046730227,6,6.0,40.5,0.0,0.0,-12.747395278876576,66.7128,C,24648051000000,
Raw,1732145764001,6477000000,,108.12480451235149,-1416180975524000000,0.0,108.12480451235149,1304.1098352299548,0.0,0,27,0.0,16431,344181920968424,31,41.5,618.4548082620155,0.14999,16,0.0,0.0,1575420030,,,,0,29.24022822185584,6,6.0,41.5,0.0,0.0,-12.747395278876576,66.7128,C,24648051000000,
Raw,1732145764001,6477000000,,108.12480451235149,-1416180975524000000,0.0,108.12480451235149,1304.1098352299548,0.0,0,29,0.0,16431,344181921903362,51,35.599998474121094,623.6273954060645,0.14999,16,0.0,0.0,1575420030,,,,0,23.111011710792006,6,6.0,35.599998474121094,0.0,0.0,-12.747395278876576,66.7128,C,24648051000000,
Raw,1732145764001,6477000000,,108.12480451235149,-1416180975524000000,0.0,108.12480451235149,1304.1098352299548,0.0,0,9,0.0,32995,9363934323635,58,32.29999923706055,491.11338316691615,0.14999,16,0.0,0.0,1600875010,,,,0,21.702980177448893,3,6.0,32.29999923706055,0.0,0.0,-0.983439760912428,66.7128,C,24648051000000,
Raw,1732145764001,6477000000,,108.12480451235149,-1416180975524000000,0.0,108.12480451235149,1304.1098352299548,0.0,0,16,0.0,17,724177,797,41.400001525878906,878.1053474490296,0.14999,16,0.0,0.0,1601437440,,,,0,0.0,3,6.0,41.400001525878906,0.0,0.0,-0.983439760912428,66.7128,C,24648051000000,
Raw,1732145764001,6477000000,,108.12480451235149,-1416180975524000000,0.0,108.12480451235149,1304.1098352299548,0.0,0,7,0.0,17,81443,42,5.0,807.4531372192265,0.14999,16,0.0,0.0,1604812540,,,,0,29.103802266751813,3,6.0,41.0,0.0,0.0,-0.983439760912428,66.7128,C,24648051000000,
Raw,1732145764001,6477000000,,108.12480451235149,-1416180975524000000,0.0,108.12480451235149,1304.1098352299548,0.0,0,8,0.0,17,110962,58,5.0,89.63102943489021,0.14999,16,0.0,0.0,1605374980,,,,0,22.759843538158297,3,6.0,35.0,0.0,0.0,-0.983439760912428,66.7128,C,24648051000000,
Raw,1732145764001,6477000000,,108.12480451235149,-1416180975524000000,0.0,108.12480451235149,1304.1098352299548,0.0,0,6,0.0,32995,9363924180277,74,5.0,1217.8104157304329,0.14999,16,0.0,0.0,1599750020,,,,0,19.481614498381,3,6.0,32.0,0.0,0.0,-0.983439760912428,66.7128,C,24648051000000,
Raw,1732145764001,6477000000,,108.12480451235149,-1416180975524000000,0.0,108.12480451235149,1304.1098352299548,0.0,0,14,0.0,16431,344181933108080,51,37.1609992980957,331.43141436575894,0.14999,16,0.0,0.0,1575420030,,,,0,24.741353015943492,1,6.0,37.1609992980957,0.0,0.0,0.0,66.7128,C,24648051000000,
Raw,1732145764001,6477000000,,108.12480451235149,-1416180975524000000,0.0,108.12480451235149,1304.1098352299548,0.0,0,2,0.0,16431,344181919971952,316,26.10300064086914,119.83102918333323,0.14999,16,0.0,0.0,1575420030,,,,0,11.559837261215195,1,6.0,26.10300064086914,0.0,0.0,0.0,66.7128,C,24648051000000,
Raw,1732145764001,6477000000,,108.12480451235149,-1416180975524000000,0.0,108.12480451235149,1304.1098352299548,0.0,0,8,0.0,16431,344181920116061,396,23.395999908447266,1042.1765633062519,0.14999,16,0.0,0.0,1575420030,,,,0,7.720252555905749,1,6.0,23.395999908447266,0.0,0.0,0.0,66.7128,C,24648051000000,
Fix,FLP,37.4243867000,-122.1713331000,-0.7904269659400631,0.1004382,3.471,247.8073,1732145764203,0.8,158.8,24648051000000,0.980091,0,,,
Status,1732145764000,32,0,1,14,1575420030,42.10,302.0,73.0,1,0,0,37.1
Status,1732145764000,32,1,1,30,1575420030,48.20,60.0,72.0,1,0,0,43.2
Status,1732145764000,32,2,1,22,1575420030,50.50,263.0,56.0,1,0,0,45.5
Status,1732145764000,32,3,1,13,1575420030,46.70,307.0,44.0,1,0,0,41.7
Status,1732145764000,32,4,1,7,1575420030,41.30,99.0,41.0,1,0,0,36.3
Status,1732145764000,32,5,1,17,1575420030,44.60,176.0,39.0,1,0,0,39.6
Status,1732145764000,32,6,2,131,1575420030,44.00,3.0,23.0,0,0,0,39.0
Status,1732145764000,32,7,1,2,1575420030,32.50,92.0,14.0,1,0,0,27.5
Status,1732145764000,32,8,1,15,1575420030,32.10,318.0,14.0,1,0,0,27.099998
Status,1732145764000,32,9,1,21,1575420030,0.00,73.0,13.0,0,0,0,0.0
Status,1732145764000,32,10,1,19,1575420030,44.00,193.0,13.0,1,0,0,39.0
Status,1732145764000,32,11,1,8,1575420030,29.10,40.0,13.0,1,0,0,24.1
Status,1732145764000,32,12,1,5,1575420030,0.00,266.0,9.0,0,0,0,0.0
Status,1732145764000,32,13,1,9,1575420030,28.60,159.0,5.0,1,0,0,23.6
Status,1732145764000,32,14,3,9,1602000000,39.20,7.0,55.0,1,0,0,34.2
Status,1732145764000,32,15,3,7,1602000000,46.40,238.0,48.0,1,0,0,41.4
Status,1732145764000,32,16,3,8,1602000000,40.20,310.0,37.0,1,0,0,35.2
Status,1732145764000,32,17,3,19,1602000000,25.10,93.0,29.0,1,0,0,20.1
Status,1732145764000,32,18,3,18,1602000000,0.00,46.0,22.0,0,0,0,0.0
Status,1732145764000,32,19,3,16,1602000000,19.90,63.0,17.0,1,0,0,14.9
Status,1732145764000,32,20,3,6,1602000000,37.30,192.0,16.0,0,0,0,32.3
Status,1732145764000,32,21,3,20,1602000000,0.00,152.0,5.0,0,0,0,0.0
Status,1732145764000,32,22,3,17,1602000000,39.90,0.0,0.0,0,0,0,34.9
Status,1732145764000,32,23,6,29,1575420030,40.60,208.0,65.0,1,0,0,35.6
Status,1732145764000,32,24,6,27,1575420030,46.50,33.0,62.0,1,0,0,41.5
Status,1732145764000,32,25,6,18,1575420030,45.50,127.0,57.0,1,0,0,40.5
Status,1732145764000,32,26,6,21,1575420030,37.40,262.0,54.0,1,0,0,32.4
Status,1732145764000,32,27,6,19,1575420030,38.60,302.0,48.0,1,0,0,33.6
Status,1732145764000,32,28,6,7,1575420030,0.00,160.0,20.0,0,0,0,0.0
Status,1732145764000,32,29,6,30,1575420030,0.00,56.0,13.0,0,0,0,0.0
Status,1732145764000,32,30,6,15,1575420030,0.00,98.0,8.0,0,0,0,0.0
Status,1732145764000,32,31,6,34,1575420030,0.00,51.0,5.0,0,0,0,0.0
Fix,GPS,37.4243850000,-122.1713183333,16.2,0.10140028,1.8,226.07,1732145765000,0.6,164.5,24649051000000,40.8,0,,,
Raw,1732145765001,7477000000,,112.47050040790349,-1416180975524000000,0.0,112.47050040790349,1288.7220244047585,0.0,0,17,0.0,16431,344182928426450,42,39.63600158691406,-156.4398430314915,0.14999,16,0.0,0.0,1575420030,,,,0,28.153395167105472,1,6.0,39.63600158691406,0.0,0.0,0.0,66.7128,C,24649051000000,
Raw,1732145765001,7477000000,,112.47050040790349,-1416180975524000000,0.0,112.47050040790349,1288.7220244047585,0.0,0,22,0.0,16431,344182930554254,28,45.54399871826172,176.40005113852234,0.14999,16,0.0,0.0,1575420030,,,,0,33.06072182104762,1,6.0,45.54399871826172,0.0,0.0,0.0,66.7128,C,24649051000000,
Raw,1732145765001,7477000000,,112.47050040790349,-1416180975524000000,0.0,112.47050040790349,1288.7220244047585,0.0,0,13,0.0,16431,344182929567632,31,41.737998962402344,8.531158968741147,0.14999,17,344.044817408902,0.00022499999613501132,1575420030,,,,0,30.42006399880789,1,6.0,41.737998962402344,0.0,0.0,0.0,66.7128,C,24649051000000,
Raw,1732145765001,7477000000,,112.47050040790349,-1416180975524000000,0.0,112.47050040790349,1288.7220244047585,0.0,0,7,0.0,16431,344182927817547,51,36.3120002746582,697.6604147652921,0.14999,16,0.0,0.0,1575420030,,,,0,23.811635945685623,1,6.0,36.3120002746582,0.0,0.0,0.0,66.7128,C,24649051000000,
Raw,1732145765001,7477000000,,112.47050040790349,-1416180975524000000,0.0,112.47050040790349,1288.7220244047585,0.0,0,30,0.0,16431,344182932437519,28,43.24399948120117,424.54267525867664,0.14999,16,0.0,0.0,1575420030,,,,0,33.47028908659942,1,6.0,43.24399948120117,0.0,0.0,0.0,66.7128,C,24649051000000,
Raw,1732145765001,7477000000,,112.47050040790349,-1416180975524000000,0.0,112.47050040790349,1288.7220244047585,0.0,0,19,0.0,16431,344182919385381,42,39.03900146484375,-315.8187383892941,0.14999,16,0.0,0.0,1575420030,,,,0,26.77143525707389,1,6.0,39.03900146484375,0.0,0.0,0.0,66.7128,C,24649051000000,
Raw,1732145765001,7477000000,,112.47050040790349,-1416180975524000000,0.0,112.47050040790349,1288.7220244047585,0.0,0,14,0.0,16431,344182933106996,51,37.132999420166016,327.06938720933533,0.14999,16,0.0,0.0,1575420030,,,,0,24.710443532627544,1,6.0,37.132999420166016,0.0,0.0,0.0,66.7128,C,24649051000000,
Raw,1732145765001,7477000000,,112.47050040790349,-1416180975524000000,0.0,112.47050040790349,1288.7220244047585,0.0,0,19,0.0,16431,344182920005792,58,33.59000015258789,142.38298972629326,0.14999,16,0.0,0.0,1575420030,,,,0,20.692579661716543,6,6.0,33.59000015258789,0.0,0.0,-12.146243428355456,66.7128,C,24649051000000,
Raw,1732145765001,7477000000,,112.47050040790349,-1416180975524000000,0.0,112.47050040790349,1288.7220244047585,0.0,0,21,0.0,16431,344182919674299,74,32.435001373291016,179.73864584424405,0.14999,16,0.0,0.0,1575420030,,,,0,18.329132010270463,6,6.0,32.435001373291016,0.0,0.0,-12.146243428355456,66.7128,C,24649051000000,
Raw,1732145765001,7477000000,,112.47050040790349,-1416180975524000000,0.0,112.47050040790349,1288.7220244047585,0.0,0,18,0.0,16431,344182918608093,31,40.52000045776367,-261.70044434762707,0.14999,16,0.0,0.0,1575420030,,,,0,28.667730849120375,6,6.0,40.52000045776367,0.0,0.0,-12.146243428355456,66.7128,C,24649051000000,
Raw,1732145765001,7477000000,,112.47050040790349,-1416180975524000000,0.0,112.47050040790349,1288.7220244047585,0.0,0,27,0.0,16431,344182920966370,31,41.5,613.7607892633514,0.14999,16,0.0,0.0,1575420030,,,,0,29.267306466017775,6,6.0,41.5,0.0,0.0,-12.146243428355456,66.7128,C,24649051000000,
Raw,1732145765001,7477000000,,112.47050040790349,-1416180975524000000,0.0,112.47050040790349,1288.7220244047585,0.0,0,29,0.0,16431,344182921901290,51,35.599998474121094,618.9801600325243,0.14999,16,0.0,0.0,1575420030,,,,0,23.088457222567794,6,6.0,35.599998474121094,0.0,0.0,-12.146243428355456,66.7128,C,24649051000000,
Raw,1732145765001,7477000000,,112.47050040790349,-1416180975524000000,0.0,112.47050040790349,1288.7220244047585,0.0,0,9,0.0,32995,9364934321999,58,32.279998779296875,486.85934834845324,0.14999,16,0.0,0.0,1600875010,,,,0,19.99774146011863,3,6.0,32.279998779296875,0.0,0.0,-1.2220831159896008,66.7128,C,24649051000000,
Raw,1732145765001,7477000000,,112.47050040790349,-1416180975524000000,0.0,112.47050040790349,1288.7220244047585,0.0,0,19,0.0,17,10321,487,5.0,-9.087648743503133,0.14999,16,0.0,0.0,1603687550,,,,0,4.322834654780653,3,6.0,20.0,0.0,0.0,-1.2220831159896008,66.7128,C,24649051000000,
Raw,1732145765001,7477000000,,112.47050040790349,-1416180975524000000,0.0,112.47050040790349,1288.7220244047585,0.0,0,16,0.0,17,721305,797,41.400001525878906,874.1663337965634,0.14999,16,0.0,0.0,1601437440,,,,0,0.0,3,6.0,41.400001525878906,0.0,0.0,-1.2220831159896008,66.7128,C,24649051000000,
Raw,1732145765001,7477000000,,112.47050040790349,-1416180975524000000,0.0,112.47050040790349,1288.7220244047585,0.0,0,7,0.0,17,78749,42,5.0,802.9306043286233,0.14999,16,0.0,0.0,1604812540,,,,0,29.12211902643545,3,6.0,41.0,0.0,0.0,-1.2220831159896008,66.7128,C,24649051000000,
Raw,1732145765001,7477000000,,112.47050040790349,-1416180975524000000,0.0,112.47050040790349,1288.7220244047585,0.0,0,8,0.0,17,110662,58,5.0,84.89527663453461,0.14999,16,0.0,0.0,1605374980,,,,0,22.608649300468382,3,6.0,35.0,0.0,0.0,-1.2220831159896008,66.7128,C,24649051000000,
Raw,1732145765001,7477000000,,112.47050040790349,-1416180975524000000,0.0,112.47050040790349,1288.7220244047585,0.0,0,6,0.0,32995,9364924176221,74,5.0,1212.6504308636938,0.14999,16,0.0,0.0,1599750020,,,,0,19.041221626263216,3,6.0,32.0,0.0,0.0,-1.2220831159896008,66.7128,C,24649051000000,
Raw,1732145765001,7477000000,,112.47050040790349,-1416180975524000000,0.0,112.47050040790349,1288.7220244047585,0.0,0,15,0.0,16431,344182921457176,235,27.08099937438965,-158.80044161756516,0.14999,16,0.0,0.0,1575420030,,,,0,12.844133298381902,1,6.0,27.08099937438965,0.0,0.0,0.0,66.7128,C,24649051000000,
Raw,1732145765001,7477000000,,112.47050040790349,-1416180975524000000,0.0,112.47050040790349,1288.7220244047585,0.0,0,2,0.0,16431,344182919971565,235,27.47599983215332,113.86298103692748,0.14999,16,0.0,0.0,1575420030,,,,0,13.375802952903154,1,6.0,27.47599983215332,0.0,0.0,0.0,66.7128,C,24649051000000,
Raw,1732145765001,7477000000,,112.47050040790349,-1416180975524000000,0.0,112.47050040790349,1288.7220244047585,0.0,0,9,0.0,16431,344182917172243,396,23.56800079345703,1121.7180177003145,0.14999,16,0.0,0.0,1575420030,,,,0,7.932725594348112,1,6.0,23.56800079345703,0.0,0.0,0.0,66.7128,C,24649051000000,
Raw,1732145765001,7477000000,,112.47050040790349,-1416180975524000000,0.0,112.47050040790349,1288.7220244047585,0.0,0,8,0.0,16431,344182920112626,316,24.083999633789062,1037.4197789872874,0.14999,16,0.0,0.0,1575420030,,,,0,8.709635517235014,1,6.0,24.083999633789062,0.0,0.0,0.0,66.7128,C,24649051000000,
Fix,FLP,37.4243857000,-122.1713264000,-0.7904269659400631,0.096323594,2.233,,1732145765203,0.6,,24649051000000,0.9900898,0,,,
Status,1732145765000,32,0,1,14,1575420030,42.50,302.0,73.0,1,0,0,37.5
Status,1732145765000,32,1,1,30,1575420030,48.30,60.0,72.0,1,0,0,43.3
Status,1732145765000,32,2,1,22,1575420030,50.50,263.0,56.0,1,0,0,45.5
Status,1732145765000,32,3,1,13,1575420030,46.80,307.0,44.0,1,0,0,41.8
Status,1732145765000,32,4,1,7,1575420030,41.30,99.0,41.0,1,0,0,36.3
Status,1732145765000,32,5,1,17,1575420030,44.70,176.0,39.0,1,0,0,39.7
Status,1732145765000,32,6,2,131,1575420030,44.00,3.0,23.0,0,0,0,39.0
Status,1732145765000,32,7,1,2,1575420030,32.70,92.0,14.0,1,0,0,27.7
Status,1732145765000,32,8,1,15,1575420030,34.00,318.0,14.0,1,0,0,29.0
Status,1732145765000,32,9,1,21,1575420030,0.00,73.0,13.0,0,0,0,0.0
Status,1732145765000,32,10,1,19,1575420030,43.90,193.0,13.0,1,0,0,38.9
Status,1732145765000,32,11,1,8,1575420030,29.10,40.0,13.0,1,0,0,24.1
Status,1732145765000,32,12,1,5,1575420030,0.00,266.0,9.0,0,0,0,0.0
Status,1732145765000,32,13,1,9,1575420030,0.00,159.0,5.0,0,0,0,0.0
Status,1732145765000,32,14,3,9,1602000000,39.10,7.0,55.0,1,0,0,34.1
Status,1732145765000,32,15,3,7,1602000000,47.10,238.0,48.0,1,0,0,42.1
Status,1732145765000,32,16,3,8,1602000000,40.20,310.0,37.0,1,0,0,35.2
Status,1732145765000,32,17,3,19,1602000000,28.00,93.0,29.0,1,0,0,23.0
Status,1732145765000,32,18,3,18,1602000000,0.00,46.0,22.0,0,0,0,0.0
Status,1732145765000,32,19,3,16,1602000000,19.90,63.0,17.0,1,0,0,14.9
Status,1732145765000,32,20,3,6,1602000000,37.30,192.0,16.0,0,0,0,32.3
Status,1732145765000,32,21,3,20,1602000000,0.00,152.0,5.0,0,0,0,0.0
Status,1732145765000,32,22,3,17,1602000000,37.60,0.0,0.0,0,0,0,32.6
Status,1732145765000,32,23,6,29,1575420030,40.60,208.0,65.0,1,0,0,35.6
Status,1732145765000,32,24,6,27,1575420030,46.50,33.0,62.0,1,0,0,41.5
Status,1732145765000,32,25,6,18,1575420030,45.50,127.0,57.0,1,0,0,40.5
Status,1732145765000,32,26,6,21,1575420030,37.40,262.0,54.0,1,0,0,32.4
Status,1732145765000,32,27,6,19,1575420030,38.60,302.0,48.0,1,0,0,33.6
Status,1732145765000,32,28,6,7,1575420030,0.00,160.0,20.0,0,0,0,0.0
Status,1732145765000,32,29,6,30,1575420030,0.00,56.0,13.0,0,0,0,0.0
Status,1732145765000,32,30,6,15,1575420030,0.00,98.0,8.0,0,0,0,0.0
Status,1732145765000,32,31,6,34,1575420030,0.00,51.0,5.0,0,0,0,0.0
Fix,GPS,37.4243800000,-122.1713150000,16.099999999999998,0.04375139,1.8,283.55,1732145766000,0.7,179.9,24650051000000,40.7,0,,,
Fix,FLP,37.4243828000,-122.1713215000,-0.7904269659400631,0.048412953,1.88,,1732145766203,0.7,,24650051000000,1.0000893,0,,,
Raw,1732145766001,8477000000,,112.37635212526604,-1416180975524000000,0.0,112.37635212526604,1272.2050480907617,0.0,0,17,0.0,16431,344183928426982,42,39.69300079345703,-161.24972932018474,0.14999,16,0.0,0.0,1575420030,,,,0,28.625623033423345,1,6.0,39.69300079345703,0.0,0.0,0.0,66.7128,C,24650051000000,
Raw,1732145766001,8477000000,,112.37635212526604,-1416180975524000000,0.0,112.37635212526604,1272.2050480907617,0.0,0,22,0.0,16431,344183930553673,28,45.547000885009766,171.4631939983257,0.14999,16,0.0,0.0,1575420030,,,,0,33.67723210414424,1,6.0,45.547000885009766,0.0,0.0,0.0,66.7128,C,24650051000000,
Raw,1732145766001,8477000000,,112.37635212526604,-1416180975524000000,0.0,112.37635212526604,1272.2050480907617,0.0,0,13,0.0,16431,344183929567612,31,41.777000427246094,3.49107122772469,0.14999,16,0.0,0.0,1575420030,,,,0,30.46192378892477,1,6.0,41.777000427246094,0.0,0.0,0.0,66.7128,C,24650051000000,
Raw,1732145766001,8477000000,,112.37635212526604,-1416180975524000000,0.0,112.37635212526604,1272.2050480907617,0.0,0,7,0.0,16431,344183927815231,51,36.3120002746582,692.6868554762892,0.14999,16,0.0,0.0,1575420030,,,,0,23.811635945685623,1,6.0,36.3120002746582,0.0,0.0,0.0,66.7128,C,24650051000000,
Raw,1732145766001,8477000000,,112.37635212526604,-1416180975524000000,0.0,112.37635212526604,1272.2050480907617,0.0,0,30,0.0,16431,344183932436111,28,43.349998474121094,419.59280976194106,0.14999,16,0.0,0.0,1575420030,,,,0,33.42452418176525,1,6.0,43.349998474121094,0.0,0.0,0.0,66.7128,C,24650051000000,
Raw,1732145766001,8477000000,,112.37635212526604,-1416180975524000000,0.0,112.37635212526604,1272.2050480907617,0.0,0,15,0.0,16431,344183921457715,74,29.003000259399414,-163.8554889686014,0.14999,16,0.0,0.0,1575420030,,,,0,15.314003213064284,1,6.0,29.003000259399414,0.0,0.0,0.0,66.7128,C,24650051000000,
Raw,1732145766001,8477000000,,112.37635212526604,-1416180975524000000,0.0,112.37635212526604,1272.2050480907617,0.0,0,19,0.0,16431,344183920005326,58,33.584999084472656,137.26828976884266,0.14999,16,0.0,0.0,1575420030,,,,0,20.8317424190888,6,6.0,33.584999084472656,0.0,0.0,-11.784556386927429,66.7128,C,24650051000000,
Raw,1732145766001,8477000000,,112.37635212526604,-1416180975524000000,0.0,112.37635212526604,1272.2050480907617,0.0,0,21,0.0,16431,344183919673711,58,32.428001403808594,174.55407242881282,0.14999,16,0.0,0.0,1575420030,,,,0,19.490888999879044,6,6.0,32.428001403808594,0.0,0.0,-11.784556386927429,66.7128,C,24650051000000,
Raw,1732145766001,8477000000,,112.37635212526604,-1416180975524000000,0.0,112.37635212526604,1272.2050480907617,0.0,0,18,0.0,16431,344183918608974,42,40.499000549316406,-266.8928692353979,0.14999,16,0.0,0.0,1575420030,,,,0,27.753099613962316,6,6.0,40.499000549316406,0.0,0.0,-11.784556386927429,66.7128,C,24650051000000,
Raw,1732145766001,8477000000,,112.37635212526604,-1416180975524000000,0.0,112.37635212526604,1272.2050480907617,0.0,0,27,0.0,16431,344183920964333,31,41.494998931884766,608.5941487965774,0.14999,17,4837.568470323319,0.00022499999613501132,1575420030,,,,0,29.179746353177393,6,6.0,41.494998931884766,0.0,0.0,-11.784556386927429,66.7128,C,24650051000000,
Raw,1732145766001,8477000000,,112.37635212526604,-1416180975524000000,0.0,112.37635212526604,1272.2050480907617,0.0,0,29,0.0,16431,344183921899231,51,35.6150016784668,613.8529627611131,0.14999,17,4873.38718040524,0.00022499999613501132,1575420030,,,,0,23.410677545463045,6,6.0,35.6150016784668,0.0,0.0,-11.784556386927429,66.7128,C,24650051000000,
Raw,1732145766001,8477000000,,112.37635212526604,-1416180975524000000,0.0,112.37635212526604,1272.2050480907617,0.0,0,9,0.0,32995,9365934320389,74,32.28099822998047,481.7798444217283,0.14999,16,0.0,0.0,1600875010,,,,0,19.229971971559145,3,6.0,32.28099822998047,0.0,0.0,-1.6469860066396038,66.7128,C,24650051000000,
Raw,1732145766001,8477000000,,112.37635212526604,-1416180975524000000,0.0,112.37635212526604,1272.2050480907617,0.0,0,19,0.0,17,10373,396,5.0,-8.638053891343864,0.14999,16,0.0,0.0,1603687550,,,,0,8.449139488011744,3,6.0,23.0,0.0,0.0,-1.6469860066396038,66.7128,C,24650051000000,
Raw,1732145766001,8477000000,,112.37635212526604,-1416180975524000000,0.0,112.37635212526604,1272.2050480907617,0.0,0,16,0.0,17,718394,797,42.099998474121094,871.5125978218483,0.14999,16,0.0,0.0,1601437440,,,,0,0.0,3,6.0,42.099998474121094,0.0,0.0,-1.6469860066396038,66.7128,C,24650051000000,
Raw,1732145766001,8477000000,,112.37635212526604,-1416180975524000000,0.0,112.37635212526604,1272.2050480907617,0.0,0,7,0.0,17,76073,31,5.0,798.1350648237612,0.14999,16,0.0,0.0,1604812540,,,,0,29.827608682952235,3,6.0,42.0,0.0,0.0,-1.6469860066396038,66.7128,C,24650051000000,
Raw,1732145766001,8477000000,,112.37635212526604,-1416180975524000000,0.0,112.37635212526604,1272.2050480907617,0.0,0,8,0.0,17,110388,51,5.0,80.21968187083004,0.14999,16,0.0,0.0,1605374980,,,,0,23.423321012754773,3,6.0,36.0,0.0,0.0,-1.6469860066396038,66.7128,C,24650051000000,
Raw,1732145766001,8477000000,,112.37635212526604,-1416180975524000000,0.0,112.37635212526604,1272.2050480907617,0.0,0,6,0.0,32995,9365924172181,74,5.0,1208.20197872955,0.14999,16,0.0,0.0,1599750020,,,,0,19.520564741401095,3,6.0,32.0,0.0,0.0,-1.6469860066396038,66.7128,C,24650051000000,
Raw,1732145766001,8477000000,,112.37635212526604,-1416180975524000000,0.0,112.37635212526604,1272.2050480907617,0.0,0,14,0.0,16431,344183933105916,51,37.49800109863281,322.076547677605,0.14999,16,0.0,0.0,1575420030,,,,0,25.106142538418727,1,6.0,37.49800109863281,0.0,0.0,0.0,66.7128,C,24650051000000,
Raw,1732145766001,8477000000,,112.37635212526604,-1416180975524000000,0.0,112.37635212526604,1272.2050480907617,0.0,0,2,0.0,16431,344183919971195,235,27.704999923706055,109.32861638557083,0.14999,16,0.0,0.0,1575420030,,,,0,13.669363262019411,1,6.0,27.704999923706055,0.0,0.0,0.0,66.7128,C,24650051000000,
Raw,1732145766001,8477000000,,112.37635212526604,-1416180975524000000,0.0,112.37635212526604,1272.2050480907617,0.0,0,8,0.0,16431,344183920109173,396,24.069000244140625,1032.045190649555,0.14999,16,0.0,0.0,1575420030,,,,0,8.281203432682915,1,6.0,24.069000244140625,0.0,0.0,0.0,66.7128,C,24650051000000,
