# 
# Header Description:
# 
# Version: v3.1.0.3 Platform: 13 Manufacturer: samsung Model: SM-S135DL GNSS Hardware Model Name: MediaTek,MT6631,MTK_MNLD_default,MNL_VER_default
# 
# Raw,utcTimeMillis,TimeNanos,LeapSecond,TimeUncertaintyNanos,FullBiasNanos,BiasNanos,BiasUncertaintyNanos,DriftNanosPerSecond,DriftUncertaintyNanosPerSecond,HardwareClockDiscontinuityCount,Svid,TimeOffsetNanos,State,ReceivedSvTimeNanos,ReceivedSvTimeUncertaintyNanos,Cn0DbHz,PseudorangeRateMetersPerSecond,PseudorangeRateUncertaintyMetersPerSecond,AccumulatedDeltaRangeState,AccumulatedDeltaRangeMeters,AccumulatedDeltaRangeUncertaintyMeters,CarrierFrequencyHz,CarrierCycles,CarrierPhase,CarrierPhaseUncertainty,MultipathIndicator,SnrInDb,ConstellationType,AgcDb,BasebandCn0DbHz,FullInterSignalBiasNanos,FullInterSignalBiasUncertaintyNanos,SatelliteInterSignalBiasNanos,SatelliteInterSignalBiasUncertaintyNanos,CodeType,ChipsetElapsedRealtimeNanos,IsFullTracking
# 
# UncalAccel,utcTimeMillis,elapsedRealtimeNanos,UncalAccelXMps2,UncalAccelYMps2,UncalAccelZMps2,BiasXMps2,BiasYMps2,BiasZMps2
# 
# Accel,utcTimeMillis,elapsedRealtimeNanos,AccelXMps2,AccelYMps2,AccelZMps2
# 
# UncalGyro,utcTimeMillis,elapsedRealtimeNanos,UncalGyroXRadPerSec,UncalGyroYRadPerSec,UncalGyroZRadPerSec,DriftXRadPerSec,DriftYRadPerSec,DriftZRadPerSec
# 
# Gyro,utcTimeMillis,elapsedRealtimeNanos,GyroXRadPerSec,GyroYRadPerSec,GyroZRadPerSec
# 
# UncalMag,utcTimeMillis,elapsedRealtimeNanos,UncalMagXMicroT,UncalMagYMicroT,UncalMagZMicroT,BiasXMicroT,BiasYMicroT,BiasZMicroT
# 
# Mag,utcTimeMillis,elapsedRealtimeNanos,MagXMicroT,MagYMicroT,MagZMicroT
# 
# Pressure,utcTimeMillis,elapsedRealtimeNanos,PressureHpa
# 
# OrientationDeg,utcTimeMillis,elapsedRealtimeNanos,yawDeg,rollDeg,pitchDeg
# 
# Fix,Provider,LatitudeDegrees,LongitudeDegrees,AltitudeMeters,SpeedMps,AccuracyMeters,BearingDegrees,UnixTimeMillis,SpeedAccuracyMps,BearingAccuracyDegrees,elapsedRealtimeNanos,VerticalAccuracyMeters,MockLocation,NumberOfUsedSignals,VerticalSpeedAccuracyMps,SolutionType
# 
# Nav,Svid,Type,Status,MessageId,Sub-messageId,Data(Bytes)
# 
# Status,UnixTimeMillis,SignalCount,SignalIndex,ConstellationType,Svid,CarrierFrequencyHz,Cn0DbHz,AzimuthDegrees,ElevationDegrees,UsedInFix,HasAlmanacData,HasEphemerisData,BasebandCn0DbHz
# 
# Agc,utcTimeMillis,TimeNanos,LeapSecond,TimeUncertaintyNanos,FullBiasNanos,BiasNanos,BiasUncertaintyNanos,DriftNanosPerSecond,DriftUncertaintyNanosPerSecond,HardwareClockDiscontinuityCount,AgcDb,CarrierFrequencyHz,ConstellationType
# 
Fix,FLP,37.4243992000,-122.1711906000,2.200000047683716,0.029632576,1.914,,1732146098196,1.0,,24982044000000,0.9751103,0,,,
Status,,28,0,1,14,1575420030,42.90,312.0,74.0,1,0,0,37.9
Status,,28,1,1,30,1575420030,41.50,68.0,71.0,1,0,0,36.5
Status,,28,2,1,22,1575420030,47.90,267.0,58.0,1,0,0,42.9
Status,,28,3,1,13,1575420030,38.60,305.0,46.0,1,0,0,33.6
Status,,28,4,1,17,1575420030,46.80,176.0,42.0,1,0,0,41.8
Status,,28,5,1,7,1575420030,40.10,101.0,39.0,1,0,0,35.1
Status,,28,6,2,131,1575420030,47.00,3.0,23.0,0,0,0,42.0
Status,,28,7,1,15,1575420030,37.30,317.0,16.0,1,0,0,32.3
Status,,28,8,1,2,1575420030,29.10,89.0,15.0,1,0,0,24.1
Status,,28,9,1,19,1575420030,45.40,193.0,15.0,1,0,0,40.4
Status,,28,10,1,21,1575420030,0.00,71.0,13.0,0,0,0,0.0
Status,,28,11,1,8,1575420030,0.00,40.0,11.0,0,0,0,0.0
Status,,28,12,1,5,1575420030,30.00,264.0,8.0,1,0,0,25.0
Status,,28,13,1,9,1575420030,0.00,159.0,3.0,0,0,0,0.0
Status,,28,14,3,9,1602000000,29.30,13.0,54.0,1,0,0,24.3
Status,,28,15,3,8,1602000000,37.00,306.0,38.0,1,0,0,32.0
Status,,28,16,3,19,1602000000,22.80,89.0,31.0,1,0,0,17.8
Status,,28,17,3,16,1602000000,0.00,65.0,16.0,0,0,0,0.0
Status,,28,18,3,20,1602000000,0.00,151.0,8.0,0,0,0,0.0
Status,,28,19,3,17,1602000000,41.90,0.0,0.0,0,0,0,36.9
Status,,28,20,6,29,1575420030,0.00,206.0,63.0,0,0,0,0.0
Status,,28,21,6,27,1575420030,34.10,35.0,60.0,1,0,0,29.099998
Status,,28,22,6,21,1575420030,0.00,265.0,56.0,0,0,0,0.0
Status,,28,23,6,19,1575420030,28.70,300.0,49.0,1,0,0,23.7
Status,,28,24,6,7,1575420030,0.00,160.0,18.0,0,0,0,0.0
Status,,28,25,6,30,1575420030,0.00,57.0,12.0,0,0,0,0.0
Status,,28,26,6,15,1575420030,0.00,96.0,9.0,0,0,0,0.0
Status,,28,27,6,34,1575420030,0.00,49.0,6.0,0,0,0,0.0
Fix,GPS,37.4244033333,-122.1712050000,14.7,0.787525,1.6,288.52,1732146099000,0.9,40.5,24983044000000,33.4,0,,,
Fix,FLP,37.4244013000,-122.1711977000,2.200000047683716,0.07271088,1.875,,1732146099196,0.9,,24983044000000,0.98925996,0,,,
Raw,1732146099000,4554000000,,694255.5510352432,-1416181312446000128,0.0,85.02569705613824,1887.8969945584643,0.0,0,17,0.0,16431,344516928485977,31,41.805999755859375,49.793201326130735,0.14999,16,0.0,0.0,1575420030,,,,0,29.710568938150978,1,6.0,41.805999755859375,0.0,0.0,0.0,66.7128,C,24983044000000,
Raw,1732146099000,4554000000,,694255.5510352432,-1416181312446000128,0.0,85.02569705613824,1887.8969945584643,0.0,0,30,0.0,16431,344516931851068,51,36.542999267578125,628.1892402106096,0.14999,16,0.0,0.0,1575420030,,,,0,24.067285188588063,1,6.0,36.542999267578125,0.0,0.0,0.0,66.7128,C,24983044000000,
Raw,1732146099000,4554000000,,694255.5510352432,-1416181312446000128,0.0,85.02569705613824,1887.8969945584643,0.0,0,14,0.0,16431,344516932629672,51,37.88800048828125,529.3795758189722,0.14999,16,0.0,0.0,1575420030,,,,0,25.5284365200723,1,6.0,37.88800048828125,0.0,0.0,0.0,66.7128,C,24983044000000,
Raw,1732146099000,4554000000,,694255.5510352432,-1416181312446000128,0.0,85.02569705613824,1887.8969945584643,0.0,0,22,0.0,16431,344516930243970,31,42.91400146484375,379.0954264769607,0.14999,16,0.0,0.0,1575420030,,,,0,30.873276685617327,1,6.0,42.91400146484375,0.0,0.0,0.0,66.7128,C,24983044000000,
Raw,1732146099000,4554000000,,694255.5510352432,-1416181312446000128,0.0,85.02569705613824,1887.8969945584643,0.0,0,19,0.0,16431,344516919732645,316,23.700000762939453,346.75458472160784,0.14999,16,0.0,0.0,1575420030,,,,0,9.46850275702623,6,6.0,23.700000762939453,0.0,0.0,1.270515359119814,66.7128,C,24983044000000,
Raw,1732146099000,4554000000,,694255.5510352432,-1416181312446000128,0.0,85.02569705613824,1887.8969945584643,0.0,0,27,0.0,16431,344516920176677,58,29.100000381469727,803.5324088387584,0.14999,16,0.0,0.0,1575420030,,,,0,15.948780808719645,6,6.0,29.100000381469727,0.0,0.0,1.270515359119814,66.7128,C,24983044000000,
Raw,1732146099000,4554000000,,694255.5510352432,-1416181312446000128,0.0,85.02569705613824,1887.8969945584643,0.0,0,8,0.0,17,886168,74,5.0,316.74245783864797,0.14999,16,0.0,0.0,1605374980,,,,0,19.25663286361465,3,6.0,32.0,0.0,0.0,38.93355973014875,66.7128,C,24983044000000,
Raw,1732146099000,4554000000,,694255.5510352432,-1416181312446000128,0.0,85.02569705613824,1887.8969945584643,0.0,0,19,0.0,17,886355,396,5.0,221.76440653896904,0.14999,16,0.0,0.0,1603687550,,,,0,0.581330366688503,3,6.0,21.0,0.0,0.0,38.93355973014875,66.7128,C,24983044000000,
Raw,1732146099000,4554000000,,694255.5510352432,-1416181312446000128,0.0,85.02569705613824,1887.8969945584643,0.0,0,9,0.0,17,671189,316,5.0,680.1325502471277,0.14999,16,0.0,0.0,1600875010,,,,0,10.226690809244998,3,6.0,24.0,0.0,0.0,38.93355973014875,66.7128,C,24983044000000,
Raw,1732146099000,4554000000,,694255.5510352432,-1416181312446000128,0.0,85.02569705613824,1887.8969945584643,0.0,0,5,0.0,16431,344516916989563,487,24.958999633789062,985.1113190075181,0.14999,16,0.0,0.0,1575420030,,,,0,9.972838524085859,1,6.0,24.958999633789062,0.0,0.0,0.0,66.7128,C,24983044000000,
Raw,1732146099000,4554000000,,694255.5510352432,-1416181312446000128,0.0,85.02569705613824,1887.8969945584643,0.0,0,2,0.0,16431,344516919730621,396,24.06599998474121,317.9895078867315,0.14999,16,0.0,0.0,1575420030,,,,0,8.678331931352757,1,6.0,24.06599998474121,0.0,0.0,0.0,66.7128,C,24983044000000,
Raw,1732146099000,4554000000,,694255.5510352432,-1416181312446000128,0.0,85.02569705613824,1887.8969945584643,0.0,0,15,0.0,16431,344516921519550,58,32.3129997253418,47.2286038344766,0.14999,16,0.0,0.0,1575420030,,,,0,19.289643410285326,1,6.0,32.3129997253418,0.0,0.0,0.0,66.7128,C,24983044000000,
Raw,1732146099000,4554000000,,694255.5510352432,-1416181312446000128,0.0,85.02569705613824,1887.8969945584643,0.0,0,7,0.0,16431,344516926928779,51,35.07400131225586,897.6618988397624,0.14999,16,0.0,0.0,1575420030,,,,0,22.437824332043867,1,6.0,35.07400131225586,0.0,0.0,0.0,66.7128,C,24983044000000,
Raw,1732146099000,4554000000,,694255.5510352432,-1416181312446000128,0.0,85.02569705613824,1887.8969945584643,0.0,0,13,0.0,16431,344516929438386,58,33.630001068115234,222.91691203665349,0.14999,16,0.0,0.0,1575420030,,,,0,20.809541782445535,1,6.0,33.630001068115234,0.0,0.0,0.0,66.7128,C,24983044000000,
Raw,1732146099000,4554000000,,694255.5510352432,-1416181312446000128,0.0,85.02569705613824,1887.8969945584643,0.0,0,19,0.0,16431,344516919636229,42,40.35599899291992,-134.70631717770442,0.14999,16,0.0,0.0,1575420030,,,,0,28.1782099564672,1,6.0,40.35599899291992,0.0,0.0,0.0,66.7128,C,24983044000000,
Status,1732146099000,28,0,1,14,1575420030,41.60,312.0,74.0,1,0,0,36.6
Status,1732146099000,28,1,1,30,1575420030,46.90,68.0,71.0,1,0,0,41.9
Status,1732146099000,28,2,1,22,1575420030,38.90,267.0,58.0,1,0,0,33.9
Status,1732146099000,28,3,1,13,1575420030,38.30,305.0,46.0,1,0,0,33.3
Status,1732146099000,28,4,1,17,1575420030,52.40,176.0,42.0,1,0,0,47.4
Status,1732146099000,28,5,1,7,1575420030,34.30,101.0,39.0,1,0,0,29.3
Status,1732146099000,28,6,2,131,1575420030,50.00,3.0,23.0,0,0,0,45.0
Status,1732146099000,28,7,1,15,1575420030,0.00,317.0,16.0,0,0,0,0.0
Status,1732146099000,28,8,1,2,1575420030,0.00,89.0,15.0,0,0,0,0.0
Status,1732146099000,28,9,1,19,1575420030,36.70,193.0,15.0,1,0,0,31.7
Status,1732146099000,28,10,1,21,1575420030,0.00,71.0,13.0,0,0,0,0.0
Status,1732146099000,28,11,1,8,1575420030,0.00,40.0,11.0,0,0,0,0.0
Status,1732146099000,28,12,1,5,1575420030,0.00,264.0,8.0,0,0,0,0.0
Status,1732146099000,28,13,1,9,1575420030,0.00,159.0,3.0,0,0,0,0.0
Status,1732146099000,28,14,3,9,1602000000,30.60,13.0,54.0,1,0,0,25.6
Status,1732146099000,28,15,3,8,1602000000,36.20,306.0,38.0,1,0,0,31.2
Status,1732146099000,28,16,3,19,1602000000,23.20,89.0,31.0,1,0,0,18.2
Status,1732146099000,28,17,3,16,1602000000,0.00,65.0,16.0,0,0,0,0.0
Status,1732146099000,28,18,3,20,1602000000,0.00,151.0,8.0,0,0,0,0.0
Status,1732146099000,28,19,3,17,1602000000,35.20,0.0,0.0,0,0,0,30.2
Status,1732146099000,28,20,6,29,1575420030,0.00,206.0,63.0,0,0,0,0.0
Status,1732146099000,28,21,6,27,1575420030,29.30,35.0,60.0,1,0,0,24.3
Status,1732146099000,28,22,6,21,1575420030,0.00,265.0,56.0,0,0,0,0.0
Status,1732146099000,28,23,6,19,1575420030,31.80,300.0,49.0,1,0,0,26.8
Status,1732146099000,28,24,6,7,1575420030,0.00,160.0,18.0,0,0,0,0.0
Status,1732146099000,28,25,6,30,1575420030,0.00,57.0,12.0,0,0,0,0.0
Status,1732146099000,28,26,6,15,1575420030,0.00,96.0,9.0,0,0,0,0.0
Status,1732146099000,28,27,6,34,1575420030,0.00,49.0,6.0,0,0,0,0.0
Fix,GPS,37.4244033333,-122.1712133333,14.8,0.7926722,1.7,284.91,1732146100000,0.9,39.9,24984044000000,33.9,0,,,
Raw,1732146100000,5554000000,,693704.8054424371,-1416181312446000128,0.0,85.93114421060716,1886.2437628348114,0.0,0,17,0.0,16431,344517928485809,23,47.41299819946289,49.17744147767626,0.14999,16,0.0,0.0,1575420030,,,,0,35.552598017426774,1,6.0,47.41299819946289,0.0,0.0,0.0,66.7128,C,24984044000000,
Raw,1732146100000,5554000000,,693704.8054424371,-1416181312446000128,0.0,85.93114421060716,1886.2437628348114,0.0,0,30,0.0,16431,344517931848972,31,41.90599822998047,628.3114258452433,0.14999,16,0.0,0.0,1575420030,,,,0,29.81552186292833,1,6.0,41.90599822998047,0.0,0.0,0.0,66.7128,C,24984044000000,
Raw,1732146100000,5554000000,,693704.8054424371,-1416181312446000128,0.0,85.93114421060716,1886.2437628348114,0.0,0,14,0.0,16431,344517932627905,51,36.638999938964844,528.6361947011873,0.14999,16,0.0,0.0,1575420030,,,,0,24.1721462968355,1,6.0,36.638999938964844,0.0,0.0,0.0,66.7128,C,24984044000000,
Raw,1732146100000,5554000000,,693704.8054424371,-1416181312446000128,0.0,85.93114421060716,1886.2437628348114,0.0,0,22,0.0,16431,344517930242709,58,33.8849983215332,379.6036350918878,0.14999,16,0.0,0.0,1575420030,,,,0,21.098888539431606,1,6.0,33.8849983215332,0.0,0.0,0.0,66.7128,C,24984044000000,
Raw,1732146100000,5554000000,,693704.8054424371,-1416181312446000128,0.0,85.93114421060716,1886.2437628348114,0.0,0,19,0.0,16431,344517919731485,235,26.799999237060547,346.86095126552186,0.14999,16,0.0,0.0,1575420030,,,,0,13.329784231515344,6,6.0,26.799999237060547,0.0,0.0,4.531182428802013,66.7128,C,24984044000000,
Raw,1732146100000,5554000000,,693704.8054424371,-1416181312446000128,0.0,85.93114421060716,1886.2437628348114,0.0,0,27,0.0,16431,344517920173971,316,24.299999237060547,803.3860648276952,0.14999,16,0.0,0.0,1575420030,,,,0,10.192746210115121,6,6.0,24.299999237060547,0.0,0.0,4.531182428802013,66.7128,C,24984044000000,
Raw,1732146100000,5554000000,,693704.8054424371,-1416181312446000128,0.0,85.93114421060716,1886.2437628348114,0.0,0,8,0.0,17,885110,74,5.0,316.97000521335445,0.14999,16,0.0,0.0,1605374980,,,,0,18.299018340931756,3,6.0,31.0,0.0,0.0,34.827678761596395,66.7128,C,24984044000000,
Raw,1732146100000,5554000000,,693704.8054424371,-1416181312446000128,0.0,85.93114421060716,1886.2437628348114,0.0,0,19,0.0,17,885652,487,5.0,220.61456462390453,0.14999,16,0.0,0.0,1603687550,,,,0,1.283602755014992,3,6.0,18.0,0.0,0.0,34.827678761596395,66.7128,C,24984044000000,
Raw,1732146100000,5554000000,,693704.8054424371,-1416181312446000128,0.0,85.93114421060716,1886.2437628348114,0.0,0,9,0.0,17,668920,316,5.0,679.7617177942275,0.14999,16,0.0,0.0,1600875010,,,,0,11.843695528328393,3,6.0,26.0,0.0,0.0,34.827678761596395,66.7128,C,24984044000000,
Raw,1732146100000,5554000000,,693704.8054424371,-1416181312446000128,0.0,85.93114421060716,1886.2437628348114,0.0,0,7,0.0,16431,344517926925776,235,29.253999710083008,897.1332020632866,0.14999,16,0.0,0.0,1575420030,,,,0,15.629578340845104,1,6.0,29.253999710083008,0.0,0.0,0.0,66.7128,C,24984044000000,
Raw,1732146100000,5554000000,,693704.8054424371,-1416181312446000128,0.0,85.93114421060716,1886.2437628348114,0.0,0,13,0.0,16431,344517929437640,58,33.32400131225586,222.0952020291377,0.14999,16,0.0,0.0,1575420030,,,,0,20.457098211473905,1,6.0,33.32400131225586,0.0,0.0,0.0,66.7128,C,24984044000000,
Raw,1732146100000,5554000000,,693704.8054424371,-1416181312446000128,0.0,85.93114421060716,1886.2437628348114,0.0,0,19,0.0,16431,344517919636681,74,31.72599983215332,-135.3768050404549,0.14999,16,0.0,0.0,1575420030,,,,0,18.608358601086433,1,6.0,31.72599983215332,0.0,0.0,0.0,66.7128,C,24984044000000,
Fix,FLP,37.4244026000,-122.1712061000,2.200000047683716,0.14809495,1.825,297.5568,1732146100196,0.9,39.9,24984044000000,0.9951858,0,,,
Status,1732146100000,28,0,1,14,1575420030,45.70,312.0,74.0,1,0,0,40.7
Status,1732146100000,28,1,1,30,1575420030,40.70,68.0,71.0,1,0,0,35.7
Status,1732146100000,28,2,1,22,1575420030,40.40,267.0,58.0,1,0,0,35.4
Status,1732146100000,28,3,1,13,1575420030,47.70,305.0,46.0,1,0,0,42.7
Status,1732146100000,28,4,1,17,1575420030,47.30,176.0,42.0,1,0,0,42.3
Status,1732146100000,28,5,1,7,1575420030,39.60,101.0,39.0,1,0,0,34.6
Status,1732146100000,28,6,2,131,1575420030,41.00,3.0,23.0,0,0,0,36.0
Status,1732146100000,28,7,1,15,1575420030,42.70,317.0,16.0,1,0,0,37.7
Status,1732146100000,28,8,1,2,1575420030,0.00,89.0,15.0,0,0,0,0.0
Status,1732146100000,28,9,1,19,1575420030,37.30,193.0,15.0,1,0,0,32.3
Status,1732146100000,28,10,1,21,1575420030,0.00,71.0,13.0,0,0,0,0.0
Status,1732146100000,28,11,1,8,1575420030,0.00,40.0,11.0,0,0,0,0.0
Status,1732146100000,28,12,1,5,1575420030,0.00,264.0,8.0,0,0,0,0.0
Status,1732146100000,28,13,1,9,1575420030,0.00,159.0,3.0,0,0,0,0.0
Status,1732146100000,28,14,3,9,1602000000,33.20,13.0,54.0,1,0,0,28.2
Status,1732146100000,28,15,3,8,1602000000,35.80,306.0,38.0,1,0,0,30.8
Status,1732146100000,28,16,3,19,1602000000,31.10,89.0,31.0,1,0,0,26.1
Status,1732146100000,28,17,3,16,1602000000,25.40,65.0,16.0,1,0,0,20.4
Status,1732146100000,28,18,3,20,1602000000,0.00,151.0,8.0,0,0,0,0.0
Status,1732146100000,28,19,3,17,1602000000,37.40,0.0,0.0,0,0,0,32.4
Status,1732146100000,28,20,6,29,1575420030,0.00,206.0,63.0,0,0,0,0.0
Status,1732146100000,28,21,6,27,1575420030,40.20,35.0,60.0,1,0,0,35.2
Status,1732146100000,28,22,6,21,1575420030,0.00,265.0,56.0,0,0,0,0.0
Status,1732146100000,28,23,6,19,1575420030,28.10,300.0,49.0,1,0,0,23.1
Status,1732146100000,28,24,6,7,1575420030,0.00,160.0,18.0,0,0,0,0.0
Status,1732146100000,28,25,6,30,1575420030,0.00,57.0,12.0,0,0,0,0.0
Status,1732146100000,28,26,6,15,1575420030,0.00,96.0,9.0,0,0,0,0.0
Status,1732146100000,28,27,6,34,1575420030,0.00,49.0,6.0,0,0,0,0.0
Fix,GPS,37.4244033333,-122.1712250000,14.8,0.8194378,1.7,273.0,1732146101000,0.9,30.6,24985044000000,38.0,0,,,
Fix,FLP,37.4244032000,-122.1712166000,2.200000047683716,0.21399318,1.775,287.00156,1732146101196,0.9,30.6,24985044000000,1.0052072,0,,,
Raw,1732146101000,6554000000,,692755.5028752591,-1416181312446000128,0.0,101.20486756511778,1887.5581012104244,0.0,0,17,0.0,16431,344518928485642,31,42.305999755859375,49.50232518223656,0.14999,16,0.0,0.0,1575420030,,,,0,30.23606744524528,1,6.0,42.305999755859375,0.0,0.0,0.0,66.7128,C,24985044000000,
Raw,1732146101000,6554000000,,692755.5028752591,-1416181312446000128,0.0,101.20486756511778,1887.5581012104244,0.0,0,30,0.0,16431,344518931846874,51,35.69900131225586,627.9090495024438,0.14999,16,0.0,0.0,1575420030,,,,0,23.13061869347003,1,6.0,35.69900131225586,0.0,0.0,0.0,66.7128,C,24985044000000,
Raw,1732146101000,6554000000,,692755.5028752591,-1416181312446000128,0.0,101.20486756511778,1887.5581012104244,0.0,0,14,0.0,16431,344518932626142,42,40.69599914550781,529.8513610355901,0.14999,16,0.0,0.0,1575420030,,,,0,28.53760336826445,1,6.0,40.69599914550781,0.0,0.0,0.0,66.7128,C,24985044000000,
Raw,1732146101000,6554000000,,692755.5028752591,-1416181312446000128,0.0,101.20486756511778,1887.5581012104244,0.0,0,22,0.0,16431,344518930241439,58,35.375999450683594,381.12250009305893,0.14999,16,0.0,0.0,1575420030,,,,0,22.770737498527257,1,6.0,35.375999450683594,0.0,0.0,0.0,66.7128,C,24985044000000,
Raw,1732146101000,6554000000,,692755.5028752591,-1416181312446000128,0.0,101.20486756511778,1887.5581012104244,0.0,0,13,0.0,16431,344518929436909,31,42.6879997253418,224.73397038227196,0.14999,16,0.0,0.0,1575420030,,,,0,30.637188300269244,1,6.0,42.6879997253418,0.0,0.0,0.0,66.7128,C,24985044000000,
Raw,1732146101000,6554000000,,692755.5028752591,-1416181312446000128,0.0,101.20486756511778,1887.5581012104244,0.0,0,19,0.0,16431,344518919637117,74,32.28799819946289,-134.37065512058328,0.14999,16,0.0,0.0,1575420030,,,,0,19.259113011055877,1,6.0,32.28799819946289,0.0,0.0,0.0,66.7128,C,24985044000000,
Raw,1732146101000,6554000000,,692755.5028752591,-1416181312446000128,0.0,101.20486756511778,1887.5581012104244,0.0,0,19,0.0,16431,344518919730326,316,23.100000381469727,347.5806618202474,0.14999,16,0.0,0.0,1575420030,,,,0,8.626475719787164,6,6.0,23.100000381469727,0.0,0.0,10.399228033786232,66.7128,C,24985044000000,
Raw,1732146101000,6554000000,,692755.5028752591,-1416181312446000128,0.0,101.20486756511778,1887.5581012104244,0.0,0,27,0.0,16431,344518920171288,51,35.20000076293945,803.7266050185185,0.14999,16,0.0,0.0,1575420030,,,,0,22.668066212793743,6,6.0,35.20000076293945,0.0,0.0,10.399228033786232,66.7128,C,24985044000000,
Raw,1732146101000,6554000000,,692755.5028752591,-1416181312446000128,0.0,101.20486756511778,1887.5581012104244,0.0,0,8,0.0,17,884049,74,5.0,319.16450838588946,0.14999,16,0.0,0.0,1605374980,,,,0,17.847091723742707,3,6.0,31.0,0.0,0.0,33.55794044710533,66.7128,C,24985044000000,
Raw,1732146101000,6554000000,,692755.5028752591,-1416181312446000128,0.0,101.20486756511778,1887.5581012104244,0.0,0,19,0.0,17,884965,316,5.0,224.1094104064744,0.14999,16,0.0,0.0,1603687550,,,,0,12.414336453212465,3,6.0,24.0,0.0,0.0,33.55794044710533,66.7128,C,24985044000000,
Raw,1732146101000,6554000000,,692755.5028752591,-1416181312446000128,0.0,101.20486756511778,1887.5581012104244,0.0,0,16,0.0,17,643303,487,5.0,1044.1196038633814,0.14999,16,0.0,0.0,1601437440,,,,0,4.837642195556411,3,6.0,20.0,0.0,0.0,33.55794044710533,66.7128,C,24985044000000,
Raw,1732146101000,6554000000,,692755.5028752591,-1416181312446000128,0.0,101.20486756511778,1887.5581012104244,0.0,0,9,0.0,17,666646,235,5.0,681.0476299592221,0.14999,16,0.0,0.0,1600875010,,,,0,14.922385418951556,3,6.0,28.0,0.0,0.0,33.55794044710533,66.7128,C,24985044000000,
Raw,1732146101000,6554000000,,692755.5028752591,-1416181312446000128,0.0,101.20486756511778,1887.5581012104244,0.0,0,15,0.0,16431,344518921519256,42,37.74100112915039,48.11800375441115,0.14999,16,0.0,0.0,1575420030,,,,0,25.370984058074594,1,6.0,37.74100112915039,0.0,0.0,0.0,66.7128,C,24985044000000,
Raw,1732146101000,6554000000,,692755.5028752591,-1416181312446000128,0.0,101.20486756511778,1887.5581012104244,0.0,0,7,0.0,16431,344518926922793,51,34.61600112915039,897.4121383942146,0.14999,16,0.0,0.0,1575420030,,,,0,21.924492303550224,1,6.0,34.61600112915039,0.0,0.0,0.0,66.7128,C,24985044000000,
Status,1732146101000,28,0,1,14,1575420030,46.30,312.0,74.0,1,0,0,41.3
Status,1732146101000,28,1,1,30,1575420030,44.10,68.0,71.0,1,0,0,39.1
Status,1732146101000,28,2,1,22,1575420030,42.40,267.0,58.0,1,0,0,37.4
Status,1732146101000,28,3,1,13,1575420030,39.40,305.0,46.0,1,0,0,34.4
Status,1732146101000,28,4,1,17,1575420030,37.20,176.0,42.0,1,0,0,32.2
Status,1732146101000,28,5,1,7,1575420030,44.60,101.0,39.0,1,0,0,39.6
Status,1732146101000,28,6,2,131,1575420030,35.00,3.0,23.0,0,0,0,30.0
Status,1732146101000,28,7,1,15,1575420030,33.20,317.0,16.0,1,0,0,28.2
Status,1732146101000,28,8,1,2,1575420030,31.30,89.0,15.0,1,0,0,26.3
Status,1732146101000,28,9,1,19,1575420030,41.20,193.0,15.0,1,0,0,36.2
Status,1732146101000,28,10,1,21,1575420030,0.00,71.0,13.0,0,0,0,0.0
Status,1732146101000,28,11,1,8,1575420030,0.00,40.0,11.0,0,0,0,0.0
Status,1732146101000,28,12,1,5,1575420030,0.00,264.0,8.0,0,0,0,0.0
Status,1732146101000,28,13,1,9,1575420030,0.00,159.0,3.0,0,0,0,0.0
Status,1732146101000,28,14,3,9,1602000000,37.40,13.0,54.0,1,0,0,32.4
Status,1732146101000,28,15,3,8,1602000000,33.10,306.0,38.0,1,0,0,28.099998
Status,1732146101000,28,16,3,19,1602000000,29.20,89.0,31.0,1,0,0,24.2
Status,1732146101000,28,17,3,16,1602000000,0.00,65.0,16.0,0,0,0,0.0
Status,1732146101000,28,18,3,20,1602000000,0.00,151.0,8.0,0,0,0,0.0
Status,1732146101000,28,19,3,17,1602000000,41.20,0.0,0.0,0,0,0,36.2
Status,1732146101000,28,20,6,29,1575420030,0.00,206.0,63.0,0,0,0,0.0
Status,1732146101000,28,21,6,27,1575420030,44.50,35.0,60.0,1,0,0,39.5
Status,1732146101000,28,22,6,21,1575420030,0.00,265.0,56.0,0,0,0,0.0
Status,1732146101000,28,23,6,19,1575420030,38.60,300.0,49.0,1,0,0,33.6
Status,1732146101000,28,24,6,7,1575420030,0.00,160.0,18.0,0,0,0,0.0
Status,1732146101000,28,25,6,30,1575420030,0.00,57.0,12.0,0,0,0,0.0
Status,1732146101000,28,26,6,15,1575420030,0.00,96.0,9.0,0,0,0,0.0
Status,1732146101000,28,27,6,34,1575420030,0.00,49.0,6.0,0,0,0,0.0
Fix,GPS,37.4244050000,-122.1712300000,14.599999999999998,0.44369057,1.7,237.77,1732146102000,1.9,167.0,24986044000000,35.2,0,,,
Fix,FLP,37.4244043000,-122.1712243000,2.200000047683716,0.22259182,1.7,284.529,1732146102197,1.9,167.0,24986044000000,1.0152035,0,,,
Raw,1732146102000,7554000000,,691784.3101643338,-1416181312446000128,0.0,92.08113042013974,1890.8519059448524,0.0,0,17,0.0,16431,344519928485478,58,32.202999114990234,50.98318719894747,0.14999,16,0.0,0.0,1575420030,,,,0,19.16687260821672,1,6.0,32.202999114990234,0.0,0.0,0.0,66.7128,C,24986044000000,
Raw,1732146102000,7554000000,,691784.3101643338,-1416181312446000128,0.0,92.08113042013974,1890.8519059448524,0.0,0,30,0.0,16431,344519931844777,42,39.132999420166016,629.0185229399677,0.14999,16,0.0,0.0,1575420030,,,,0,26.874799324370997,1,6.0,39.132999420166016,0.0,0.0,0.0,66.7128,C,24986044000000,
Raw,1732146102000,7554000000,,691784.3101643338,-1416181312446000128,0.0,92.08113042013974,1890.8519059448524,0.0,0,14,0.0,16431,344519932624373,31,41.257999420166016,530.6740931282626,0.14999,16,0.0,0.0,1575420030,,,,0,29.13161162407163,1,6.0,41.257999420166016,0.0,0.0,0.0,66.7128,C,24986044000000,
Raw,1732146102000,7554000000,,691784.3101643338,-1416181312446000128,0.0,92.08113042013974,1890.8519059448524,0.0,0,22,0.0,16431,344519930240163,51,37.439998626708984,381.47082206859744,0.14999,16,0.0,0.0,1575420030,,,,0,25.04724883620909,1,6.0,37.439998626708984,0.0,0.0,0.0,66.7128,C,24986044000000,
Raw,1732146102000,7554000000,,691784.3101643338,-1416181312446000128,0.0,92.08113042013974,1890.8519059448524,0.0,0,13,0.0,16431,344519929436160,58,34.4010009765625,225.46794367077416,0.14999,16,0.0,0.0,1575420030,,,,0,21.68494503691887,1,6.0,34.4010009765625,0.0,0.0,0.0,66.7128,C,24986044000000,
Raw,1732146102000,7554000000,,691784.3101643338,-1416181312446000128,0.0,92.08113042013974,1890.8519059448524,0.0,0,19,0.0,16431,344519919637564,51,36.159000396728516,-133.8553848263922,0.14999,16,0.0,0.0,1575420030,,,,0,23.643938765380636,1,6.0,36.159000396728516,0.0,0.0,0.0,66.7128,C,24986044000000,
Raw,1732146102000,7554000000,,691784.3101643338,-1416181312446000128,0.0,92.08113042013974,1890.8519059448524,0.0,0,19,0.0,16431,344519919729160,58,33.599998474121094,349.68622693053334,0.14999,16,0.0,0.0,1575420030,,,,0,20.949128111580606,6,6.0,33.599998474121094,0.0,0.0,13.860501967921765,66.7128,C,24986044000000,
Raw,1732146102000,7554000000,,691784.3101643338,-1416181312446000128,0.0,92.08113042013974,1890.8519059448524,0.0,0,27,0.0,16431,344519920168609,42,39.5,804.5765152846741,0.14999,16,0.0,0.0,1575420030,,,,0,27.18727509404168,6,6.0,39.5,0.0,0.0,13.860501967921765,66.7128,C,24986044000000,
Raw,1732146102000,7554000000,,691784.3101643338,-1416181312446000128,0.0,92.08113042013974,1890.8519059448524,0.0,0,8,0.0,17,882981,316,5.0,319.76962209672735,0.14999,16,0.0,0.0,1605374980,,,,0,14.819447332337845,3,6.0,26.0,0.0,0.0,33.6649697006208,66.7128,C,24986044000000,
Raw,1732146102000,7554000000,,691784.3101643338,-1416181312446000128,0.0,92.08113042013974,1890.8519059448524,0.0,0,19,0.0,17,884427,316,5.0,224.70441275015529,0.14999,16,0.0,0.0,1603687550,,,,0,10.018403951272294,3,6.0,24.0,0.0,0.0,33.6649697006208,66.7128,C,24986044000000,
Raw,1732146102000,7554000000,,691784.3101643338,-1416181312446000128,0.0,92.08113042013974,1890.8519059448524,0.0,0,9,0.0,17,664365,58,5.0,682.2424227704219,0.14999,16,0.0,0.0,1600875010,,,,0,19.632168339307505,3,6.0,33.0,0.0,0.0,33.6649697006208,66.7128,C,24986044000000,
Raw,1732146102000,7554000000,,691784.3101643338,-1416181312446000128,0.0,92.08113042013974,1890.8519059448524,0.0,0,2,0.0,16431,344519919727435,316,26.347999572753906,320.9042856905726,0.14999,16,0.0,0.0,1575420030,,,,0,11.884271768801742,1,6.0,26.347999572753906,0.0,0.0,0.0,66.7128,C,24986044000000,
Raw,1732146102000,7554000000,,691784.3101643338,-1416181312446000128,0.0,92.08113042013974,1890.8519059448524,0.0,0,15,0.0,16431,344519921519089,235,28.20599937438965,49.41289273103127,0.14999,16,0.0,0.0,1575420030,,,,0,14.302246944932941,1,6.0,28.20599937438965,0.0,0.0,0.0,66.7128,C,24986044000000,
Raw,1732146102000,7554000000,,691784.3101643338,-1416181312446000128,0.0,92.08113042013974,1890.8519059448524,0.0,0,7,0.0,16431,344519926919799,42,39.57600021362305,898.2343594443088,0.14999,16,0.0,0.0,1575420030,,,,0,27.345425913115285,1,6.0,39.57600021362305,0.0,0.0,0.0,66.7128,C,24986044000000,
Status,1732146102000,28,0,1,14,1575420030,45.60,312.0,74.0,1,0,0,40.6
Status,1732146102000,28,1,1,30,1575420030,41.90,68.0,71.0,1,0,0,36.9
Status,1732146102000,28,2,1,22,1575420030,36.60,267.0,58.0,1,0,0,31.599998
Status,1732146102000,28,3,1,13,1575420030,39.00,305.0,46.0,1,0,0,34.0
Status,1732146102000,28,4,1,17,1575420030,42.90,176.0,42.0,1,0,0,37.9
Status,1732146102000,28,5,1,7,1575420030,38.70,101.0,39.0,1,0,0,33.7
Status,1732146102000,28,6,2,131,1575420030,42.00,3.0,23.0,0,0,0,37.0
Status,1732146102000,28,7,1,15,1575420030,33.70,317.0,16.0,1,0,0,28.7
Status,1732146102000,28,8,1,2,1575420030,28.80,89.0,15.0,1,0,0,23.8
Status,1732146102000,28,9,1,19,1575420030,39.40,193.0,15.0,1,0,0,34.4
Status,1732146102000,28,10,1,21,1575420030,0.00,71.0,13.0,0,0,0,0.0
Status,1732146102000,28,11,1,8,1575420030,0.00,40.0,11.0,0,0,0,0.0
Status,1732146102000,28,12,1,5,1575420030,17.80,264.0,8.0,1,0,0,12.799999
Status,1732146102000,28,13,1,9,1575420030,0.00,159.0,3.0,0,0,0,0.0
Status,1732146102000,28,14,3,9,1602000000,36.50,13.0,54.0,1,0,0,31.5
Status,1732146102000,28,15,3,8,1602000000,32.30,306.0,38.0,1,0,0,27.3
Status,1732146102000,28,16,3,19,1602000000,32.10,89.0,31.0,1,0,0,27.099998
Status,1732146102000,28,17,3,16,1602000000,0.00,65.0,16.0,0,0,0,0.0
Status,1732146102000,28,18,3,20,1602000000,0.00,151.0,8.0,0,0,0,0.0
Status,1732146102000,28,19,3,17,1602000000,39.00,0.0,0.0,0,0,0,34.0
Status,1732146102000,28,20,6,29,1575420030,0.00,206.0,63.0,0,0,0,0.0
Status,1732146102000,28,21,6,27,1575420030,39.50,35.0,60.0,1,0,0,34.5
Status,1732146102000,28,22,6,21,1575420030,0.00,265.0,56.0,0,0,0,0.0
Status,1732146102000,28,23,6,19,1575420030,28.80,300.0,49.0,1,0,0,23.8
Status,1732146102000,28,24,6,7,1575420030,0.00,160.0,18.0,0,0,0,0.0
Status,1732146102000,28,25,6,30,1575420030,0.00,57.0,12.0,0,0,0,0.0
Status,1732146102000,28,26,6,15,1575420030,0.00,96.0,9.0,0,0,0,0.0
Status,1732146102000,28,27,6,34,1575420030,0.00,49.0,6.0,0,0,0,0.0
Fix,GPS,37.4244050000,-122.1712316667,14.400000000000002,0.157505,1.8,300.55,1732146103000,1.9,179.9,24987044000000,33.0,0,,,
Raw,1732146103000,8554000000,,690812.5441401198,-1416181312446000128,0.0,85.15398506607887,1892.970254390054,0.0,0,17,0.0,16431,344520928485306,51,37.85599899291992,51.60888914847099,0.14999,16,0.0,0.0,1575420030,,,,0,25.498664804076256,1,6.0,37.85599899291992,0.0,0.0,0.0,66.7128,C,24987044000000,
Raw,1732146103000,8554000000,,690812.5441401198,-1416181312446000128,0.0,85.15398506607887,1892.970254390054,0.0,0,30,0.0,16431,344520931842675,51,36.93299865722656,629.5240369667546,0.14999,16,0.0,0.0,1575420030,,,,0,24.487721424616318,1,6.0,36.93299865722656,0.0,0.0,0.0,66.7128,C,24987044000000,
Raw,1732146103000,8554000000,,690812.5441401198,-1416181312446000128,0.0,85.15398506607887,1892.970254390054,0.0,0,14,0.0,16431,344520932622602,42,40.599998474121094,531.0774915562187,0.14999,16,0.0,0.0,1575420030,,,,0,28.437187340763433,1,6.0,40.599998474121094,0.0,0.0,0.0,66.7128,C,24987044000000,
Raw,1732146103000,8554000000,,690812.5441401198,-1416181312446000128,0.0,85.15398506607887,1892.970254390054,0.0,0,22,0.0,16431,344520930238893,235,31.56800079345703,382.24855918516994,0.14999,16,0.0,0.0,1575420030,,,,0,18.425140329379726,1,6.0,31.56800079345703,0.0,0.0,0.0,66.7128,C,24987044000000,
Raw,1732146103000,8554000000,,690812.5441401198,-1416181312446000128,0.0,85.15398506607887,1892.970254390054,0.0,0,13,0.0,16431,344520929435404,58,33.95399856567383,224.5766854141912,0.14999,16,0.0,0.0,1575420030,,,,0,21.17281145063088,1,6.0,33.95399856567383,0.0,0.0,0.0,66.7128,C,24987044000000,
Raw,1732146103000,8554000000,,690812.5441401198,-1416181312446000128,0.0,85.15398506607887,1892.970254390054,0.0,0,19,0.0,16431,344520919638011,58,34.41999816894531,-132.8356690489871,0.14999,16,0.0,0.0,1575420030,,,,0,21.70804582084951,1,6.0,34.41999816894531,0.0,0.0,0.0,66.7128,C,24987044000000,
Raw,1732146103000,8554000000,,690812.5441401198,-1416181312446000128,0.0,85.15398506607887,1892.970254390054,0.0,0,19,0.0,16431,344520919727994,316,23.799999237060547,349.9360570637055,0.14999,16,0.0,0.0,1575420030,,,,0,9.515580864895774,6,6.0,23.799999237060547,0.0,0.0,18.26143536340929,66.7128,C,24987044000000,
Raw,1732146103000,8554000000,,690812.5441401198,-1416181312446000128,0.0,85.15398506607887,1892.970254390054,0.0,0,27,0.0,16431,344520920165925,51,34.5,805.0417498646063,0.14999,16,0.0,0.0,1575420030,,,,0,21.868053575815118,6,6.0,34.5,0.0,0.0,18.26143536340929,66.7128,C,24987044000000,
Raw,1732146103000,8554000000,,690812.5441401198,-1416181312446000128,0.0,85.15398506607887,1892.970254390054,0.0,0,8,0.0,17,881914,235,5.0,320.022222022506,0.14999,16,0.0,0.0,1605374980,,,,0,13.830411599568764,3,6.0,27.0,0.0,0.0,36.660379398679694,66.7128,C,24987044000000,
Raw,1732146103000,8554000000,,690812.5441401198,-1416181312446000128,0.0,85.15398506607887,1892.970254390054,0.0,0,19,0.0,17,883655,316,5.0,225.8957866229363,0.14999,16,0.0,0.0,1603687550,,,,0,13.602493840868778,3,6.0,26.0,0.0,0.0,36.660379398679694,66.7128,C,24987044000000,
Raw,1732146103000,8554000000,,690812.5441401198,-1416181312446000128,0.0,85.15398506607887,1892.970254390054,0.0,0,9,0.0,17,662085,74,5.0,682.457899696882,0.14999,16,0.0,0.0,1600875010,,,,0,18.648773825478727,3,6.0,32.0,0.0,0.0,36.660379398679694,66.7128,C,24987044000000,
Raw,1732146103000,8554000000,,690812.5441401198,-1416181312446000128,0.0,85.15398506607887,1892.970254390054,0.0,0,2,0.0,16431,344520919726308,487,23.80299949645996,321.7305950812932,0.14999,16,0.0,0.0,1575420030,,,,0,8.308663817472492,1,6.0,23.80299949645996,0.0,0.0,0.0,66.7128,C,24987044000000,
Raw,1732146103000,8554000000,,690812.5441401198,-1416181312446000128,0.0,85.15398506607887,1892.970254390054,0.0,0,5,0.0,16431,344520916976450,797,12.800000190734863,987.7973587991465,0.14999,16,0.0,0.0,1575420030,,,,0,0.0,1,6.0,12.800000190734863,0.0,0.0,0.0,66.7128,C,24987044000000,
Raw,1732146103000,8554000000,,690812.5441401198,-1416181312446000128,0.0,85.15398506607887,1892.970254390054,0.0,0,15,0.0,16431,344520921518913,235,28.680999755859375,50.90801748151881,0.14999,16,0.0,0.0,1575420030,,,,0,14.903315148266103,1,6.0,28.680999755859375,0.0,0.0,0.0,66.7128,C,24987044000000,
Raw,1732146103000,8554000000,,690812.5441401198,-1416181312446000128,0.0,85.15398506607887,1892.970254390054,0.0,0,7,0.0,16431,344520926916802,58,33.650001525878906,898.958646153031,0.14999,16,0.0,0.0,1575420030,,,,0,20.835088535091202,1,6.0,33.650001525878906,0.0,0.0,0.0,66.7128,C,24987044000000,
Fix,FLP,37.4244049000,-122.1712291000,2.200000047683716,0.22341968,1.7,284.82748,1732146103196,1.9,179.9,24987044000000,1.0252013,0,,,
Status,1732146103000,28,0,1,14,1575420030,44.10,312.0,74.0,1,0,0,39.1
Status,1732146103000,28,1,1,30,1575420030,42.00,68.0,71.0,1,0,0,37.0
Status,1732146103000,28,2,1,22,1575420030,38.60,267.0,58.0,1,0,0,33.6
Status,1732146103000,28,3,1,13,1575420030,42.60,305.0,46.0,1,0,0,37.6
Status,1732146103000,28,4,1,17,1575420030,41.60,176.0,42.0,1,0,0,36.6
Status,1732146103000,28,5,1,7,1575420030,40.70,101.0,39.0,1,0,0,35.7
Status,1732146103000,28,6,2,131,1575420030,44.00,3.0,23.0,0,0,0,39.0
Status,1732146103000,28,7,1,15,1575420030,40.60,317.0,16.0,1,0,0,35.6
Status,1732146103000,28,8,1,2,1575420030,23.60,89.0,15.0,1,0,0,18.6
Status,1732146103000,28,9,1,19,1575420030,44.40,193.0,15.0,1,0,0,39.4
Status,1732146103000,28,10,1,21,1575420030,0.00,71.0,13.0,0,0,0,0.0
Status,1732146103000,28,11,1,8,1575420030,21.80,40.0,11.0,1,0,0,16.8
Status,1732146103000,28,12,1,5,1575420030,25.90,264.0,8.0,1,0,0,20.9
Status,1732146103000,28,13,1,9,1575420030,0.00,159.0,3.0,0,0,0,0.0
Status,1732146103000,28,14,3,9,1602000000,36.40,13.0,54.0,1,0,0,31.400002
Status,1732146103000,28,15,3,8,1602000000,29.60,306.0,38.0,1,0,0,24.6
Status,1732146103000,28,16,3,19,1602000000,31.60,89.0,31.0,1,0,0,26.6
Status,1732146103000,28,17,3,16,1602000000,0.00,65.0,16.0,0,0,0,0.0
Status,1732146103000,28,18,3,20,1602000000,0.00,151.0,8.0,0,0,0,0.0
Status,1732146103000,28,19,3,17,1602000000,35.80,0.0,0.0,0,0,0,30.8
Status,1732146103000,28,20,6,29,1575420030,0.00,206.0,63.0,0,0,0,0.0
Status,1732146103000,28,21,6,27,1575420030,42.60,35.0,60.0,1,0,0,37.6
Status,1732146103000,28,22,6,21,1575420030,38.60,265.0,56.0,1,0,0,33.6
Status,1732146103000,28,23,6,19,1575420030,26.00,300.0,49.0,1,0,0,21.0
Status,1732146103000,28,24,6,7,1575420030,0.00,160.0,18.0,0,0,0,0.0
Status,1732146103000,28,25,6,30,1575420030,0.00,57.0,12.0,0,0,0,0.0
Status,1732146103000,28,26,6,15,1575420030,0.00,96.0,9.0,0,0,0,0.0
Status,1732146103000,28,27,6,34,1575420030,0.00,49.0,6.0,0,0,0,0.0
Fix,GPS,37.4244083333,-122.1712233333,14.2,0.24912556,1.8,92.37,1732146104000,1.5,179.9,24988044000000,29.9,0,,,
Fix,FLP,37.4244068000,-122.1712274000,2.200000047683716,0.19824445,1.716,285.19037,1732146104196,1.5,179.9,24988044000000,1.0352045,0,,,
Raw,1732146104000,9554000000,,76.53325856590973,-1416181312446000128,0.0,76.53325856590973,1894.1727907035258,0.0,0,17,0.0,16431,344521928485132,51,36.573001861572266,51.43262591736821,0.14999,16,0.0,0.0,1575420030,,,,0,24.093619386541004,1,6.0,36.573001861572266,0.0,0.0,0.0,66.7128,C,24988044000000,
Raw,1732146104000,9554000000,,76.53325856590973,-1416181312446000128,0.0,76.53325856590973,1894.1727907035258,0.0,0,30,0.0,16431,344521931840573,51,37.00199890136719,629.7653419805521,0.14999,16,0.0,0.0,1575420030,,,,0,26.005485448749187,1,6.0,37.00199890136719,0.0,0.0,0.0,66.7128,C,24988044000000,
Raw,1732146104000,9554000000,,76.53325856590973,-1416181312446000128,0.0,76.53325856590973,1894.1727907035258,0.0,0,14,0.0,16431,344521932620827,42,39.111000061035156,531.2218378553848,0.14999,16,0.0,0.0,1575420030,,,,0,26.849308800902193,1,6.0,39.111000061035156,0.0,0.0,0.0,66.7128,C,24988044000000,
Raw,1732146104000,9554000000,,76.53325856590973,-1416181312446000128,0.0,76.53325856590973,1894.1727907035258,0.0,0,22,0.0,16431,344521930237615,58,33.555999755859375,382.0789627367934,0.14999,16,0.0,0.0,1575420030,,,,0,20.719531757912005,1,6.0,33.555999755859375,0.0,0.0,0.0,66.7128,C,24988044000000,
Raw,1732146104000,9554000000,,76.53325856590973,-1416181312446000128,0.0,76.53325856590973,1894.1727907035258,0.0,0,13,0.0,16431,344521929434655,51,37.571998596191406,225.58153449840893,0.14999,16,0.0,0.0,1575420030,,,,0,25.187472521496343,1,6.0,37.571998596191406,0.0,0.0,0.0,66.7128,C,24988044000000,
Raw,1732146104000,9554000000,,76.53325856590973,-1416181312446000128,0.0,76.53325856590973,1894.1727907035258,0.0,0,19,0.0,16431,344521919638457,42,39.37099838256836,-132.90298729407618,0.14999,16,0.0,0.0,1575420030,,,,0,27.12567278165747,1,6.0,39.37099838256836,0.0,0.0,0.0,66.7128,C,24988044000000,
Raw,1732146104000,9554000000,,76.53325856590973,-1416181312446000128,0.0,76.53325856590973,1894.1727907035258,0.0,0,19,0.0,16431,344521919726825,316,21.0,350.4579012237904,0.14999,16,0.0,0.0,1575420030,,,,0,5.755771217787995,6,6.0,21.0,0.0,0.0,20.97305118418113,66.7128,C,24988044000000,
Raw,1732146104000,9554000000,,76.53325856590973,-1416181312446000128,0.0,76.53325856590973,1894.1727907035258,0.0,0,21,0.0,16431,344521919359312,58,33.599998474121094,376.02236484909037,0.14999,16,0.0,0.0,1575420030,,,,0,20.986810989071635,6,6.0,33.599998474121094,0.0,0.0,20.97305118418113,66.7128,C,24988044000000,
Raw,1732146104000,9554000000,,76.53325856590973,-1416181312446000128,0.0,76.53325856590973,1894.1727907035258,0.0,0,27,0.0,16431,344521920163239,42,37.599998474121094,805.2873290526953,0.14999,16,0.0,0.0,1575420030,,,,0,25.218328289781972,6,6.0,37.599998474121094,0.0,0.0,20.97305118418113,66.7128,C,24988044000000,
Raw,1732146104000,9554000000,,76.53325856590973,-1416181312446000128,0.0,76.53325856590973,1894.1727907035258,0.0,0,8,0.0,17,880843,316,5.0,319.9476798550756,0.14999,16,0.0,0.0,1605374980,,,,0,10.587761414502765,3,6.0,25.0,0.0,0.0,39.13857860008527,66.7128,C,24988044000000,
Raw,1732146104000,9554000000,,76.53325856590973,-1416181312446000128,0.0,76.53325856590973,1894.1727907035258,0.0,0,19,0.0,17,882899,316,5.0,226.15360423737621,0.14999,16,0.0,0.0,1603687550,,,,0,13.003229373319913,3,6.0,26.0,0.0,0.0,39.13857860008527,66.7128,C,24988044000000,
Raw,1732146104000,9554000000,,76.53325856590973,-1416181312446000128,0.0,76.53325856590973,1894.1727907035258,0.0,0,9,0.0,17,659803,74,5.0,682.7834696509077,0.14999,16,0.0,0.0,1600875010,,,,0,17.13228864257874,3,6.0,30.0,0.0,0.0,39.13857860008527,66.7128,C,24988044000000,
Raw,1732146104000,9554000000,,76.53325856590973,-1416181312446000128,0.0,76.53325856590973,1894.1727907035258,0.0,0,2,0.0,16431,344521919725202,487,18.6299991607666,321.26257299638826,0.14999,16,0.0,0.0,1575420030,,,,0,0.0,1,6.0,18.6299991607666,0.0,0.0,0.0,66.7128,C,24988044000000,
Raw,1732146104000,9554000000,,76.53325856590973,-1416181312446000128,0.0,76.53325856590973,1894.1727907035258,0.0,0,5,0.0,16431,344521916973210,487,20.856000900268555,988.2669604702027,0.14999,16,0.0,0.0,1575420030,,,,0,3.634703368829472,1,6.0,20.856000900268555,0.0,0.0,0.0,66.7128,C,24988044000000,
Raw,1732146104000,9554000000,,76.53325856590973,-1416181312446000128,0.0,76.53325856590973,1894.1727907035258,0.0,0,15,0.0,16431,344521921518742,51,35.617000579833984,50.342897306733825,0.14999,16,0.0,0.0,1575420030,,,,0,23.04203661495755,1,6.0,35.617000579833984,0.0,0.0,0.0,66.7128,C,24988044000000,
Raw,1732146104000,9554000000,,76.53325856590973,-1416181312446000128,0.0,76.53325856590973,1894.1727907035258,0.0,0,7,0.0,16431,344521926913819,51,35.71500015258789,899.3755639801044,0.14999,16,0.0,0.0,1575420030,,,,0,23.150181516239773,1,6.0,35.71500015258789,0.0,0.0,0.0,66.7128,C,24988044000000,
Raw,1732146104000,9554000000,,76.53325856590973,-1416181312446000128,0.0,76.53325856590973,1894.1727907035258,0.0,0,8,0.0,16431,344521918828588,797,16.763999938964844,1235.2510510653149,0.14999,16,0.0,0.0,1575420030,,,,0,0.0,1,6.0,16.763999938964844,0.0,0.0,0.0,66.7128,C,24988044000000,
Fix,NLP,37.4242232000,-122.1710998000,2.0999999046325684,,23.56,,1732146104260,,,24988108000000,1.0,0,,,
Status,1732146104000,28,0,1,14,1575420030,45.70,312.0,74.0,1,0,0,40.7
Status,1732146104000,28,1,1,30,1575420030,46.20,68.0,71.0,1,0,0,41.2
Status,1732146104000,28,2,1,22,1575420030,39.80,267.0,58.0,1,0,0,34.8
Status,1732146104000,28,3,1,13,1575420030,44.30,305.0,46.0,1,0,0,39.3
Status,1732146104000,28,4,1,17,1575420030,39.00,176.0,42.0,1,0,0,34.0
Status,1732146104000,28,5,1,7,1575420030,35.40,101.0,39.0,1,0,0,30.400002
Status,1732146104000,28,6,2,131,1575420030,45.00,3.0,23.0,0,0,0,40.0
Status,1732146104000,28,7,1,15,1575420030,44.30,317.0,16.0,1,0,0,39.3
Status,1732146104000,28,8,1,2,1575420030,0.00,89.0,15.0,0,0,0,0.0
Status,1732146104000,28,9,1,19,1575420030,45.90,193.0,15.0,1,0,0,40.9
Status,1732146104000,28,10,1,21,1575420030,0.00,71.0,13.0,0,0,0,0.0
Status,1732146104000,28,11,1,8,1575420030,21.80,40.0,11.0,1,0,0,16.8
Status,1732146104000,28,12,1,5,1575420030,0.00,264.0,8.0,0,0,0,0.0
Status,1732146104000,28,13,1,9,1575420030,0.00,159.0,3.0,0,0,0,0.0
Status,1732146104000,28,14,3,9,1602000000,36.30,13.0,54.0,1,0,0,31.3
Status,1732146104000,28,15,3,8,1602000000,31.60,306.0,38.0,1,0,0,26.6
Status,1732146104000,28,16,3,19,1602000000,29.30,89.0,31.0,1,0,0,24.3
Status,1732146104000,28,17,3,16,1602000000,0.00,65.0,16.0,0,0,0,0.0
Status,1732146104000,28,18,3,20,1602000000,0.00,151.0,8.0,0,0,0,0.0
Status,1732146104000,28,19,3,17,1602000000,46.90,0.0,0.0,0,0,0,41.9
Status,1732146104000,28,20,6,29,1575420030,0.00,206.0,63.0,0,0,0,0.0
Status,1732146104000,28,21,6,27,1575420030,42.50,35.0,60.0,1,0,0,37.5
Status,1732146104000,28,22,6,21,1575420030,38.80,265.0,56.0,1,0,0,33.8
Status,1732146104000,28,23,6,19,1575420030,33.50,300.0,49.0,1,0,0,28.5
Status,1732146104000,28,24,6,7,1575420030,0.00,160.0,18.0,0,0,0,0.0
Status,1732146104000,28,25,6,30,1575420030,0.00,57.0,12.0,0,0,0,0.0
Status,1732146104000,28,26,6,15,1575420030,0.00,96.0,9.0,0,0,0,0.0
Status,1732146104000,28,27,6,34,1575420030,0.00,49.0,6.0,0,0,0,0.0
Fix,GPS,37.4244116667,-122.1712216667,14.000000000000004,0.22184528,1.7,69.96,1732146105000,1.1,165.6,24989044000000,30.4,0,,,
Raw,1732146105000,10554000000,,77.68681997408153,-1416181312446000128,0.0,77.68681997408153,1893.5577314222421,0.0,0,17,0.0,16431,344522928484960,58,33.9739990234375,51.791749474675676,0.14999,16,0.0,0.0,1575420030,,,,0,21.197313271217006,1,6.0,33.9739990234375,0.0,0.0,0.0,66.7128,C,24989044000000,
Raw,1732146105000,10554000000,,77.68681997408153,-1416181312446000128,0.0,77.68681997408153,1893.5577314222421,0.0,0,30,0.0,16431,344522931838470,42,41.16299819946289,629.81783999087,0.14999,16,0.0,0.0,1575420030,,,,0,29.032907270561385,1,6.0,41.16299819946289,0.0,0.0,0.0,66.7128,C,24989044000000,
Raw,1732146105000,10554000000,,77.68681997408153,-1416181312446000128,0.0,77.68681997408153,1893.5577314222421,0.0,0,14,0.0,16431,344522932619055,42,40.65999984741211,531.384302936873,0.14999,16,0.0,0.0,1575420030,,,,0,28.50074291436052,1,6.0,40.65999984741211,0.0,0.0,0.0,66.7128,C,24989044000000,
Raw,1732146105000,10554000000,,77.68681997408153,-1416181312446000128,0.0,77.68681997408153,1893.5577314222421,0.0,0,22,0.0,16431,344522930236342,58,34.79899978637695,381.8721995554484,0.14999,16,0.0,0.0,1575420030,,,,0,22.124688122644326,1,6.0,34.79899978637695,0.0,0.0,0.0,66.7128,C,24989044000000,
Raw,1732146105000,10554000000,,77.68681997408153,-1416181312446000128,0.0,77.68681997408153,1893.5577314222421,0.0,0,13,0.0,16431,344522929433901,42,39.323001861572266,225.80776375614613,0.14999,16,0.0,0.0,1575420030,,,,0,27.076074419119138,1,6.0,39.323001861572266,0.0,0.0,0.0,66.7128,C,24989044000000,
Raw,1732146105000,10554000000,,77.68681997408153,-1416181312446000128,0.0,77.68681997408153,1893.5577314222421,0.0,0,19,0.0,16431,344522919638900,42,40.935001373291016,-132.89490352965555,0.14999,16,0.0,0.0,1575420030,,,,0,28.79133741180688,1,6.0,40.935001373291016,0.0,0.0,0.0,66.7128,C,24989044000000,
Raw,1732146105000,10554000000,,77.68681997408153,-1416181312446000128,0.0,77.68681997408153,1893.5577314222421,0.0,0,15,0.0,16431,344522921518577,42,39.275001525878906,50.15492655474599,0.14999,16,0.0,0.0,1575420030,,,,0,27.02619121158781,1,6.0,39.275001525878906,0.0,0.0,0.0,66.7128,C,24989044000000,
Raw,1732146105000,10554000000,,77.68681997408153,-1416181312446000128,0.0,77.68681997408153,1893.5577314222421,0.0,0,19,0.0,16431,344522919725659,235,28.5,349.70446185889597,0.14999,16,0.0,0.0,1575420030,,,,0,15.249806829712986,6,6.0,28.5,0.0,0.0,18.62966281194211,66.7128,C,24989044000000,
Raw,1732146105000,10554000000,,77.68681997408153,-1416181312446000128,0.0,77.68681997408153,1893.5577314222421,0.0,0,7,0.0,16431,344522926910836,74,30.385000228881836,899.1048972472618,0.14999,16,0.0,0.0,1575420030,,,,0,17.00162850691749,1,6.0,30.385000228881836,0.0,0.0,0.0,66.7128,C,24989044000000,
Raw,1732146105000,10554000000,,77.68681997408153,-1416181312446000128,0.0,77.68681997408153,1893.5577314222421,0.0,0,21,0.0,16431,344522919358042,58,33.79999923706055,375.81341812218346,0.14999,17,5082.451271771085,0.00039999998989515007,1575420030,,,,0,21.111252797231977,6,6.0,33.79999923706055,0.0,0.0,18.62966281194211,66.7128,C,24989044000000,
Raw,1732146105000,10554000000,,77.68681997408153,-1416181312446000128,0.0,77.68681997408153,1893.5577314222421,0.0,0,27,0.0,16431,344522920160559,51,37.54499816894531,805.1075349819605,0.14999,17,8105.646703432506,0.00022499999613501132,1575420030,,,,0,24.07607212877909,6,6.0,37.54499816894531,0.0,0.0,18.62966281194211,66.7128,C,24989044000000,
Raw,1732146105000,10554000000,,77.68681997408153,-1416181312446000128,0.0,77.68681997408153,1893.5577314222421,0.0,0,8,0.0,17,879781,235,5.0,320.2450278770824,0.14999,16,0.0,0.0,1605374980,,,,0,13.00692156875832,3,6.0,27.0,0.0,0.0,40.12679666302141,66.7128,C,24989044000000,
Raw,1732146105000,10554000000,,77.68681997408153,-1416181312446000128,0.0,77.68681997408153,1893.5577314222421,0.0,0,19,0.0,17,882156,316,5.0,226.58581043471133,0.14999,16,0.0,0.0,1603687550,,,,0,10.264828695491628,3,6.0,25.0,0.0,0.0,40.12679666302141,66.7128,C,24989044000000,
Raw,1732146105000,10554000000,,77.68681997408153,-1416181312446000128,0.0,77.68681997408153,1893.5577314222421,0.0,0,9,0.0,17,657518,235,5.0,682.7498199547748,0.14999,16,0.0,0.0,1600875010,,,,0,16.08817755376989,3,6.0,29.0,0.0,0.0,40.12679666302141,66.7128,C,24989044000000,
Raw,1732146105000,10554000000,,77.68681997408153,-1416181312446000128,0.0,77.68681997408153,1893.5577314222421,0.0,0,8,0.0,16431,344522918824467,797,16.763999938964844,1231.5477577923405,0.14999,16,0.0,0.0,1575420030,,,,0,0.0,1,6.0,16.763999938964844,0.0,0.0,0.0,66.7128,C,24989044000000,
Fix,FLP,37.4244095000,-122.1712250000,2.0999999046325684,0.16274899,1.756,290.7434,1732146105197,1.1,165.6,24989044000000,0.8160046,0,,,
Status,1732146105000,28,0,1,14,1575420030,48.80,312.0,74.0,1,0,0,43.8
Status,1732146105000,28,1,1,30,1575420030,46.10,68.0,71.0,1,0,0,41.1
Status,1732146105000,28,2,1,22,1575420030,42.10,267.0,58.0,1,0,0,37.1
Status,1732146105000,28,3,1,13,1575420030,44.20,305.0,46.0,1,0,0,39.2
Status,1732146105000,28,4,1,17,1575420030,37.80,176.0,42.0,1,0,0,32.8
Status,1732146105000,28,5,1,7,1575420030,39.10,101.0,39.0,1,0,0,34.1
Status,1732146105000,28,6,2,131,1575420030,37.00,3.0,23.0,0,0,0,32.0
Status,1732146105000,28,7,1,15,1575420030,43.60,317.0,16.0,1,0,0,38.6
Status,1732146105000,28,8,1,2,1575420030,0.00,89.0,15.0,0,0,0,0.0
Status,1732146105000,28,9,1,19,1575420030,44.10,193.0,15.0,1,0,0,39.1
Status,1732146105000,28,10,1,21,1575420030,0.00,71.0,13.0,0,0,0,0.0
Status,1732146105000,28,11,1,8,1575420030,0.00,40.0,11.0,0,0,0,0.0
Status,1732146105000,28,12,1,5,1575420030,0.00,264.0,8.0,0,0,0,0.0
Status,1732146105000,28,13,1,9,1575420030,0.00,159.0,3.0,0,0,0,0.0
Status,1732146105000,28,14,3,9,1602000000,33.50,13.0,54.0,1,0,0,28.5
Status,1732146105000,28,15,3,8,1602000000,33.70,306.0,38.0,1,0,0,28.7
Status,1732146105000,28,16,3,19,1602000000,29.50,89.0,31.0,1,0,0,24.5
Status,1732146105000,28,17,3,16,1602000000,0.00,65.0,16.0,0,0,0,0.0
Status,1732146105000,28,18,3,20,1602000000,0.00,151.0,8.0,0,0,0,0.0
Status,1732146105000,28,19,3,17,1602000000,40.70,0.0,0.0,0,0,0,35.7
Status,1732146105000,28,20,6,29,1575420030,0.00,206.0,63.0,0,0,0,0.0
Status,1732146105000,28,21,6,27,1575420030,42.50,35.0,60.0,1,0,0,37.5
Status,1732146105000,28,22,6,21,1575420030,37.40,265.0,56.0,1,0,0,32.4
Status,1732146105000,28,23,6,19,1575420030,36.70,300.0,49.0,1,0,0,31.7
Status,1732146105000,28,24,6,7,1575420030,0.00,160.0,18.0,0,0,0,0.0
Status,1732146105000,28,25,6,30,1575420030,0.00,57.0,12.0,0,0,0,0.0
Status,1732146105000,28,26,6,15,1575420030,0.00,96.0,9.0,0,0,0,0.0
Status,1732146105000,28,27,6,34,1575420030,0.00,49.0,6.0,0,0,0,0.0
Fix,GPS,37.4244116667,-122.1712200000,13.900000000000002,0.28670028,1.7,62.07,1732146106000,0.9,111.4,24990044000000,29.2,0,,,
Fix,FLP,37.4244109000,-122.1712231000,2.0999999046325684,0.11913715,1.756,305.8388,1732146106196,0.9,111.4,24990044000000,0.82600486,0,,,
Raw,1732146106000,11554000000,,75.01262192358126,-1416181312446000128,0.0,75.01262192358126,1893.9019897385404,0.0,0,17,0.0,16431,344523928484786,58,32.79399871826172,51.65404672902764,0.14999,16,0.0,0.0,1575420030,,,,0,19.850217882290195,1,6.0,32.79399871826172,0.0,0.0,0.0,66.7128,C,24990044000000,
Raw,1732146106000,11554000000,,75.01262192358126,-1416181312446000128,0.0,75.01262192358126,1893.9019897385404,0.0,0,30,0.0,16431,344523931836367,42,41.05699920654297,630.0407474718481,0.14999,16,0.0,0.0,1575420030,,,,0,26.78525327727611,1,6.0,41.05699920654297,0.0,0.0,0.0,66.7128,C,24990044000000,
Raw,1732146106000,11554000000,,75.01262192358126,-1416181312446000128,0.0,75.01262192358126,1893.9019897385404,0.0,0,14,0.0,16431,344523932617281,31,43.76900100708008,531.6139004297855,0.14999,16,0.0,0.0,1575420030,,,,0,31.765506977508572,1,6.0,43.76900100708008,0.0,0.0,0.0,66.7128,C,24990044000000,
Raw,1732146106000,11554000000,,75.01262192358126,-1416181312446000128,0.0,75.01262192358126,1893.9019897385404,0.0,0,22,0.0,16431,344523930235063,51,37.09400177001953,382.3647052256963,0.14999,16,0.0,0.0,1575420030,,,,0,24.6700654989852,1,6.0,37.09400177001953,0.0,0.0,0.0,66.7128,C,24990044000000,
Raw,1732146106000,11554000000,,75.01262192358126,-1416181312446000128,0.0,75.01262192358126,1893.9019897385404,0.0,0,13,0.0,16431,344523929433144,42,39.154998779296875,225.69099052700093,0.14999,16,0.0,0.0,1575420030,,,,0,26.89386824451745,1,6.0,39.154998779296875,0.0,0.0,0.0,66.7128,C,24990044000000,
Raw,1732146106000,11554000000,,75.01262192358126,-1416181312446000128,0.0,75.01262192358126,1893.9019897385404,0.0,0,19,0.0,16431,344523919639344,42,39.06700134277344,-132.4980092799689,0.14999,16,0.0,0.0,1575420030,,,,0,26.804519583818006,1,6.0,39.06700134277344,0.0,0.0,0.0,66.7128,C,24990044000000,
Raw,1732146106000,11554000000,,75.01262192358126,-1416181312446000128,0.0,75.01262192358126,1893.9019897385404,0.0,0,15,0.0,16431,344523921518404,42,38.64899826049805,50.340946053252985,0.14999,16,0.0,0.0,1575420030,,,,0,26.350208850181765,1,6.0,38.64899826049805,0.0,0.0,0.0,66.7128,C,24990044000000,
Raw,1732146106000,11554000000,,75.01262192358126,-1416181312446000128,0.0,75.01262192358126,1893.9019897385404,0.0,0,19,0.0,16431,344523919724493,58,31.700000762939453,349.8872060390601,0.14999,16,0.0,0.0,1575420030,,,,0,18.85213202760324,6,6.0,31.700000762939453,0.0,0.0,15.03590640836727,66.7128,C,24990044000000,
Raw,1732146106000,11554000000,,75.01262192358126,-1416181312446000128,0.0,75.01262192358126,1893.9019897385404,0.0,0,7,0.0,16431,344523926907834,58,34.141998291015625,899.3326364035258,0.14999,16,0.0,0.0,1575420030,,,,0,21.390878710837374,1,6.0,34.141998291015625,0.0,0.0,0.0,66.7128,C,24990044000000,
Raw,1732146106000,11554000000,,75.01262192358126,-1416181312446000128,0.0,75.01262192358126,1893.9019897385404,0.0,0,21,0.0,16431,344523919356776,58,32.400001525878906,376.0859896500907,0.14999,16,0.0,0.0,1575420030,,,,0,19.603895914460608,6,6.0,32.400001525878906,0.0,0.0,15.03590640836727,66.7128,C,24990044000000,
Raw,1732146106000,11554000000,,75.01262192358126,-1416181312446000128,0.0,75.01262192358126,1893.9019897385404,0.0,0,27,0.0,16431,344523920157871,51,37.53200149536133,805.2166193432229,0.14999,16,0.0,0.0,1575420030,,,,0,24.848660175901706,6,6.0,37.53200149536133,0.0,0.0,15.03590640836727,66.7128,C,24990044000000,
Raw,1732146106000,11554000000,,75.01262192358126,-1416181312446000128,0.0,75.01262192358126,1893.9019897385404,0.0,0,8,0.0,17,878715,235,5.0,320.79914745075155,0.14999,16,0.0,0.0,1605374980,,,,0,15.457574905606752,3,6.0,29.0,0.0,0.0,40.241370742412045,66.7128,C,24990044000000,
Raw,1732146106000,11554000000,,75.01262192358126,-1416181312446000128,0.0,75.01262192358126,1893.9019897385404,0.0,0,19,0.0,17,881397,316,5.0,226.23696480964998,0.14999,16,0.0,0.0,1603687550,,,,0,10.407223517950584,3,6.0,25.0,0.0,0.0,40.241370742412045,66.7128,C,24990044000000,
Raw,1732146106000,11554000000,,75.01262192358126,-1416181312446000128,0.0,75.01262192358126,1893.9019897385404,0.0,0,16,0.0,17,625986,487,5.0,1030.4405967374466,0.14999,16,0.0,0.0,1601437440,,,,0,3.669995714229283,3,6.0,19.0,0.0,0.0,40.241370742412045,66.7128,C,24990044000000,
Raw,1732146106000,11554000000,,75.01262192358126,-1416181312446000128,0.0,75.01262192358126,1893.9019897385404,0.0,0,9,0.0,17,655236,235,5.0,682.4638432573403,0.14999,16,0.0,0.0,1600875010,,,,0,15.325768284731748,3,6.0,29.0,0.0,0.0,40.241370742412045,66.7128,C,24990044000000,
Status,1732146106000,28,0,1,14,1575420030,48.70,312.0,74.0,1,0,0,43.7
Status,1732146106000,28,1,1,30,1575420030,43.20,68.0,71.0,1,0,0,38.2
Status,1732146106000,28,2,1,22,1575420030,39.40,267.0,58.0,1,0,0,34.4
Status,1732146106000,28,3,1,13,1575420030,38.20,305.0,46.0,1,0,0,33.2
Status,1732146106000,28,4,1,17,1575420030,43.00,176.0,42.0,1,0,0,38.0
Status,1732146106000,28,5,1,7,1575420030,41.70,101.0,39.0,1,0,0,36.7
Status,1732146106000,28,6,2,131,1575420030,43.00,3.0,23.0,0,0,0,38.0
Status,1732146106000,28,7,1,15,1575420030,42.60,317.0,16.0,1,0,0,37.6
Status,1732146106000,28,8,1,2,1575420030,0.00,89.0,15.0,0,0,0,0.0
Status,1732146106000,28,9,1,19,1575420030,40.90,193.0,15.0,1,0,0,35.9
Status,1732146106000,28,10,1,21,1575420030,0.00,71.0,13.0,0,0,0,0.0
Status,1732146106000,28,11,1,8,1575420030,0.00,40.0,11.0,0,0,0,0.0
Status,1732146106000,28,12,1,5,1575420030,0.00,264.0,8.0,0,0,0,0.0
Status,1732146106000,28,13,1,9,1575420030,0.00,159.0,3.0,0,0,0,0.0
Status,1732146106000,28,14,3,9,1602000000,33.60,13.0,54.0,1,0,0,28.599998
Status,1732146106000,28,15,3,8,1602000000,32.40,306.0,38.0,1,0,0,27.400002
Status,1732146106000,28,16,3,19,1602000000,26.50,89.0,31.0,1,0,0,21.5
Status,1732146106000,28,17,3,16,1602000000,0.00,65.0,16.0,0,0,0,0.0
Status,1732146106000,28,18,3,20,1602000000,0.00,151.0,8.0,0,0,0,0.0
Status,1732146106000,28,19,3,17,1602000000,35.00,0.0,0.0,0,0,0,30.0
Status,1732146106000,28,20,6,29,1575420030,0.00,206.0,63.0,0,0,0,0.0
Status,1732146106000,28,21,6,27,1575420030,39.70,35.0,60.0,1,0,0,34.7
Status,1732146106000,28,22,6,21,1575420030,35.70,265.0,56.0,1,0,0,30.7
Status,1732146106000,28,23,6,19,1575420030,31.40,300.0,49.0,1,0,0,26.4
Status,1732146106000,28,24,6,7,1575420030,0.00,160.0,18.0,0,0,0,0.0
Status,1732146106000,28,25,6,30,1575420030,0.00,57.0,12.0,0,0,0,0.0
Status,1732146106000,28,26,6,15,1575420030,0.00,96.0,9.0,0,0,0,0.0
Status,1732146106000,28,27,6,34,1575420030,0.00,49.0,6.0,0,0,0,0.0
Fix,GPS,37.4244083333,-122.1712266667,13.7,0.1415486,1.7,74.9,1732146107000,0.9,179.9,24991044000000,29.8,0,,,
Raw,1732146107000,12554000000,,75.5217403093911,-1416181312446000128,0.0,75.5217403093911,1895.526465514659,0.0,0,17,0.0,16431,344524928484613,51,37.99399948120117,52.31199081940128,0.14999,16,0.0,0.0,1575420030,,,,0,25.646513303757953,1,6.0,37.99399948120117,0.0,0.0,0.0,66.7128,C,24991044000000,
Raw,1732146107000,12554000000,,75.5217403093911,-1416181312446000128,0.0,75.5217403093911,1895.526465514659,0.0,0,30,0.0,16431,344524931834261,51,38.24700164794922,630.8687758239686,0.14999,17,7887.123317358467,0.00022499999613501132,1575420030,,,,0,25.920675437561208,1,6.0,38.24700164794922,0.0,0.0,0.0,66.7128,C,24991044000000,
Raw,1732146107000,12554000000,,75.5217403093911,-1416181312446000128,0.0,75.5217403093911,1895.526465514659,0.0,0,14,0.0,16431,344524932615507,31,43.69300079345703,532.6195393070789,0.14999,16,0.0,0.0,1575420030,,,,0,30.17970759424955,1,6.0,43.69300079345703,0.0,0.0,0.0,66.7128,C,24991044000000,
Raw,1732146107000,12554000000,,75.5217403093911,-1416181312446000128,0.0,75.5217403093911,1895.526465514659,0.0,0,22,0.0,16431,344524930233786,58,34.36399841308594,382.9542857566161,0.14999,16,0.0,0.0,1575420030,,,,0,21.638558333143475,1,6.0,34.36399841308594,0.0,0.0,0.0,66.7128,C,24991044000000,
Raw,1732146107000,12554000000,,75.5217403093911,-1416181312446000128,0.0,75.5217403093911,1895.526465514659,0.0,0,13,0.0,16431,344524929432390,74,33.1619987487793,226.25448465721857,0.14999,16,0.0,0.0,1575420030,,,,0,20.268559871258745,1,6.0,33.1619987487793,0.0,0.0,0.0,66.7128,C,24991044000000,
Raw,1732146107000,12554000000,,75.5217403093911,-1416181312446000128,0.0,75.5217403093911,1895.526465514659,0.0,0,15,0.0,16431,344524921518235,51,37.558998107910156,51.78831155187609,0.14999,16,0.0,0.0,1575420030,,,,0,25.172003435238352,1,6.0,37.558998107910156,0.0,0.0,0.0,66.7128,C,24991044000000,
Raw,1732146107000,12554000000,,75.5217403093911,-1416181312446000128,0.0,75.5217403093911,1895.526465514659,0.0,0,19,0.0,16431,344524919723325,316,26.399999618530273,350.83941773771136,0.14999,16,0.0,0.0,1575420030,,,,0,12.831532114323615,6,6.0,26.399999618530273,0.0,0.0,13.13972519632067,66.7128,C,24991044000000,
Raw,1732146107000,12554000000,,75.5217403093911,-1416181312446000128,0.0,75.5217403093911,1895.526465514659,0.0,0,21,0.0,16431,344524919355514,74,30.700000762939453,376.7336896596899,0.14999,16,0.0,0.0,1575420030,,,,0,17.760704229077877,6,6.0,30.700000762939453,0.0,0.0,13.13972519632067,66.7128,C,24991044000000,
Raw,1732146107000,12554000000,,75.5217403093911,-1416181312446000128,0.0,75.5217403093911,1895.526465514659,0.0,0,27,0.0,16431,344524920155188,51,34.70000076293945,805.8565375681068,0.14999,16,0.0,0.0,1575420030,,,,0,22.146649928625372,6,6.0,34.70000076293945,0.0,0.0,13.13972519632067,66.7128,C,24991044000000,
Raw,1732146107000,12554000000,,75.5217403093911,-1416181312446000128,0.0,75.5217403093911,1895.526465514659,0.0,0,8,0.0,17,877638,235,5.0,321.806241767237,0.14999,16,0.0,0.0,1605374980,,,,0,14.00327082963889,3,6.0,28.0,0.0,0.0,40.7169041883659,66.7128,C,24991044000000,
Raw,1732146107000,12554000000,,75.5217403093911,-1416181312446000128,0.0,75.5217403093911,1895.526465514659,0.0,0,19,0.0,17,880641,396,5.0,225.62112802783992,0.14999,16,0.0,0.0,1603687550,,,,0,6.403157080654429,3,6.0,21.0,0.0,0.0,40.7169041883659,66.7128,C,24991044000000,
