# 
# Header Description:
# 
# Version: v3.1.0.3 Platform: 13 Manufacturer: samsung Model: SM-S135DL GNSS Hardware Model Name: MediaTek,MT6631,MTK_MNLD_default,MNL_VER_default
# 
# Raw,utcTimeMillis,TimeNanos,LeapSecond,TimeUncertaintyNanos,FullBiasNanos,BiasNanos,BiasUncertaintyNanos,DriftNanosPerSecond,DriftUncertaintyNanosPerSecond,HardwareClockDiscontinuityCount,Svid,TimeOffsetNanos,State,ReceivedSvTimeNanos,ReceivedSvTimeUncertaintyNanos,Cn0DbHz,PseudorangeRateMetersPerSecond,PseudorangeRateUncertaintyMetersPerSecond,AccumulatedDeltaRangeState,AccumulatedDeltaRangeMeters,AccumulatedDeltaRangeUncertaintyMeters,CarrierFrequencyHz,CarrierCycles,CarrierPhase,CarrierPhaseUncertainty,MultipathIndicator,SnrInDb,ConstellationType,AgcDb,BasebandCn0DbHz,FullInterSignalBiasNanos,FullInterSignalBiasUncertaintyNanos,SatelliteInterSignalBiasNanos,SatelliteInterSignalBiasUncertaintyNanos,CodeType,ChipsetElapsedRealtimeNanos,IsFullTracking
# 
# UncalAccel,utcTimeMillis,elapsedRealtimeNanos,UncalAccelXMps2,UncalAccelYMps2,UncalAccelZMps2,BiasXMps2,BiasYMps2,BiasZMps2
# 
# Accel,utcTimeMillis,elapsedRealtimeNanos,AccelXMps2,AccelYMps2,AccelZMps2
# 
# UncalGyro,utcTimeMillis,elapsedRealtimeNanos,UncalGyroXRadPerSec,UncalGyroYRadPerSec,UncalGyroZRadPerSec,DriftXRadPerSec,DriftYRadPerSec,DriftZRadPerSec
# 
# Gyro,utcTimeMillis,elapsedRealtimeNanos,GyroXRadPerSec,GyroYRadPerSec,GyroZRadPerSec
# 
# UncalMag,utcTimeMillis,elapsedRealtimeNanos,UncalMagXMicroT,UncalMagYMicroT,UncalMagZMicroT,BiasXMicroT,BiasYMicroT,BiasZMicroT
# 
# Mag,utcTimeMillis,elapsedRealtimeNanos,MagXMicroT,MagYMicroT,MagZMicroT
# 
# Pressure,utcTimeMillis,elapsedRealtimeNanos,PressureHpa
# 
# OrientationDeg,utcTimeMillis,elapsedRealtimeNanos,yawDeg,rollDeg,pitchDeg
# 
# Fix,Provider,LatitudeDegrees,LongitudeDegrees,AltitudeMeters,SpeedMps,AccuracyMeters,BearingDegrees,UnixTimeMillis,SpeedAccuracyMps,BearingAccuracyDegrees,elapsedRealtimeNanos,VerticalAccuracyMeters,MockLocation,NumberOfUsedSignals,VerticalSpeedAccuracyMps,SolutionType
# 
# Nav,Svid,Type,Status,MessageId,Sub-messageId,Data(Bytes)
# 
# Status,UnixTimeMillis,SignalCount,SignalIndex,ConstellationType,Svid,CarrierFrequencyHz,Cn0DbHz,AzimuthDegrees,ElevationDegrees,UsedInFix,HasAlmanacData,HasEphemerisData,BasebandCn0DbHz
# 
# Agc,utcTimeMillis,TimeNanos,LeapSecond,TimeUncertaintyNanos,FullBiasNanos,BiasNanos,BiasUncertaintyNanos,DriftNanosPerSecond,DriftUncertaintyNanosPerSecond,HardwareClockDiscontinuityCount,AgcDb,CarrierFrequencyHz,ConstellationType
# 
Fix,FLP,37.4243783000,-122.1712763000,2.299999952316284,0.43217793,3.881,238.6052,1732146045195,1.7,85.8,24929043000000,0.85123944,0,,,
Status,,28,0,1,14,1575420030,47.80,310.0,73.0,1,0,0,42.8
Status,,28,1,1,30,1575420030,48.40,66.0,71.0,1,0,0,43.4
Status,,28,2,1,22,1575420030,45.30,266.0,58.0,1,0,0,40.3
Status,,28,3,1,13,1575420030,43.20,305.0,46.0,1,0,0,38.2
Status,,28,4,1,17,1575420030,37.20,176.0,42.0,1,0,0,32.2
Status,,28,5,1,7,1575420030,41.40,101.0,40.0,1,0,0,36.4
Status,,28,6,2,131,1575420030,34.00,3.0,23.0,0,0,0,29.0
Status,,28,7,1,2,1575420030,0.00,90.0,15.0,0,0,0,0.0
Status,,28,8,1,19,1575420030,37.20,193.0,15.0,1,0,0,32.2
Status,,28,9,1,15,1575420030,38.40,317.0,15.0,1,0,0,33.4
Status,,28,10,1,21,1575420030,19.80,71.0,13.0,1,0,0,14.799999
Status,,28,11,1,8,1575420030,22.50,40.0,11.0,1,0,0,17.5
Status,,28,12,1,5,1575420030,0.00,265.0,8.0,0,0,0,0.0
Status,,28,13,1,9,1575420030,21.90,159.0,3.0,0,0,0,16.9
Status,,28,14,3,9,1602000000,40.70,12.0,55.0,1,0,0,35.7
Status,,28,15,3,8,1602000000,30.00,307.0,38.0,1,0,0,25.0
Status,,28,16,3,19,1602000000,21.00,90.0,31.0,1,0,0,16.0
Status,,28,17,3,16,1602000000,0.00,65.0,16.0,0,0,0,0.0
Status,,28,18,3,20,1602000000,0.00,151.0,7.0,0,0,0,0.0
Status,,28,19,3,17,1602000000,46.30,0.0,0.0,0,0,0,41.3
Status,,28,20,6,29,1575420030,0.00,206.0,63.0,0,0,0,0.0
Status,,28,21,6,27,1575420030,41.70,34.0,61.0,1,0,0,36.7
Status,,28,22,6,21,1575420030,0.00,265.0,56.0,0,0,0,0.0
Status,,28,23,6,19,1575420030,35.60,300.0,49.0,1,0,0,30.599998
Status,,28,24,6,7,1575420030,27.50,160.0,19.0,1,0,0,22.5
Status,,28,25,6,30,1575420030,0.00,57.0,12.0,0,0,0,0.0
Status,,28,26,6,15,1575420030,0.00,97.0,9.0,0,0,0,0.0
Status,,28,27,6,34,1575420030,0.00,49.0,6.0,0,0,0,0.0
Fix,GPS,37.4243650000,-122.1712633333,15.400000000000002,0.41023362,1.8,146.54,1732146046000,1.8,166.6,24930043000000,36.0,0,,,
Raw,1732146046000,8753000000,,685650.6918863183,-1416181255247000064,0.0,88.6379041553187,1864.6916963996414,0.0,0,30,0.0,16431,344463931591298,31,43.387001037597656,616.8600302087564,0.14999,16,0.0,0.0,1575420030,,,,0,31.36765988136133,1,6.0,43.387001037597656,0.0,0.0,0.0,66.7128,C,24930043000000,
Raw,1732146046000,8753000000,,685650.6918863183,-1416181255247000064,0.0,88.6379041553187,1864.6916963996414,0.0,0,7,0.0,16431,344463926716730,51,36.426998138427734,887.0151165136258,0.14999,16,0.0,0.0,1575420030,,,,0,23.940191605216135,1,6.0,36.426998138427734,0.0,0.0,0.0,66.7128,C,24930043000000,
Raw,1732146046000,8753000000,,685650.6918863183,-1416181255247000064,0.0,88.6379041553187,1864.6916963996414,0.0,0,22,0.0,16431,344463929940404,42,40.347999572753906,369.2422003581163,0.14999,16,0.0,0.0,1575420030,,,,0,28.17322531266937,1,6.0,40.347999572753906,0.0,0.0,0.0,66.7128,C,24930043000000,
Raw,1732146046000,8753000000,,685650.6918863183,-1416181255247000064,0.0,88.6379041553187,1864.6916963996414,0.0,0,14,0.0,16431,344463932352510,31,42.7599983215332,518.6749063062372,0.14999,16,0.0,0.0,1575420030,,,,0,30.71601018119988,1,6.0,42.7599983215332,0.0,0.0,0.0,66.7128,C,24930043000000,
Raw,1732146046000,8753000000,,685650.6918863183,-1416181255247000064,0.0,88.6379041553187,1864.6916963996414,0.0,0,17,0.0,16431,344463928123918,235,32.231998443603516,38.75403121667989,0.14999,16,0.0,0.0,1575420030,,,,0,19.203414992569236,1,6.0,32.231998443603516,0.0,0.0,0.0,66.7128,C,24930043000000,
Raw,1732146046000,8753000000,,685650.6918863183,-1416181255247000064,0.0,88.6379041553187,1864.6916963996414,0.0,0,19,0.0,16431,344463919241994,74,32.19599914550781,-142.20061721345877,0.14999,16,0.0,0.0,1575420030,,,,0,19.15753870825517,1,6.0,32.19599914550781,0.0,0.0,0.0,66.7128,C,24930043000000,
Raw,1732146046000,8753000000,,685650.6918863183,-1416181255247000064,0.0,88.6379041553187,1864.6916963996414,0.0,0,7,0.0,16431,344463910135931,316,22.5,1139.9841661186445,0.14999,16,0.0,0.0,1575420030,,,,0,7.87211009948392,6,6.0,22.5,0.0,0.0,0.3385816414237488,66.7128,C,24930043000000,
Raw,1732146046000,8753000000,,685650.6918863183,-1416181255247000064,0.0,88.6379041553187,1864.6916963996414,0.0,0,19,0.0,16431,344463919423341,74,30.600000381469727,337.10598469696276,0.14999,16,0.0,0.0,1575420030,,,,0,17.61826475953308,6,6.0,30.600000381469727,0.0,0.0,0.3385816414237488,66.7128,C,24930043000000,
Raw,1732146046000,8753000000,,685650.6918863183,-1416181255247000064,0.0,88.6379041553187,1864.6916963996414,0.0,0,27,0.0,16431,344463919948128,51,36.70000076293945,794.9569285409524,0.14999,16,0.0,0.0,1575420030,,,,0,24.25276109099051,6,6.0,36.70000076293945,0.0,0.0,0.3385816414237488,66.7128,C,24930043000000,
Raw,1732146046000,8753000000,,685650.6918863183,-1416181255247000064,0.0,88.6379041553187,1864.6916963996414,0.0,0,9,0.0,17,420931,51,5.0,671.633487390281,0.14999,16,0.0,0.0,1600875010,,,,0,23.193207535731688,3,6.0,36.0,0.0,0.0,34.121952866989666,66.7128,C,24930043000000,
Raw,1732146046000,8753000000,,685650.6918863183,-1416181255247000064,0.0,88.6379041553187,1864.6916963996414,0.0,0,8,0.0,17,571172,316,5.0,302.03517422578125,0.14999,16,0.0,0.0,1605374980,,,,0,11.137190786494102,3,6.0,25.0,0.0,0.0,34.121952866989666,66.7128,C,24930043000000,
Raw,1732146046000,8753000000,,685650.6918863183,-1416181255247000064,0.0,88.6379041553187,1864.6916963996414,0.0,0,19,0.0,17,555164,797,5.0,209.19295677527776,0.14999,16,0.0,0.0,1603687550,,,,0,0.0,3,6.0,16.0,0.0,0.0,34.121952866989666,66.7128,C,24930043000000,
Raw,1732146046000,8753000000,,685650.6918863183,-1416181255247000064,0.0,88.6379041553187,1864.6916963996414,0.0,0,15,0.0,16431,344463921157206,58,33.41400146484375,36.67385563085304,0.14999,16,0.0,0.0,1575420030,,,,0,20.569543499264412,1,6.0,33.41400146484375,0.0,0.0,0.0,66.7128,C,24930043000000,
Raw,1732146046000,8753000000,,685650.6918863183,-1416181255247000064,0.0,88.6379041553187,1864.6916963996414,0.0,0,13,0.0,16431,344463929106945,51,38.15599822998047,210.81437846776774,0.14999,16,0.0,0.0,1575420030,,,,0,25.824296099331,1,6.0,38.15599822998047,0.0,0.0,0.0,66.7128,C,24930043000000,
Raw,1732146046000,8753000000,,685650.6918863183,-1416181255247000064,0.0,88.6379041553187,1864.6916963996414,0.0,0,21,0.0,16431,344463919879825,797,14.800000190734863,497.32689239016514,0.14999,16,0.0,0.0,1575420030,,,,0,0.0,1,6.0,14.800000190734863,0.0,0.0,0.0,66.7128,C,24930043000000,
Raw,1732146046000,8753000000,,685650.6918863183,-1416181255247000064,0.0,88.6379041553187,1864.6916963996414,0.0,0,8,0.0,16431,344463918696132,797,17.4689998626709,1222.185550674425,0.14999,16,0.0,0.0,1575420030,,,,0,0.0,1,6.0,17.4689998626709,0.0,0.0,0.0,66.7128,C,24930043000000,
Raw,1732146046000,8753000000,,685650.6918863183,-1416181255247000064,0.0,88.6379041553187,1864.6916963996414,0.0,0,9,0.0,16431,344463915684070,487,16.916000366210938,1291.6435774973202,0.14999,16,0.0,0.0,1575420030,,,,0,0.0,1,6.0,16.916000366210938,0.0,0.0,0.0,66.7128,C,24930043000000,
Fix,FLP,37.4243707000,-122.1712708000,2.299999952316284,0.3100068,4.164,188.93774,1732146046195,1.8,166.6,24930043000000,0.861243,0,,,
Status,1732146046000,28,0,1,14,1575420030,43.90,310.0,73.0,1,0,0,38.9
Status,1732146046000,28,1,1,30,1575420030,49.90,66.0,71.0,1,0,0,44.9
Status,1732146046000,28,2,1,22,1575420030,45.40,266.0,58.0,1,0,0,40.4
Status,1732146046000,28,3,1,13,1575420030,43.80,305.0,46.0,1,0,0,38.8
Status,1732146046000,28,4,1,17,1575420030,42.10,176.0,42.0,1,0,0,37.1
Status,1732146046000,28,5,1,7,1575420030,35.50,101.0,40.0,1,0,0,30.5
Status,1732146046000,28,6,2,131,1575420030,37.00,3.0,23.0,0,0,0,32.0
Status,1732146046000,28,7,1,2,1575420030,0.00,90.0,15.0,0,0,0,0.0
Status,1732146046000,28,8,1,19,1575420030,42.30,193.0,15.0,1,0,0,37.3
Status,1732146046000,28,9,1,15,1575420030,35.30,317.0,15.0,1,0,0,30.3
Status,1732146046000,28,10,1,21,1575420030,19.90,71.0,13.0,1,0,0,14.9
Status,1732146046000,28,11,1,8,1575420030,18.90,40.0,11.0,1,0,0,13.9
Status,1732146046000,28,12,1,5,1575420030,0.00,265.0,8.0,0,0,0,0.0
Status,1732146046000,28,13,1,9,1575420030,19.40,159.0,3.0,0,0,0,14.4
Status,1732146046000,28,14,3,9,1602000000,43.00,12.0,55.0,1,0,0,38.0
Status,1732146046000,28,15,3,8,1602000000,33.50,307.0,38.0,1,0,0,28.5
Status,1732146046000,28,16,3,19,1602000000,24.70,90.0,31.0,1,0,0,19.7
Status,1732146046000,28,17,3,16,1602000000,23.70,65.0,16.0,1,0,0,18.7
Status,1732146046000,28,18,3,20,1602000000,0.00,151.0,7.0,0,0,0,0.0
Status,1732146046000,28,19,3,17,1602000000,45.60,0.0,0.0,0,0,0,40.6
Status,1732146046000,28,20,6,29,1575420030,0.00,206.0,63.0,0,0,0,0.0
Status,1732146046000,28,21,6,27,1575420030,41.30,34.0,61.0,1,0,0,36.3
Status,1732146046000,28,22,6,21,1575420030,0.00,265.0,56.0,0,0,0,0.0
Status,1732146046000,28,23,6,19,1575420030,38.40,300.0,49.0,1,0,0,33.4
Status,1732146046000,28,24,6,7,1575420030,31.80,160.0,19.0,1,0,0,26.8
Status,1732146046000,28,25,6,30,1575420030,0.00,57.0,12.0,0,0,0,0.0
Status,1732146046000,28,26,6,15,1575420030,0.00,97.0,9.0,0,0,0,0.0
Status,1732146046000,28,27,6,34,1575420030,0.00,49.0,6.0,0,0,0,0.0
Fix,GPS,37.4243650000,-122.1712566667,15.400000000000002,0.42773417,1.8,129.02,1732146047000,2.2,179.9,24931043000000,35.0,0,,,
Raw,1732146047000,9753000000,,683867.843916874,-1416181255247000064,0.0,87.14530586152269,1865.3649085828192,0.0,0,30,0.0,16431,344464931589241,28,44.91999816894531,616.3436913709925,0.14999,16,0.0,0.0,1575420030,,,,0,32.96349398043856,1,6.0,44.91999816894531,0.0,0.0,0.0,66.7128,C,24931043000000,
Raw,1732146047000,9753000000,,683867.843916874,-1416181255247000064,0.0,87.14530586152269,1865.3649085828192,0.0,0,7,0.0,16431,344464926713775,74,30.511999130249023,886.565677795205,0.14999,16,0.0,0.0,1575420030,,,,0,17.167436330568485,1,6.0,30.511999130249023,0.0,0.0,0.0,66.7128,C,24931043000000,
Raw,1732146047000,9753000000,,683867.843916874,-1416181255247000064,0.0,87.14530586152269,1865.3649085828192,0.0,0,22,0.0,16431,344464929939173,42,40.39099884033203,368.72792891987376,0.14999,16,0.0,0.0,1575420030,,,,0,28.216560056192044,1,6.0,40.39099884033203,0.0,0.0,0.0,66.7128,C,24931043000000,
Raw,1732146047000,9753000000,,683867.843916874,-1416181255247000064,0.0,87.14530586152269,1865.3649085828192,0.0,0,14,0.0,16431,344464932350784,42,38.882999420166016,518.1681843606289,0.14999,16,0.0,0.0,1575420030,,,,0,26.606418271414682,1,6.0,38.882999420166016,0.0,0.0,0.0,66.7128,C,24931043000000,
Raw,1732146047000,9753000000,,683867.843916874,-1416181255247000064,0.0,87.14530586152269,1865.3649085828192,0.0,0,17,0.0,16431,344464928123795,51,37.0629997253418,37.188754257714436,0.14999,16,0.0,0.0,1575420030,,,,0,24.63645373975368,1,6.0,37.0629997253418,0.0,0.0,0.0,66.7128,C,24931043000000,
Raw,1732146047000,9753000000,,683867.843916874,-1416181255247000064,0.0,87.14530586152269,1865.3649085828192,0.0,0,19,0.0,16431,344464919242464,51,37.268001556396484,-142.24679687917205,0.14999,16,0.0,0.0,1575420030,,,,0,24.86196933711604,1,6.0,37.268001556396484,0.0,0.0,0.0,66.7128,C,24931043000000,
Raw,1732146047000,9753000000,,683867.843916874,-1416181255247000064,0.0,87.14530586152269,1865.3649085828192,0.0,0,7,0.0,16431,344464910132131,235,26.799999237060547,1139.3220407708118,0.14999,16,0.0,0.0,1575420030,,,,0,13.326511785535951,6,6.0,26.799999237060547,0.0,0.0,0.7752736573053389,66.7128,C,24931043000000,
Raw,1732146047000,9753000000,,683867.843916874,-1416181255247000064,0.0,87.14530586152269,1865.3649085828192,0.0,0,19,0.0,16431,344464919422221,58,33.400001525878906,336.19344848575537,0.14999,16,0.0,0.0,1575420030,,,,0,20.775593538522724,6,6.0,33.400001525878906,0.0,0.0,0.7752736573053389,66.7128,C,24931043000000,
Raw,1732146047000,9753000000,,683867.843916874,-1416181255247000064,0.0,87.14530586152269,1865.3649085828192,0.0,0,27,0.0,16431,344464919945484,51,36.29999923706055,794.2106205429463,0.14999,16,0.0,0.0,1575420030,,,,0,23.815532925369443,6,6.0,36.29999923706055,0.0,0.0,0.7752736573053389,66.7128,C,24931043000000,
Raw,1732146047000,9753000000,,683867.843916874,-1416181255247000064,0.0,87.14530586152269,1865.3649085828192,0.0,0,9,0.0,17,418691,51,5.0,671.0635913817245,0.14999,16,0.0,0.0,1600875010,,,,0,25.623241120566625,3,6.0,38.0,0.0,0.0,33.797771518557404,66.7128,C,24931043000000,
Raw,1732146047000,9753000000,,683867.843916874,-1416181255247000064,0.0,87.14530586152269,1865.3649085828192,0.0,0,8,0.0,17,570163,235,5.0,302.19800440986546,0.14999,16,0.0,0.0,1605374980,,,,0,15.2916729249891,3,6.0,29.0,0.0,0.0,33.797771518557404,66.7128,C,24931043000000,
Raw,1732146047000,9753000000,,683867.843916874,-1416181255247000064,0.0,87.14530586152269,1865.3649085828192,0.0,0,19,0.0,17,554463,487,5.0,207.67174613500563,0.14999,16,0.0,0.0,1603687550,,,,0,3.67960400020692,3,6.0,20.0,0.0,0.0,33.797771518557404,66.7128,C,24931043000000,
Raw,1732146047000,9753000000,,683867.843916874,-1416181255247000064,0.0,87.14530586152269,1865.3649085828192,0.0,0,16,0.0,17,461962,487,5.0,1036.2097668271456,0.14999,16,0.0,0.0,1601437440,,,,0,2.0467289787635234,3,6.0,20.0,0.0,0.0,33.797771518557404,66.7128,C,24931043000000,
Raw,1732146047000,9753000000,,683867.843916874,-1416181255247000064,0.0,87.14530586152269,1865.3649085828192,0.0,0,15,0.0,16431,344464921157092,74,30.27400016784668,35.57158324784181,0.14999,16,0.0,0.0,1575420030,,,,0,16.873303611140493,1,6.0,30.27400016784668,0.0,0.0,0.0,66.7128,C,24931043000000,
Raw,1732146047000,9753000000,,683867.843916874,-1416181255247000064,0.0,87.14530586152269,1865.3649085828192,0.0,0,13,0.0,16431,344464929106246,42,38.83300018310547,209.9342934602834,0.14999,16,0.0,0.0,1575420030,,,,0,26.55423101933699,1,6.0,38.83300018310547,0.0,0.0,0.0,66.7128,C,24931043000000,
Raw,1732146047000,9753000000,,683867.843916874,-1416181255247000064,0.0,87.14530586152269,1865.3649085828192,0.0,0,21,0.0,16431,344464919878148,487,14.899999618530273,498.4146232889025,0.14999,16,0.0,0.0,1575420030,,,,0,0.0,1,6.0,14.899999618530273,0.0,0.0,0.0,66.7128,C,24931043000000,
Raw,1732146047000,9753000000,,683867.843916874,-1416181255247000064,0.0,87.14530586152269,1865.3649085828192,0.0,0,8,0.0,16431,344464918692064,797,13.899999618530273,1222.3772380997098,0.14999,16,0.0,0.0,1575420030,,,,0,0.0,1,6.0,13.899999618530273,0.0,0.0,0.0,66.7128,C,24931043000000,
Raw,1732146047000,9753000000,,683867.843916874,-1416181255247000064,0.0,87.14530586152269,1865.3649085828192,0.0,0,9,0.0,16431,344464915679745,487,14.399999618530273,1292.2451210704141,0.14999,16,0.0,0.0,1575420030,,,,0,0.0,1,6.0,14.399999618530273,0.0,0.0,0.0,66.7128,C,24931043000000,
Fix,FLP,37.4243666000,-122.1712636000,2.299999952316284,0.32839948,1.783,158.51166,1732146047195,2.2,179.9,24931043000000,0.871239,0,,,
Status,1732146047000,29,0,1,14,1575420030,44.00,310.0,73.0,1,0,0,39.0
Status,1732146047000,29,1,1,30,1575420030,46.20,66.0,71.0,1,0,0,41.2
Status,1732146047000,29,2,1,22,1575420030,44.70,266.0,58.0,1,0,0,39.7
Status,1732146047000,29,3,1,13,1575420030,0.00,305.0,46.0,0,0,0,0.0
Status,1732146047000,29,4,1,17,1575420030,42.80,176.0,42.0,1,0,0,37.8
Status,1732146047000,29,5,1,7,1575420030,38.80,101.0,40.0,1,0,0,33.8
Status,1732146047000,29,6,2,131,1575420030,41.00,3.0,23.0,0,0,0,36.0
Status,1732146047000,29,7,1,2,1575420030,34.10,90.0,15.0,1,0,0,29.099998
Status,1732146047000,29,8,1,19,1575420030,41.80,193.0,15.0,1,0,0,36.8
Status,1732146047000,29,9,1,15,1575420030,0.00,317.0,15.0,0,0,0,0.0
Status,1732146047000,29,10,1,21,1575420030,27.10,71.0,13.0,1,0,0,22.1
Status,1732146047000,29,11,1,8,1575420030,18.90,40.0,11.0,1,0,0,13.9
Status,1732146047000,29,12,1,5,1575420030,0.00,265.0,8.0,0,0,0,0.0
Status,1732146047000,29,13,1,9,1575420030,23.90,159.0,3.0,0,0,0,18.9
Status,1732146047000,29,14,3,9,1602000000,42.10,12.0,55.0,1,0,0,37.1
Status,1732146047000,29,15,3,7,1602000000,0.00,235.0,46.0,0,0,0,0.0
Status,1732146047000,29,16,3,8,1602000000,29.90,307.0,38.0,1,0,0,24.9
Status,1732146047000,29,17,3,19,1602000000,24.70,90.0,31.0,1,0,0,19.7
Status,1732146047000,29,18,3,16,1602000000,22.60,65.0,16.0,1,0,0,17.6
Status,1732146047000,29,19,3,20,1602000000,0.00,151.0,7.0,0,0,0,0.0
Status,1732146047000,29,20,3,17,1602000000,41.60,0.0,0.0,0,0,0,36.6
Status,1732146047000,29,21,6,29,1575420030,0.00,206.0,63.0,0,0,0,0.0
Status,1732146047000,29,22,6,27,1575420030,41.30,34.0,61.0,1,0,0,36.3
Status,1732146047000,29,23,6,21,1575420030,0.00,265.0,56.0,0,0,0,0.0
Status,1732146047000,29,24,6,19,1575420030,33.70,300.0,49.0,1,0,0,28.7
Status,1732146047000,29,25,6,7,1575420030,33.50,160.0,19.0,1,0,0,28.5
Status,1732146047000,29,26,6,30,1575420030,0.00,57.0,12.0,0,0,0,0.0
Status,1732146047000,29,27,6,15,1575420030,0.00,97.0,9.0,0,0,0,0.0
Status,1732146047000,29,28,6,34,1575420030,0.00,49.0,6.0,0,0,0,0.0
Fix,GPS,37.4243683333,-122.1712516667,15.400000000000002,0.11066528,1.8,65.19,1732146048000,1.4,179.9,24932043000000,35.3,0,,,
Raw,1732146048000,10753000000,,682381.4510370371,-1416181255247000064,0.0,89.01178697579932,1861.9669150393997,0.0,0,30,0.0,16431,344465931587184,42,41.20500183105469,616.5525219518588,0.14999,16,0.0,0.0,1575420030,,,,0,29.079953957019534,1,6.0,41.20500183105469,0.0,0.0,0.0,66.7128,C,24932043000000,
Raw,1732146048000,10753000000,,682381.4510370371,-1416181255247000064,0.0,89.01178697579932,1861.9669150393997,0.0,0,7,0.0,16431,344465926710825,58,33.76499938964844,886.2194696776041,0.14999,16,0.0,0.0,1575420030,,,,0,20.964424663179557,1,6.0,33.76499938964844,0.0,0.0,0.0,66.7128,C,24932043000000,
Raw,1732146048000,10753000000,,682381.4510370371,-1416181255247000064,0.0,89.01178697579932,1861.9669150393997,0.0,0,22,0.0,16431,344465929937942,42,39.71799850463867,368.6537115999774,0.14999,16,0.0,0.0,1575420030,,,,0,27.50170865877321,1,6.0,39.71799850463867,0.0,0.0,0.0,66.7128,C,24932043000000,
Raw,1732146048000,10753000000,,682381.4510370371,-1416181255247000064,0.0,89.01178697579932,1861.9669150393997,0.0,0,14,0.0,16431,344465932349056,42,38.96699905395508,518.0391693388121,0.14999,16,0.0,0.0,1575420030,,,,0,28.419498156874702,1,6.0,38.96699905395508,0.0,0.0,0.0,66.7128,C,24932043000000,
Raw,1732146048000,10753000000,,682381.4510370371,-1416181255247000064,0.0,89.01178697579932,1861.9669150393997,0.0,0,17,0.0,16431,344465928123670,51,37.763999938964844,37.53096695152126,0.14999,16,0.0,0.0,1575420030,,,,0,25.401399655506683,1,6.0,37.763999938964844,0.0,0.0,0.0,66.7128,C,24932043000000,
Raw,1732146048000,10753000000,,682381.4510370371,-1416181255247000064,0.0,89.01178697579932,1861.9669150393997,0.0,0,19,0.0,16431,344465919242941,51,36.76900100708008,-142.71365750367175,0.14999,16,0.0,0.0,1575420030,,,,0,24.312253718354555,1,6.0,36.76900100708008,0.0,0.0,0.0,66.7128,C,24932043000000,
Raw,1732146048000,10753000000,,682381.4510370371,-1416181255247000064,0.0,89.01178697579932,1861.9669150393997,0.0,0,7,0.0,16431,344465910128329,235,28.5,1138.8214977945595,0.14999,16,0.0,0.0,1575420030,,,,0,15.231645805375809,6,6.0,28.5,0.0,0.0,1.5199190582016988,66.7128,C,24932043000000,
Raw,1732146048000,10753000000,,682381.4510370371,-1416181255247000064,0.0,89.01178697579932,1861.9669150393997,0.0,0,19,0.0,16431,344465919421100,74,28.700000762939453,335.75211676096336,0.14999,16,0.0,0.0,1575420030,,,,0,15.469304670573791,6,6.0,28.700000762939453,0.0,0.0,1.5199190582016988,66.7128,C,24932043000000,
Raw,1732146048000,10753000000,,682381.4510370371,-1416181255247000064,0.0,89.01178697579932,1861.9669150393997,0.0,0,27,0.0,16431,344465919942833,51,36.310001373291016,793.9312196278562,0.14999,16,0.0,0.0,1575420030,,,,0,24.04563617347594,6,6.0,36.310001373291016,0.0,0.0,1.5199190582016988,66.7128,C,24932043000000,
Raw,1732146048000,10753000000,,682381.4510370371,-1416181255247000064,0.0,89.01178697579932,1861.9669150393997,0.0,0,9,0.0,17,416452,51,5.0,671.3888870175751,0.14999,16,0.0,0.0,1600875010,,,,0,24.632173873113825,3,6.0,37.0,0.0,0.0,34.12548434765312,66.7128,C,24932043000000,
Raw,1732146048000,10753000000,,682381.4510370371,-1416181255247000064,0.0,89.01178697579932,1861.9669150393997,0.0,0,8,0.0,17,569152,396,5.0,301.2539403970329,0.14999,16,0.0,0.0,1605374980,,,,0,11.020599913279625,3,6.0,22.0,0.0,0.0,34.12548434765312,66.7128,C,24932043000000,
Raw,1732146048000,10753000000,,682381.4510370371,-1416181255247000064,0.0,89.01178697579932,1861.9669150393997,0.0,0,19,0.0,17,553765,396,5.0,209.02600743316034,0.14999,16,0.0,0.0,1603687550,,,,0,3.67960400020692,3,6.0,21.0,0.0,0.0,34.12548434765312,66.7128,C,24932043000000,
Raw,1732146048000,10753000000,,682381.4510370371,-1416181255247000064,0.0,89.01178697579932,1861.9669150393997,0.0,0,16,0.0,17,458518,487,19.0,1033.3820828102744,0.14999,16,0.0,0.0,1601437440,,,,0,0.12645625775941838,3,6.0,19.0,0.0,0.0,34.12548434765312,66.7128,C,24932043000000,
Raw,1732146048000,10753000000,,682381.4510370371,-1416181255247000064,0.0,89.01178697579932,1861.9669150393997,0.0,0,2,0.0,16431,344465919414099,235,29.066999435424805,307.21266522441346,0.14999,16,0.0,0.0,1575420030,,,,0,15.398687292671125,1,6.0,29.066999435424805,0.0,0.0,0.0,66.7128,C,24932043000000,
Raw,1732146048000,10753000000,,682381.4510370371,-1416181255247000064,0.0,89.01178697579932,1861.9669150393997,0.0,0,21,0.0,16431,344465919876418,316,22.13800048828125,497.8195838940779,0.14999,16,0.0,0.0,1575420030,,,,0,5.785065982953471,1,6.0,22.13800048828125,0.0,0.0,0.0,66.7128,C,24932043000000,
Raw,1732146048000,10753000000,,682381.4510370371,-1416181255247000064,0.0,89.01178697579932,1861.9669150393997,0.0,0,8,0.0,16431,344465918687988,797,13.899999618530273,1222.1418797631873,0.14999,16,0.0,0.0,1575420030,,,,0,0.0,1,6.0,13.899999618530273,0.0,0.0,0.0,66.7128,C,24932043000000,
Raw,1732146048000,10753000000,,682381.4510370371,-1416181255247000064,0.0,89.01178697579932,1861.9669150393997,0.0,0,9,0.0,16431,344465915675443,487,18.93400001525879,1290.6601457429754,0.14999,16,0.0,0.0,1575420030,,,,0,0.418366424102512,1,6.0,18.93400001525879,0.0,0.0,0.0,66.7128,C,24932043000000,
Fix,FLP,37.4243670000,-122.1712571000,2.299999952316284,0.14145859,1.8,97.10314,1732146048195,1.4,179.9,24932043000000,0.88124573,0,,,
Status,1732146048000,29,0,1,14,1575420030,47.60,310.0,73.0,1,0,0,42.6
Status,1732146048000,29,1,1,30,1575420030,49.90,66.0,71.0,1,0,0,44.9
Status,1732146048000,29,2,1,22,1575420030,41.40,266.0,58.0,1,0,0,36.4
Status,1732146048000,29,3,1,13,1575420030,39.20,305.0,46.0,1,0,0,34.2
Status,1732146048000,29,4,1,17,1575420030,38.10,176.0,42.0,1,0,0,33.1
Status,1732146048000,29,5,1,7,1575420030,35.70,101.0,40.0,1,0,0,30.7
Status,1732146048000,29,6,2,131,1575420030,36.00,3.0,23.0,0,0,0,31.0
Status,1732146048000,29,7,1,2,1575420030,29.60,90.0,15.0,1,0,0,24.6
Status,1732146048000,29,8,1,19,1575420030,40.70,193.0,15.0,1,0,0,35.7
Status,1732146048000,29,9,1,15,1575420030,0.00,317.0,15.0,0,0,0,0.0
Status,1732146048000,29,10,1,21,1575420030,26.50,71.0,13.0,1,0,0,21.5
Status,1732146048000,29,11,1,8,1575420030,18.90,40.0,11.0,1,0,0,13.9
Status,1732146048000,29,12,1,5,1575420030,0.00,265.0,8.0,0,0,0,0.0
Status,1732146048000,29,13,1,9,1575420030,0.00,159.0,3.0,0,0,0,0.0
Status,1732146048000,29,14,3,9,1602000000,34.40,12.0,55.0,1,0,0,29.400002
Status,1732146048000,29,15,3,7,1602000000,38.40,235.0,46.0,1,0,0,33.4
Status,1732146048000,29,16,3,8,1602000000,38.30,307.0,38.0,1,0,0,33.3
Status,1732146048000,29,17,3,19,1602000000,25.40,90.0,31.0,1,0,0,20.4
Status,1732146048000,29,18,3,16,1602000000,0.00,65.0,16.0,0,0,0,0.0
Status,1732146048000,29,19,3,20,1602000000,0.00,151.0,7.0,0,0,0,0.0
Status,1732146048000,29,20,3,17,1602000000,39.90,0.0,0.0,0,0,0,34.9
Status,1732146048000,29,21,6,29,1575420030,0.00,206.0,63.0,0,0,0,0.0
Status,1732146048000,29,22,6,27,1575420030,44.10,34.0,61.0,1,0,0,39.1
Status,1732146048000,29,23,6,21,1575420030,0.00,265.0,56.0,0,0,0,0.0
Status,1732146048000,29,24,6,19,1575420030,33.90,300.0,49.0,1,0,0,28.900002
Status,1732146048000,29,25,6,7,1575420030,36.20,160.0,19.0,1,0,0,31.2
Status,1732146048000,29,26,6,30,1575420030,0.00,57.0,12.0,0,0,0,0.0
Status,1732146048000,29,27,6,15,1575420030,0.00,97.0,9.0,0,0,0,0.0
Status,1732146048000,29,28,6,34,1575420030,0.00,49.0,6.0,0,0,0,0.0
Fix,GPS,37.4243700000,-122.1712500000,15.599999999999998,0.3448639,1.7,76.69,1732146049000,1.0,128.5,24933043000000,34.4,0,,,
Raw,1732146049000,11753000000,,679277.0116985398,-1416181255247000064,0.0,87.40965652671974,1862.0682672840744,0.0,0,30,0.0,16431,344466931585130,28,44.87799835205078,616.2520289158091,0.14999,16,0.0,0.0,1575420030,,,,0,32.919586158130194,1,6.0,44.87799835205078,0.0,0.0,0.0,66.7128,C,24933043000000,
Raw,1732146049000,11753000000,,679277.0116985398,-1416181255247000064,0.0,87.40965652671974,1862.0682672840744,0.0,0,7,0.0,16431,344466926707867,235,30.746000289916992,886.3782645442118,0.14999,16,0.0,0.0,1575420030,,,,0,17.451934130614077,1,6.0,30.746000289916992,0.0,0.0,0.0,66.7128,C,24933043000000,
Raw,1732146049000,11753000000,,679277.0116985398,-1416181255247000064,0.0,87.40965652671974,1862.0682672840744,0.0,0,22,0.0,16431,344466929936712,51,36.426998138427734,368.5767300043165,0.14999,16,0.0,0.0,1575420030,,,,0,23.940191605216135,1,6.0,36.426998138427734,0.0,0.0,0.0,66.7128,C,24933043000000,
Raw,1732146049000,11753000000,,679277.0116985398,-1416181255247000064,0.0,87.40965652671974,1862.0682672840744,0.0,0,14,0.0,16431,344466932347326,31,42.569000244140625,518.3607544958215,0.14999,16,0.0,0.0,1575420030,,,,0,30.515147718211615,1,6.0,42.569000244140625,0.0,0.0,0.0,66.7128,C,24933043000000,
Raw,1732146049000,11753000000,,679277.0116985398,-1416181255247000064,0.0,87.40965652671974,1862.0682672840744,0.0,0,17,0.0,16431,344466928123541,58,33.14699935913086,37.391545244473434,0.14999,16,0.0,0.0,1575420030,,,,0,20.264511449074963,1,6.0,33.14699935913086,0.0,0.0,0.0,66.7128,C,24933043000000,
Raw,1732146049000,11753000000,,679277.0116985398,-1416181255247000064,0.0,87.40965652671974,1862.0682672840744,0.0,0,19,0.0,16431,344466919243419,51,35.652000427246094,-142.13919918722846,0.14999,16,0.0,0.0,1575420030,,,,0,23.0862189002521,1,6.0,35.652000427246094,0.0,0.0,0.0,66.7128,C,24933043000000,
Raw,1732146049000,11753000000,,679277.0116985398,-1416181255247000064,0.0,87.40965652671974,1862.0682672840744,0.0,0,7,0.0,16431,344466910124527,74,31.200000762939453,1139.2018993064912,0.14999,16,0.0,0.0,1575420030,,,,0,18.321248006235887,6,6.0,31.200000762939453,0.0,0.0,2.2761035621045003,66.7128,C,24933043000000,
Raw,1732146049000,11753000000,,679277.0116985398,-1416181255247000064,0.0,87.40965652671974,1862.0682672840744,0.0,0,19,0.0,16431,344466919419978,74,28.899999618530273,335.9745364285713,0.14999,16,0.0,0.0,1575420030,,,,0,15.700633646398682,6,6.0,28.899999618530273,0.0,0.0,2.2761035621045003,66.7128,C,24933043000000,
Raw,1732146049000,11753000000,,679277.0116985398,-1416181255247000064,0.0,87.40965652671974,1862.0682672840744,0.0,0,27,0.0,16431,344466919940182,42,39.099998474121094,793.893681227558,0.14999,16,0.0,0.0,1575420030,,,,0,26.716285899838994,6,6.0,39.099998474121094,0.0,0.0,2.2761035621045003,66.7128,C,24933043000000,
Raw,1732146049000,11753000000,,679277.0116985398,-1416181255247000064,0.0,87.40965652671974,1862.0682672840744,0.0,0,9,0.0,17,414213,74,5.0,670.813458925823,0.14999,16,0.0,0.0,1600875010,,,,0,16.352575522371765,3,6.0,30.0,0.0,0.0,32.52891424930311,66.7128,C,24933043000000,
Raw,1732146049000,11753000000,,679277.0116985398,-1416181255247000064,0.0,87.40965652671974,1862.0682672840744,0.0,0,8,0.0,17,568142,58,5.0,301.43990828752135,0.14999,16,0.0,0.0,1605374980,,,,0,20.612461052552217,3,6.0,33.0,0.0,0.0,32.52891424930311,66.7128,C,24933043000000,
Raw,1732146049000,11753000000,,679277.0116985398,-1416181255247000064,0.0,87.40965652671974,1862.0682672840744,0.0,0,7,0.0,17,858096,58,5.0,1015.4488770641576,0.14999,16,0.0,0.0,1604812540,,,,0,20.717404527787398,3,6.0,33.0,0.0,0.0,32.52891424930311,66.7128,C,24933043000000,
Raw,1732146049000,11753000000,,679277.0116985398,-1416181255247000064,0.0,87.40965652671974,1862.0682672840744,0.0,0,19,0.0,17,553066,487,5.0,208.59124542304266,0.14999,16,0.0,0.0,1603687550,,,,0,4.7743797918062185,3,6.0,20.0,0.0,0.0,32.52891424930311,66.7128,C,24933043000000,
Raw,1732146049000,11753000000,,679277.0116985398,-1416181255247000064,0.0,87.40965652671974,1862.0682672840744,0.0,0,13,0.0,16431,344466929104843,58,34.16899871826172,209.95420089162963,0.14999,16,0.0,0.0,1575420030,,,,0,21.42519396553783,1,6.0,34.16899871826172,0.0,0.0,0.0,66.7128,C,24933043000000,
Raw,1732146049000,11753000000,,679277.0116985398,-1416181255247000064,0.0,87.40965652671974,1862.0682672840744,0.0,0,2,0.0,16431,344466919413058,396,24.576000213623047,306.9275731533375,0.14999,16,0.0,0.0,1575420030,,,,0,9.460418703288145,1,6.0,24.576000213623047,0.0,0.0,0.0,66.7128,C,24933043000000,
Raw,1732146049000,11753000000,,679277.0116985398,-1416181255247000064,0.0,87.40965652671974,1862.0682672840744,0.0,0,21,0.0,16431,344466919874786,396,21.479000091552734,497.4664070140454,0.14999,16,0.0,0.0,1575420030,,,,0,4.721709709299334,1,6.0,21.479000091552734,0.0,0.0,0.0,66.7128,C,24933043000000,
Raw,1732146049000,11753000000,,679277.0116985398,-1416181255247000064,0.0,87.40965652671974,1862.0682672840744,0.0,0,8,0.0,16431,344466918683911,487,13.899999618530273,1221.9635723617712,0.14999,16,0.0,0.0,1575420030,,,,0,0.0,1,6.0,13.899999618530273,0.0,0.0,0.0,66.7128,C,24933043000000,
Fix,FLP,37.4243685000,-122.1712523000,2.299999952316284,0.2753951,1.783,79.38164,1732146049195,1.0,128.5,24933043000000,0.89562505,0,,,
Status,1732146049000,29,0,1,14,1575420030,47.50,310.0,73.0,1,0,0,42.5
Status,1732146049000,29,1,1,30,1575420030,49.90,66.0,71.0,1,0,0,44.9
Status,1732146049000,29,2,1,22,1575420030,44.80,266.0,58.0,1,0,0,39.8
Status,1732146049000,29,3,1,13,1575420030,40.80,305.0,46.0,1,0,0,35.8
Status,1732146049000,29,4,1,17,1575420030,39.50,176.0,42.0,1,0,0,34.5
Status,1732146049000,29,5,1,7,1575420030,33.80,101.0,40.0,1,0,0,28.8
Status,1732146049000,29,6,2,131,1575420030,43.00,3.0,23.0,0,0,0,38.0
Status,1732146049000,29,7,1,2,1575420030,28.60,90.0,15.0,1,0,0,23.6
Status,1732146049000,29,8,1,19,1575420030,34.20,193.0,15.0,1,0,0,29.2
Status,1732146049000,29,9,1,15,1575420030,0.00,317.0,15.0,0,0,0,0.0
Status,1732146049000,29,10,1,21,1575420030,28.40,71.0,13.0,1,0,0,23.4
Status,1732146049000,29,11,1,8,1575420030,24.30,40.0,11.0,1,0,0,19.3
Status,1732146049000,29,12,1,5,1575420030,0.00,265.0,8.0,0,0,0,0.0
Status,1732146049000,29,13,1,9,1575420030,0.00,159.0,3.0,0,0,0,0.0
Status,1732146049000,29,14,3,9,1602000000,36.80,12.0,55.0,1,0,0,31.8
Status,1732146049000,29,15,3,7,1602000000,40.30,235.0,46.0,1,0,0,35.3
Status,1732146049000,29,16,3,8,1602000000,33.80,307.0,38.0,1,0,0,28.8
Status,1732146049000,29,17,3,19,1602000000,28.90,90.0,31.0,1,0,0,23.9
Status,1732146049000,29,18,3,16,1602000000,27.10,65.0,16.0,1,0,0,22.1
Status,1732146049000,29,19,3,20,1602000000,0.00,151.0,7.0,0,0,0,0.0
Status,1732146049000,29,20,3,17,1602000000,34.80,0.0,0.0,0,0,0,29.8
Status,1732146049000,29,21,6,29,1575420030,0.00,206.0,63.0,0,0,0,0.0
Status,1732146049000,29,22,6,27,1575420030,42.80,34.0,61.0,1,0,0,37.8
Status,1732146049000,29,23,6,21,1575420030,0.00,265.0,56.0,0,0,0,0.0
Status,1732146049000,29,24,6,19,1575420030,39.90,300.0,49.0,1,0,0,34.9
Status,1732146049000,29,25,6,7,1575420030,25.90,160.0,19.0,1,0,0,20.9
Status,1732146049000,29,26,6,30,1575420030,0.00,57.0,12.0,0,0,0,0.0
Status,1732146049000,29,27,6,15,1575420030,0.00,97.0,9.0,0,0,0,0.0
Status,1732146049000,29,28,6,34,1575420030,0.00,49.0,6.0,0,0,0,0.0
Fix,GPS,37.4243666667,-122.1712466667,15.599999999999998,0.35104054,1.7,87.42,1732146050000,1.0,126.8,24934043000000,34.0,0,,,
Raw,1732146050000,12753000000,,86.36661978174416,-1416181255247000064,0.0,86.36661978174416,1861.168499190709,0.0,0,30,0.0,16431,344467931583072,28,44.85599899291992,616.2051988322688,0.14999,16,0.0,0.0,1575420030,,,,0,32.47116179495401,1,6.0,44.85599899291992,0.0,0.0,0.0,66.7128,C,24934043000000,
Raw,1732146050000,12753000000,,86.36661978174416,-1416181255247000064,0.0,86.36661978174416,1861.168499190709,0.0,0,7,0.0,16431,344467926704910,235,28.819000244140625,885.6600174295969,0.14999,16,0.0,0.0,1575420030,,,,0,15.085865214648557,1,6.0,28.819000244140625,0.0,0.0,0.0,66.7128,C,24934043000000,
Raw,1732146050000,12753000000,,86.36661978174416,-1416181255247000064,0.0,86.36661978174416,1861.168499190709,0.0,0,22,0.0,16431,344467929935479,42,39.82899856567383,369.421320781816,0.14999,16,0.0,0.0,1575420030,,,,0,27.61826041948428,1,6.0,39.82899856567383,0.0,0.0,0.0,66.7128,C,24934043000000,
Raw,1732146050000,12753000000,,86.36661978174416,-1416181255247000064,0.0,86.36661978174416,1861.168499190709,0.0,0,14,0.0,16431,344467932345594,31,42.52199935913086,517.9781694383277,0.14999,16,0.0,0.0,1575420030,,,,0,29.54197695169693,1,6.0,42.52199935913086,0.0,0.0,0.0,66.7128,C,24934043000000,
Raw,1732146050000,12753000000,,86.36661978174416,-1416181255247000064,0.0,86.36661978174416,1861.168499190709,0.0,0,17,0.0,16431,344467928123417,58,34.499000549316406,38.82924739252475,0.14999,16,0.0,0.0,1575420030,,,,0,21.795108107251334,1,6.0,34.499000549316406,0.0,0.0,0.0,66.7128,C,24934043000000,
Raw,1732146050000,12753000000,,86.36661978174416,-1416181255247000064,0.0,86.36661978174416,1861.168499190709,0.0,0,19,0.0,16431,344467919243896,235,29.224000930786133,-141.9956891395541,0.14999,16,0.0,0.0,1575420030,,,,0,15.585739251070594,1,6.0,29.224000930786133,0.0,0.0,0.0,66.7128,C,24934043000000,
Raw,1732146050000,12753000000,,86.36661978174416,-1416181255247000064,0.0,86.36661978174416,1861.168499190709,0.0,0,7,0.0,16431,344467910120727,316,20.899999618530273,1139.3079174122838,0.14999,16,0.0,0.0,1575420030,,,,0,5.567907431189305,6,6.0,20.899999618530273,0.0,0.0,2.046662887311809,66.7128,C,24934043000000,
Raw,1732146050000,12753000000,,86.36661978174416,-1416181255247000064,0.0,86.36661978174416,1861.168499190709,0.0,0,19,0.0,16431,344467919418857,51,34.900001525878906,336.46051469134164,0.14999,16,0.0,0.0,1575420030,,,,0,22.300691569724403,6,6.0,34.900001525878906,0.0,0.0,2.046662887311809,66.7128,C,24934043000000,
Raw,1732146050000,12753000000,,86.36661978174416,-1416181255247000064,0.0,86.36661978174416,1861.168499190709,0.0,0,27,0.0,16431,344467919937536,42,37.79999923706055,793.8577224134111,0.14999,16,0.0,0.0,1575420030,,,,0,25.43867820902985,6,6.0,37.79999923706055,0.0,0.0,2.046662887311809,66.7128,C,24934043000000,
Raw,1732146050000,12753000000,,86.36661978174416,-1416181255247000064,0.0,86.36661978174416,1861.168499190709,0.0,0,9,0.0,17,411976,74,5.0,671.081239184316,0.14999,16,0.0,0.0,1600875010,,,,0,19.02166727298836,3,6.0,32.0,0.0,0.0,31.53603813464485,66.7128,C,24934043000000,
Raw,1732146050000,12753000000,,86.36661978174416,-1416181255247000064,0.0,86.36661978174416,1861.168499190709,0.0,0,8,0.0,17,567134,235,5.0,302.838405972441,0.14999,16,0.0,0.0,1605374980,,,,0,15.569881269855859,3,6.0,28.0,0.0,0.0,31.53603813464485,66.7128,C,24934043000000,
Raw,1732146050000,12753000000,,86.36661978174416,-1416181255247000064,0.0,86.36661978174416,1861.168499190709,0.0,0,7,0.0,17,854701,58,5.0,1015.322453018931,0.14999,16,0.0,0.0,1604812540,,,,0,22.775387401637257,3,6.0,35.0,0.0,0.0,31.53603813464485,66.7128,C,24934043000000,
Raw,1732146050000,12753000000,,86.36661978174416,-1416181255247000064,0.0,86.36661978174416,1861.168499190709,0.0,0,19,0.0,17,552365,316,5.0,208.34191675820193,0.14999,16,0.0,0.0,1603687550,,,,0,9.714503062006894,3,6.0,24.0,0.0,0.0,31.53603813464485,66.7128,C,24934043000000,
Raw,1732146050000,12753000000,,86.36661978174416,-1416181255247000064,0.0,86.36661978174416,1861.168499190709,0.0,0,16,0.0,17,451625,396,35.29999923706055,1036.783164656072,0.14999,16,0.0,0.0,1601437440,,,,0,7.216490550861795,3,6.0,35.29999923706055,0.0,0.0,31.53603813464485,66.7128,C,24934043000000,
Raw,1732146050000,12753000000,,86.36661978174416,-1416181255247000064,0.0,86.36661978174416,1861.168499190709,0.0,0,13,0.0,16431,344467929104143,51,35.8129997253418,211.04890055279853,0.14999,16,0.0,0.0,1575420030,,,,0,23.260039057147914,1,6.0,35.8129997253418,0.0,0.0,0.0,66.7128,C,24934043000000,
Raw,1732146050000,12753000000,,86.36661978174416,-1416181255247000064,0.0,86.36661978174416,1861.168499190709,0.0,0,2,0.0,16431,344467919412030,487,23.645999908447266,308.40632131211083,0.14999,16,0.0,0.0,1575420030,,,,0,8.094125755342258,1,6.0,23.645999908447266,0.0,0.0,0.0,66.7128,C,24934043000000,
Raw,1732146050000,12753000000,,86.36661978174416,-1416181255247000064,0.0,86.36661978174416,1861.168499190709,0.0,0,21,0.0,16431,344467919873114,487,23.437000274658203,497.0636125455,0.14999,16,0.0,0.0,1575420030,,,,0,7.758937297922944,1,6.0,23.437000274658203,0.0,0.0,0.0,66.7128,C,24934043000000,
Raw,1732146050000,12753000000,,86.36661978174416,-1416181255247000064,0.0,86.36661978174416,1861.168499190709,0.0,0,8,0.0,16431,344467918679812,487,19.332000732421875,1222.0616925368079,0.14999,16,0.0,0.0,1575420030,,,,0,1.0573227640948248,1,6.0,19.332000732421875,0.0,0.0,0.0,66.7128,C,24934043000000,
Fix,FLP,37.4243679000,-122.1712478000,2.299999952316284,0.3215996,1.766,85.13051,1732146050195,1.0,126.8,24934043000000,0.90563405,0,,,
Status,1732146050000,29,0,1,14,1575420030,47.50,310.0,73.0,1,0,0,42.5
Status,1732146050000,29,1,1,30,1575420030,49.90,66.0,71.0,1,0,0,44.9
Status,1732146050000,29,2,1,22,1575420030,40.30,266.0,58.0,1,0,0,35.3
Status,1732146050000,29,3,1,13,1575420030,40.30,305.0,46.0,1,0,0,35.3
Status,1732146050000,29,4,1,17,1575420030,38.00,176.0,42.0,1,0,0,33.0
Status,1732146050000,29,5,1,7,1575420030,38.40,101.0,40.0,1,0,0,33.4
Status,1732146050000,29,6,2,131,1575420030,41.00,3.0,23.0,0,0,0,36.0
Status,1732146050000,29,7,1,2,1575420030,25.20,90.0,15.0,1,0,0,20.2
Status,1732146050000,29,8,1,19,1575420030,37.90,193.0,15.0,1,0,0,32.9
Status,1732146050000,29,9,1,15,1575420030,38.80,317.0,15.0,1,0,0,33.8
Status,1732146050000,29,10,1,21,1575420030,28.40,71.0,13.0,1,0,0,23.4
Status,1732146050000,29,11,1,8,1575420030,24.30,40.0,11.0,1,0,0,19.3
Status,1732146050000,29,12,1,5,1575420030,0.00,265.0,8.0,0,0,0,0.0
Status,1732146050000,29,13,1,9,1575420030,0.00,159.0,3.0,0,0,0,0.0
Status,1732146050000,29,14,3,9,1602000000,42.70,12.0,55.0,1,0,0,37.7
Status,1732146050000,29,15,3,7,1602000000,34.70,235.0,46.0,1,0,0,29.7
Status,1732146050000,29,16,3,8,1602000000,39.10,307.0,38.0,1,0,0,34.1
Status,1732146050000,29,17,3,19,1602000000,30.30,90.0,31.0,1,0,0,25.3
Status,1732146050000,29,18,3,16,1602000000,23.10,65.0,16.0,1,0,0,18.1
Status,1732146050000,29,19,3,20,1602000000,0.00,151.0,7.0,0,0,0,0.0
Status,1732146050000,29,20,3,17,1602000000,34.90,0.0,0.0,0,0,0,29.900002
Status,1732146050000,29,21,6,29,1575420030,0.00,206.0,63.0,0,0,0,0.0
Status,1732146050000,29,22,6,27,1575420030,41.30,34.0,61.0,1,0,0,36.3
Status,1732146050000,29,23,6,21,1575420030,0.00,265.0,56.0,0,0,0,0.0
Status,1732146050000,29,24,6,19,1575420030,37.50,300.0,49.0,1,0,0,32.5
Status,1732146050000,29,25,6,7,1575420030,32.60,160.0,19.0,1,0,0,27.599998
Status,1732146050000,29,26,6,30,1575420030,0.00,57.0,12.0,0,0,0,0.0
Status,1732146050000,29,27,6,15,1575420030,0.00,97.0,9.0,0,0,0,0.0
Status,1732146050000,29,28,6,34,1575420030,0.00,49.0,6.0,0,0,0,0.0
Fix,GPS,37.4243683333,-122.1712383333,15.599999999999998,0.5955336,1.7,90.21,1732146051000,1.4,110.9,24935043000000,33.7,0,,,
Fix,FLP,37.4243682000,-122.1712408000,2.299999952316284,0.39616558,1.75,86.90636,1732146051195,1.4,110.9,24935043000000,0.9156223,0,,,
Raw,1732146051000,13753000000,,85.80872853914973,-1416181255247000064,0.0,85.80872853914973,1862.2542801988457,0.0,0,30,0.0,16431,344468931581017,28,44.92599868774414,616.5331023338828,0.14999,17,8466.196844250788,0.00022499999613501132,1575420030,,,,0,34.35656013179097,1,6.0,44.92599868774414,0.0,0.0,0.0,66.7128,C,24935043000000,
Raw,1732146051000,13753000000,,85.80872853914973,-1416181255247000064,0.0,85.80872853914973,1862.2542801988457,0.0,0,7,0.0,16431,344468926701947,58,33.40399932861328,886.2646272581608,0.14999,16,0.0,0.0,1575420030,,,,0,20.55650162048073,1,6.0,33.40399932861328,0.0,0.0,0.0,66.7128,C,24935043000000,
Raw,1732146051000,13753000000,,85.80872853914973,-1416181255247000064,0.0,85.80872853914973,1862.2542801988457,0.0,0,22,0.0,16431,344468929934245,58,35.34700012207031,369.21734510544366,0.14999,16,0.0,0.0,1575420030,,,,0,22.748087770297435,1,6.0,35.34700012207031,0.0,0.0,0.0,66.7128,C,24935043000000,
Raw,1732146051000,13753000000,,85.80872853914973,-1416181255247000064,0.0,85.80872853914973,1862.2542801988457,0.0,0,14,0.0,16431,344468932343862,31,42.52799987792969,518.498782450383,0.14999,16,0.0,0.0,1575420030,,,,0,30.610008804321744,1,6.0,42.52799987792969,0.0,0.0,0.0,66.7128,C,24935043000000,
Raw,1732146051000,13753000000,,85.80872853914973,-1416181255247000064,0.0,85.80872853914973,1862.2542801988457,0.0,0,17,0.0,16431,344468928123291,58,33.00400161743164,37.97771108180179,0.14999,16,0.0,0.0,1575420030,,,,0,20.101007522093845,1,6.0,33.00400161743164,0.0,0.0,0.0,66.7128,C,24935043000000,
Raw,1732146051000,13753000000,,85.80872853914973,-1416181255247000064,0.0,85.80872853914973,1862.2542801988457,0.0,0,19,0.0,16431,344468919244370,58,32.94900131225586,-142.59565312649698,0.14999,16,0.0,0.0,1575420030,,,,0,20.031961930870228,1,6.0,32.94900131225586,0.0,0.0,0.0,66.7128,C,24935043000000,
Raw,1732146051000,13753000000,,85.80872853914973,-1416181255247000064,0.0,85.80872853914973,1862.2542801988457,0.0,0,15,0.0,16431,344468921156638,58,33.775001525878906,36.36825216902012,0.14999,16,0.0,0.0,1575420030,,,,0,20.976868633270865,1,6.0,33.775001525878906,0.0,0.0,0.0,66.7128,C,24935043000000,
Raw,1732146051000,13753000000,,85.80872853914973,-1416181255247000064,0.0,85.80872853914973,1862.2542801988457,0.0,0,7,0.0,16431,344468910116927,235,27.600000381469727,1139.3855958841878,0.14999,16,0.0,0.0,1575420030,,,,0,14.210101101363575,6,6.0,27.600000381469727,0.0,0.0,2.0905880112666,66.7128,C,24935043000000,
Raw,1732146051000,13753000000,,85.80872853914973,-1416181255247000064,0.0,85.80872853914973,1862.2542801988457,0.0,0,19,0.0,16431,344468919417734,58,32.5,336.75057781295214,0.14999,16,0.0,0.0,1575420030,,,,0,19.721466528202665,6,6.0,32.5,0.0,0.0,2.0905880112666,66.7128,C,24935043000000,
Raw,1732146051000,13753000000,,85.80872853914973,-1416181255247000064,0.0,85.80872853914973,1862.2542801988457,0.0,0,27,0.0,16431,344468919934886,51,36.29999923706055,794.1656487960545,0.14999,16,0.0,0.0,1575420030,,,,0,23.78858598657512,6,6.0,36.29999923706055,0.0,0.0,2.0905880112666,66.7128,C,24935043000000,
Raw,1732146051000,13753000000,,85.80872853914973,-1416181255247000064,0.0,85.80872853914973,1862.2542801988457,0.0,0,9,0.0,17,409742,51,5.0,671.1106369487364,0.14999,16,0.0,0.0,1600875010,,,,0,25.35288036610577,3,6.0,38.0,0.0,0.0,30.40748610503925,66.7128,C,24935043000000,
Raw,1732146051000,13753000000,,85.80872853914973,-1416181255247000064,0.0,85.80872853914973,1862.2542801988457,0.0,0,8,0.0,17,566123,58,5.0,302.71216299897634,0.14999,16,0.0,0.0,1605374980,,,,0,21.439418425326565,3,6.0,34.0,0.0,0.0,30.40748610503925,66.7128,C,24935043000000,
Raw,1732146051000,13753000000,,85.80872853914973,-1416181255247000064,0.0,85.80872853914973,1862.2542801988457,0.0,0,7,0.0,17,851356,235,5.0,1016.2085159159948,0.14999,16,0.0,0.0,1604812540,,,,0,16.642433227715497,3,6.0,29.0,0.0,0.0,30.40748610503925,66.7128,C,24935043000000,
Raw,1732146051000,13753000000,,85.80872853914973,-1416181255247000064,0.0,85.80872853914973,1862.2542801988457,0.0,0,19,0.0,17,551669,396,5.0,208.91464701906344,0.14999,16,0.0,0.0,1603687550,,,,0,11.487252802848227,3,6.0,22.0,0.0,0.0,30.40748610503925,66.7128,C,24935043000000,
Raw,1732146051000,13753000000,,85.80872853914973,-1416181255247000064,0.0,85.80872853914973,1862.2542801988457,0.0,0,16,0.0,17,448162,487,29.700000762939453,1037.594404211583,0.14999,16,0.0,0.0,1601437440,,,,0,1.0954746100811552,3,6.0,29.700000762939453,0.0,0.0,30.40748610503925,66.7128,C,24935043000000,
Raw,1732146051000,13753000000,,85.80872853914973,-1416181255247000064,0.0,85.80872853914973,1862.2542801988457,0.0,0,13,0.0,16431,344468929103439,58,35.34700012207031,210.99958494399107,0.14999,16,0.0,0.0,1575420030,,,,0,22.748087770297435,1,6.0,35.34700012207031,0.0,0.0,0.0,66.7128,C,24935043000000,
Raw,1732146051000,13753000000,,85.80872853914973,-1416181255247000064,0.0,85.80872853914973,1862.2542801988457,0.0,0,2,0.0,16431,344468919411001,487,20.224000930786133,307.94536090646983,0.14999,16,0.0,0.0,1575420030,,,,0,2.6306746032606982,1,6.0,20.224000930786133,0.0,0.0,0.0,66.7128,C,24935043000000,
Raw,1732146051000,13753000000,,85.80872853914973,-1416181255247000064,0.0,85.80872853914973,1862.2542801988457,0.0,0,21,0.0,16431,344468919871452,487,23.437000274658203,498.73239885578255,0.14999,16,0.0,0.0,1575420030,,,,0,7.758937297922944,1,6.0,23.437000274658203,0.0,0.0,0.0,66.7128,C,24935043000000,
Raw,1732146051000,13753000000,,85.80872853914973,-1416181255247000064,0.0,85.80872853914973,1862.2542801988457,0.0,0,8,0.0,16431,344468918675703,797,19.347000122070312,1221.6430092899184,0.14999,16,0.0,0.0,1575420030,,,,0,1.652479456850617,1,6.0,19.347000122070312,0.0,0.0,0.0,66.7128,C,24935043000000,
Status,1732146051000,29,0,1,14,1575420030,44.50,310.0,73.0,1,0,0,39.5
Status,1732146051000,29,1,1,30,1575420030,44.80,66.0,71.0,1,0,0,39.8
Status,1732146051000,29,2,1,22,1575420030,39.20,266.0,58.0,1,0,0,34.2
Status,1732146051000,29,3,1,13,1575420030,41.90,305.0,46.0,1,0,0,36.9
Status,1732146051000,29,4,1,17,1575420030,42.00,176.0,42.0,1,0,0,37.0
Status,1732146051000,29,5,1,7,1575420030,40.30,101.0,40.0,1,0,0,35.3
Status,1732146051000,29,6,2,131,1575420030,42.00,3.0,23.0,0,0,0,37.0
Status,1732146051000,29,7,1,2,1575420030,26.20,90.0,15.0,1,0,0,21.2
Status,1732146051000,29,8,1,19,1575420030,33.60,193.0,15.0,1,0,0,28.599998
Status,1732146051000,29,9,1,15,1575420030,0.00,317.0,15.0,0,0,0,0.0
Status,1732146051000,29,10,1,21,1575420030,25.20,71.0,13.0,1,0,0,20.2
Status,1732146051000,29,11,1,8,1575420030,24.30,40.0,11.0,1,0,0,19.3
Status,1732146051000,29,12,1,5,1575420030,0.00,265.0,8.0,0,0,0,0.0
Status,1732146051000,29,13,1,9,1575420030,0.00,159.0,3.0,0,0,0,0.0
Status,1732146051000,29,14,3,9,1602000000,42.00,12.0,55.0,1,0,0,37.0
Status,1732146051000,29,15,3,7,1602000000,39.90,235.0,46.0,1,0,0,34.9
Status,1732146051000,29,16,3,8,1602000000,35.10,307.0,38.0,1,0,0,30.099998
Status,1732146051000,29,17,3,19,1602000000,35.20,90.0,31.0,1,0,0,30.2
Status,1732146051000,29,18,3,16,1602000000,22.50,65.0,16.0,1,0,0,17.5
Status,1732146051000,29,19,3,20,1602000000,0.00,151.0,7.0,0,0,0,0.0
Status,1732146051000,29,20,3,17,1602000000,40.90,0.0,0.0,0,0,0,35.9
Status,1732146051000,29,21,6,29,1575420030,0.00,206.0,63.0,0,0,0,0.0
Status,1732146051000,29,22,6,27,1575420030,46.50,34.0,61.0,1,0,0,41.5
Status,1732146051000,29,23,6,21,1575420030,0.00,265.0,56.0,0,0,0,0.0
Status,1732146051000,29,24,6,19,1575420030,33.10,300.0,49.0,1,0,0,28.099998
Status,1732146051000,29,25,6,7,1575420030,27.70,160.0,19.0,1,0,0,22.7
Status,1732146051000,29,26,6,30,1575420030,0.00,57.0,12.0,0,0,0,0.0
Status,1732146051000,29,27,6,15,1575420030,0.00,97.0,9.0,0,0,0,0.0
Status,1732146051000,29,28,6,34,1575420030,0.00,49.0,6.0,0,0,0,0.0
Fix,GPS,37.4243633333,-122.1712300000,15.7,0.5528117,1.7,105.58,1732146052000,1.1,93.2,24936043000000,33.3,0,,,
Raw,1732146052000,14753000000,,83.96992948851383,-1416181255247000064,0.0,83.96992948851383,1860.2193352488212,0.0,0,30,0.0,16431,344469931578964,42,39.8390007019043,615.9875876107386,0.14999,17,9082.20149661853,0.00022499999613501132,1575420030,,,,0,27.629830037762396,1,6.0,39.8390007019043,0.0,0.0,0.0,66.7128,C,24936043000000,
Raw,1732146052000,14753000000,,83.96992948851383,-1416181255247000064,0.0,83.96992948851383,1860.2193352488212,0.0,0,7,0.0,16431,344469926698997,58,35.3129997253418,885.4589454042376,0.14999,16,0.0,0.0,1575420030,,,,0,22.70742817755756,1,6.0,35.3129997253418,0.0,0.0,0.0,66.7128,C,24936043000000,
Raw,1732146052000,14753000000,,83.96992948851383,-1416181255247000064,0.0,83.96992948851383,1860.2193352488212,0.0,0,22,0.0,16431,344469929933011,58,34.198001861572266,368.64428054148664,0.14999,16,0.0,0.0,1575420030,,,,0,21.460550417226216,1,6.0,34.198001861572266,0.0,0.0,0.0,66.7128,C,24936043000000,
Raw,1732146052000,14753000000,,83.96992948851383,-1416181255247000064,0.0,83.96992948851383,1860.2193352488212,0.0,0,14,0.0,16431,344469932342136,42,39.516998291015625,517.7126595896844,0.14999,17,7655.943737693806,0.00022499999613501132,1575420030,,,,0,27.287891347871167,1,6.0,39.516998291015625,0.0,0.0,0.0,66.7128,C,24936043000000,
Raw,1732146052000,14753000000,,83.96992948851383,-1416181255247000064,0.0,83.96992948851383,1860.2193352488212,0.0,0,17,0.0,16431,344469928123163,51,37.04899978637695,37.58420829649854,0.14999,16,0.0,0.0,1575420030,,,,0,24.620119198713834,1,6.0,37.04899978637695,0.0,0.0,0.0,66.7128,C,24936043000000,
Raw,1732146052000,14753000000,,83.96992948851383,-1416181255247000064,0.0,83.96992948851383,1860.2193352488212,0.0,0,19,0.0,16431,344469919244840,235,28.63599967956543,-142.7278737790322,0.14999,16,0.0,0.0,1575420030,,,,0,14.862501458471195,1,6.0,28.63599967956543,0.0,0.0,0.0,66.7128,C,24936043000000,
Raw,1732146052000,14753000000,,83.96992948851383,-1416181255247000064,0.0,83.96992948851383,1860.2193352488212,0.0,0,7,0.0,16431,344469910113128,396,22.700000762939453,1138.9832659998044,0.14999,16,0.0,0.0,1575420030,,,,0,8.094125755342258,6,6.0,22.700000762939453,0.0,0.0,2.2176433358612715,66.7128,C,24936043000000,
Raw,1732146052000,14753000000,,83.96992948851383,-1416181255247000064,0.0,83.96992948851383,1860.2193352488212,0.0,0,19,0.0,16431,344469919416611,235,28.100000381469727,336.1589298825109,0.14999,16,0.0,0.0,1575420030,,,,0,14.862501458471195,6,6.0,28.100000381469727,0.0,0.0,2.2176433358612715,66.7128,C,24936043000000,
Raw,1732146052000,14753000000,,83.96992948851383,-1416181255247000064,0.0,83.96992948851383,1860.2193352488212,0.0,0,27,0.0,16431,344469919932238,31,41.5,793.6088911361875,0.14999,16,0.0,0.0,1575420030,,,,0,29.196577444045452,6,6.0,41.5,0.0,0.0,2.2176433358612715,66.7128,C,24936043000000,
Raw,1732146052000,14753000000,,83.96992948851383,-1416181255247000064,0.0,83.96992948851383,1860.2193352488212,0.0,0,9,0.0,17,407504,51,5.0,670.7485369577404,0.14999,17,9875.021133802746,0.00022499999613501132,1600875010,,,,0,24.532143328343953,3,6.0,37.0,0.0,0.0,28.544663764213563,66.7128,C,24936043000000,
Raw,1732146052000,14753000000,,83.96992948851383,-1416181255247000064,0.0,83.96992948851383,1860.2193352488212,0.0,0,8,0.0,17,565112,74,5.0,302.9327348681068,0.14999,16,0.0,0.0,1605374980,,,,0,17.115248780053292,3,6.0,30.0,0.0,0.0,28.544663764213563,66.7128,C,24936043000000,
Raw,1732146052000,14753000000,,83.96992948851383,-1416181255247000064,0.0,83.96992948851383,1860.2193352488212,0.0,0,7,0.0,17,847954,58,5.0,1015.509626280695,0.14999,16,0.0,0.0,1604812540,,,,0,22.38162420930502,3,6.0,35.0,0.0,0.0,28.544663764213563,66.7128,C,24936043000000,
Raw,1732146052000,14753000000,,83.96992948851383,-1416181255247000064,0.0,83.96992948851383,1860.2193352488212,0.0,0,19,0.0,17,550973,74,5.0,208.2519612761589,0.14999,16,0.0,0.0,1603687550,,,,0,17.167185930152243,3,6.0,30.0,0.0,0.0,28.544663764213563,66.7128,C,24936043000000,
Raw,1732146052000,14753000000,,83.96992948851383,-1416181255247000064,0.0,83.96992948851383,1860.2193352488212,0.0,0,16,0.0,17,444701,396,34.900001525878906,1039.4084729686165,0.14999,16,0.0,0.0,1601437440,,,,0,0.0,3,6.0,34.900001525878906,0.0,0.0,28.544663764213563,66.7128,C,24936043000000,
Raw,1732146052000,14753000000,,83.96992948851383,-1416181255247000064,0.0,83.96992948851383,1860.2193352488212,0.0,0,13,0.0,16431,344469929102736,51,36.895999908447266,210.51235230398302,0.14999,16,0.0,0.0,1575420030,,,,0,24.455061697182753,1,6.0,36.895999908447266,0.0,0.0,0.0,66.7128,C,24936043000000,
Raw,1732146052000,14753000000,,83.96992948851383,-1416181255247000064,0.0,83.96992948851383,1860.2193352488212,0.0,0,2,0.0,16431,344469919409972,487,21.201000213623047,307.39113523028624,0.14999,16,0.0,0.0,1575420030,,,,0,4.308017732102313,1,6.0,21.201000213623047,0.0,0.0,0.0,66.7128,C,24936043000000,
Raw,1732146052000,14753000000,,83.96992948851383,-1416181255247000064,0.0,83.96992948851383,1860.2193352488212,0.0,0,21,0.0,16431,344469919869790,487,20.224000930786133,497.8153097197865,0.14999,16,0.0,0.0,1575420030,,,,0,2.6306746032606982,1,6.0,20.224000930786133,0.0,0.0,0.0,66.7128,C,24936043000000,
Raw,1732146052000,14753000000,,83.96992948851383,-1416181255247000064,0.0,83.96992948851383,1860.2193352488212,0.0,0,8,0.0,16431,344469918671643,487,19.339000701904297,1222.312846734842,0.14999,16,0.0,0.0,1575420030,,,,0,0.807351854115363,1,6.0,19.339000701904297,0.0,0.0,0.0,66.7128,C,24936043000000,
Fix,FLP,37.4243655000,-122.1712328000,2.299999952316284,0.44663703,1.733,94.11637,1732146052195,1.1,93.2,24936043000000,0.9256255,0,,,
Status,1732146052000,29,0,1,14,1575420030,44.60,310.0,73.0,1,0,0,39.6
Status,1732146052000,29,1,1,30,1575420030,46.10,66.0,71.0,1,0,0,41.1
Status,1732146052000,29,2,1,22,1575420030,42.90,266.0,58.0,1,0,0,37.9
Status,1732146052000,29,3,1,13,1575420030,42.30,305.0,46.0,1,0,0,37.3
Status,1732146052000,29,4,1,17,1575420030,45.00,176.0,42.0,1,0,0,40.0
Status,1732146052000,29,5,1,7,1575420030,41.30,101.0,40.0,1,0,0,36.3
Status,1732146052000,29,6,2,131,1575420030,39.00,3.0,23.0,0,0,0,34.0
Status,1732146052000,29,7,1,2,1575420030,0.00,90.0,15.0,0,0,0,0.0
Status,1732146052000,29,8,1,19,1575420030,34.50,193.0,15.0,1,0,0,29.5
Status,1732146052000,29,9,1,15,1575420030,31.50,317.0,15.0,1,0,0,26.5
Status,1732146052000,29,10,1,21,1575420030,0.00,71.0,13.0,0,0,0,0.0
Status,1732146052000,29,11,1,8,1575420030,24.40,40.0,11.0,1,0,0,19.4
Status,1732146052000,29,12,1,5,1575420030,0.00,265.0,8.0,0,0,0,0.0
Status,1732146052000,29,13,1,9,1575420030,17.70,159.0,3.0,0,0,0,12.700001
Status,1732146052000,29,14,3,9,1602000000,49.80,12.0,55.0,1,0,0,44.8
Status,1732146052000,29,15,3,7,1602000000,43.40,235.0,46.0,1,0,0,38.4
Status,1732146052000,29,16,3,8,1602000000,39.70,307.0,38.0,1,0,0,34.7
Status,1732146052000,29,17,3,19,1602000000,31.50,90.0,31.0,1,0,0,26.5
Status,1732146052000,29,18,3,16,1602000000,28.40,65.0,16.0,1,0,0,23.4
Status,1732146052000,29,19,3,20,1602000000,0.00,151.0,7.0,0,0,0,0.0
Status,1732146052000,29,20,3,17,1602000000,39.20,0.0,0.0,0,0,0,34.2
Status,1732146052000,29,21,6,29,1575420030,0.00,206.0,63.0,0,0,0,0.0
Status,1732146052000,29,22,6,27,1575420030,45.50,34.0,61.0,1,0,0,40.5
Status,1732146052000,29,23,6,21,1575420030,0.00,265.0,56.0,0,0,0,0.0
Status,1732146052000,29,24,6,19,1575420030,35.50,300.0,49.0,1,0,0,30.5
Status,1732146052000,29,25,6,7,1575420030,33.30,160.0,19.0,1,0,0,28.3
Status,1732146052000,29,26,6,30,1575420030,0.00,57.0,12.0,0,0,0,0.0
Status,1732146052000,29,27,6,15,1575420030,0.00,97.0,9.0,0,0,0,0.0
Status,1732146052000,29,28,6,34,1575420030,0.00,49.0,6.0,0,0,0,0.0
Fix,GPS,37.4243633333,-122.1712283333,15.7,0.47766224,1.7,101.26,1732146053000,1.0,90.8,24937043000000,34.7,0,,,
Raw,1732146053000,15753000000,,88.68666428764288,-1416181255247000064,0.0,88.68666428764288,1862.827495784954,0.0,0,30,0.0,16431,344470931576908,42,41.12300109863281,616.6666702804881,0.14999,17,9698.930821880582,0.00022499999613501132,1575420030,,,,0,28.991447098104082,1,6.0,41.12300109863281,0.0,0.0,0.0,66.7128,C,24937043000000,
Raw,1732146053000,15753000000,,88.68666428764288,-1416181255247000064,0.0,88.68666428764288,1862.827495784954,0.0,0,7,0.0,16431,344470926696032,51,36.27000045776367,887.0228286107168,0.14999,17,13796.673113239487,0.00022499999613501132,1575420030,,,,0,23.770574804096288,1,6.0,36.27000045776367,0.0,0.0,0.0,66.7128,C,24937043000000,
Raw,1732146053000,15753000000,,88.68666428764288,-1416181255247000064,0.0,88.68666428764288,1862.827495784954,0.0,0,22,0.0,16431,344470929931786,51,37.85300064086914,369.9076242534998,0.14999,16,0.0,0.0,1575420030,,,,0,25.497993093486016,1,6.0,37.85300064086914,0.0,0.0,0.0,66.7128,C,24937043000000,
Raw,1732146053000,15753000000,,88.68666428764288,-1416181255247000064,0.0,88.68666428764288,1862.827495784954,0.0,0,14,0.0,16431,344470932340404,31,39.62099838256836,518.8542357928098,0.14999,17,8174.588245677586,0.00022499999613501132,1575420030,,,,0,29.50944549180381,1,6.0,39.62099838256836,0.0,0.0,0.0,66.7128,C,24937043000000,
Raw,1732146053000,15753000000,,88.68666428764288,-1416181255247000064,0.0,88.68666428764288,1862.827495784954,0.0,0,17,0.0,16431,344470928123035,42,40.0260009765625,38.27337244256566,0.14999,16,0.0,0.0,1575420030,,,,0,27.829842913215938,1,6.0,40.0260009765625,0.0,0.0,0.0,66.7128,C,24937043000000,
Raw,1732146053000,15753000000,,88.68666428764288,-1416181255247000064,0.0,88.68666428764288,1862.827495784954,0.0,0,19,0.0,16431,344470919245318,235,29.542999267578125,-142.32726285604872,0.14999,16,0.0,0.0,1575420030,,,,0,15.992435158168519,1,6.0,29.542999267578125,0.0,0.0,0.0,66.7128,C,24937043000000,
Raw,1732146053000,15753000000,,88.68666428764288,-1416181255247000064,0.0,88.68666428764288,1862.827495784954,0.0,0,15,0.0,16431,344470921156368,316,26.479999542236328,37.03223585350113,0.14999,16,0.0,0.0,1575420030,,,,0,12.069695028332141,1,6.0,26.479999542236328,0.0,0.0,0.0,66.7128,C,24937043000000,
Raw,1732146053000,15753000000,,88.68666428764288,-1416181255247000064,0.0,88.68666428764288,1862.827495784954,0.0,0,7,0.0,16431,344470910109322,235,28.299999237060547,1139.5034144276976,0.14999,16,0.0,0.0,1575420030,,,,0,15.061328786925216,6,6.0,28.299999237060547,0.0,0.0,2.5656623383664114,66.7128,C,24937043000000,
Raw,1732146053000,15753000000,,88.68666428764288,-1416181255247000064,0.0,88.68666428764288,1862.827495784954,0.0,0,19,0.0,16431,344470919415487,74,30.5,337.045588755889,0.14999,16,0.0,0.0,1575420030,,,,0,17.526252356309445,6,6.0,30.5,0.0,0.0,2.5656623383664114,66.7128,C,24937043000000,
