# 
# Header Description:
# 
# Version: v3.1.0.3 Platform: 13 Manufacturer: samsung Model: SM-S135DL GNSS Hardware Model Name: MediaTek,MT6631,MTK_MNLD_default,MNL_VER_default
# 
# Raw,utcTimeMillis,TimeNanos,LeapSecond,TimeUncertaintyNanos,FullBiasNanos,BiasNanos,BiasUncertaintyNanos,DriftNanosPerSecond,DriftUncertaintyNanosPerSecond,HardwareClockDiscontinuityCount,Svid,TimeOffsetNanos,State,ReceivedSvTimeNanos,ReceivedSvTimeUncertaintyNanos,Cn0DbHz,PseudorangeRateMetersPerSecond,PseudorangeRateUncertaintyMetersPerSecond,AccumulatedDeltaRangeState,AccumulatedDeltaRangeMeters,AccumulatedDeltaRangeUncertaintyMeters,CarrierFrequencyHz,CarrierCycles,CarrierPhase,CarrierPhaseUncertainty,MultipathIndicator,SnrInDb,ConstellationType,AgcDb,BasebandCn0DbHz,FullInterSignalBiasNanos,FullInterSignalBiasUncertaintyNanos,SatelliteInterSignalBiasNanos,SatelliteInterSignalBiasUncertaintyNanos,CodeType,ChipsetElapsedRealtimeNanos,IsFullTracking
# 
# UncalAccel,utcTimeMillis,elapsedRealtimeNanos,UncalAccelXMps2,UncalAccelYMps2,UncalAccelZMps2,BiasXMps2,BiasYMps2,BiasZMps2
# 
# Accel,utcTimeMillis,elapsedRealtimeNanos,AccelXMps2,AccelYMps2,AccelZMps2
# 
# UncalGyro,utcTimeMillis,elapsedRealtimeNanos,UncalGyroXRadPerSec,UncalGyroYRadPerSec,UncalGyroZRadPerSec,DriftXRadPerSec,DriftYRadPerSec,DriftZRadPerSec
# 
# Gyro,utcTimeMillis,elapsedRealtimeNanos,GyroXRadPerSec,GyroYRadPerSec,GyroZRadPerSec
# 
# UncalMag,utcTimeMillis,elapsedRealtimeNanos,UncalMagXMicroT,UncalMagYMicroT,UncalMagZMicroT,BiasXMicroT,BiasYMicroT,BiasZMicroT
# 
# Mag,utcTimeMillis,elapsedRealtimeNanos,MagXMicroT,MagYMicroT,MagZMicroT
# 
# Pressure,utcTimeMillis,elapsedRealtimeNanos,PressureHpa
# 
# OrientationDeg,utcTimeMillis,elapsedRealtimeNanos,yawDeg,rollDeg,pitchDeg
# 
# Fix,Provider,LatitudeDegrees,LongitudeDegrees,AltitudeMeters,SpeedMps,AccuracyMeters,BearingDegrees,UnixTimeMillis,SpeedAccuracyMps,BearingAccuracyDegrees,elapsedRealtimeNanos,VerticalAccuracyMeters,MockLocation,NumberOfUsedSignals,VerticalSpeedAccuracyMps,SolutionType
# 
# Nav,Svid,Type,Status,MessageId,Sub-messageId,Data(Bytes)
# 
# Status,UnixTimeMillis,SignalCount,SignalIndex,ConstellationType,Svid,CarrierFrequencyHz,Cn0DbHz,AzimuthDegrees,ElevationDegrees,UsedInFix,HasAlmanacData,HasEphemerisData,BasebandCn0DbHz
# 
# Agc,utcTimeMillis,TimeNanos,LeapSecond,TimeUncertaintyNanos,FullBiasNanos,BiasNanos,BiasUncertaintyNanos,DriftNanosPerSecond,DriftUncertaintyNanosPerSecond,HardwareClockDiscontinuityCount,AgcDb,CarrierFrequencyHz,ConstellationType
# 
Fix,FLP,37.4243531000,-122.1708229000,2.0,0.028564183,5.65,,1732148209944,2.6,,27093792000000,0.90180737,0,,,
Status,,29,0,1,14,1575420030,27.50,5.0,70.0,1,0,0,22.5
Status,,29,1,1,22,1575420030,0.00,299.0,67.0,0,0,0,0.0
Status,,29,2,1,30,1575420030,28.00,103.0,61.0,1,0,0,23.0
Status,,29,3,1,17,1575420030,29.40,170.0,60.0,1,0,0,24.4
Status,,29,4,1,13,1575420030,0.00,283.0,55.0,0,0,0,0.0
Status,,29,5,1,19,1575420030,25.50,194.0,31.0,1,0,0,20.5
Status,,29,6,1,7,1575420030,42.90,115.0,27.0,1,0,0,37.9
Status,,29,7,1,15,1575420030,0.00,305.0,25.0,0,0,0,0.0
Status,,29,8,2,131,1575420030,0.00,3.0,23.0,0,0,0,0.0
Status,,29,9,1,2,1575420030,40.90,74.0,20.0,1,0,0,35.9
Status,,29,10,1,21,1575420030,0.00,55.0,14.0,0,0,0,0.0
Status,,29,11,3,9,1602000000,26.60,41.0,48.0,1,0,0,21.6
Status,,29,12,3,8,1602000000,25.70,282.0,40.0,1,0,0,20.7
Status,,29,13,3,19,1602000000,0.00,67.0,36.0,0,0,0,0.0
Status,,29,14,3,20,1602000000,0.00,142.0,24.0,0,0,0,0.0
Status,,29,15,3,18,1602000000,0.00,28.0,13.0,0,0,0,0.0
Status,,29,16,3,11,1602000000,0.00,284.0,9.0,0,0,0,0.0
Status,,29,17,3,16,1602000000,38.80,80.0,6.0,1,0,0,33.8
Status,,29,18,3,17,1602000000,36.00,0.0,0.0,0,0,0,31.0
Status,,29,19,6,21,1575420030,0.00,289.0,63.0,0,0,0,0.0
Status,,29,20,6,19,1575420030,0.00,280.0,54.0,0,0,0,0.0
Status,,29,21,6,27,1575420030,21.80,45.0,50.0,1,0,0,16.8
Status,,29,22,6,29,1575420030,0.00,197.0,49.0,0,0,0,0.0
Status,,29,23,6,15,1575420030,36.60,85.0,17.0,1,0,0,31.599998
Status,,29,24,6,4,1575420030,0.00,324.0,9.0,0,0,0,0.0
Status,,29,25,6,13,1575420030,0.00,136.0,9.0,0,0,0,0.0
Status,,29,26,6,7,1575420030,0.00,162.0,6.0,0,0,0,0.0
Status,,29,27,6,34,1575420030,0.00,38.0,6.0,0,0,0,0.0
Status,,29,28,6,30,1575420030,0.00,65.0,3.0,0,0,0,0.0
Fix,GPS,37.4243633333,-122.1707616667,-3.5,0.0,5.8,0.0,1732148211000,2.1,179.9,27095055000000,44.0,0,,,
Fix,FLP,37.4243579000,-122.1707940000,2.0,0.011065025,5.8,,1732148211208,2.1,,27095055000000,0.9220043,0,,,
Raw,1732148211000,9777000000,,995211.8275103505,-1416183419223000064,0.0,139.8432960381597,2218.3257325693558,0.0,0,30,0.0,16431,346628930675032,487,22.972000122070312,888.3566497401214,0.14999,16,0.0,0.0,1575420030,,,,0,7.075469151731829,1,6.0,22.972000122070312,0.0,0.0,0.0,66.7128,C,27095055000000,
Raw,1732148211000,9777000000,,995211.8275103505,-1416183419223000064,0.0,139.8432960381597,2218.3257325693558,0.0,0,7,0.0,16431,346628923962804,51,37.85900115966797,1123.773616783966,0.14999,16,0.0,0.0,1575420030,,,,0,25.503941572063624,1,6.0,37.85900115966797,0.0,0.0,0.0,66.7128,C,27095055000000,
Raw,1732148211000,9777000000,,995211.8275103505,-1416183419223000064,0.0,139.8432960381597,2218.3257325693558,0.0,0,2,0.0,16431,346628920632361,51,35.86899948120117,613.6604855427528,0.14999,16,0.0,0.0,1575420030,,,,0,23.322088314976835,1,6.0,35.86899948120117,0.0,0.0,0.0,66.7128,C,27095055000000,
Raw,1732148211000,9777000000,,995211.8275103505,-1416183419223000064,0.0,139.8432960381597,2218.3257325693558,0.0,0,17,0.0,16431,346628931261971,487,24.4060001373291,352.20731611540634,0.14999,16,0.0,0.0,1575420030,,,,0,9.211152502093768,1,6.0,24.4060001373291,0.0,0.0,0.0,66.7128,C,27095055000000,
Raw,1732148211000,9777000000,,995211.8275103505,-1416183419223000064,0.0,139.8432960381597,2218.3257325693558,0.0,0,14,0.0,16431,346628932241691,487,22.479999542236328,756.1392028356479,0.14999,16,0.0,0.0,1575420030,,,,0,6.316946186847138,1,6.0,22.479999542236328,0.0,0.0,0.0,66.7128,C,27095055000000,
Raw,1732148211000,9777000000,,995211.8275103505,-1416183419223000064,0.0,139.8432960381597,2218.3257325693558,0.0,0,19,0.0,16431,346628924244000,396,20.450000762939453,17.4961466280563,0.14999,16,0.0,0.0,1575420030,,,,0,3.071402714435672,1,6.0,20.450000762939453,0.0,0.0,0.0,66.7128,C,27095055000000,
Raw,1732148211000,9777000000,,995211.8275103505,-1416183419223000064,0.0,139.8432960381597,2218.3257325693558,0.0,0,27,0.0,16431,346628918144539,396,16.799999237060547,948.7184903363226,0.14999,16,0.0,0.0,1575420030,,,,0,0.0,6,6.0,16.799999237060547,0.0,0.0,26.199054329707646,66.7128,C,27095055000000,
Raw,1732148211000,9777000000,,995211.8275103505,-1416183419223000064,0.0,139.8432960381597,2218.3257325693558,0.0,0,15,0.0,16431,346628909696579,58,31.600000381469727,357.1673095468758,0.14999,16,0.0,0.0,1575420030,,,,0,18.769341465855796,6,6.0,31.600000381469727,0.0,0.0,26.199054329707646,66.7128,C,27095055000000,
Raw,1732148211000,9777000000,,995211.8275103505,-1416183419223000064,0.0,139.8432960381597,2218.3257325693558,0.0,0,16,0.0,17,25547,58,5.0,1157.3348251213943,0.14999,16,0.0,0.0,1601437440,,,,0,21.1599352565766,3,6.0,33.0,0.0,0.0,63.04953716408444,66.7128,C,27095055000000,
Raw,1732148211000,9777000000,,995211.8275103505,-1416183419223000064,0.0,139.8432960381597,2218.3257325693558,0.0,0,8,0.0,17,220652,396,5.0,769.5428814028945,0.14999,16,0.0,0.0,1605374980,,,,0,5.284808782292206,3,6.0,22.0,0.0,0.0,63.04953716408444,66.7128,C,27095055000000,
Raw,1732148211000,9777000000,,995211.8275103505,-1416183419223000064,0.0,139.8432960381597,2218.3257325693558,0.0,0,9,0.0,17,376020,487,5.0,863.3788742133092,0.14999,16,0.0,0.0,1600875010,,,,0,6.574899767393031,3,6.0,20.0,0.0,0.0,63.04953716408444,66.7128,C,27095055000000,
Status,1732148211000,29,0,1,14,1575420030,28.20,5.0,70.0,1,0,0,23.2
Status,1732148211000,29,1,1,22,1575420030,0.00,299.0,67.0,0,0,0,0.0
Status,1732148211000,29,2,1,30,1575420030,23.90,103.0,61.0,1,0,0,18.9
Status,1732148211000,29,3,1,17,1575420030,28.00,170.0,60.0,1,0,0,23.0
Status,1732148211000,29,4,1,13,1575420030,19.60,283.0,55.0,1,0,0,14.6
Status,1732148211000,29,5,1,19,1575420030,24.70,194.0,31.0,1,0,0,19.7
Status,1732148211000,29,6,1,7,1575420030,43.30,115.0,27.0,1,0,0,38.3
Status,1732148211000,29,7,1,15,1575420030,22.80,305.0,25.0,1,0,0,17.8
Status,1732148211000,29,8,2,131,1575420030,31.00,3.0,23.0,0,0,0,26.0
Status,1732148211000,29,9,1,2,1575420030,41.70,74.0,20.0,1,0,0,36.7
Status,1732148211000,29,10,1,21,1575420030,0.00,55.0,14.0,0,0,0,0.0
Status,1732148211000,29,11,3,9,1602000000,0.00,41.0,48.0,0,0,0,0.0
Status,1732148211000,29,12,3,8,1602000000,29.00,282.0,40.0,1,0,0,24.0
Status,1732148211000,29,13,3,19,1602000000,0.00,67.0,36.0,0,0,0,0.0
Status,1732148211000,29,14,3,20,1602000000,0.00,142.0,24.0,0,0,0,0.0
Status,1732148211000,29,15,3,18,1602000000,0.00,28.0,13.0,0,0,0,0.0
Status,1732148211000,29,16,3,11,1602000000,0.00,284.0,9.0,0,0,0,0.0
Status,1732148211000,29,17,3,16,1602000000,32.50,80.0,6.0,1,0,0,27.5
Status,1732148211000,29,18,3,17,1602000000,30.90,0.0,0.0,0,0,0,25.9
Status,1732148211000,29,19,6,21,1575420030,0.00,289.0,63.0,0,0,0,0.0
Status,1732148211000,29,20,6,19,1575420030,0.00,280.0,54.0,0,0,0,0.0
Status,1732148211000,29,21,6,27,1575420030,26.70,45.0,50.0,1,0,0,21.7
Status,1732148211000,29,22,6,29,1575420030,0.00,197.0,49.0,0,0,0,0.0
Status,1732148211000,29,23,6,15,1575420030,34.30,85.0,17.0,1,0,0,29.3
Status,1732148211000,29,24,6,4,1575420030,0.00,324.0,9.0,0,0,0,0.0
Status,1732148211000,29,25,6,13,1575420030,0.00,136.0,9.0,0,0,0,0.0
Status,1732148211000,29,26,6,7,1575420030,0.00,162.0,6.0,0,0,0,0.0
Status,1732148211000,29,27,6,34,1575420030,0.00,38.0,6.0,0,0,0,0.0
Status,1732148211000,29,28,6,30,1575420030,0.00,65.0,3.0,0,0,0,0.0
Fix,GPS,37.4243850000,-122.1707233333,-3.5,0.0,3.7,0.0,1732148212000,1.8,179.9,27096055000000,40.8,0,,,
Raw,1732148212000,10777000000,,704328.2485612096,-1416183419223000064,0.0,111.6889004266891,2218.9430649816063,0.0,0,30,0.0,16431,346629930672067,797,18.910999298095703,888.2515608026531,0.14999,16,0.0,0.0,1575420030,,,,0,0.39486403639369794,1,6.0,18.910999298095703,0.0,0.0,0.0,66.7128,C,27096055000000,
Raw,1732148212000,10777000000,,704328.2485612096,-1416183419223000064,0.0,111.6889004266891,2218.9430649816063,0.0,0,7,0.0,16431,346629923959054,51,38.26900100708008,1124.0587785426662,0.14999,16,0.0,0.0,1575420030,,,,0,25.94239456701424,1,6.0,38.26900100708008,0.0,0.0,0.0,66.7128,C,27096055000000,
Raw,1732148212000,10777000000,,704328.2485612096,-1416183419223000064,0.0,111.6889004266891,2218.9430649816063,0.0,0,2,0.0,16431,346629920630317,51,36.71900177001953,614.1997283797085,0.14999,16,0.0,0.0,1575420030,,,,0,24.25819323801421,1,6.0,36.71900177001953,0.0,0.0,0.0,66.7128,C,27096055000000,
Raw,1732148212000,10777000000,,704328.2485612096,-1416183419223000064,0.0,111.6889004266891,2218.9430649816063,0.0,0,17,0.0,16431,346629931260792,396,22.972000122070312,352.0497523968283,0.14999,16,0.0,0.0,1575420030,,,,0,7.075469151731829,1,6.0,22.972000122070312,0.0,0.0,0.0,66.7128,C,27096055000000,
Raw,1732148212000,10777000000,,704328.2485612096,-1416183419223000064,0.0,111.6889004266891,2218.9430649816063,0.0,0,14,0.0,16431,346629932239168,396,23.19099998474121,756.1040802729927,0.14999,16,0.0,0.0,1575420030,,,,0,7.431254983540574,1,6.0,23.19099998474121,0.0,0.0,0.0,66.7128,C,27096055000000,
Raw,1732148212000,10777000000,,704328.2485612096,-1416183419223000064,0.0,111.6889004266891,2218.9430649816063,0.0,0,13,0.0,16431,346629930800716,797,14.600000381469727,576.5807227294683,0.14999,16,0.0,0.0,1575420030,,,,0,0.0,1,6.0,14.600000381469727,0.0,0.0,0.0,66.7128,C,27096055000000,
Raw,1732148212000,10777000000,,704328.2485612096,-1416183419223000064,0.0,111.6889004266891,2218.9430649816063,0.0,0,15,0.0,16431,346629924237801,487,17.805999755859375,369.28122542773315,0.14999,16,0.0,0.0,1575420030,,,,0,0.0,1,6.0,17.805999755859375,0.0,0.0,0.0,66.7128,C,27096055000000,
Raw,1732148212000,10777000000,,704328.2485612096,-1416183419223000064,0.0,111.6889004266891,2218.9430649816063,0.0,0,19,0.0,16431,346629924244042,487,19.670000076293945,18.637955123262703,0.14999,16,0.0,0.0,1575420030,,,,0,1.7244651804578108,1,6.0,19.670000076293945,0.0,0.0,0.0,66.7128,C,27096055000000,
Raw,1732148212000,10777000000,,704328.2485612096,-1416183419223000064,0.0,111.6889004266891,2218.9430649816063,0.0,0,27,0.0,16431,346629918141380,316,21.700000762939453,949.0201912911938,0.14999,16,0.0,0.0,1575420030,,,,0,6.704485093657235,6,6.0,21.700000762939453,0.0,0.0,26.979947957246505,66.7128,C,27096055000000,
Raw,1732148212000,10777000000,,704328.2485612096,-1416183419223000064,0.0,111.6889004266891,2218.9430649816063,0.0,0,15,0.0,16431,346629909695390,74,29.299999237060547,357.3241067015864,0.14999,16,0.0,0.0,1575420030,,,,0,16.22582792129738,6,6.0,29.299999237060547,0.0,0.0,26.979947957246505,66.7128,C,27096055000000,
Raw,1732148212000,10777000000,,704328.2485612096,-1416183419223000064,0.0,111.6889004266891,2218.9430649816063,0.0,0,16,0.0,17,21688,235,5.0,1157.530253872908,0.14999,16,0.0,0.0,1601437440,,,,0,14.070841372846045,3,6.0,27.0,0.0,0.0,47.00716084783461,66.7128,C,27096055000000,
Raw,1732148212000,10777000000,,704328.2485612096,-1416183419223000064,0.0,111.6889004266891,2218.9430649816063,0.0,0,8,0.0,17,218112,396,5.0,767.4522357578253,0.14999,16,0.0,0.0,1605374980,,,,0,9.810984965651993,3,6.0,21.0,0.0,0.0,47.00716084783461,66.7128,C,27096055000000,
Fix,FLP,37.4243724000,-122.1707574000,2.0,0.034563985,5.48,,1732148212207,1.8,,27096055000000,0.93202585,0,,,
Status,1732148212000,29,0,1,14,1575420030,26.70,5.0,70.0,1,0,0,21.7
Status,1732148212000,29,1,1,22,1575420030,0.00,299.0,67.0,0,0,0,0.0
Status,1732148212000,29,2,1,30,1575420030,23.90,103.0,61.0,1,0,0,18.9
Status,1732148212000,29,3,1,17,1575420030,27.00,170.0,60.0,1,0,0,22.0
Status,1732148212000,29,4,1,13,1575420030,29.90,283.0,55.0,1,0,0,24.9
Status,1732148212000,29,5,1,19,1575420030,23.50,194.0,31.0,1,0,0,18.5
Status,1732148212000,29,6,1,7,1575420030,37.50,115.0,27.0,1,0,0,32.5
Status,1732148212000,29,7,1,15,1575420030,24.90,305.0,25.0,1,0,0,19.9
Status,1732148212000,29,8,2,131,1575420030,33.00,3.0,23.0,0,0,0,28.0
Status,1732148212000,29,9,1,2,1575420030,35.60,74.0,20.0,1,0,0,30.599998
Status,1732148212000,29,10,1,21,1575420030,0.00,55.0,14.0,0,0,0,0.0
Status,1732148212000,29,11,3,9,1602000000,26.40,41.0,48.0,1,0,0,21.4
Status,1732148212000,29,12,3,8,1602000000,29.00,282.0,40.0,1,0,0,24.0
Status,1732148212000,29,13,3,19,1602000000,0.00,67.0,36.0,0,0,0,0.0
Status,1732148212000,29,14,3,20,1602000000,0.00,142.0,24.0,0,0,0,0.0
Status,1732148212000,29,15,3,18,1602000000,0.00,28.0,13.0,0,0,0,0.0
Status,1732148212000,29,16,3,11,1602000000,0.00,284.0,9.0,0,0,0,0.0
Status,1732148212000,29,17,3,16,1602000000,38.30,80.0,6.0,1,0,0,33.3
Status,1732148212000,29,18,3,17,1602000000,26.00,0.0,0.0,0,0,0,21.0
Status,1732148212000,29,19,6,21,1575420030,0.00,289.0,63.0,0,0,0,0.0
Status,1732148212000,29,20,6,19,1575420030,0.00,280.0,54.0,0,0,0,0.0
Status,1732148212000,29,21,6,27,1575420030,0.00,45.0,50.0,0,0,0,0.0
Status,1732148212000,29,22,6,29,1575420030,0.00,197.0,49.0,0,0,0,0.0
Status,1732148212000,29,23,6,15,1575420030,31.90,85.0,17.0,1,0,0,26.9
Status,1732148212000,29,24,6,4,1575420030,0.00,324.0,9.0,0,0,0,0.0
Status,1732148212000,29,25,6,13,1575420030,0.00,136.0,9.0,0,0,0,0.0
Status,1732148212000,29,26,6,7,1575420030,0.00,162.0,6.0,0,0,0,0.0
Status,1732148212000,29,27,6,34,1575420030,0.00,38.0,6.0,0,0,0,0.0
Status,1732148212000,29,28,6,30,1575420030,0.00,65.0,3.0,0,0,0,0.0
Fix,GPS,37.4243850000,-122.1706900000,-3.3000000000000007,0.0,3.2,0.0,1732148213000,1.7,179.9,27097055000000,41.5,0,,,
Raw,1732148213000,11777000000,,703939.0209576252,-1416183419223000064,0.0,110.9507290288835,2218.014688270033,0.0,0,30,0.0,16431,346630930669105,487,18.910999298095703,888.344013050912,0.14999,16,0.0,0.0,1575420030,,,,0,0.39486403639369794,1,6.0,18.910999298095703,0.0,0.0,0.0,66.7128,C,27097055000000,
Raw,1732148213000,11777000000,,703939.0209576252,-1416183419223000064,0.0,110.9507290288835,2218.014688270033,0.0,0,7,0.0,16431,346630923955301,74,32.45199966430664,1124.2542755580803,0.14999,16,0.0,0.0,1575420030,,,,0,19.46518932273511,1,6.0,32.45199966430664,0.0,0.0,0.0,66.7128,C,27097055000000,
Raw,1732148213000,11777000000,,703939.0209576252,-1416183419223000064,0.0,110.9507290288835,2218.014688270033,0.0,0,2,0.0,16431,346630920628270,74,30.57200050354004,614.9709845472197,0.14999,16,0.0,0.0,1575420030,,,,0,17.240665871832633,1,6.0,30.57200050354004,0.0,0.0,0.0,66.7128,C,27097055000000,
Raw,1732148213000,11777000000,,703939.0209576252,-1416183419223000064,0.0,110.9507290288835,2218.014688270033,0.0,0,17,0.0,16431,346630931259620,487,21.95199966430664,351.5512303616811,0.14999,16,0.0,0.0,1575420030,,,,0,5.485789236014735,1,6.0,21.95199966430664,0.0,0.0,0.0,66.7128,C,27097055000000,
Raw,1732148213000,11777000000,,703939.0209576252,-1416183419223000064,0.0,110.9507290288835,2218.014688270033,0.0,0,14,0.0,16431,346630932236644,487,21.650999069213867,756.1807366597401,0.14999,16,0.0,0.0,1575420030,,,,0,5.038348360914435,1,6.0,21.650999069213867,0.0,0.0,0.0,66.7128,C,27097055000000,
Raw,1732148213000,11777000000,,703939.0209576252,-1416183419223000064,0.0,110.9507290288835,2218.014688270033,0.0,0,13,0.0,16431,346630930798761,316,24.878000259399414,577.0120891239832,0.14999,16,0.0,0.0,1575420030,,,,0,9.849773129581186,1,6.0,24.878000259399414,0.0,0.0,0.0,66.7128,C,27097055000000,
Raw,1732148213000,11777000000,,703939.0209576252,-1416183419223000064,0.0,110.9507290288835,2218.014688270033,0.0,0,15,0.0,16431,346630924236583,487,19.902999877929688,369.2816667826871,0.14999,16,0.0,0.0,1575420030,,,,0,2.0543487376889757,1,6.0,19.902999877929688,0.0,0.0,0.0,66.7128,C,27097055000000,
Raw,1732148213000,11777000000,,703939.0209576252,-1416183419223000064,0.0,110.9507290288835,2218.014688270033,0.0,0,19,0.0,16431,346630924243984,487,18.490999221801758,18.0216377738137,0.14999,16,0.0,0.0,1575420030,,,,0,0.0,1,6.0,18.490999221801758,0.0,0.0,0.0,66.7128,C,27097055000000,
Raw,1732148213000,11777000000,,703939.0209576252,-1416183419223000064,0.0,110.9507290288835,2218.014688270033,0.0,0,15,0.0,16431,346630909694197,235,26.899999618530273,357.3912158838025,0.14999,16,0.0,0.0,1575420030,,,,0,13.408170531622973,6,6.0,26.899999618530273,0.0,0.0,26.456562566663674,66.7128,C,27097055000000,
Raw,1732148213000,11777000000,,703939.0209576252,-1416183419223000064,0.0,110.9507290288835,2218.014688270033,0.0,0,16,0.0,17,17822,58,5.0,1158.3493544539708,0.14999,16,0.0,0.0,1601437440,,,,0,20.571741405432014,3,6.0,33.0,0.0,0.0,43.652165011132766,66.7128,C,27097055000000,
Raw,1732148213000,11777000000,,703939.0209576252,-1416183419223000064,0.0,110.9507290288835,2218.014688270033,0.0,0,8,0.0,17,215550,487,5.0,768.5796233518429,0.14999,16,0.0,0.0,1605374980,,,,0,9.810984965651993,3,6.0,20.0,0.0,0.0,43.652165011132766,66.7128,C,27097055000000,
Raw,1732148213000,11777000000,,703939.0209576252,-1416183419223000064,0.0,110.9507290288835,2218.014688270033,0.0,0,9,0.0,17,370256,396,5.0,865.7253004428425,0.14999,16,0.0,0.0,1600875010,,,,0,6.308984419354373,3,6.0,22.0,0.0,0.0,43.652165011132766,66.7128,C,27097055000000,
Fix,FLP,37.4243789000,-122.1707245000,2.0,0.051681384,5.04,,1732148213207,1.7,,27097055000000,0.9430501,0,,,
Status,1732148213000,29,0,1,14,1575420030,28.50,5.0,70.0,1,0,0,23.5
Status,1732148213000,29,1,1,22,1575420030,0.00,299.0,67.0,0,0,0,0.0
Status,1732148213000,29,2,1,30,1575420030,23.90,103.0,61.0,1,0,0,18.9
Status,1732148213000,29,3,1,17,1575420030,25.90,170.0,60.0,1,0,0,20.9
Status,1732148213000,29,4,1,13,1575420030,32.10,283.0,55.0,1,0,0,27.099998
Status,1732148213000,29,5,1,19,1575420030,0.00,194.0,31.0,0,0,0,0.0
Status,1732148213000,29,6,1,7,1575420030,32.70,115.0,27.0,1,0,0,27.7
Status,1732148213000,29,7,1,15,1575420030,22.80,305.0,25.0,1,0,0,17.8
Status,1732148213000,29,8,2,131,1575420030,32.00,3.0,23.0,0,0,0,27.0
Status,1732148213000,29,9,1,2,1575420030,38.60,74.0,20.0,1,0,0,33.6
Status,1732148213000,29,10,1,21,1575420030,0.00,55.0,14.0,0,0,0,0.0
Status,1732148213000,29,11,3,9,1602000000,24.40,41.0,48.0,1,0,0,19.4
Status,1732148213000,29,12,3,8,1602000000,23.10,282.0,40.0,1,0,0,18.1
Status,1732148213000,29,13,3,19,1602000000,0.00,67.0,36.0,0,0,0,0.0
Status,1732148213000,29,14,3,20,1602000000,0.00,142.0,24.0,0,0,0,0.0
Status,1732148213000,29,15,3,18,1602000000,0.00,28.0,13.0,0,0,0,0.0
Status,1732148213000,29,16,3,11,1602000000,0.00,284.0,9.0,0,0,0,0.0
Status,1732148213000,29,17,3,16,1602000000,29.60,80.0,6.0,1,0,0,24.6
Status,1732148213000,29,18,3,17,1602000000,27.40,0.0,0.0,0,0,0,22.4
Status,1732148213000,29,19,6,21,1575420030,0.00,289.0,63.0,0,0,0,0.0
Status,1732148213000,29,20,6,19,1575420030,0.00,280.0,54.0,0,0,0,0.0
Status,1732148213000,29,21,6,27,1575420030,0.00,45.0,50.0,0,0,0,0.0
Status,1732148213000,29,22,6,29,1575420030,0.00,197.0,49.0,0,0,0,0.0
Status,1732148213000,29,23,6,15,1575420030,28.00,85.0,17.0,1,0,0,23.0
Status,1732148213000,29,24,6,4,1575420030,0.00,324.0,9.0,0,0,0,0.0
Status,1732148213000,29,25,6,13,1575420030,0.00,136.0,9.0,0,0,0,0.0
Status,1732148213000,29,26,6,7,1575420030,0.00,162.0,6.0,0,0,0,0.0
Status,1732148213000,29,27,6,34,1575420030,0.00,38.0,6.0,0,0,0,0.0
Status,1732148213000,29,28,6,30,1575420030,0.00,65.0,3.0,0,0,0,0.0
Fix,GPS,37.4243700000,-122.1706866667,-3.1999999999999993,0.0,3.0,0.0,1732148214000,1.6,167.7,27098055000000,42.1,0,,,
Raw,1732148214000,12777000000,,703789.5946668545,-1416183419223000064,0.0,109.71471311719897,2216.3062439493638,0.0,0,30,0.0,16431,346631930666141,316,18.910999298095703,888.4521682438502,0.14999,16,0.0,0.0,1575420030,,,,0,0.39486403639369794,1,6.0,18.910999298095703,0.0,0.0,0.0,66.7128,C,27098055000000,
Raw,1732148214000,12777000000,,703789.5946668545,-1416183419223000064,0.0,109.71471311719897,2216.3062439493638,0.0,0,7,0.0,16431,346631923951548,396,27.68199920654297,1123.4209044880956,0.14999,16,0.0,0.0,1575420030,,,,0,13.638655421903067,1,6.0,27.68199920654297,0.0,0.0,0.0,66.7128,C,27098055000000,
Raw,1732148214000,12777000000,,703789.5946668545,-1416183419223000064,0.0,109.71471311719897,2216.3062439493638,0.0,0,2,0.0,16431,346631920626214,58,33.555999755859375,614.7064038669007,0.14999,16,0.0,0.0,1575420030,,,,0,20.73427481923819,1,6.0,33.555999755859375,0.0,0.0,0.0,66.7128,C,27098055000000,
Raw,1732148214000,12777000000,,703789.5946668545,-1416183419223000064,0.0,109.71471311719897,2216.3062439493638,0.0,0,17,0.0,16431,346631931258448,487,20.908000946044922,351.1183308394313,0.14999,16,0.0,0.0,1575420030,,,,0,3.8071557402838403,1,6.0,20.908000946044922,0.0,0.0,0.0,66.7128,C,27098055000000,
Raw,1732148214000,12777000000,,703789.5946668545,-1416183419223000064,0.0,109.71471311719897,2216.3062439493638,0.0,0,14,0.0,16431,346631932234118,396,23.50200080871582,755.8334135401501,0.14999,16,0.0,0.0,1575420030,,,,0,7.884042292843993,1,6.0,23.50200080871582,0.0,0.0,0.0,66.7128,C,27098055000000,
Raw,1732148214000,12777000000,,703789.5946668545,-1416183419223000064,0.0,109.71471311719897,2216.3062439493638,0.0,0,13,0.0,16431,346631930796842,235,27.13599967956543,575.9047063151887,0.14999,16,0.0,0.0,1575420030,,,,0,12.927999114078908,1,6.0,27.13599967956543,0.0,0.0,0.0,66.7128,C,27098055000000,
Raw,1732148214000,12777000000,,703789.5946668545,-1416183419223000064,0.0,109.71471311719897,2216.3062439493638,0.0,0,15,0.0,16431,346631924235313,487,17.805999755859375,369.45186719047445,0.14999,16,0.0,0.0,1575420030,,,,0,0.0,1,6.0,17.805999755859375,0.0,0.0,0.0,66.7128,C,27098055000000,
Raw,1732148214000,12777000000,,703789.5946668545,-1416183419223000064,0.0,109.71471311719897,2216.3062439493638,0.0,0,15,0.0,16431,346631909693003,316,23.0,357.45920777592664,0.14999,16,0.0,0.0,1575420030,,,,0,8.572918796901936,6,6.0,23.0,0.0,0.0,26.17806137233519,66.7128,C,27098055000000,
Raw,1732148214000,12777000000,,703789.5946668545,-1416183419223000064,0.0,109.71471311719897,2216.3062439493638,0.0,0,16,0.0,17,13959,316,5.0,1158.0413119410614,0.14999,16,0.0,0.0,1601437440,,,,0,10.564049314990909,3,6.0,24.0,0.0,0.0,44.300078456250375,66.7128,C,27098055000000,
Raw,1732148214000,12777000000,,703789.5946668545,-1416183419223000064,0.0,109.71471311719897,2216.3062439493638,0.0,0,8,0.0,17,212937,487,5.0,767.21971890529,0.14999,16,0.0,0.0,1605374980,,,,0,1.03264692466333,3,6.0,20.0,0.0,0.0,44.300078456250375,66.7128,C,27098055000000,
Raw,1732148214000,12777000000,,703789.5946668545,-1416183419223000064,0.0,109.71471311719897,2216.3062439493638,0.0,0,9,0.0,17,367375,396,5.0,865.6293805209851,0.14999,16,0.0,0.0,1600875010,,,,0,3.2045136090990205,3,6.0,23.0,0.0,0.0,44.300078456250375,66.7128,C,27098055000000,
Fix,FLP,37.4243747000,-122.1707063000,2.0,0.034776855,4.56,,1732148214207,1.6,,27098055000000,0.95202917,0,,,
Status,1732148214000,29,0,1,14,1575420030,28.90,5.0,70.0,1,0,0,23.9
Status,1732148214000,29,1,1,22,1575420030,0.00,299.0,67.0,0,0,0,0.0
Status,1732148214000,29,2,1,30,1575420030,35.40,103.0,61.0,1,0,0,30.400002
Status,1732148214000,29,3,1,17,1575420030,30.30,170.0,60.0,1,0,0,25.3
Status,1732148214000,29,4,1,13,1575420030,35.20,283.0,55.0,1,0,0,30.2
Status,1732148214000,29,5,1,19,1575420030,0.00,194.0,31.0,0,0,0,0.0
Status,1732148214000,29,6,1,7,1575420030,29.40,115.0,27.0,1,0,0,24.4
Status,1732148214000,29,7,1,15,1575420030,23.60,305.0,25.0,1,0,0,18.6
Status,1732148214000,29,8,2,131,1575420030,31.00,3.0,23.0,0,0,0,26.0
Status,1732148214000,29,9,1,2,1575420030,37.40,74.0,20.0,1,0,0,32.4
Status,1732148214000,29,10,1,21,1575420030,0.00,55.0,14.0,0,0,0,0.0
Status,1732148214000,29,11,3,9,1602000000,27.30,41.0,48.0,1,0,0,22.3
Status,1732148214000,29,12,3,8,1602000000,26.30,282.0,40.0,1,0,0,21.3
Status,1732148214000,29,13,3,19,1602000000,0.00,67.0,36.0,0,0,0,0.0
Status,1732148214000,29,14,3,20,1602000000,0.00,142.0,24.0,0,0,0,0.0
Status,1732148214000,29,15,3,18,1602000000,0.00,28.0,13.0,0,0,0,0.0
Status,1732148214000,29,16,3,11,1602000000,0.00,284.0,9.0,0,0,0,0.0
Status,1732148214000,29,17,3,16,1602000000,27.50,80.0,6.0,1,0,0,22.5
Status,1732148214000,29,18,3,17,1602000000,28.70,0.0,0.0,0,0,0,23.7
Status,1732148214000,29,19,6,21,1575420030,0.00,289.0,63.0,0,0,0,0.0
Status,1732148214000,29,20,6,19,1575420030,0.00,280.0,54.0,0,0,0,0.0
Status,1732148214000,29,21,6,27,1575420030,0.00,45.0,50.0,0,0,0,0.0
Status,1732148214000,29,22,6,29,1575420030,0.00,197.0,49.0,0,0,0,0.0
Status,1732148214000,29,23,6,15,1575420030,27.20,85.0,17.0,1,0,0,22.2
Status,1732148214000,29,24,6,4,1575420030,0.00,324.0,9.0,0,0,0,0.0
Status,1732148214000,29,25,6,13,1575420030,0.00,136.0,9.0,0,0,0,0.0
Status,1732148214000,29,26,6,7,1575420030,0.00,162.0,6.0,0,0,0,0.0
Status,1732148214000,29,27,6,34,1575420030,0.00,38.0,6.0,0,0,0,0.0
Status,1732148214000,29,28,6,30,1575420030,0.00,65.0,3.0,0,0,0,0.0
Fix,GPS,37.4243650000,-122.1707066667,-3.3000000000000007,0.0,2.9,0.0,1732148215000,1.6,118.7,27099055000000,43.0,0,,,
Raw,1732148215000,13777000000,,703593.9905966547,-1416183419223000064,0.0,111.28526781774971,2216.7651635336197,0.0,0,30,0.0,16431,346632930663146,74,30.398000717163086,888.4987195768932,0.14999,16,0.0,0.0,1575420030,,,,0,17.031586223322098,1,6.0,30.398000717163086,0.0,0.0,0.0,66.7128,C,27099055000000,
Raw,1732148215000,13777000000,,703593.9905966547,-1416183419223000064,0.0,111.28526781774971,2216.7651635336197,0.0,0,7,0.0,16431,346632923947794,396,24.4060001373291,1123.5384442811082,0.14999,16,0.0,0.0,1575420030,,,,0,9.211152502093768,1,6.0,24.4060001373291,0.0,0.0,0.0,66.7128,C,27099055000000,
Raw,1732148215000,13777000000,,703593.9905966547,-1416183419223000064,0.0,111.28526781774971,2216.7651635336197,0.0,0,2,0.0,16431,346632920624160,74,32.382999420166016,613.7936818220285,0.14999,16,0.0,0.0,1575420030,,,,0,19.377526109610592,1,6.0,32.382999420166016,0.0,0.0,0.0,66.7128,C,27099055000000,
Raw,1732148215000,13777000000,,703593.9905966547,-1416183419223000064,0.0,111.28526781774971,2216.7651635336197,0.0,0,17,0.0,16431,346632931257272,396,25.270000457763672,351.8702138473827,0.14999,16,0.0,0.0,1575420030,,,,0,10.403473133765347,1,6.0,25.270000457763672,0.0,0.0,0.0,66.7128,C,27099055000000,
Raw,1732148215000,13777000000,,703593.9905966547,-1416183419223000064,0.0,111.28526781774971,2216.7651635336197,0.0,0,14,0.0,16431,346632932231593,396,23.871999740600586,756.5168168426071,0.14999,16,0.0,0.0,1575420030,,,,0,8.418727357788885,1,6.0,23.871999740600586,0.0,0.0,0.0,66.7128,C,27099055000000,
Raw,1732148215000,13777000000,,703593.9905966547,-1416183419223000064,0.0,111.28526781774971,2216.7651635336197,0.0,0,13,0.0,16431,346632930794938,74,30.235000610351562,576.0604813847427,0.14999,16,0.0,0.0,1575420030,,,,0,16.837045288603356,1,6.0,30.235000610351562,0.0,0.0,0.0,66.7128,C,27099055000000,
Raw,1732148215000,13777000000,,703593.9905966547,-1416183419223000064,0.0,111.28526781774971,2216.7651635336197,0.0,0,15,0.0,16431,346632924234071,487,18.63599967956543,369.6949840825042,0.14999,16,0.0,0.0,1575420030,,,,0,0.0,1,6.0,18.63599967956543,0.0,0.0,0.0,66.7128,C,27099055000000,
Raw,1732148215000,13777000000,,703593.9905966547,-1416183419223000064,0.0,111.28526781774971,2216.7651635336197,0.0,0,15,0.0,16431,346632909691810,316,22.200000762939453,357.33555870118226,0.14999,16,0.0,0.0,1575420030,,,,0,7.372960203396229,6,6.0,22.200000762939453,0.0,0.0,26.199971287189815,66.7128,C,27099055000000,
Raw,1732148215000,13777000000,,703593.9905966547,-1416183419223000064,0.0,111.28526781774971,2216.7651635336197,0.0,0,16,0.0,17,10098,396,5.0,1159.6534620301372,0.14999,16,0.0,0.0,1601437440,,,,0,7.794547885996659,3,6.0,22.0,0.0,0.0,47.13318709282997,66.7128,C,27099055000000,
Raw,1732148215000,13777000000,,703593.9905966547,-1416183419223000064,0.0,111.28526781774971,2216.7651635336197,0.0,0,8,0.0,17,210371,487,5.0,767.099721972766,0.14999,16,0.0,0.0,1605374980,,,,0,6.138097026729451,3,6.0,20.0,0.0,0.0,47.13318709282997,66.7128,C,27099055000000,
Raw,1732148215000,13777000000,,703593.9905966547,-1416183419223000064,0.0,111.28526781774971,2216.7651635336197,0.0,0,9,0.0,17,364479,396,5.0,867.0504401068616,0.14999,16,0.0,0.0,1600875010,,,,0,7.563935500162112,3,6.0,21.0,0.0,0.0,47.13318709282997,66.7128,C,27099055000000,
Fix,FLP,37.4243701000,-122.1707065000,2.0,0.018300317,3.72,,1732148215207,1.6,,27099055000000,0.96202004,0,,,
Status,1732148215000,29,0,1,14,1575420030,36.10,5.0,70.0,1,0,0,31.099998
Status,1732148215000,29,1,1,22,1575420030,0.00,299.0,67.0,0,0,0,0.0
Status,1732148215000,29,2,1,30,1575420030,35.40,103.0,61.0,1,0,0,30.400002
Status,1732148215000,29,3,1,17,1575420030,29.60,170.0,60.0,1,0,0,24.6
Status,1732148215000,29,4,1,13,1575420030,30.00,283.0,55.0,1,0,0,25.0
Status,1732148215000,29,5,1,19,1575420030,19.50,194.0,31.0,1,0,0,14.5
Status,1732148215000,29,6,1,7,1575420030,28.60,115.0,27.0,1,0,0,23.6
Status,1732148215000,29,7,1,15,1575420030,25.00,305.0,25.0,1,0,0,20.0
Status,1732148215000,29,8,2,131,1575420030,32.00,3.0,23.0,0,0,0,27.0
Status,1732148215000,29,9,1,2,1575420030,35.20,74.0,20.0,1,0,0,30.2
Status,1732148215000,29,10,1,21,1575420030,0.00,55.0,14.0,0,0,0,0.0
Status,1732148215000,29,11,3,9,1602000000,26.70,41.0,48.0,1,0,0,21.7
Status,1732148215000,29,12,3,8,1602000000,22.40,282.0,40.0,1,0,0,17.4
Status,1732148215000,29,13,3,19,1602000000,0.00,67.0,36.0,0,0,0,0.0
Status,1732148215000,29,14,3,20,1602000000,0.00,142.0,24.0,0,0,0,0.0
Status,1732148215000,29,15,3,18,1602000000,0.00,28.0,13.0,0,0,0,0.0
Status,1732148215000,29,16,3,11,1602000000,0.00,284.0,9.0,0,0,0,0.0
Status,1732148215000,29,17,3,16,1602000000,38.00,80.0,6.0,1,0,0,33.0
Status,1732148215000,29,18,3,17,1602000000,30.30,0.0,0.0,0,0,0,25.3
Status,1732148215000,29,19,6,21,1575420030,0.00,289.0,63.0,0,0,0,0.0
Status,1732148215000,29,20,6,19,1575420030,0.00,280.0,54.0,0,0,0,0.0
Status,1732148215000,29,21,6,27,1575420030,22.50,45.0,50.0,1,0,0,17.5
Status,1732148215000,29,22,6,29,1575420030,0.00,197.0,49.0,0,0,0,0.0
Status,1732148215000,29,23,6,15,1575420030,38.60,85.0,17.0,1,0,0,33.6
Status,1732148215000,29,24,6,4,1575420030,0.00,324.0,9.0,0,0,0,0.0
Status,1732148215000,29,25,6,13,1575420030,0.00,136.0,9.0,0,0,0,0.0
Status,1732148215000,29,26,6,7,1575420030,0.00,162.0,6.0,0,0,0,0.0
Status,1732148215000,29,27,6,34,1575420030,0.00,38.0,6.0,0,0,0,0.0
Status,1732148215000,29,28,6,30,1575420030,0.00,65.0,3.0,0,0,0,0.0
Fix,GPS,37.4243733333,-122.1707133333,-3.1999999999999993,0.0,2.9,0.0,1732148216000,2.6,179.9,27100055000000,40.4,0,,,
Raw,1732148216000,14777000000,,703115.1697618758,-1416183419223000064,0.0,104.08849114741807,2215.3226278288876,0.0,0,30,0.0,16431,346633930660177,74,30.382999420166016,887.2657132106655,0.14999,16,0.0,0.0,1575420030,,,,0,17.01232703663324,1,6.0,30.382999420166016,0.0,0.0,0.0,66.7128,C,27100055000000,
Raw,1732148216000,14777000000,,703115.1697618758,-1416183419223000064,0.0,104.08849114741807,2215.3226278288876,0.0,0,7,0.0,16431,346633923944044,396,23.570999145507812,1123.049144241579,0.14999,16,0.0,0.0,1575420030,,,,0,7.993644878195605,1,6.0,23.570999145507812,0.0,0.0,0.0,66.7128,C,27100055000000,
Raw,1732148216000,14777000000,,703115.1697618758,-1416183419223000064,0.0,104.08849114741807,2215.3226278288876,0.0,0,2,0.0,16431,346633920622114,235,30.235000610351562,613.9880173770371,0.14999,16,0.0,0.0,1575420030,,,,0,16.837045288603356,1,6.0,30.235000610351562,0.0,0.0,0.0,66.7128,C,27100055000000,
Raw,1732148216000,14777000000,,703115.1697618758,-1416183419223000064,0.0,104.08849114741807,2215.3226278288876,0.0,0,17,0.0,16431,346633931256091,487,24.586000442504883,351.738109340888,0.14999,16,0.0,0.0,1575420030,,,,0,9.444658221167838,1,6.0,24.586000442504883,0.0,0.0,0.0,66.7128,C,27100055000000,
Raw,1732148216000,14777000000,,703115.1697618758,-1416183419223000064,0.0,104.08849114741807,2215.3226278288876,0.0,0,14,0.0,16431,346633932229073,74,31.10300064086914,755.0518900626564,0.14999,16,0.0,0.0,1575420030,,,,0,17.874292831966493,1,6.0,31.10300064086914,0.0,0.0,0.0,66.7128,C,27100055000000,
Raw,1732148216000,14777000000,,703115.1697618758,-1416183419223000064,0.0,104.08849114741807,2215.3226278288876,0.0,0,13,0.0,16431,346633930793017,396,25.01799964904785,575.5582659055068,0.14999,16,0.0,0.0,1575420030,,,,0,10.066931681345352,1,6.0,25.01799964904785,0.0,0.0,0.0,66.7128,C,27100055000000,
Raw,1732148216000,14777000000,,703115.1697618758,-1416183419223000064,0.0,104.08849114741807,2215.3226278288876,0.0,0,15,0.0,16431,346633924232859,487,19.95800018310547,368.8799176285065,0.14999,16,0.0,0.0,1575420030,,,,0,2.161583305131138,1,6.0,19.95800018310547,0.0,0.0,0.0,66.7128,C,27100055000000,
Raw,1732148216000,14777000000,,703115.1697618758,-1416183419223000064,0.0,104.08849114741807,2215.3226278288876,0.0,0,19,0.0,16431,346633924243803,797,14.5,17.648390857978235,0.14999,16,0.0,0.0,1575420030,,,,0,0.0,1,6.0,14.5,0.0,0.0,0.0,66.7128,C,27100055000000,
Raw,1732148216000,14777000000,,703115.1697618758,-1416183419223000064,0.0,104.08849114741807,2215.3226278288876,0.0,0,27,0.0,16431,346633918128728,487,17.5,948.0292332734231,0.14999,16,0.0,0.0,1575420030,,,,0,0.0,6,6.0,17.5,0.0,0.0,29.769611648268356,66.7128,C,27100055000000,
Raw,1732148216000,14777000000,,703115.1697618758,-1416183419223000064,0.0,104.08849114741807,2215.3226278288876,0.0,0,15,0.0,16431,346633909690617,58,33.599998474121094,356.82577050010406,0.14999,16,0.0,0.0,1575420030,,,,0,20.90837149213894,6,6.0,33.599998474121094,0.0,0.0,29.769611648268356,66.7128,C,27100055000000,
Raw,1732148216000,14777000000,,703115.1697618758,-1416183419223000064,0.0,104.08849114741807,2215.3226278288876,0.0,0,16,0.0,17,6232,58,5.0,1157.9076745066775,0.14999,16,0.0,0.0,1601437440,,,,0,20.270363981689588,3,6.0,33.0,0.0,0.0,48.38466590230193,66.7128,C,27100055000000,
Raw,1732148216000,14777000000,,703115.1697618758,-1416183419223000064,0.0,104.08849114741807,2215.3226278288876,0.0,0,8,0.0,17,207790,487,5.0,765.9004821121611,0.14999,16,0.0,0.0,1605374980,,,,0,0.0,3,6.0,19.0,0.0,0.0,48.38466590230193,66.7128,C,27100055000000,
Raw,1732148216000,14777000000,,703115.1697618758,-1416183419223000064,0.0,104.08849114741807,2215.3226278288876,0.0,0,9,0.0,17,361587,487,5.0,865.2092165162813,0.14999,16,0.0,0.0,1600875010,,,,0,6.661759387608675,3,6.0,20.0,0.0,0.0,48.38466590230193,66.7128,C,27100055000000,
Fix,FLP,37.4243717000,-122.1707098000,2.0,0.022405198,3.583,,1732148216208,2.6,,27100055000000,0.9720227,0,,,
Status,1732148216000,29,0,1,14,1575420030,33.20,5.0,70.0,1,0,0,28.2
Status,1732148216000,29,1,1,22,1575420030,0.00,299.0,67.0,0,0,0,0.0
Status,1732148216000,29,2,1,30,1575420030,33.90,103.0,61.0,1,0,0,28.900002
Status,1732148216000,29,3,1,17,1575420030,33.60,170.0,60.0,1,0,0,28.599998
Status,1732148216000,29,4,1,13,1575420030,34.40,283.0,55.0,1,0,0,29.400002
Status,1732148216000,29,5,1,19,1575420030,30.00,194.0,31.0,1,0,0,25.0
Status,1732148216000,29,6,1,7,1575420030,32.20,115.0,27.0,1,0,0,27.2
Status,1732148216000,29,7,1,15,1575420030,25.70,305.0,25.0,1,0,0,20.7
Status,1732148216000,29,8,2,131,1575420030,33.00,3.0,23.0,0,0,0,28.0
Status,1732148216000,29,9,1,2,1575420030,31.80,74.0,20.0,1,0,0,26.8
Status,1732148216000,29,10,1,21,1575420030,0.00,55.0,14.0,0,0,0,0.0
Status,1732148216000,29,11,3,9,1602000000,27.90,41.0,48.0,1,0,0,22.9
Status,1732148216000,29,12,3,8,1602000000,25.60,282.0,40.0,1,0,0,20.6
Status,1732148216000,29,13,3,19,1602000000,0.00,67.0,36.0,0,0,0,0.0
Status,1732148216000,29,14,3,20,1602000000,0.00,142.0,24.0,0,0,0,0.0
Status,1732148216000,29,15,3,18,1602000000,22.80,28.0,13.0,1,0,0,17.8
Status,1732148216000,29,16,3,11,1602000000,0.00,284.0,9.0,0,0,0,0.0
Status,1732148216000,29,17,3,16,1602000000,28.20,80.0,6.0,1,0,0,23.2
Status,1732148216000,29,18,3,17,1602000000,29.50,0.0,0.0,0,0,0,24.5
Status,1732148216000,29,19,6,21,1575420030,27.20,289.0,63.0,1,0,0,22.2
Status,1732148216000,29,20,6,19,1575420030,0.00,280.0,54.0,0,0,0,0.0
Status,1732148216000,29,21,6,27,1575420030,33.40,45.0,50.0,1,0,0,28.400002
Status,1732148216000,29,22,6,29,1575420030,0.00,197.0,49.0,0,0,0,0.0
Status,1732148216000,29,23,6,15,1575420030,44.90,85.0,17.0,1,0,0,39.9
Status,1732148216000,29,24,6,4,1575420030,0.00,324.0,9.0,0,0,0,0.0
Status,1732148216000,29,25,6,13,1575420030,0.00,136.0,9.0,0,0,0,0.0
Status,1732148216000,29,26,6,7,1575420030,0.00,162.0,6.0,0,0,0,0.0
Status,1732148216000,29,27,6,34,1575420030,0.00,38.0,6.0,0,0,0,0.0
Status,1732148216000,29,28,6,30,1575420030,0.00,65.0,3.0,0,0,0,0.0
Fix,GPS,37.4243900000,-122.1707316667,-3.099999999999998,0.0,2.8,0.0,1732148217000,2.7,179.9,27101055000000,40.8,0,,,
Fix,FLP,37.4243808000,-122.1707202000,2.0,0.04890884,3.083,,1732148217207,2.7,,27101055000000,0.9788356,0,,,
Raw,1732148217000,15777000000,,701813.8007160941,-1416183419223000064,0.0,105.38011931336223,2212.654741451904,0.0,0,30,0.0,16431,346634930657220,235,28.94099998474121,887.302229525807,0.14999,16,0.0,0.0,1575420030,,,,0,15.24357799873588,1,6.0,28.94099998474121,0.0,0.0,0.0,66.7128,C,27101055000000,
Raw,1732148217000,15777000000,,701813.8007160941,-1416183419223000064,0.0,105.38011931336223,2212.654741451904,0.0,0,7,0.0,16431,346634923940292,235,27.201000213623047,1123.3390447587326,0.14999,16,0.0,0.0,1575420030,,,,0,13.020076544953405,1,6.0,27.201000213623047,0.0,0.0,0.0,66.7128,C,27101055000000,
Raw,1732148217000,15777000000,,701813.8007160941,-1416183419223000064,0.0,105.38011931336223,2212.654741451904,0.0,0,2,0.0,16431,346634920620066,316,26.781999588012695,613.0951795343029,0.14999,16,0.0,0.0,1575420030,,,,0,12.48490685747655,1,6.0,26.781999588012695,0.0,0.0,0.0,66.7128,C,27101055000000,
Raw,1732148217000,15777000000,,701813.8007160941,-1416183419223000064,0.0,105.38011931336223,2212.654741451904,0.0,0,17,0.0,16431,346634931254915,316,28.583999633789062,350.8623449661112,0.14999,16,0.0,0.0,1575420030,,,,0,14.80737473196561,1,6.0,28.583999633789062,0.0,0.0,0.0,66.7128,C,27101055000000,
Raw,1732148217000,15777000000,,701813.8007160941,-1416183419223000064,0.0,105.38011931336223,2212.654741451904,0.0,0,14,0.0,16431,346634932226553,235,28.155000686645508,755.1751906992793,0.14999,16,0.0,0.0,1575420030,,,,0,14.242657216887643,1,6.0,28.155000686645508,0.0,0.0,0.0,66.7128,C,27101055000000,
Raw,1732148217000,15777000000,,701813.8007160941,-1416183419223000064,0.0,105.38011931336223,2212.654741451904,0.0,0,13,0.0,16431,346634930791097,235,29.384000778198242,575.7709989933348,0.14999,16,0.0,0.0,1575420030,,,,0,15.793066458210848,1,6.0,29.384000778198242,0.0,0.0,0.0,66.7128,C,27101055000000,
Raw,1732148217000,15777000000,,701813.8007160941,-1416183419223000064,0.0,105.38011931336223,2212.654741451904,0.0,0,15,0.0,16431,346634924231622,487,20.658000946044922,369.26896040585353,0.14999,16,0.0,0.0,1575420030,,,,0,3.3546633477819605,1,6.0,20.658000946044922,0.0,0.0,0.0,66.7128,C,27101055000000,
Raw,1732148217000,15777000000,,701813.8007160941,-1416183419223000064,0.0,105.38011931336223,2212.654741451904,0.0,0,19,0.0,16431,346634924243742,316,25.01799964904785,17.5000955934342,0.14999,16,0.0,0.0,1575420030,,,,0,10.066931681345352,1,6.0,25.01799964904785,0.0,0.0,0.0,66.7128,C,27101055000000,
Raw,1732148217000,15777000000,,701813.8007160941,-1416183419223000064,0.0,105.38011931336223,2212.654741451904,0.0,0,27,0.0,16431,346634918125581,74,28.399999618530273,947.1504258723845,0.14999,16,0.0,0.0,1575420030,,,,0,15.148519434232739,6,6.0,28.399999618530273,0.0,0.0,27.569026822794772,66.7128,C,27101055000000,
Raw,1732148217000,15777000000,,701813.8007160941,-1416183419223000064,0.0,105.38011931336223,2212.654741451904,0.0,0,15,0.0,16431,346634909689426,42,39.900001525878906,356.77554895218043,0.14999,16,0.0,0.0,1575420030,,,,0,27.583870264215324,6,6.0,39.900001525878906,0.0,0.0,27.569026822794772,66.7128,C,27101055000000,
Raw,1732148217000,15777000000,,701813.8007160941,-1416183419223000064,0.0,105.38011931336223,2212.654741451904,0.0,0,21,0.0,16431,346634920219984,396,22.200000762939453,555.6897202536593,0.14999,16,0.0,0.0,1575420030,,,,0,7.431254983540574,6,6.0,22.200000762939453,0.0,0.0,27.569026822794772,66.7128,C,27101055000000,
Raw,1732148217000,15777000000,,701813.8007160941,-1416183419223000064,0.0,105.38011931336223,2212.654741451904,0.0,0,16,0.0,17,2374,396,5.0,1157.446981846421,0.14999,16,0.0,0.0,1601437440,,,,0,8.793281324899102,3,6.0,22.0,0.0,0.0,51.84575065443407,66.7128,C,27101055000000,
Raw,1732148217000,15777000000,,701813.8007160941,-1416183419223000064,0.0,105.38011931336223,2212.654741451904,0.0,0,8,0.0,17,205239,487,5.0,766.6791856104553,0.14999,16,0.0,0.0,1605374980,,,,0,5.116590873214478,3,6.0,18.0,0.0,0.0,51.84575065443407,66.7128,C,27101055000000,
Raw,1732148217000,15777000000,,701813.8007160941,-1416183419223000064,0.0,105.38011931336223,2212.654741451904,0.0,0,18,0.0,17,615695,487,5.0,1188.5509018443847,0.14999,16,0.0,0.0,1600312450,,,,0,0.5105421311498954,3,6.0,19.0,0.0,0.0,51.84575065443407,66.7128,C,27101055000000,
Raw,1732148217000,15777000000,,701813.8007160941,-1416183419223000064,0.0,105.38011931336223,2212.654741451904,0.0,0,9,0.0,17,358709,316,5.0,863.6007976168818,0.14999,16,0.0,0.0,1600875010,,,,0,8.309963711165143,3,6.0,25.0,0.0,0.0,51.84575065443407,66.7128,C,27101055000000,
Status,1732148217000,29,0,1,14,1575420030,30.70,5.0,70.0,1,0,0,25.7
Status,1732148217000,29,1,1,22,1575420030,0.00,299.0,67.0,0,0,0,0.0
Status,1732148217000,29,2,1,30,1575420030,33.90,103.0,61.0,1,0,0,28.900002
Status,1732148217000,29,3,1,17,1575420030,29.70,170.0,60.0,1,0,0,24.7
Status,1732148217000,29,4,1,13,1575420030,30.60,283.0,55.0,1,0,0,25.6
Status,1732148217000,29,5,1,19,1575420030,26.70,194.0,31.0,1,0,0,21.7
Status,1732148217000,29,6,1,7,1575420030,34.10,115.0,27.0,1,0,0,29.099998
Status,1732148217000,29,7,1,15,1575420030,28.10,305.0,25.0,1,0,0,23.1
Status,1732148217000,29,8,2,131,1575420030,33.00,3.0,23.0,0,0,0,28.0
Status,1732148217000,29,9,1,2,1575420030,32.00,74.0,20.0,1,0,0,27.0
Status,1732148217000,29,10,1,21,1575420030,0.00,55.0,14.0,0,0,0,0.0
Status,1732148217000,29,11,3,9,1602000000,29.80,41.0,48.0,1,0,0,24.8
Status,1732148217000,29,12,3,8,1602000000,24.10,282.0,40.0,1,0,0,19.1
Status,1732148217000,29,13,3,19,1602000000,0.00,67.0,36.0,0,0,0,0.0
Status,1732148217000,29,14,3,20,1602000000,0.00,142.0,24.0,0,0,0,0.0
Status,1732148217000,29,15,3,18,1602000000,22.40,28.0,13.0,1,0,0,17.4
Status,1732148217000,29,16,3,11,1602000000,0.00,284.0,9.0,0,0,0,0.0
Status,1732148217000,29,17,3,16,1602000000,27.30,80.0,6.0,1,0,0,22.3
Status,1732148217000,29,18,3,17,1602000000,27.90,0.0,0.0,0,0,0,22.9
Status,1732148217000,29,19,6,21,1575420030,25.00,289.0,63.0,1,0,0,20.0
Status,1732148217000,29,20,6,19,1575420030,0.00,280.0,54.0,0,0,0,0.0
Status,1732148217000,29,21,6,27,1575420030,26.90,45.0,50.0,1,0,0,21.9
Status,1732148217000,29,22,6,29,1575420030,0.00,197.0,49.0,0,0,0,0.0
Status,1732148217000,29,23,6,15,1575420030,36.70,85.0,17.0,1,0,0,31.7
Status,1732148217000,29,24,6,4,1575420030,0.00,324.0,9.0,0,0,0,0.0
Status,1732148217000,29,25,6,13,1575420030,0.00,136.0,9.0,0,0,0,0.0
Status,1732148217000,29,26,6,7,1575420030,0.00,162.0,6.0,0,0,0,0.0
Status,1732148217000,29,27,6,34,1575420030,0.00,38.0,6.0,0,0,0,0.0
Status,1732148217000,29,28,6,30,1575420030,0.00,65.0,3.0,0,0,0,0.0
Fix,GPS,37.4243950000,-122.1707433333,-3.099999999999998,0.0,2.8,0.0,1732148218000,2.5,179.9,27102055000000,41.6,0,,,
Raw,1732148218000,16777000000,,700995.5262950611,-1416183419223000064,0.0,107.27380532401389,2214.795171729368,0.0,0,30,0.0,16431,346635930654258,235,28.888999938964844,889.2686284503342,0.14999,16,0.0,0.0,1575420030,,,,0,15.172381783411472,1,6.0,28.888999938964844,0.0,0.0,0.0,66.7128,C,27102055000000,
Raw,1732148218000,16777000000,,700995.5262950611,-1416183419223000064,0.0,107.27380532401389,2214.795171729368,0.0,0,7,0.0,16431,346635923936546,235,29.131999969482422,1124.583665729013,0.14999,16,0.0,0.0,1575420030,,,,0,15.476770249635747,1,6.0,29.131999969482422,0.0,0.0,0.0,66.7128,C,27102055000000,
Raw,1732148218000,16777000000,,700995.5262950611,-1416183419223000064,0.0,107.27380532401389,2214.795171729368,0.0,0,2,0.0,16431,346635920618014,316,27.024999618530273,613.3843367167974,0.14999,16,0.0,0.0,1575420030,,,,0,12.803690879505506,1,6.0,27.024999618530273,0.0,0.0,0.0,66.7128,C,27102055000000,
Raw,1732148218000,16777000000,,700995.5262950611,-1416183419223000064,0.0,107.27380532401389,2214.795171729368,0.0,0,17,0.0,16431,346635931253741,316,24.704999923706055,352.2866206318777,0.14999,16,0.0,0.0,1575420030,,,,0,9.627045807221997,1,6.0,24.704999923706055,0.0,0.0,0.0,66.7128,C,27102055000000,
Raw,1732148218000,16777000000,,700995.5262950611,-1416183419223000064,0.0,107.27380532401389,2214.795171729368,0.0,0,14,0.0,16431,346635932224032,316,25.719999313354492,755.3159132419809,0.14999,16,0.0,0.0,1575420030,,,,0,11.03979525730862,1,6.0,25.719999313354492,0.0,0.0,0.0,66.7128,C,27102055000000,
Raw,1732148218000,16777000000,,700995.5262950611,-1416183419223000064,0.0,107.27380532401389,2214.795171729368,0.0,0,13,0.0,16431,346635930789167,316,25.589000701904297,576.6539876518323,0.14999,16,0.0,0.0,1575420030,,,,0,10.845905741513373,1,6.0,25.589000701904297,0.0,0.0,0.0,66.7128,C,27102055000000,
Raw,1732148218000,16777000000,,700995.5262950611,-1416183419223000064,0.0,107.27380532401389,2214.795171729368,0.0,0,15,0.0,16431,346635924230366,396,23.082000732421875,371.344629525308,0.14999,16,0.0,0.0,1575420030,,,,0,7.255183624134171,1,6.0,23.082000732421875,0.0,0.0,0.0,66.7128,C,27102055000000,
Raw,1732148218000,16777000000,,700995.5262950611,-1416183419223000064,0.0,107.27380532401389,2214.795171729368,0.0,0,19,0.0,16431,346635924243676,396,21.695999145507812,18.55739622955363,0.14999,16,0.0,0.0,1575420030,,,,0,5.114540863849741,1,6.0,21.695999145507812,0.0,0.0,0.0,66.7128,C,27102055000000,
Raw,1732148218000,16777000000,,700995.5262950611,-1416183419223000064,0.0,107.27380532401389,2214.795171729368,0.0,0,27,0.0,16431,346635918122416,235,21.899999618530273,948.04753788941,0.14999,16,0.0,0.0,1575420030,,,,0,7.014728417222186,6,6.0,21.899999618530273,0.0,0.0,25.83441814387871,66.7128,C,27102055000000,
Raw,1732148218000,16777000000,,700995.5262950611,-1416183419223000064,0.0,107.27380532401389,2214.795171729368,0.0,0,15,0.0,16431,346635909688234,74,31.700000762939453,357.52859342053705,0.14999,16,0.0,0.0,1575420030,,,,0,18.92542634228114,6,6.0,31.700000762939453,0.0,0.0,25.83441814387871,66.7128,C,27102055000000,
Raw,1732148218000,16777000000,,700995.5262950611,-1416183419223000064,0.0,107.27380532401389,2214.795171729368,0.0,0,21,0.0,16431,346635920218124,487,20.0,556.1208543560931,0.14999,16,0.0,0.0,1575420030,,,,0,4.237238126190336,6,6.0,20.0,0.0,0.0,25.83441814387871,66.7128,C,27102055000000,
Raw,1732148218000,16777000000,,700995.5262950611,-1416183419223000064,0.0,107.27380532401389,2214.795171729368,0.0,0,16,0.0,17,998509,487,5.0,1156.8212076495727,0.14999,16,0.0,0.0,1601437440,,,,0,7.498774732165998,3,6.0,20.0,0.0,0.0,53.41434346563044,66.7128,C,27102055000000,
Raw,1732148218000,16777000000,,700995.5262950611,-1416183419223000064,0.0,107.27380532401389,2214.795171729368,0.0,0,8,0.0,17,202669,487,5.0,768.6314153409567,0.14999,16,0.0,0.0,1605374980,,,,0,2.732862718830304,3,6.0,20.0,0.0,0.0,53.41434346563044,66.7128,C,27102055000000,
Raw,1732148218000,16777000000,,700995.5262950611,-1416183419223000064,0.0,107.27380532401389,2214.795171729368,0.0,0,18,0.0,17,611821,487,5.0,1190.6190731840218,0.14999,16,0.0,0.0,1600312450,,,,0,0.0,3,6.0,19.0,0.0,0.0,53.41434346563044,66.7128,C,27102055000000,
Raw,1732148218000,16777000000,,700995.5262950611,-1416183419223000064,0.0,107.27380532401389,2214.795171729368,0.0,0,9,0.0,17,355823,316,5.0,865.7621505176837,0.14999,16,0.0,0.0,1600875010,,,,0,10.88879329240462,3,6.0,25.0,0.0,0.0,53.41434346563044,66.7128,C,27102055000000,
Fix,FLP,37.4243880000,-122.1707313000,2.0,0.068475425,2.933,,1732148218207,2.5,,27102055000000,0.9878316,0,,,
Status,1732148218000,29,0,1,14,1575420030,34.40,5.0,70.0,1,0,0,29.400002
Status,1732148218000,29,1,1,22,1575420030,0.00,299.0,67.0,0,0,0,0.0
Status,1732148218000,29,2,1,30,1575420030,35.10,103.0,61.0,1,0,0,30.099998
Status,1732148218000,29,3,1,17,1575420030,29.00,170.0,60.0,1,0,0,24.0
Status,1732148218000,29,4,1,13,1575420030,30.00,283.0,55.0,1,0,0,25.0
Status,1732148218000,29,5,1,19,1575420030,30.50,194.0,31.0,1,0,0,25.5
Status,1732148218000,29,6,1,7,1575420030,30.00,115.0,27.0,1,0,0,25.0
Status,1732148218000,29,7,1,15,1575420030,28.20,305.0,25.0,1,0,0,23.2
Status,1732148218000,29,8,2,131,1575420030,33.00,3.0,23.0,0,0,0,28.0
Status,1732148218000,29,9,1,2,1575420030,28.50,74.0,20.0,1,0,0,23.5
Status,1732148218000,29,10,1,21,1575420030,0.00,55.0,14.0,0,0,0,0.0
Status,1732148218000,29,11,3,9,1602000000,25.10,41.0,48.0,1,0,0,20.1
Status,1732148218000,29,12,3,8,1602000000,24.10,282.0,40.0,1,0,0,19.1
Status,1732148218000,29,13,3,19,1602000000,0.00,67.0,36.0,0,0,0,0.0
Status,1732148218000,29,14,3,20,1602000000,0.00,142.0,24.0,0,0,0,0.0
Status,1732148218000,29,15,3,18,1602000000,23.30,28.0,13.0,1,0,0,18.3
Status,1732148218000,29,16,3,11,1602000000,0.00,284.0,9.0,0,0,0,0.0
Status,1732148218000,29,17,3,16,1602000000,27.70,80.0,6.0,1,0,0,22.7
Status,1732148218000,29,18,3,17,1602000000,26.90,0.0,0.0,0,0,0,21.9
Status,1732148218000,29,19,6,21,1575420030,27.20,289.0,63.0,1,0,0,22.2
Status,1732148218000,29,20,6,19,1575420030,0.00,280.0,54.0,0,0,0,0.0
Status,1732148218000,29,21,6,27,1575420030,28.30,45.0,50.0,1,0,0,23.3
Status,1732148218000,29,22,6,29,1575420030,0.00,197.0,49.0,0,0,0,0.0
Status,1732148218000,29,23,6,15,1575420030,30.10,85.0,17.0,1,0,0,25.1
Status,1732148218000,29,24,6,4,1575420030,0.00,324.0,9.0,0,0,0,0.0
Status,1732148218000,29,25,6,13,1575420030,0.00,136.0,9.0,0,0,0,0.0
Status,1732148218000,29,26,6,7,1575420030,0.00,162.0,6.0,0,0,0,0.0
Status,1732148218000,29,27,6,34,1575420030,0.00,38.0,6.0,0,0,0,0.0
Status,1732148218000,29,28,6,30,1575420030,0.00,65.0,3.0,0,0,0,0.0
Fix,GPS,37.4243883333,-122.1707466667,-3.1999999999999993,0.0,2.9,0.0,1732148219000,2.7,121.9,27103055000000,42.2,0,,,
Fix,FLP,37.4243885000,-122.1707386000,2.0,0.06648907,2.883,,1732148219207,2.7,,27103055000000,0.997833,0,,,
Raw,1732148219000,17777000000,,700908.7475109197,-1416183419223000064,0.0,109.61995406046142,2219.4653727690156,0.0,0,30,0.0,16431,346636930651290,74,30.143999099731445,890.446070550774,0.14999,16,0.0,0.0,1575420030,,,,0,16.718194317205246,1,6.0,30.143999099731445,0.0,0.0,0.0,66.7128,C,27103055000000,
Raw,1732148219000,17777000000,,700908.7475109197,-1416183419223000064,0.0,109.61995406046142,2219.4653727690156,0.0,0,7,0.0,16431,346636923932795,316,25.01799964904785,1125.0544753188906,0.14999,16,0.0,0.0,1575420030,,,,0,10.066931681345352,1,6.0,25.01799964904785,0.0,0.0,0.0,66.7128,C,27103055000000,
Raw,1732148219000,17777000000,,700908.7475109197,-1416183419223000064,0.0,109.61995406046142,2219.4653727690156,0.0,0,2,0.0,16431,346636920615962,396,23.53700065612793,615.4652556372836,0.14999,16,0.0,0.0,1575420030,,,,0,7.939016461407012,1,6.0,23.53700065612793,0.0,0.0,0.0,66.7128,C,27103055000000,
Raw,1732148219000,17777000000,,700908.7475109197,-1416183419223000064,0.0,109.61995406046142,2219.4653727690156,0.0,0,17,0.0,16431,346636931252563,316,23.999000549316406,353.29544191068146,0.14999,16,0.0,0.0,1575420030,,,,0,8.623713617907391,1,6.0,23.999000549316406,0.0,0.0,0.0,66.7128,C,27103055000000,
Raw,1732148219000,17777000000,,700908.7475109197,-1416183419223000064,0.0,109.61995406046142,2219.4653727690156,0.0,0,14,0.0,16431,346636932221513,235,29.384000778198242,756.1963466875868,0.14999,16,0.0,0.0,1575420030,,,,0,15.793066458210848,1,6.0,29.384000778198242,0.0,0.0,0.0,66.7128,C,27103055000000,
Raw,1732148219000,17777000000,,700908.7475109197,-1416183419223000064,0.0,109.61995406046142,2219.4653727690156,0.0,0,13,0.0,16431,346636930787237,316,25.01799964904785,578.4737638147991,0.14999,16,0.0,0.0,1575420030,,,,0,10.066931681345352,1,6.0,25.01799964904785,0.0,0.0,0.0,66.7128,C,27103055000000,
Raw,1732148219000,17777000000,,700908.7475109197,-1416183419223000064,0.0,109.61995406046142,2219.4653727690156,0.0,0,15,0.0,16431,346636924229158,396,23.15399932861328,372.27421597526467,0.14999,16,0.0,0.0,1575420030,,,,0,9.352007853225734,1,6.0,23.15399932861328,0.0,0.0,0.0,66.7128,C,27103055000000,
Raw,1732148219000,17777000000,,700908.7475109197,-1416183419223000064,0.0,109.61995406046142,2219.4653727690156,0.0,0,19,0.0,16431,346636924243652,396,25.482999801635742,19.87393482812786,0.14999,16,0.0,0.0,1575420030,,,,0,10.727459956460418,1,6.0,25.482999801635742,0.0,0.0,0.0,66.7128,C,27103055000000,
Raw,1732148219000,17777000000,,700908.7475109197,-1416183419223000064,0.0,109.61995406046142,2219.4653727690156,0.0,0,27,0.0,16431,346636918119246,316,23.299999237060547,949.351904382937,0.14999,16,0.0,0.0,1575420030,,,,0,8.873325324808434,6,6.0,23.299999237060547,0.0,0.0,25.29186708424408,66.7128,C,27103055000000,
Raw,1732148219000,17777000000,,700908.7475109197,-1416183419223000064,0.0,109.61995406046142,2219.4653727690156,0.0,0,15,0.0,16431,346636909687037,316,25.100000381469727,358.2847273735717,0.14999,16,0.0,0.0,1575420030,,,,0,11.191849724844946,6,6.0,25.100000381469727,0.0,0.0,25.29186708424408,66.7128,C,27103055000000,
Raw,1732148219000,17777000000,,700908.7475109197,-1416183419223000064,0.0,109.61995406046142,2219.4653727690156,0.0,0,21,0.0,16431,346636920216263,316,22.200000762939453,558.0186806582936,0.14999,16,0.0,0.0,1575420030,,,,0,7.489161128928848,6,6.0,22.200000762939453,0.0,0.0,25.29186708424408,66.7128,C,27103055000000,
Raw,1732148219000,17777000000,,700908.7475109197,-1416183419223000064,0.0,109.61995406046142,2219.4653727690156,0.0,0,16,0.0,17,994699,396,5.0,1158.932624268474,0.14999,16,0.0,0.0,1601437440,,,,0,8.170121685091368,3,6.0,22.0,0.0,0.0,45.753191752607265,66.7128,C,27103055000000,
Raw,1732148219000,17777000000,,700908.7475109197,-1416183419223000064,0.0,109.61995406046142,2219.4653727690156,0.0,0,8,0.0,17,200107,487,5.0,768.1481450200012,0.14999,16,0.0,0.0,1605374980,,,,0,2.732862718830304,3,6.0,18.0,0.0,0.0,45.753191752607265,66.7128,C,27103055000000,
Raw,1732148219000,17777000000,,700908.7475109197,-1416183419223000064,0.0,109.61995406046142,2219.4653727690156,0.0,0,18,0.0,17,607922,487,5.0,1193.7221534372657,0.14999,16,0.0,0.0,1600312450,,,,0,1.5042978149320465,3,6.0,19.0,0.0,0.0,45.753191752607265,66.7128,C,27103055000000,
Raw,1732148219000,17777000000,,700908.7475109197,-1416183419223000064,0.0,109.61995406046142,2219.4653727690156,0.0,0,9,0.0,17,352977,487,5.0,867.0989029844445,0.14999,16,0.0,0.0,1600875010,,,,0,4.404472202604727,3,6.0,19.0,0.0,0.0,45.753191752607265,66.7128,C,27103055000000,
Status,1732148219000,29,0,1,14,1575420030,37.60,5.0,70.0,1,0,0,32.6
Status,1732148219000,29,1,1,22,1575420030,0.00,299.0,67.0,0,0,0,0.0
Status,1732148219000,29,2,1,30,1575420030,33.70,103.0,61.0,1,0,0,28.7
Status,1732148219000,29,3,1,17,1575420030,33.20,170.0,60.0,1,0,0,28.2
Status,1732148219000,29,4,1,13,1575420030,32.90,283.0,55.0,1,0,0,27.900002
Status,1732148219000,29,5,1,19,1575420030,33.70,194.0,31.0,1,0,0,28.7
Status,1732148219000,29,6,1,7,1575420030,34.20,115.0,27.0,1,0,0,29.2
Status,1732148219000,29,7,1,15,1575420030,29.90,305.0,25.0,1,0,0,24.9
Status,1732148219000,29,8,2,131,1575420030,35.00,3.0,23.0,0,0,0,30.0
Status,1732148219000,29,9,1,2,1575420030,32.30,74.0,20.0,1,0,0,27.3
Status,1732148219000,29,10,1,21,1575420030,0.00,55.0,14.0,0,0,0,0.0
Status,1732148219000,29,11,3,9,1602000000,30.10,41.0,48.0,1,0,0,25.1
Status,1732148219000,29,12,3,8,1602000000,24.00,282.0,40.0,1,0,0,19.0
Status,1732148219000,29,13,3,19,1602000000,0.00,67.0,36.0,0,0,0,0.0
Status,1732148219000,29,14,3,20,1602000000,0.00,142.0,24.0,0,0,0,0.0
Status,1732148219000,29,15,3,18,1602000000,23.30,28.0,13.0,1,0,0,18.3
Status,1732148219000,29,16,3,11,1602000000,0.00,284.0,9.0,0,0,0,0.0
Status,1732148219000,29,17,3,16,1602000000,24.60,80.0,6.0,1,0,0,19.6
Status,1732148219000,29,18,3,17,1602000000,29.10,0.0,0.0,0,0,0,24.1
Status,1732148219000,29,19,6,21,1575420030,26.00,289.0,63.0,1,0,0,21.0
Status,1732148219000,29,20,6,19,1575420030,0.00,280.0,54.0,0,0,0,0.0
Status,1732148219000,29,21,6,27,1575420030,26.40,45.0,50.0,1,0,0,21.4
Status,1732148219000,29,22,6,29,1575420030,0.00,197.0,49.0,0,0,0,0.0
Status,1732148219000,29,23,6,15,1575420030,29.40,85.0,17.0,1,0,0,24.4
Status,1732148219000,29,24,6,4,1575420030,0.00,324.0,9.0,0,0,0,0.0
Status,1732148219000,29,25,6,13,1575420030,0.00,136.0,9.0,0,0,0,0.0
Status,1732148219000,29,26,6,7,1575420030,0.00,162.0,6.0,0,0,0,0.0
Status,1732148219000,29,27,6,34,1575420030,0.00,38.0,6.0,0,0,0,0.0
Status,1732148219000,29,28,6,30,1575420030,0.00,65.0,3.0,0,0,0,0.0
Fix,GPS,37.4243916667,-122.1707616667,-3.1999999999999993,0.0,2.7,0.0,1732148220000,2.5,173.9,27104055000000,39.8,0,,,
Fix,FLP,37.4243903000,-122.1707497000,2.0,0.06890114,2.833,,1732148220207,2.5,,27104055000000,1.0088396,0,,,
Raw,1732148220000,18777000000,,699851.5056873112,-1416183419223000064,0.0,100.93348027330921,2224.8484336256056,0.0,0,30,0.0,16431,346637930648315,235,28.676000595092773,890.4721801806844,0.14999,16,0.0,0.0,1575420030,,,,0,14.906219492989969,1,6.0,28.676000595092773,0.0,0.0,0.0,66.7128,C,27104055000000,
Raw,1732148220000,18777000000,,699851.5056873112,-1416183419223000064,0.0,100.93348027330921,2224.8484336256056,0.0,0,7,0.0,16431,346637923929040,235,29.216999053955078,1126.4259277654257,0.14999,16,0.0,0.0,1575420030,,,,0,15.591059920124335,1,6.0,29.216999053955078,0.0,0.0,0.0,66.7128,C,27104055000000,
Raw,1732148220000,18777000000,,699851.5056873112,-1416183419223000064,0.0,100.93348027330921,2224.8484336256056,0.0,0,2,0.0,16431,346637920613908,235,27.32900047302246,616.9253042835322,0.14999,16,0.0,0.0,1575420030,,,,0,13.201353864858596,1,6.0,27.32900047302246,0.0,0.0,0.0,66.7128,C,27104055000000,
Raw,1732148220000,18777000000,,699851.5056873112,-1416183419223000064,0.0,100.93348027330921,2224.8484336256056,0.0,0,17,0.0,16431,346637931251386,235,28.23200035095215,354.4476803203271,0.14999,16,0.0,0.0,1575420030,,,,0,14.348101785147445,1,6.0,28.23200035095215,0.0,0.0,0.0,66.7128,C,27104055000000,
