# 
# Header Description:
# 
# Version: v3.1.0.3 Platform: 13 Manufacturer: samsung Model: SM-S135DL GNSS Hardware Model Name: MediaTek,MT6631,MTK_MNLD_default,MNL_VER_default
# 
# Raw,utcTimeMillis,TimeNanos,LeapSecond,TimeUncertaintyNanos,FullBiasNanos,BiasNanos,BiasUncertaintyNanos,DriftNanosPerSecond,DriftUncertaintyNanosPerSecond,HardwareClockDiscontinuityCount,Svid,TimeOffsetNanos,State,ReceivedSvTimeNanos,ReceivedSvTimeUncertaintyNanos,Cn0DbHz,PseudorangeRateMetersPerSecond,PseudorangeRateUncertaintyMetersPerSecond,AccumulatedDeltaRangeState,AccumulatedDeltaRangeMeters,AccumulatedDeltaRangeUncertaintyMeters,CarrierFrequencyHz,CarrierCycles,CarrierPhase,CarrierPhaseUncertainty,MultipathIndicator,SnrInDb,ConstellationType,AgcDb,BasebandCn0DbHz,FullInterSignalBiasNanos,FullInterSignalBiasUncertaintyNanos,SatelliteInterSignalBiasNanos,SatelliteInterSignalBiasUncertaintyNanos,CodeType,ChipsetElapsedRealtimeNanos,IsFullTracking
# 
# UncalAccel,utcTimeMillis,elapsedRealtimeNanos,UncalAccelXMps2,UncalAccelYMps2,UncalAccelZMps2,BiasXMps2,BiasYMps2,BiasZMps2
# 
# Accel,utcTimeMillis,elapsedRealtimeNanos,AccelXMps2,AccelYMps2,AccelZMps2
# 
# UncalGyro,utcTimeMillis,elapsedRealtimeNanos,UncalGyroXRadPerSec,UncalGyroYRadPerSec,UncalGyroZRadPerSec,DriftXRadPerSec,DriftYRadPerSec,DriftZRadPerSec
# 
# Gyro,utcTimeMillis,elapsedRealtimeNanos,GyroXRadPerSec,GyroYRadPerSec,GyroZRadPerSec
# 
# UncalMag,utcTimeMillis,elapsedRealtimeNanos,UncalMagXMicroT,UncalMagYMicroT,UncalMagZMicroT,BiasXMicroT,BiasYMicroT,BiasZMicroT
# 
# Mag,utcTimeMillis,elapsedRealtimeNanos,MagXMicroT,MagYMicroT,MagZMicroT
# 
# Pressure,utcTimeMillis,elapsedRealtimeNanos,PressureHpa
# 
# OrientationDeg,utcTimeMillis,elapsedRealtimeNanos,yawDeg,rollDeg,pitchDeg
# 
# Fix,Provider,LatitudeDegrees,LongitudeDegrees,AltitudeMeters,SpeedMps,AccuracyMeters,BearingDegrees,UnixTimeMillis,SpeedAccuracyMps,BearingAccuracyDegrees,elapsedRealtimeNanos,VerticalAccuracyMeters,MockLocation,NumberOfUsedSignals,VerticalSpeedAccuracyMps,SolutionType
# 
# Nav,Svid,Type,Status,MessageId,Sub-messageId,Data(Bytes)
# 
# Status,UnixTimeMillis,SignalCount,SignalIndex,ConstellationType,Svid,CarrierFrequencyHz,Cn0DbHz,AzimuthDegrees,ElevationDegrees,UsedInFix,HasAlmanacData,HasEphemerisData,BasebandCn0DbHz
# 
# Agc,utcTimeMillis,TimeNanos,LeapSecond,TimeUncertaintyNanos,FullBiasNanos,BiasNanos,BiasUncertaintyNanos,DriftNanosPerSecond,DriftUncertaintyNanosPerSecond,HardwareClockDiscontinuityCount,AgcDb,CarrierFrequencyHz,ConstellationType
# 
Status,,29,0,1,14,1575420030,27.70,6.0,70.0,1,0,0,22.7
Status,,29,1,1,22,1575420030,32.80,300.0,67.0,1,0,0,27.8
Status,,29,2,1,30,1575420030,35.00,103.0,61.0,1,0,0,30.0
Status,,29,3,1,17,1575420030,25.60,170.0,60.0,1,0,0,20.6
Status,,29,4,1,13,1575420030,35.00,283.0,55.0,1,0,0,30.0
Status,,29,5,1,19,1575420030,26.90,194.0,31.0,1,0,0,21.9
Status,,29,6,1,7,1575420030,44.60,115.0,27.0,1,0,0,39.6
Status,,29,7,1,15,1575420030,30.40,305.0,25.0,1,0,0,25.4
Status,,29,8,2,131,1575420030,28.00,3.0,23.0,0,0,0,23.0
Status,,29,9,1,2,1575420030,32.80,74.0,20.0,1,0,0,27.8
Status,,29,10,1,21,1575420030,0.00,55.0,14.0,0,0,0,0.0
Status,,29,11,3,9,1602000000,27.40,41.0,48.0,1,0,0,22.4
Status,,29,12,3,8,1602000000,26.70,281.0,40.0,1,0,0,21.7
Status,,29,13,3,19,1602000000,0.00,66.0,36.0,0,0,0,0.0
Status,,29,14,3,20,1602000000,0.00,142.0,25.0,0,0,0,0.0
Status,,29,15,3,18,1602000000,22.10,27.0,13.0,1,0,0,17.1
Status,,29,16,3,11,1602000000,0.00,284.0,10.0,0,0,0,0.0
Status,,29,17,3,16,1602000000,23.80,80.0,6.0,1,0,0,18.8
Status,,29,18,3,17,1602000000,41.70,0.0,0.0,0,0,0,36.7
Status,,29,19,6,21,1575420030,26.40,289.0,63.0,1,0,0,21.4
Status,,29,20,6,19,1575420030,22.80,280.0,54.0,1,0,0,17.8
Status,,29,21,6,27,1575420030,27.50,45.0,50.0,1,0,0,22.5
Status,,29,22,6,29,1575420030,22.50,197.0,49.0,1,0,0,17.5
Status,,29,23,6,15,1575420030,0.00,85.0,17.0,0,0,0,0.0
Status,,29,24,6,13,1575420030,0.00,135.0,10.0,0,0,0,0.0
Status,,29,25,6,4,1575420030,0.00,324.0,9.0,0,0,0,0.0
Status,,29,26,6,7,1575420030,0.00,162.0,6.0,0,0,0,0.0
Status,,29,27,6,34,1575420030,0.00,37.0,6.0,0,0,0,0.0
Status,,29,28,6,30,1575420030,0.00,65.0,3.0,0,0,0,0.0
Fix,GPS,37.4244366667,-122.1708166667,-3.3000000000000007,0.0,2.3,338.39,1732148247000,1.1,88.5,27131056000000,37.3,0,,,
Raw,1732148247000,16080000000,,97.72546565932656,-1416183448920999936,0.0,97.72546565932656,2228.656516020483,0.0,0,7,0.0,16431,346664924182704,42,39.63999938964844,1128.3130686318977,0.14999,16,0.0,0.0,1575420030,,,,0,27.41570342546954,1,6.0,39.63999938964844,0.0,0.0,0.0,66.7128,C,27131056000000,
Raw,1732148247000,16080000000,,97.72546565932656,-1416183448920999936,0.0,97.72546565932656,2228.656516020483,0.0,0,13,0.0,16431,346664931088106,74,30.014999389648438,583.1176541823721,0.14999,16,0.0,0.0,1575420030,,,,0,16.559949098906408,1,6.0,30.014999389648438,0.0,0.0,0.0,66.7128,C,27131056000000,
Raw,1732148247000,16080000000,,97.72546565932656,-1416183448920999936,0.0,97.72546565932656,2228.656516020483,0.0,0,14,0.0,16431,346664932505732,487,22.729999542236328,760.9831431434235,0.14999,16,0.0,0.0,1575420030,,,,0,6.6957876066440605,1,6.0,22.729999542236328,0.0,0.0,0.0,66.7128,C,27131056000000,
Raw,1732148247000,16080000000,,97.72546565932656,-1416183448920999936,0.0,97.72546565932656,2228.656516020483,0.0,0,19,0.0,16431,346664924596780,487,21.898000717163086,23.175409259297346,0.14999,16,0.0,0.0,1575420030,,,,0,5.427579774705664,1,6.0,21.898000717163086,0.0,0.0,0.0,66.7128,C,27131056000000,
Raw,1732148247000,16080000000,,97.72546565932656,-1416183448920999936,0.0,97.72546565932656,2228.656516020483,0.0,0,30,0.0,16431,346664930923075,74,29.982999801635742,893.0216322286539,0.14999,16,0.0,0.0,1575420030,,,,0,16.5388668321533,1,6.0,29.982999801635742,0.0,0.0,0.0,66.7128,C,27131056000000,
Raw,1732148247000,16080000000,,97.72546565932656,-1416183448920999936,0.0,97.72546565932656,2228.656516020483,0.0,0,29,0.0,16431,346664918759190,487,17.5,1080.461271602373,0.14999,16,0.0,0.0,1575420030,,,,0,0.028972356695860846,6,6.0,17.5,0.0,0.0,19.868472741250862,66.7128,C,27131056000000,
Raw,1732148247000,16080000000,,97.72546565932656,-1416183448920999936,0.0,97.72546565932656,2228.656516020483,0.0,0,27,0.0,16431,346664918385591,396,22.5,951.2184177126117,0.14999,16,0.0,0.0,1575420030,,,,0,7.859722697954004,6,6.0,22.5,0.0,0.0,19.868472741250862,66.7128,C,27131056000000,
Raw,1732148247000,16080000000,,97.72546565932656,-1416183448920999936,0.0,97.72546565932656,2228.656516020483,0.0,0,19,0.0,16431,346664920748533,487,17.799999237060547,631.8999668301777,0.14999,16,0.0,0.0,1575420030,,,,0,0.5762960410231877,6,6.0,17.799999237060547,0.0,0.0,19.868472741250862,66.7128,C,27131056000000,
Raw,1732148247000,16080000000,,97.72546565932656,-1416183448920999936,0.0,97.72546565932656,2228.656516020483,0.0,0,21,0.0,16431,346664920519162,396,21.399999618530273,559.9778785283082,0.14999,16,0.0,0.0,1575420030,,,,0,6.361673736587006,6,6.0,21.399999618530273,0.0,0.0,19.868472741250862,66.7128,C,27131056000000,
Raw,1732148247000,16080000000,,97.72546565932656,-1416183448920999936,0.0,97.72546565932656,2228.656516020483,0.0,0,2,0.0,16431,346664920913421,396,27.763999938964844,619.8390367730085,0.14999,16,0.0,0.0,1575420030,,,,0,13.750356750495285,1,6.0,27.763999938964844,0.0,0.0,0.0,66.7128,C,27131056000000,
Raw,1732148247000,16080000000,,97.72546565932656,-1416183448920999936,0.0,97.72546565932656,2228.656516020483,0.0,0,22,0.0,16431,346664931156791,396,27.80500030517578,619.7318572068108,0.14999,16,0.0,0.0,1575420030,,,,0,13.808359567962693,1,6.0,27.80500030517578,0.0,0.0,0.0,66.7128,C,27131056000000,
Raw,1732148247000,16080000000,,97.72546565932656,-1416183448920999936,0.0,97.72546565932656,2228.656516020483,0.0,0,16,0.0,17,241527,487,5.0,1162.0482411980058,0.14999,16,0.0,0.0,1601437440,,,,0,2.3292218325956506,3,6.0,20.0,0.0,0.0,23.13038248260911,66.7128,C,27131056000000,
Raw,1732148247000,16080000000,,97.72546565932656,-1416183448920999936,0.0,97.72546565932656,2228.656516020483,0.0,0,8,0.0,17,483114,316,5.0,776.3920984139456,0.14999,16,0.0,0.0,1605374980,,,,0,9.280900903274013,3,6.0,24.0,0.0,0.0,23.13038248260911,66.7128,C,27131056000000,
Raw,1732148247000,16080000000,,97.72546565932656,-1416183448920999936,0.0,97.72546565932656,2228.656516020483,0.0,0,9,0.0,17,627014,396,5.0,869.333133080404,0.14999,16,0.0,0.0,1600875010,,,,0,7.641488601426147,3,6.0,22.0,0.0,0.0,23.13038248260911,66.7128,C,27131056000000,
Raw,1732148247000,16080000000,,97.72546565932656,-1416183448920999936,0.0,97.72546565932656,2228.656516020483,0.0,0,18,0.0,17,851656,487,5.0,1193.4499341578867,0.14999,16,0.0,0.0,1600312450,,,,0,0.0,3,6.0,18.0,0.0,0.0,23.13038248260911,66.7128,C,27131056000000,
Raw,1732148247000,16080000000,,97.72546565932656,-1416183448920999936,0.0,97.72546565932656,2228.656516020483,0.0,0,15,0.0,16431,346664924549425,316,25.38800048828125,377.26614956787887,0.14999,16,0.0,0.0,1575420030,,,,0,10.591832062149757,1,6.0,25.38800048828125,0.0,0.0,0.0,66.7128,C,27131056000000,
Raw,1732148247000,16080000000,,97.72546565932656,-1416183448920999936,0.0,97.72546565932656,2228.656516020483,0.0,0,17,0.0,16431,346664931574422,487,20.590999603271484,357.5985597953501,0.14999,16,0.0,0.0,1575420030,,,,0,3.2879307475057664,1,6.0,20.590999603271484,0.0,0.0,0.0,66.7128,C,27131056000000,
Fix,FLP,37.4244377000,-122.1708253000,2.0,0.28320754,2.333,341.9336,1732148247208,1.1,88.5,27131056000000,1.0723106,0,,,
Status,1732148247000,29,0,1,14,1575420030,28.70,6.0,70.0,1,0,0,23.7
Status,1732148247000,29,1,1,22,1575420030,26.30,300.0,67.0,1,0,0,21.3
Status,1732148247000,29,2,1,30,1575420030,32.70,103.0,61.0,1,0,0,27.7
Status,1732148247000,29,3,1,17,1575420030,0.00,170.0,60.0,0,0,0,0.0
Status,1732148247000,29,4,1,13,1575420030,36.50,283.0,55.0,1,0,0,31.5
Status,1732148247000,29,5,1,19,1575420030,26.90,194.0,31.0,1,0,0,21.9
Status,1732148247000,29,6,1,7,1575420030,34.20,115.0,27.0,1,0,0,29.2
Status,1732148247000,29,7,1,15,1575420030,32.30,305.0,25.0,1,0,0,27.3
Status,1732148247000,29,8,2,131,1575420030,30.00,3.0,23.0,0,0,0,25.0
Status,1732148247000,29,9,1,2,1575420030,30.60,74.0,20.0,1,0,0,25.6
Status,1732148247000,29,10,1,21,1575420030,27.40,55.0,14.0,1,0,0,22.4
Status,1732148247000,29,11,3,9,1602000000,29.50,41.0,48.0,1,0,0,24.5
Status,1732148247000,29,12,3,8,1602000000,26.60,281.0,40.0,1,0,0,21.6
Status,1732148247000,29,13,3,19,1602000000,0.00,66.0,36.0,0,0,0,0.0
Status,1732148247000,29,14,3,20,1602000000,0.00,142.0,25.0,0,0,0,0.0
Status,1732148247000,29,15,3,18,1602000000,22.70,27.0,13.0,1,0,0,17.7
Status,1732148247000,29,16,3,11,1602000000,0.00,284.0,10.0,0,0,0,0.0
Status,1732148247000,29,17,3,16,1602000000,29.10,80.0,6.0,1,0,0,24.1
Status,1732148247000,29,18,3,17,1602000000,30.10,0.0,0.0,0,0,0,25.1
Status,1732148247000,29,19,6,21,1575420030,26.80,289.0,63.0,1,0,0,21.8
Status,1732148247000,29,20,6,19,1575420030,22.80,280.0,54.0,1,0,0,17.8
Status,1732148247000,29,21,6,27,1575420030,22.90,45.0,50.0,1,0,0,17.9
Status,1732148247000,29,22,6,29,1575420030,21.00,197.0,49.0,1,0,0,16.0
Status,1732148247000,29,23,6,15,1575420030,0.00,85.0,17.0,0,0,0,0.0
Status,1732148247000,29,24,6,13,1575420030,0.00,135.0,10.0,0,0,0,0.0
Status,1732148247000,29,25,6,4,1575420030,0.00,324.0,9.0,0,0,0,0.0
Status,1732148247000,29,26,6,7,1575420030,0.00,162.0,6.0,0,0,0,0.0
Status,1732148247000,29,27,6,34,1575420030,0.00,37.0,6.0,0,0,0,0.0
Status,1732148247000,29,28,6,30,1575420030,0.00,65.0,3.0,0,0,0,0.0
Fix,GPS,37.4244366667,-122.1708116667,-3.3999999999999986,0.0,2.4,338.39,1732148248000,1.1,91.8,27132056000000,44.8,0,,,
Fix,FLP,37.4244383000,-122.1708191000,2.0,0.25012818,2.333,345.71793,1732148248209,1.1,91.8,27132056000000,1.0823411,0,,,
Raw,1732148248000,17080000000,,118.68272195334359,-1416183448920999936,0.0,118.68272195334359,2229.086180789414,0.0,0,7,0.0,16431,346665924178941,235,29.179000854492188,1128.1930200844097,0.14999,16,0.0,0.0,1575420030,,,,0,15.532949620730463,1,6.0,29.179000854492188,0.0,0.0,0.0,66.7128,C,27132056000000,
Raw,1732148248000,17080000000,,118.68272195334359,-1416183448920999936,0.0,118.68272195334359,2229.086180789414,0.0,0,13,0.0,16431,346665931086164,74,31.476999282836914,582.4235654441867,0.14999,16,0.0,0.0,1575420030,,,,0,18.325893239727925,1,6.0,31.476999282836914,0.0,0.0,0.0,66.7128,C,27132056000000,
Raw,1732148248000,17080000000,,118.68272195334359,-1416183448920999936,0.0,118.68272195334359,2229.086180789414,0.0,0,14,0.0,16431,346665932503189,396,23.652000427246094,761.2073979184717,0.14999,16,0.0,0.0,1575420030,,,,0,8.086077908444654,1,6.0,23.652000427246094,0.0,0.0,0.0,66.7128,C,27132056000000,
Raw,1732148248000,17080000000,,118.68272195334359,-1416183448920999936,0.0,118.68272195334359,2229.086180789414,0.0,0,19,0.0,16431,346665924596705,487,21.860000610351562,23.24226292022431,0.14999,16,0.0,0.0,1575420030,,,,0,4.207931656102036,1,6.0,21.860000610351562,0.0,0.0,0.0,66.7128,C,27132056000000,
Raw,1732148248000,17080000000,,118.68272195334359,-1416183448920999936,0.0,118.68272195334359,2229.086180789414,0.0,0,30,0.0,16431,346665930920092,235,27.679000854492188,893.1759670873054,0.14999,16,0.0,0.0,1575420030,,,,0,13.633176023649936,1,6.0,27.679000854492188,0.0,0.0,0.0,66.7128,C,27132056000000,
Raw,1732148248000,17080000000,,118.68272195334359,-1416183448920999936,0.0,118.68272195334359,2229.086180789414,0.0,0,29,0.0,16431,346665918755585,487,16.0,1081.1089948411802,0.14999,16,0.0,0.0,1575420030,,,,0,0.0,6,6.0,16.0,0.0,0.0,17.618791633182305,66.7128,C,27132056000000,
Raw,1732148248000,17080000000,,118.68272195334359,-1416183448920999936,0.0,118.68272195334359,2229.086180789414,0.0,0,27,0.0,16431,346665918382414,487,17.899999618530273,951.6032792324997,0.14999,16,0.0,0.0,1575420030,,,,0,0.7079029472496199,6,6.0,17.899999618530273,0.0,0.0,17.618791633182305,66.7128,C,27132056000000,
Raw,1732148248000,17080000000,,118.68272195334359,-1416183448920999936,0.0,118.68272195334359,2229.086180789414,0.0,0,19,0.0,16431,346665920746432,487,17.75,632.5622315532589,0.14999,16,0.0,0.0,1575420030,,,,0,0.0,6,6.0,17.75,0.0,0.0,17.618791633182305,66.7128,C,27132056000000,
Raw,1732148248000,17080000000,,118.68272195334359,-1416183448920999936,0.0,118.68272195334359,2229.086180789414,0.0,0,21,0.0,16431,346665920517294,396,21.799999237060547,559.6159674660281,0.14999,16,0.0,0.0,1575420030,,,,0,6.825915727956064,6,6.0,21.799999237060547,0.0,0.0,17.618791633182305,66.7128,C,27132056000000,
Raw,1732148248000,17080000000,,118.68272195334359,-1416183448920999936,0.0,118.68272195334359,2229.086180789414,0.0,0,15,0.0,16431,346665924548119,316,27.29199981689453,375.69604093362756,0.14999,16,0.0,0.0,1575420030,,,,0,13.147974031382482,1,6.0,27.29199981689453,0.0,0.0,0.0,66.7128,C,27132056000000,
Raw,1732148248000,17080000000,,118.68272195334359,-1416183448920999936,0.0,118.68272195334359,2229.086180789414,0.0,0,2,0.0,16431,346665920911344,316,25.552000045776367,620.6784009786843,0.14999,16,0.0,0.0,1575420030,,,,0,10.798648728914134,1,6.0,25.552000045776367,0.0,0.0,0.0,66.7128,C,27132056000000,
Raw,1732148248000,17080000000,,118.68272195334359,-1416183448920999936,0.0,118.68272195334359,2229.086180789414,0.0,0,16,0.0,17,237657,487,5.0,1158.8451475073896,0.14999,16,0.0,0.0,1601437440,,,,0,9.962351484311387,3,6.0,20.0,0.0,0.0,22.547990958713502,66.7128,C,27132056000000,
Raw,1732148248000,17080000000,,118.68272195334359,-1416183448920999936,0.0,118.68272195334359,2229.086180789414,0.0,0,8,0.0,17,480527,487,5.0,776.2785754800609,0.14999,16,0.0,0.0,1605374980,,,,0,3.924737090296237,3,6.0,20.0,0.0,0.0,22.547990958713502,66.7128,C,27132056000000,
Raw,1732148248000,17080000000,,118.68272195334359,-1416183448920999936,0.0,118.68272195334359,2229.086180789414,0.0,0,9,0.0,17,624108,396,5.0,869.5213153484519,0.14999,16,0.0,0.0,1600875010,,,,0,10.417551568677643,3,6.0,23.0,0.0,0.0,22.547990958713502,66.7128,C,27132056000000,
Raw,1732148248000,17080000000,,118.68272195334359,-1416183448920999936,0.0,118.68272195334359,2229.086180789414,0.0,0,18,0.0,17,847672,487,5.0,1196.7471170021395,0.14999,16,0.0,0.0,1600312450,,,,0,0.3332729245237962,3,6.0,19.0,0.0,0.0,22.547990958713502,66.7128,C,27132056000000,
Raw,1732148248000,17080000000,,118.68272195334359,-1416183448920999936,0.0,118.68272195334359,2229.086180789414,0.0,0,21,0.0,16431,346665919798772,396,22.408000946044922,850.4403566845499,0.14999,16,0.0,0.0,1575420030,,,,0,6.224344557528667,1,6.0,22.408000946044922,0.0,0.0,0.0,66.7128,C,27132056000000,
Raw,1732148248000,17080000000,,118.68272195334359,-1416183448920999936,0.0,118.68272195334359,2229.086180789414,0.0,0,22,0.0,16431,346665931154624,487,21.253000259399414,619.7219151057417,0.14999,16,0.0,0.0,1575420030,,,,0,4.380790886172162,1,6.0,21.253000259399414,0.0,0.0,0.0,66.7128,C,27132056000000,
Status,1732148248000,29,0,1,14,1575420030,27.40,6.0,70.0,1,0,0,22.4
Status,1732148248000,29,1,1,22,1575420030,29.30,300.0,67.0,1,0,0,24.3
Status,1732148248000,29,2,1,30,1575420030,32.60,103.0,61.0,1,0,0,27.599998
Status,1732148248000,29,3,1,17,1575420030,0.00,170.0,60.0,0,0,0,0.0
Status,1732148248000,29,4,1,13,1575420030,32.20,283.0,55.0,1,0,0,27.2
Status,1732148248000,29,5,1,19,1575420030,26.80,194.0,31.0,1,0,0,21.8
Status,1732148248000,29,6,1,7,1575420030,42.40,115.0,27.0,1,0,0,37.4
Status,1732148248000,29,7,1,15,1575420030,26.00,305.0,25.0,1,0,0,21.0
Status,1732148248000,29,8,2,131,1575420030,32.00,3.0,23.0,0,0,0,27.0
Status,1732148248000,29,9,1,2,1575420030,31.20,74.0,20.0,1,0,0,26.2
Status,1732148248000,29,10,1,21,1575420030,29.60,55.0,14.0,1,0,0,24.6
Status,1732148248000,29,11,3,9,1602000000,27.50,41.0,48.0,1,0,0,22.5
Status,1732148248000,29,12,3,8,1602000000,26.60,281.0,40.0,1,0,0,21.6
Status,1732148248000,29,13,3,19,1602000000,0.00,66.0,36.0,0,0,0,0.0
Status,1732148248000,29,14,3,20,1602000000,0.00,142.0,25.0,0,0,0,0.0
Status,1732148248000,29,15,3,18,1602000000,22.70,27.0,13.0,1,0,0,17.7
Status,1732148248000,29,16,3,11,1602000000,0.00,284.0,10.0,0,0,0,0.0
Status,1732148248000,29,17,3,16,1602000000,28.10,80.0,6.0,1,0,0,23.1
Status,1732148248000,29,18,3,17,1602000000,29.20,0.0,0.0,0,0,0,24.2
Status,1732148248000,29,19,6,21,1575420030,27.00,289.0,63.0,1,0,0,22.0
Status,1732148248000,29,20,6,19,1575420030,20.20,280.0,54.0,1,0,0,15.200001
Status,1732148248000,29,21,6,27,1575420030,22.80,45.0,50.0,1,0,0,17.8
Status,1732148248000,29,22,6,29,1575420030,21.00,197.0,49.0,1,0,0,16.0
Status,1732148248000,29,23,6,15,1575420030,0.00,85.0,17.0,0,0,0,0.0
Status,1732148248000,29,24,6,13,1575420030,0.00,135.0,10.0,0,0,0,0.0
Status,1732148248000,29,25,6,4,1575420030,0.00,324.0,9.0,0,0,0,0.0
Status,1732148248000,29,26,6,7,1575420030,0.00,162.0,6.0,0,0,0,0.0
Status,1732148248000,29,27,6,34,1575420030,0.00,37.0,6.0,0,0,0,0.0
Status,1732148248000,29,28,6,30,1575420030,0.00,65.0,3.0,0,0,0,0.0
Fix,GPS,37.4244366667,-122.1708066667,-3.3000000000000007,0.0,2.4,338.39,1732148249000,1.1,95.2,27133056000000,42.2,0,,,
Raw,1732148249000,18080000000,,110.67044733924232,-1416183448920999936,0.0,110.67044733924232,2224.9973358296206,0.0,0,7,0.0,16431,346666924175182,51,37.400001525878906,1126.3783543472261,0.14999,16,0.0,0.0,1575420030,,,,0,25.00398343948191,1,6.0,37.400001525878906,0.0,0.0,0.0,66.7128,C,27133056000000,
Raw,1732148249000,18080000000,,110.67044733924232,-1416183448920999936,0.0,110.67044733924232,2224.9973358296206,0.0,0,13,0.0,16431,346666931084225,235,27.158000946044922,582.7322816199056,0.14999,16,0.0,0.0,1575420030,,,,0,12.958800173440752,1,6.0,27.158000946044922,0.0,0.0,0.0,66.7128,C,27133056000000,
Raw,1732148249000,18080000000,,110.67044733924232,-1416183448920999936,0.0,110.67044733924232,2224.9973358296206,0.0,0,14,0.0,16431,346666932500653,487,22.408000946044922,759.9285835538604,0.14999,16,0.0,0.0,1575420030,,,,0,6.224344557528667,1,6.0,22.408000946044922,0.0,0.0,0.0,66.7128,C,27133056000000,
Raw,1732148249000,18080000000,,110.67044733924232,-1416183448920999936,0.0,110.67044733924232,2224.9973358296206,0.0,0,19,0.0,16431,346666924596630,487,21.816999435424805,21.965306892261456,0.14999,16,0.0,0.0,1575420030,,,,0,3.942016308063379,1,6.0,21.816999435424805,0.0,0.0,0.0,66.7128,C,27133056000000,
Raw,1732148249000,18080000000,,110.67044733924232,-1416183448920999936,0.0,110.67044733924232,2224.9973358296206,0.0,0,30,0.0,16431,346666930917120,235,27.636999130249023,892.7322892124947,0.14999,16,0.0,0.0,1575420030,,,,0,13.603632152860193,1,6.0,27.636999130249023,0.0,0.0,0.0,66.7128,C,27133056000000,
Raw,1732148249000,18080000000,,110.67044733924232,-1416183448920999936,0.0,110.67044733924232,2224.9973358296206,0.0,0,29,0.0,16431,346666918751980,487,16.0,1080.4724216222635,0.14999,16,0.0,0.0,1575420030,,,,0,0.0,6,6.0,16.0,0.0,0.0,14.902120744934741,66.7128,C,27133056000000,
Raw,1732148249000,18080000000,,110.67044733924232,-1416183448920999936,0.0,110.67044733924232,2224.9973358296206,0.0,0,27,0.0,16431,346666918379243,487,17.844999313354492,950.1092694840013,0.14999,16,0.0,0.0,1575420030,,,,0,0.0,6,6.0,17.844999313354492,0.0,0.0,14.902120744934741,66.7128,C,27133056000000,
Raw,1732148249000,18080000000,,110.67044733924232,-1416183448920999936,0.0,110.67044733924232,2224.9973358296206,0.0,0,19,0.0,16431,346666920744334,487,15.199999809265137,631.1552384183228,0.14999,16,0.0,0.0,1575420030,,,,0,0.0,6,6.0,15.199999809265137,0.0,0.0,14.902120744934741,66.7128,C,27133056000000,
Raw,1732148249000,18080000000,,110.67044733924232,-1416183448920999936,0.0,110.67044733924232,2224.9973358296206,0.0,0,21,0.0,16431,346666920515431,316,22.0,558.8487996391435,0.14999,16,0.0,0.0,1575420030,,,,0,7.080465509196875,6,6.0,22.0,0.0,0.0,14.902120744934741,66.7128,C,27133056000000,
Raw,1732148249000,18080000000,,110.67044733924232,-1416183448920999936,0.0,110.67044733924232,2224.9973358296206,0.0,0,15,0.0,16431,346666924546859,396,21.003000259399414,375.6563189877675,0.14999,16,0.0,0.0,1575420030,,,,0,3.942016308063379,1,6.0,21.003000259399414,0.0,0.0,0.0,66.7128,C,27133056000000,
Raw,1732148249000,18080000000,,110.67044733924232,-1416183448920999936,0.0,110.67044733924232,2224.9973358296206,0.0,0,2,0.0,16431,346666920909275,316,26.158000946044922,619.1849487311804,0.14999,16,0.0,0.0,1575420030,,,,0,11.654326982209568,1,6.0,26.158000946044922,0.0,0.0,0.0,66.7128,C,27133056000000,
Raw,1732148249000,18080000000,,110.67044733924232,-1416183448920999936,0.0,110.67044733924232,2224.9973358296206,0.0,0,16,0.0,17,233793,396,5.0,1158.8831729333156,0.14999,16,0.0,0.0,1601437440,,,,0,8.590488697881504,3,6.0,23.0,0.0,0.0,22.69091528386623,66.7128,C,27133056000000,
Raw,1732148249000,18080000000,,110.67044733924232,-1416183448920999936,0.0,110.67044733924232,2224.9973358296206,0.0,0,8,0.0,17,477937,487,5.0,775.6341846577604,0.14999,16,0.0,0.0,1605374980,,,,0,5.059289579274781,3,6.0,20.0,0.0,0.0,22.69091528386623,66.7128,C,27133056000000,
Raw,1732148249000,18080000000,,110.67044733924232,-1416183448920999936,0.0,110.67044733924232,2224.9973358296206,0.0,0,9,0.0,17,621210,396,5.0,868.2588116677238,0.14999,16,0.0,0.0,1600875010,,,,0,7.7852918219940594,3,6.0,23.0,0.0,0.0,22.69091528386623,66.7128,C,27133056000000,
Raw,1732148249000,18080000000,,110.67044733924232,-1416183448920999936,0.0,110.67044733924232,2224.9973358296206,0.0,0,18,0.0,17,843684,487,5.0,1194.7916385899873,0.14999,16,0.0,0.0,1600312450,,,,0,0.3332729245237962,3,6.0,20.0,0.0,0.0,22.69091528386623,66.7128,C,27133056000000,
Raw,1732148249000,18080000000,,110.67044733924232,-1416183448920999936,0.0,110.67044733924232,2224.9973358296206,0.0,0,21,0.0,16431,346666919796016,316,24.566999435424805,849.7681034019834,0.14999,16,0.0,0.0,1575420030,,,,0,9.429002628630153,1,6.0,24.566999435424805,0.0,0.0,0.0,66.7128,C,27133056000000,
Raw,1732148249000,18080000000,,110.67044733924232,-1416183448920999936,0.0,110.67044733924232,2224.9973358296206,0.0,0,22,0.0,16431,346666931152712,316,24.253999710083008,619.3005372707122,0.14999,16,0.0,0.0,1575420030,,,,0,8.987252029373385,1,6.0,24.253999710083008,0.0,0.0,0.0,66.7128,C,27133056000000,
Fix,FLP,37.4244385000,-122.1708134000,2.0,0.22216499,2.35,348.59583,1732148249208,1.1,95.2,27133056000000,1.0923223,0,,,
Fix,NLP,37.4243608000,-122.1708640000,2.0,,12.455,,1732148249234,,,27133082000000,1.0,0,,,
Status,1732148249000,29,0,1,14,1575420030,29.20,6.0,70.0,1,0,0,24.2
Status,1732148249000,29,1,1,22,1575420030,28.50,300.0,67.0,1,0,0,23.5
Status,1732148249000,29,2,1,30,1575420030,31.00,103.0,61.0,1,0,0,26.0
Status,1732148249000,29,3,1,17,1575420030,0.00,170.0,60.0,0,0,0,0.0
Status,1732148249000,29,4,1,13,1575420030,34.00,283.0,55.0,1,0,0,29.0
Status,1732148249000,29,5,1,19,1575420030,29.40,194.0,31.0,1,0,0,24.4
Status,1732148249000,29,6,1,7,1575420030,41.30,115.0,27.0,1,0,0,36.3
Status,1732148249000,29,7,1,15,1575420030,27.40,305.0,25.0,1,0,0,22.4
Status,1732148249000,29,8,2,131,1575420030,30.00,3.0,23.0,0,0,0,25.0
Status,1732148249000,29,9,1,2,1575420030,40.20,74.0,20.0,1,0,0,35.2
Status,1732148249000,29,10,1,21,1575420030,32.00,55.0,14.0,1,0,0,27.0
Status,1732148249000,29,11,3,9,1602000000,28.40,41.0,48.0,1,0,0,23.4
Status,1732148249000,29,12,3,8,1602000000,23.90,281.0,40.0,1,0,0,18.9
Status,1732148249000,29,13,3,19,1602000000,0.00,66.0,36.0,0,0,0,0.0
Status,1732148249000,29,14,3,20,1602000000,0.00,142.0,25.0,0,0,0,0.0
Status,1732148249000,29,15,3,18,1602000000,25.40,27.0,13.0,1,0,0,20.4
Status,1732148249000,29,16,3,11,1602000000,0.00,284.0,10.0,0,0,0,0.0
Status,1732148249000,29,17,3,16,1602000000,35.90,80.0,6.0,1,0,0,30.900002
Status,1732148249000,29,18,3,17,1602000000,31.70,0.0,0.0,0,0,0,26.7
Status,1732148249000,29,19,6,21,1575420030,27.00,289.0,63.0,1,0,0,22.0
Status,1732148249000,29,20,6,19,1575420030,20.30,280.0,54.0,1,0,0,15.299999
Status,1732148249000,29,21,6,27,1575420030,22.90,45.0,50.0,1,0,0,17.9
Status,1732148249000,29,22,6,29,1575420030,21.10,197.0,49.0,1,0,0,16.1
Status,1732148249000,29,23,6,15,1575420030,0.00,85.0,17.0,0,0,0,0.0
Status,1732148249000,29,24,6,13,1575420030,0.00,135.0,10.0,0,0,0,0.0
Status,1732148249000,29,25,6,4,1575420030,0.00,324.0,9.0,0,0,0,0.0
Status,1732148249000,29,26,6,7,1575420030,0.00,162.0,6.0,0,0,0,0.0
Status,1732148249000,29,27,6,34,1575420030,0.00,37.0,6.0,0,0,0,0.0
Status,1732148249000,29,28,6,30,1575420030,0.00,65.0,3.0,0,0,0,0.0
Fix,GPS,37.4244366667,-122.1708116667,-3.3000000000000007,0.34434918,2.4,357.18,1732148250000,1.1,115.5,27134056000000,39.8,0,,,
Fix,FLP,37.4244385000,-122.1708116000,2.0,0.22778076,2.362,349.75815,1732148250208,1.1,115.5,27134056000000,0.889257,0,,,
Raw,1732148250000,19080000000,,103.1131358074092,-1416183448920999936,0.0,103.1131358074092,2220.9697316143142,0.0,0,7,0.0,16431,346667924171431,51,36.262001037597656,1126.6935282427985,0.14999,16,0.0,0.0,1575420030,,,,0,23.755509286344576,1,6.0,36.262001037597656,0.0,0.0,0.0,66.7128,C,27134056000000,
Raw,1732148250000,19080000000,,103.1131358074092,-1416183448920999936,0.0,103.1131358074092,2220.9697316143142,0.0,0,13,0.0,16431,346667931082288,235,29.0,581.3828504626543,0.14999,16,0.0,0.0,1575420030,,,,0,15.316990963929516,1,6.0,29.0,0.0,0.0,0.0,66.7128,C,27134056000000,
Raw,1732148250000,19080000000,,103.1131358074092,-1416183448920999936,0.0,103.1131358074092,2220.9697316143142,0.0,0,14,0.0,16431,346667932498119,396,24.22100067138672,758.7903523567022,0.14999,16,0.0,0.0,1575420030,,,,0,8.936752528763314,1,6.0,24.22100067138672,0.0,0.0,0.0,66.7128,C,27134056000000,
Raw,1732148250000,19080000000,,103.1131358074092,-1416183448920999936,0.0,103.1131358074092,2220.9697316143142,0.0,0,19,0.0,16431,346667924596553,487,24.41200065612793,20.92315169982666,0.14999,16,0.0,0.0,1575420030,,,,0,9.186364235664353,1,6.0,24.41200065612793,0.0,0.0,0.0,66.7128,C,27134056000000,
Raw,1732148250000,19080000000,,103.1131358074092,-1416183448920999936,0.0,103.1131358074092,2220.9697316143142,0.0,0,30,0.0,16431,346667930914147,316,26.003000259399414,892.3514231164007,0.14999,16,0.0,0.0,1575420030,,,,0,11.429194129304907,1,6.0,26.003000259399414,0.0,0.0,0.0,66.7128,C,27134056000000,
Raw,1732148250000,19080000000,,103.1131358074092,-1416183448920999936,0.0,103.1131358074092,2220.9697316143142,0.0,0,29,0.0,16431,346667918748377,487,16.094999313354492,1078.9628947627507,0.14999,16,0.0,0.0,1575420030,,,,0,0.7079029472496199,6,6.0,16.094999313354492,0.0,0.0,14.91886495511979,66.7128,C,27134056000000,
Raw,1732148250000,19080000000,,103.1131358074092,-1416183448920999936,0.0,103.1131358074092,2220.9697316143142,0.0,0,27,0.0,16431,346667918376076,487,17.91699981689453,949.1424698426599,0.14999,16,0.0,0.0,1575420030,,,,0,3.0916311016337916,6,6.0,17.91699981689453,0.0,0.0,14.91886495511979,66.7128,C,27134056000000,
Raw,1732148250000,19080000000,,103.1131358074092,-1416183448920999936,0.0,103.1131358074092,2220.9697316143142,0.0,0,19,0.0,16431,346667920742231,487,15.255000114440918,630.4903255655175,0.14999,16,0.0,0.0,1575420030,,,,0,0.0,6,6.0,15.255000114440918,0.0,0.0,14.91886495511979,66.7128,C,27134056000000,
Raw,1732148250000,19080000000,,103.1131358074092,-1416183448920999936,0.0,103.1131358074092,2220.9697316143142,0.0,0,21,0.0,16431,346667920513566,396,22.0,558.24516543732,0.14999,16,0.0,0.0,1575420030,,,,0,7.080465509196875,6,6.0,22.0,0.0,0.0,14.91886495511979,66.7128,C,27134056000000,
Raw,1732148250000,19080000000,,103.1131358074092,-1416183448920999936,0.0,103.1131358074092,2220.9697316143142,0.0,0,15,0.0,16431,346667924545604,487,22.408000946044922,374.69971696878446,0.14999,16,0.0,0.0,1575420030,,,,0,6.224344557528667,1,6.0,22.408000946044922,0.0,0.0,0.0,66.7128,C,27134056000000,
Raw,1732148250000,19080000000,,103.1131358074092,-1416183448920999936,0.0,103.1131358074092,2220.9697316143142,0.0,0,2,0.0,16431,346667920907211,58,35.207000732421875,618.7567415089678,0.14999,16,0.0,0.0,1575420030,,,,0,22.585811593163776,1,6.0,35.207000732421875,0.0,0.0,0.0,66.7128,C,27134056000000,
Raw,1732148250000,19080000000,,103.1131358074092,-1416183448920999936,0.0,103.1131358074092,2220.9697316143142,0.0,0,16,0.0,17,229916,74,5.0,1158.3514568212697,0.14999,16,0.0,0.0,1601437440,,,,0,18.041512331532132,3,6.0,30.0,0.0,0.0,16.930350369895972,66.7128,C,27134056000000,
Raw,1732148250000,19080000000,,103.1131358074092,-1416183448920999936,0.0,103.1131358074092,2220.9697316143142,0.0,0,8,0.0,17,475350,487,5.0,774.7914706377094,0.14999,16,0.0,0.0,1605374980,,,,0,2.4614728431237305,3,6.0,18.0,0.0,0.0,16.930350369895972,66.7128,C,27134056000000,
Raw,1732148250000,19080000000,,103.1131358074092,-1416183448920999936,0.0,103.1131358074092,2220.9697316143142,0.0,0,9,0.0,17,618311,396,5.0,867.396081007358,0.14999,16,0.0,0.0,1600875010,,,,0,9.069148865440951,3,6.0,23.0,0.0,0.0,16.930350369895972,66.7128,C,27134056000000,
Raw,1732148250000,19080000000,,103.1131358074092,-1416183448920999936,0.0,103.1131358074092,2220.9697316143142,0.0,0,18,0.0,17,839706,487,5.0,1196.486606078863,0.14999,16,0.0,0.0,1600312450,,,,0,4.8415903272780545,3,6.0,20.0,0.0,0.0,16.930350369895972,66.7128,C,27134056000000,
Raw,1732148250000,19080000000,,103.1131358074092,-1416183448920999936,0.0,103.1131358074092,2220.9697316143142,0.0,0,21,0.0,16431,346667919793221,316,27.020999908447266,850.3177064657541,0.14999,16,0.0,0.0,1575420030,,,,0,12.797945768332472,1,6.0,27.020999908447266,0.0,0.0,0.0,66.7128,C,27134056000000,
Raw,1732148250000,19080000000,,103.1131358074092,-1416183448920999936,0.0,103.1131358074092,2220.9697316143142,0.0,0,22,0.0,16431,346667931150626,396,23.475000381469727,618.3243065708801,0.14999,16,0.0,0.0,1575420030,,,,0,7.859722697954004,1,6.0,23.475000381469727,0.0,0.0,0.0,66.7128,C,27134056000000,
Status,1732148250000,29,0,1,14,1575420030,30.50,6.0,70.0,1,0,0,25.5
Status,1732148250000,29,1,1,22,1575420030,31.60,300.0,67.0,1,0,0,26.6
Status,1732148250000,29,2,1,30,1575420030,31.30,103.0,61.0,1,0,0,26.3
Status,1732148250000,29,3,1,17,1575420030,28.50,170.0,60.0,1,0,0,23.5
Status,1732148250000,29,4,1,13,1575420030,29.50,283.0,55.0,1,0,0,24.5
Status,1732148250000,29,5,1,19,1575420030,29.30,194.0,31.0,1,0,0,24.3
Status,1732148250000,29,6,1,7,1575420030,33.00,115.0,27.0,1,0,0,28.0
Status,1732148250000,29,7,1,15,1575420030,28.40,305.0,25.0,1,0,0,23.4
Status,1732148250000,29,8,2,131,1575420030,30.00,3.0,23.0,0,0,0,25.0
Status,1732148250000,29,9,1,2,1575420030,36.00,74.0,20.0,1,0,0,31.0
Status,1732148250000,29,10,1,21,1575420030,25.80,55.0,14.0,1,0,0,20.8
Status,1732148250000,29,11,3,9,1602000000,27.70,41.0,48.0,1,0,0,22.7
Status,1732148250000,29,12,3,8,1602000000,23.90,281.0,40.0,1,0,0,18.9
Status,1732148250000,29,13,3,19,1602000000,0.00,66.0,36.0,0,0,0,0.0
Status,1732148250000,29,14,3,20,1602000000,0.00,142.0,25.0,0,0,0,0.0
Status,1732148250000,29,15,3,18,1602000000,25.30,27.0,13.0,1,0,0,20.3
Status,1732148250000,29,16,3,11,1602000000,0.00,284.0,10.0,0,0,0,0.0
Status,1732148250000,29,17,3,16,1602000000,33.40,80.0,6.0,1,0,0,28.400002
Status,1732148250000,29,18,3,17,1602000000,28.30,0.0,0.0,0,0,0,23.3
Status,1732148250000,29,19,6,21,1575420030,23.50,289.0,63.0,1,0,0,18.5
Status,1732148250000,29,20,6,19,1575420030,20.30,280.0,54.0,1,0,0,15.299999
Status,1732148250000,29,21,6,27,1575420030,25.30,45.0,50.0,1,0,0,20.3
Status,1732148250000,29,22,6,29,1575420030,21.20,197.0,49.0,1,0,0,16.2
Status,1732148250000,29,23,6,15,1575420030,0.00,85.0,17.0,0,0,0,0.0
Status,1732148250000,29,24,6,13,1575420030,0.00,135.0,10.0,0,0,0,0.0
Status,1732148250000,29,25,6,4,1575420030,0.00,324.0,9.0,0,0,0,0.0
Status,1732148250000,29,26,6,7,1575420030,0.00,162.0,6.0,0,0,0,0.0
Status,1732148250000,29,27,6,34,1575420030,0.00,37.0,6.0,0,0,0,0.0
Status,1732148250000,29,28,6,30,1575420030,0.00,65.0,3.0,0,0,0,0.0
Fix,GPS,37.4244383333,-122.1708150000,-3.1999999999999993,0.32736334,2.4,342.68,1732148251000,1.1,124.4,27135056000000,40.2,0,,,
Raw,1732148251000,20080000000,,103.19513223034684,-1416183448920999936,0.0,103.19513223034684,2216.789386079415,0.0,0,7,0.0,16431,346668924167675,235,28.027999877929688,1125.1232337748822,0.14999,16,0.0,0.0,1575420030,,,,0,14.092702131439507,1,6.0,28.027999877929688,0.0,0.0,0.0,66.7128,C,27135056000000,
Raw,1732148251000,20080000000,,103.19513223034684,-1416183448920999936,0.0,103.19513223034684,2216.789386079415,0.0,0,13,0.0,16431,346668931080346,316,24.472999572753906,580.7004227869378,0.14999,16,0.0,0.0,1575420030,,,,0,9.284234450151768,1,6.0,24.472999572753906,0.0,0.0,0.0,66.7128,C,27135056000000,
Raw,1732148251000,20080000000,,103.19513223034684,-1416183448920999936,0.0,103.19513223034684,2216.789386079415,0.0,0,14,0.0,16431,346668932495588,396,25.52400016784668,757.3527431254834,0.14999,16,0.0,0.0,1575420030,,,,0,10.75767747540875,1,6.0,25.52400016784668,0.0,0.0,0.0,66.7128,C,27135056000000,
Raw,1732148251000,20080000000,,103.19513223034684,-1416183448920999936,0.0,103.19513223034684,2216.789386079415,0.0,0,19,0.0,16431,346668924596483,487,24.340999603271484,19.523452536235563,0.14999,16,0.0,0.0,1575420030,,,,0,7.142954193379854,1,6.0,24.340999603271484,0.0,0.0,0.0,66.7128,C,27135056000000,
Raw,1732148251000,20080000000,,103.19513223034684,-1416183448920999936,0.0,103.19513223034684,2216.789386079415,0.0,0,30,0.0,16431,346668930911169,316,26.30900001525879,890.8697713066142,0.14999,16,0.0,0.0,1575420030,,,,0,11.837580396199167,1,6.0,26.30900001525879,0.0,0.0,0.0,66.7128,C,27135056000000,
Raw,1732148251000,20080000000,,103.19513223034684,-1416183448920999936,0.0,103.19513223034684,2216.789386079415,0.0,0,29,0.0,16431,346668918744779,487,16.190000534057617,1077.3205897497082,0.14999,16,0.0,0.0,1575420030,,,,0,0.8375454978080246,6,6.0,16.190000534057617,0.0,0.0,14.819373026535185,66.7128,C,27135056000000,
Raw,1732148251000,20080000000,,103.19513223034684,-1416183448920999936,0.0,103.19513223034684,2216.789386079415,0.0,0,27,0.0,16431,346668918372910,396,20.299999237060547,948.4695661422666,0.14999,16,0.0,0.0,1575420030,,,,0,4.7165192338617565,6,6.0,20.299999237060547,0.0,0.0,14.819373026535185,66.7128,C,27135056000000,
Raw,1732148251000,20080000000,,103.19513223034684,-1416183448920999936,0.0,103.19513223034684,2216.789386079415,0.0,0,19,0.0,16431,346668920740130,487,15.32699966430664,629.0479775758452,0.14999,16,0.0,0.0,1575420030,,,,0,0.0,6,6.0,15.32699966430664,0.0,0.0,14.819373026535185,66.7128,C,27135056000000,
Raw,1732148251000,20080000000,,103.19513223034684,-1416183448920999936,0.0,103.19513223034684,2216.789386079415,0.0,0,21,0.0,16431,346668920511704,316,18.5,557.5197637266086,0.14999,16,0.0,0.0,1575420030,,,,0,1.6945954961533842,6,6.0,18.5,0.0,0.0,14.819373026535185,66.7128,C,27135056000000,
Raw,1732148251000,20080000000,,103.19513223034684,-1416183448920999936,0.0,103.19513223034684,2216.789386079415,0.0,0,21,0.0,16431,346668919790383,487,20.750999450683594,848.7673891168084,0.14999,16,0.0,0.0,1575420030,,,,0,3.5743046959681797,1,6.0,20.750999450683594,0.0,0.0,0.0,66.7128,C,27135056000000,
Raw,1732148251000,20080000000,,103.19513223034684,-1416183448920999936,0.0,103.19513223034684,2216.789386079415,0.0,0,15,0.0,16431,346668924544346,396,23.368999481201172,373.7373541061912,0.14999,16,0.0,0.0,1575420030,,,,0,7.68599911425215,1,6.0,23.368999481201172,0.0,0.0,0.0,66.7128,C,27135056000000,
Raw,1732148251000,20080000000,,103.19513223034684,-1416183448920999936,0.0,103.19513223034684,2216.789386079415,0.0,0,2,0.0,16431,346668920905151,74,30.951000213623047,616.8146867945349,0.14999,16,0.0,0.0,1575420030,,,,0,17.70266259645304,1,6.0,30.951000213623047,0.0,0.0,0.0,66.7128,C,27135056000000,
Raw,1732148251000,20080000000,,103.19513223034684,-1416183448920999936,0.0,103.19513223034684,2216.789386079415,0.0,0,17,0.0,16431,346668931569633,396,23.545000076293945,354.9374217148105,0.14999,16,0.0,0.0,1575420030,,,,0,7.91686691484362,1,6.0,23.545000076293945,0.0,0.0,0.0,66.7128,C,27135056000000,
Raw,1732148251000,20080000000,,103.19513223034684,-1416183448920999936,0.0,103.19513223034684,2216.789386079415,0.0,0,16,0.0,17,226105,235,5.0,1157.865992789797,0.14999,16,0.0,0.0,1601437440,,,,0,15.150768099103137,3,6.0,29.0,0.0,0.0,10.12240993627854,66.7128,C,27135056000000,
Raw,1732148251000,20080000000,,103.19513223034684,-1416183448920999936,0.0,103.19513223034684,2216.789386079415,0.0,0,8,0.0,17,472761,487,5.0,773.9947128896888,0.14999,16,0.0,0.0,1605374980,,,,0,2.501225267834001,3,6.0,20.0,0.0,0.0,10.12240993627854,66.7128,C,27135056000000,
Raw,1732148251000,20080000000,,103.19513223034684,-1416183448920999936,0.0,103.19513223034684,2216.789386079415,0.0,0,9,0.0,17,615410,396,5.0,866.6297274658078,0.14999,16,0.0,0.0,1600875010,,,,0,8.087440187248898,3,6.0,22.0,0.0,0.0,10.12240993627854,66.7128,C,27135056000000,
Raw,1732148251000,20080000000,,103.19513223034684,-1416183448920999936,0.0,103.19513223034684,2216.789386079415,0.0,0,18,0.0,17,835720,487,5.0,1193.9741575080618,0.14999,16,0.0,0.0,1600312450,,,,0,4.625780725607928,3,6.0,19.0,0.0,0.0,10.12240993627854,66.7128,C,27135056000000,
Raw,1732148251000,20080000000,,103.19513223034684,-1416183448920999936,0.0,103.19513223034684,2216.789386079415,0.0,0,22,0.0,16431,346668931148535,235,26.625,617.3282845857424,0.14999,16,0.0,0.0,1575420030,,,,0,12.262229829026452,1,6.0,26.625,0.0,0.0,0.0,66.7128,C,27135056000000,
Fix,FLP,37.4244395000,-122.1708135000,2.0,0.23411863,2.377,348.49994,1732148251209,1.1,124.4,27135056000000,0.89508337,0,,,
Status,1732148251000,29,0,1,14,1575420030,34.60,6.0,70.0,1,0,0,29.599998
Status,1732148251000,29,1,1,22,1575420030,36.80,300.0,67.0,1,0,0,31.8
Status,1732148251000,29,2,1,30,1575420030,32.00,103.0,61.0,1,0,0,27.0
Status,1732148251000,29,3,1,17,1575420030,30.00,170.0,60.0,1,0,0,25.0
Status,1732148251000,29,4,1,13,1575420030,32.50,283.0,55.0,1,0,0,27.5
Status,1732148251000,29,5,1,19,1575420030,25.60,194.0,31.0,1,0,0,20.6
Status,1732148251000,29,6,1,7,1575420030,33.20,115.0,27.0,1,0,0,28.2
Status,1732148251000,29,7,1,15,1575420030,28.30,305.0,25.0,1,0,0,23.3
Status,1732148251000,29,8,2,131,1575420030,31.00,3.0,23.0,0,0,0,26.0
Status,1732148251000,29,9,1,2,1575420030,33.60,74.0,20.0,1,0,0,28.599998
Status,1732148251000,29,10,1,21,1575420030,30.50,55.0,14.0,1,0,0,25.5
Status,1732148251000,29,11,3,9,1602000000,27.70,41.0,48.0,1,0,0,22.7
Status,1732148251000,29,12,3,8,1602000000,23.90,281.0,40.0,1,0,0,18.9
Status,1732148251000,29,13,3,19,1602000000,0.00,66.0,36.0,0,0,0,0.0
Status,1732148251000,29,14,3,20,1602000000,0.00,142.0,25.0,0,0,0,0.0
Status,1732148251000,29,15,3,18,1602000000,22.40,27.0,13.0,1,0,0,17.4
Status,1732148251000,29,16,3,11,1602000000,0.00,284.0,10.0,0,0,0,0.0
Status,1732148251000,29,17,3,16,1602000000,31.30,80.0,6.0,1,0,0,26.3
Status,1732148251000,29,18,3,17,1602000000,27.30,0.0,0.0,0,0,0,22.3
Status,1732148251000,29,19,6,21,1575420030,28.90,289.0,63.0,1,0,0,23.9
Status,1732148251000,29,20,6,19,1575420030,20.30,280.0,54.0,1,0,0,15.299999
Status,1732148251000,29,21,6,27,1575420030,22.80,45.0,50.0,1,0,0,17.8
Status,1732148251000,29,22,6,29,1575420030,21.30,197.0,49.0,1,0,0,16.3
Status,1732148251000,29,23,6,15,1575420030,0.00,85.0,17.0,0,0,0,0.0
Status,1732148251000,29,24,6,13,1575420030,0.00,135.0,10.0,0,0,0,0.0
Status,1732148251000,29,25,6,4,1575420030,0.00,324.0,9.0,0,0,0,0.0
Status,1732148251000,29,26,6,7,1575420030,0.00,162.0,6.0,0,0,0,0.0
Status,1732148251000,29,27,6,34,1575420030,0.00,37.0,6.0,0,0,0,0.0
Status,1732148251000,29,28,6,30,1575420030,0.00,65.0,3.0,0,0,0,0.0
Fix,GPS,37.4244383333,-122.1708166667,-3.1999999999999993,0.50339836,2.4,335.47,1732148252000,1.1,142.6,27136056000000,37.4,0,,,
Raw,1732148252000,21080000000,,93.29228909839648,-1416183448920999936,0.0,93.29228909839648,2209.806916463616,0.0,0,7,0.0,16431,346669924163920,235,28.249000549316406,1123.5237634215857,0.14999,16,0.0,0.0,1575420030,,,,0,14.36803071828425,1,6.0,28.249000549316406,0.0,0.0,0.0,66.7128,C,27136056000000,
Raw,1732148252000,21080000000,,93.29228909839648,-1416183448920999936,0.0,93.29228909839648,2209.806916463616,0.0,0,13,0.0,16431,346669931078420,316,27.507999420166016,579.227551617815,0.14999,16,0.0,0.0,1575420030,,,,0,13.424227021700512,1,6.0,27.507999420166016,0.0,0.0,0.0,66.7128,C,27136056000000,
Raw,1732148252000,21080000000,,93.29228909839648,-1416183448920999936,0.0,93.29228909839648,2209.806916463616,0.0,0,14,0.0,16431,346669932493070,235,29.59000015258789,755.9883523582123,0.14999,16,0.0,0.0,1575420030,,,,0,16.03929050392619,1,6.0,29.59000015258789,0.0,0.0,0.0,66.7128,C,27136056000000,
Raw,1732148252000,21080000000,,93.29228909839648,-1416183448920999936,0.0,93.29228909839648,2209.806916463616,0.0,0,19,0.0,16431,346669924596420,487,20.645000457763672,18.435210594919912,0.14999,16,0.0,0.0,1575420030,,,,0,3.384441625291594,1,6.0,20.645000457763672,0.0,0.0,0.0,66.7128,C,27136056000000,
Raw,1732148252000,21080000000,,93.29228909839648,-1416183448920999936,0.0,93.29228909839648,2209.806916463616,0.0,0,30,0.0,16431,346669930908200,235,27.020999908447266,889.4123707900897,0.14999,16,0.0,0.0,1575420030,,,,0,12.797945768332472,1,6.0,27.020999908447266,0.0,0.0,0.0,66.7128,C,27136056000000,
Raw,1732148252000,21080000000,,93.29228909839648,-1416183448920999936,0.0,93.29228909839648,2209.806916463616,0.0,0,29,0.0,16431,346669918741187,396,16.270000457763672,1075.8084612188875,0.14999,16,0.0,0.0,1575420030,,,,0,0.44266433389288284,6,6.0,16.270000457763672,0.0,0.0,10.911257861716148,66.7128,C,27136056000000,
Raw,1732148252000,21080000000,,93.29228909839648,-1416183448920999936,0.0,93.29228909839648,2209.806916463616,0.0,0,27,0.0,16431,346669918369751,487,17.799999237060547,946.6815675359877,0.14999,16,0.0,0.0,1575420030,,,,0,0.44266433389288284,6,6.0,17.799999237060547,0.0,0.0,10.911257861716148,66.7128,C,27136056000000,
Raw,1732148252000,21080000000,,93.29228909839648,-1416183448920999936,0.0,93.29228909839648,2209.806916463616,0.0,0,22,0.0,16431,346669931146471,74,31.79400062561035,616.2183930224726,0.14999,16,0.0,0.0,1575420030,,,,0,18.695919320582135,1,6.0,31.79400062561035,0.0,0.0,0.0,66.7128,C,27136056000000,
Raw,1732148252000,21080000000,,93.29228909839648,-1416183448920999936,0.0,93.29228909839648,2209.806916463616,0.0,0,19,0.0,16431,346669920738032,487,15.345000267028809,627.7474671308636,0.14999,16,0.0,0.0,1575420030,,,,0,0.0,6,6.0,15.345000267028809,0.0,0.0,10.911257861716148,66.7128,C,27136056000000,
Raw,1732148252000,21080000000,,93.29228909839648,-1416183448920999936,0.0,93.29228909839648,2209.806916463616,0.0,0,21,0.0,16431,346669920509846,316,23.899999618530273,555.5333412246947,0.14999,16,0.0,0.0,1575420030,,,,0,9.711495482462281,6,6.0,23.899999618530273,0.0,0.0,10.911257861716148,66.7128,C,27136056000000,
Raw,1732148252000,21080000000,,93.29228909839648,-1416183448920999936,0.0,93.29228909839648,2209.806916463616,0.0,0,21,0.0,16431,346669919787570,316,25.469999313354492,846.8585057115498,0.14999,16,0.0,0.0,1575420030,,,,0,10.71651204462127,1,6.0,25.469999313354492,0.0,0.0,0.0,66.7128,C,27136056000000,
Raw,1732148252000,21080000000,,93.29228909839648,-1416183448920999936,0.0,93.29228909839648,2209.806916463616,0.0,0,15,0.0,16431,346669924543100,396,23.26099967956543,371.79811012593905,0.14999,16,0.0,0.0,1575420030,,,,0,7.50872990762605,1,6.0,23.26099967956543,0.0,0.0,0.0,66.7128,C,27136056000000,
Raw,1732148252000,21080000000,,93.29228909839648,-1416183448920999936,0.0,93.29228909839648,2209.806916463616,0.0,0,2,0.0,16431,346669920903094,235,28.594999313354492,615.4967079850582,0.14999,16,0.0,0.0,1575420030,,,,0,14.816945584528403,1,6.0,28.594999313354492,0.0,0.0,0.0,66.7128,C,27136056000000,
Raw,1732148252000,21080000000,,93.29228909839648,-1416183448920999936,0.0,93.29228909839648,2209.806916463616,0.0,0,17,0.0,16431,346669931568468,316,24.98699951171875,353.3006917117132,0.14999,16,0.0,0.0,1575420030,,,,0,10.029862154422059,1,6.0,24.98699951171875,0.0,0.0,0.0,66.7128,C,27136056000000,
Raw,1732148252000,21080000000,,93.29228909839648,-1416183448920999936,0.0,93.29228909839648,2209.806916463616,0.0,0,16,0.0,17,222244,396,5.0,1155.8686524486734,0.14999,16,0.0,0.0,1601437440,,,,0,12.625487732581357,3,6.0,23.0,0.0,0.0,1.7611427021425459,66.7128,C,27136056000000,
Raw,1732148252000,21080000000,,93.29228909839648,-1416183448920999936,0.0,93.29228909839648,2209.806916463616,0.0,0,8,0.0,17,470177,487,5.0,772.4049358999041,0.14999,16,0.0,0.0,1605374980,,,,0,1.6572716719449043,3,6.0,19.0,0.0,0.0,1.7611427021425459,66.7128,C,27136056000000,
Raw,1732148252000,21080000000,,93.29228909839648,-1416183448920999936,0.0,93.29228909839648,2209.806916463616,0.0,0,9,0.0,17,612521,487,5.0,865.0198455361417,0.14999,16,0.0,0.0,1600875010,,,,0,8.087440187248898,3,6.0,19.0,0.0,0.0,1.7611427021425459,66.7128,C,27136056000000,
Raw,1732148252000,21080000000,,93.29228909839648,-1416183448920999936,0.0,93.29228909839648,2209.806916463616,0.0,0,18,0.0,17,831736,487,5.0,1193.0362084184273,0.14999,16,0.0,0.0,1600312450,,,,0,0.0,3,6.0,19.0,0.0,0.0,1.7611427021425459,66.7128,C,27136056000000,
Fix,FLP,37.4244401000,-122.1708154000,2.0,0.2493146,2.391,347.5008,1732148252209,1.1,142.6,27136056000000,0.90611124,0,,,
Status,1732148252000,29,0,1,14,1575420030,31.30,6.0,70.0,1,0,0,26.3
Status,1732148252000,29,1,1,22,1575420030,33.00,300.0,67.0,1,0,0,28.0
Status,1732148252000,29,2,1,30,1575420030,34.30,103.0,61.0,1,0,0,29.3
Status,1732148252000,29,3,1,17,1575420030,32.80,170.0,60.0,1,0,0,27.8
Status,1732148252000,29,4,1,13,1575420030,33.30,283.0,55.0,1,0,0,28.3
Status,1732148252000,29,5,1,19,1575420030,28.40,194.0,31.0,1,0,0,23.4
Status,1732148252000,29,6,1,7,1575420030,32.00,115.0,27.0,1,0,0,27.0
Status,1732148252000,29,7,1,15,1575420030,25.60,305.0,25.0,1,0,0,20.6
Status,1732148252000,29,8,2,131,1575420030,32.00,3.0,23.0,0,0,0,27.0
Status,1732148252000,29,9,1,2,1575420030,32.70,74.0,20.0,1,0,0,27.7
Status,1732148252000,29,10,1,21,1575420030,37.90,55.0,14.0,1,0,0,32.9
Status,1732148252000,29,11,3,9,1602000000,31.60,41.0,48.0,1,0,0,26.6
Status,1732148252000,29,12,3,8,1602000000,23.90,281.0,40.0,1,0,0,18.9
Status,1732148252000,29,13,3,19,1602000000,0.00,66.0,36.0,0,0,0,0.0
Status,1732148252000,29,14,3,20,1602000000,0.00,142.0,25.0,0,0,0,0.0
Status,1732148252000,29,15,3,18,1602000000,25.40,27.0,13.0,1,0,0,20.4
Status,1732148252000,29,16,3,11,1602000000,0.00,284.0,10.0,0,0,0,0.0
Status,1732148252000,29,17,3,16,1602000000,26.30,80.0,6.0,1,0,0,21.3
Status,1732148252000,29,18,3,17,1602000000,27.50,0.0,0.0,0,0,0,22.5
Status,1732148252000,29,19,6,21,1575420030,25.60,289.0,63.0,1,0,0,20.6
Status,1732148252000,29,20,6,19,1575420030,23.80,280.0,54.0,1,0,0,18.8
Status,1732148252000,29,21,6,27,1575420030,27.10,45.0,50.0,1,0,0,22.1
Status,1732148252000,29,22,6,29,1575420030,24.00,197.0,49.0,1,0,0,19.0
Status,1732148252000,29,23,6,15,1575420030,0.00,85.0,17.0,0,0,0,0.0
Status,1732148252000,29,24,6,13,1575420030,0.00,135.0,10.0,0,0,0,0.0
Status,1732148252000,29,25,6,4,1575420030,0.00,324.0,9.0,0,0,0,0.0
Status,1732148252000,29,26,6,7,1575420030,0.00,162.0,6.0,0,0,0,0.0
Status,1732148252000,29,27,6,34,1575420030,0.00,37.0,6.0,0,0,0,0.0
Status,1732148252000,29,28,6,30,1575420030,0.00,65.0,3.0,0,0,0,0.0
Fix,GPS,37.4244300000,-122.1708200000,-3.1999999999999993,0.0,2.4,335.47,1732148253000,1.1,179.9,27137056000000,36.7,0,,,
Raw,1732148253000,22080000000,,92.52234472292555,-1416183448920999936,0.0,92.52234472292555,2207.6017449933224,0.0,0,7,0.0,16431,346670924160168,316,27.020999908447266,1123.8162656100474,0.14999,16,0.0,0.0,1575420030,,,,0,12.797945768332472,1,6.0,27.020999908447266,0.0,0.0,0.0,66.7128,C,27137056000000,
Raw,1732148253000,22080000000,,92.52234472292555,-1416183448920999936,0.0,92.52234472292555,2207.6017449933224,0.0,0,13,0.0,16431,346670931076487,396,28.308000564575195,579.7803603123043,0.14999,16,0.0,0.0,1575420030,,,,0,14.448955741281912,1,6.0,28.308000564575195,0.0,0.0,0.0,66.7128,C,27137056000000,
Raw,1732148253000,22080000000,,92.52234472292555,-1416183448920999936,0.0,92.52234472292555,2207.6017449933224,0.0,0,14,0.0,16431,346670932490549,316,26.259000778198242,755.5872303926504,0.14999,16,0.0,0.0,1575420030,,,,0,11.764742320405235,1,6.0,26.259000778198242,0.0,0.0,0.0,66.7128,C,27137056000000,
Raw,1732148253000,22080000000,,92.52234472292555,-1416183448920999936,0.0,92.52234472292555,2207.6017449933224,0.0,0,19,0.0,16431,346670924596362,396,23.40399932861328,18.068049731608028,0.14999,16,0.0,0.0,1575420030,,,,0,7.744293894396497,1,6.0,23.40399932861328,0.0,0.0,0.0,66.7128,C,27137056000000,
Raw,1732148253000,22080000000,,92.52234472292555,-1416183448920999936,0.0,92.52234472292555,2207.6017449933224,0.0,0,30,0.0,16431,346670930905238,235,29.319000244140625,889.7412963768602,0.14999,16,0.0,0.0,1575420030,,,,0,15.720506481897234,1,6.0,29.319000244140625,0.0,0.0,0.0,66.7128,C,27137056000000,
Raw,1732148253000,22080000000,,92.52234472292555,-1416183448920999936,0.0,92.52234472292555,2207.6017449933224,0.0,0,29,0.0,16431,346670918737598,316,19.0,1075.6325696551146,0.14999,16,0.0,0.0,1575420030,,,,0,2.6851995508595685,6,6.0,19.0,0.0,0.0,9.118917918586487,66.7128,C,27137056000000,
Raw,1732148253000,22080000000,,92.52234472292555,-1416183448920999936,0.0,92.52234472292555,2207.6017449933224,0.0,0,27,0.0,16431,346670918366593,396,22.100000381469727,946.8830112286767,0.14999,16,0.0,0.0,1575420030,,,,0,7.266598838393708,6,6.0,22.100000381469727,0.0,0.0,9.118917918586487,66.7128,C,27137056000000,
Raw,1732148253000,22080000000,,92.52234472292555,-1416183448920999936,0.0,92.52234472292555,2207.6017449933224,0.0,0,22,0.0,16431,346670931144418,235,28.027999877929688,615.4987521553713,0.14999,16,0.0,0.0,1575420030,,,,0,14.092702131439507,1,6.0,28.027999877929688,0.0,0.0,0.0,66.7128,C,27137056000000,
Raw,1732148253000,22080000000,,92.52234472292555,-1416183448920999936,0.0,92.52234472292555,2207.6017449933224,0.0,0,19,0.0,16431,346670920735935,487,18.799999237060547,627.9974134100763,0.14999,16,0.0,0.0,1575420030,,,,0,2.2588126143169323,6,6.0,18.799999237060547,0.0,0.0,9.118917918586487,66.7128,C,27137056000000,
Raw,1732148253000,22080000000,,92.52234472292555,-1416183448920999936,0.0,92.52234472292555,2207.6017449933224,0.0,0,21,0.0,16431,346670920507991,396,20.600000381469727,555.5778948458405,0.14999,16,0.0,0.0,1575420030,,,,0,5.118715601610117,6,6.0,20.600000381469727,0.0,0.0,9.118917918586487,66.7128,C,27137056000000,
Raw,1732148253000,22080000000,,92.52234472292555,-1416183448920999936,0.0,92.52234472292555,2207.6017449933224,0.0,0,21,0.0,16431,346670919784736,58,32.91899871826172,847.0171147444926,0.14999,16,0.0,0.0,1575420030,,,,0,19.993591901918926,1,6.0,32.91899871826172,0.0,0.0,0.0,66.7128,C,27137056000000,
Raw,1732148253000,22080000000,,92.52234472292555,-1416183448920999936,0.0,92.52234472292555,2207.6017449933224,0.0,0,15,0.0,16431,346670924541859,487,20.590999603271484,371.5161075395411,0.14999,16,0.0,0.0,1575420030,,,,0,3.2879307475057664,1,6.0,20.590999603271484,0.0,0.0,0.0,66.7128,C,27137056000000,
Raw,1732148253000,22080000000,,92.52234472292555,-1416183448920999936,0.0,92.52234472292555,2207.6017449933224,0.0,0,2,0.0,16431,346670920901043,316,27.722000122070312,615.399795728843,0.14999,16,0.0,0.0,1575420030,,,,0,13.691963995193156,1,6.0,27.722000122070312,0.0,0.0,0.0,66.7128,C,27137056000000,
Raw,1732148253000,22080000000,,92.52234472292555,-1416183448920999936,0.0,92.52234472292555,2207.6017449933224,0.0,0,17,0.0,16431,346670931567301,396,27.80500030517578,354.87918609009057,0.14999,16,0.0,0.0,1575420030,,,,0,13.808359567962693,1,6.0,27.80500030517578,0.0,0.0,0.0,66.7128,C,27137056000000,
Raw,1732148253000,22080000000,,92.52234472292555,-1416183448920999936,0.0,92.52234472292555,2207.6017449933224,0.0,0,16,0.0,17,218384,316,5.0,1155.345162991275,0.14999,16,0.0,0.0,1601437440,,,,0,6.102167752589996,3,6.0,24.0,0.0,0.0,1.6683454253353243,66.7128,C,27137056000000,
Raw,1732148253000,22080000000,,92.52234472292555,-1416183448920999936,0.0,92.52234472292555,2207.6017449933224,0.0,0,8,0.0,17,467602,487,5.0,771.828111739458,0.14999,16,0.0,0.0,1605374980,,,,0,3.976949551052374,3,6.0,19.0,0.0,0.0,1.6683454253353243,66.7128,C,27137056000000,
Raw,1732148253000,22080000000,,92.52234472292555,-1416183448920999936,0.0,92.52234472292555,2207.6017449933224,0.0,0,9,0.0,17,609654,316,5.0,864.0220588942857,0.14999,16,0.0,0.0,1600875010,,,,0,13.084989651580898,3,6.0,24.0,0.0,0.0,1.6683454253353243,66.7128,C,27137056000000,
Raw,1732148253000,22080000000,,92.52234472292555,-1416183448920999936,0.0,92.52234472292555,2207.6017449933224,0.0,0,18,0.0,17,827753,487,5.0,1195.1423404438647,0.14999,16,0.0,0.0,1600312450,,,,0,4.8415903272780545,3,6.0,20.0,0.0,0.0,1.6683454253353243,66.7128,C,27137056000000,
Fix,FLP,37.4244362000,-122.1708178000,2.0,0.21443793,2.405,348.57297,1732148253209,1.1,179.9,27137056000000,0.9150924,0,,,
Status,1732148253000,29,0,1,14,1575420030,30.20,6.0,70.0,1,0,0,25.2
Status,1732148253000,29,1,1,22,1575420030,29.20,300.0,67.0,1,0,0,24.2
Status,1732148253000,29,2,1,30,1575420030,35.00,103.0,61.0,1,0,0,30.0
Status,1732148253000,29,3,1,17,1575420030,28.50,170.0,60.0,1,0,0,23.5
Status,1732148253000,29,4,1,13,1575420030,32.30,283.0,55.0,1,0,0,27.3
Status,1732148253000,29,5,1,19,1575420030,29.10,194.0,31.0,1,0,0,24.1
Status,1732148253000,29,6,1,7,1575420030,32.50,115.0,27.0,1,0,0,27.5
Status,1732148253000,29,7,1,15,1575420030,23.30,305.0,25.0,1,0,0,18.3
Status,1732148253000,29,8,2,131,1575420030,32.00,3.0,23.0,0,0,0,27.0
Status,1732148253000,29,9,1,2,1575420030,33.10,74.0,20.0,1,0,0,28.099998
Status,1732148253000,29,10,1,21,1575420030,35.80,55.0,14.0,1,0,0,30.8
Status,1732148253000,29,11,3,9,1602000000,31.10,41.0,48.0,1,0,0,26.1
Status,1732148253000,29,12,3,8,1602000000,24.00,281.0,40.0,1,0,0,19.0
Status,1732148253000,29,13,3,19,1602000000,0.00,66.0,36.0,0,0,0,0.0
Status,1732148253000,29,14,3,20,1602000000,0.00,142.0,25.0,0,0,0,0.0
Status,1732148253000,29,15,3,18,1602000000,28.20,27.0,13.0,1,0,0,23.2
Status,1732148253000,29,16,3,11,1602000000,0.00,284.0,10.0,0,0,0,0.0
Status,1732148253000,29,17,3,16,1602000000,29.90,80.0,6.0,1,0,0,24.9
Status,1732148253000,29,18,3,17,1602000000,25.80,0.0,0.0,0,0,0,20.8
Status,1732148253000,29,19,6,21,1575420030,23.10,289.0,63.0,1,0,0,18.1
Status,1732148253000,29,20,6,19,1575420030,21.00,280.0,54.0,1,0,0,16.0
Status,1732148253000,29,21,6,27,1575420030,26.50,45.0,50.0,1,0,0,21.5
Status,1732148253000,29,22,6,29,1575420030,24.10,197.0,49.0,1,0,0,19.1
Status,1732148253000,29,23,6,15,1575420030,0.00,85.0,17.0,0,0,0,0.0
Status,1732148253000,29,24,6,13,1575420030,0.00,135.0,10.0,0,0,0,0.0
Status,1732148253000,29,25,6,4,1575420030,0.00,324.0,9.0,0,0,0,0.0
Status,1732148253000,29,26,6,7,1575420030,0.00,162.0,6.0,0,0,0,0.0
Status,1732148253000,29,27,6,34,1575420030,0.00,37.0,6.0,0,0,0,0.0
Status,1732148253000,29,28,6,30,1575420030,0.00,65.0,3.0,0,0,0,0.0
Fix,GPS,37.4244266667,-122.1708200000,-3.099999999999998,0.0,2.4,335.47,1732148254000,2.4,179.9,27138056000000,36.1,0,,,
Fix,FLP,37.4244325000,-122.1708191000,2.0,0.19974294,2.405,348.233,1732148254208,2.4,179.9,27138056000000,0.9302299,0,,,
Raw,1732148254000,23080000000,,90.30533653526669,-1416183448920999936,0.0,90.30533653526669,2208.171890297924,0.0,0,7,0.0,16431,346671924156414,235,27.507999420166016,1124.3208969269263,0.14999,16,0.0,0.0,1575420030,,,,0,13.424227021700512,1,6.0,27.507999420166016,0.0,0.0,0.0,66.7128,C,27138056000000,
Raw,1732148254000,23080000000,,90.30533653526669,-1416183448920999936,0.0,90.30533653526669,2208.171890297924,0.0,0,13,0.0,16431,346671931074551,235,27.31399917602539,579.4263007223637,0.14999,16,0.0,0.0,1575420030,,,,0,13.179106285636369,1,6.0,27.31399917602539,0.0,0.0,0.0,66.7128,C,27138056000000,
Raw,1732148254000,23080000000,,90.30533653526669,-1416183448920999936,0.0,90.30533653526669,2208.171890297924,0.0,0,14,0.0,16431,346671932488031,396,25.163000106811523,755.4554743242774,0.14999,16,0.0,0.0,1575420030,,,,0,10.250328041642867,1,6.0,25.163000106811523,0.0,0.0,0.0,66.7128,C,27138056000000,
Raw,1732148254000,23080000000,,90.30533653526669,-1416183448920999936,0.0,90.30533653526669,2208.171890297924,0.0,0,19,0.0,16431,346671924596300,396,24.055999755859375,17.9352251196621,0.14999,16,0.0,0.0,1575420030,,,,0,8.6797547980343,1,6.0,24.055999755859375,0.0,0.0,0.0,66.7128,C,27138056000000,
Raw,1732148254000,23080000000,,90.30533653526669,-1416183448920999936,0.0,90.30533653526669,2208.171890297924,0.0,0,30,0.0,16431,346671930902274,235,29.982999801635742,890.1614662930683,0.14999,16,0.0,0.0,1575420030,,,,0,16.5388668321533,1,6.0,29.982999801635742,0.0,0.0,0.0,66.7128,C,27138056000000,
Raw,1732148254000,23080000000,,90.30533653526669,-1416183448920999936,0.0,90.30533653526669,2208.171890297924,0.0,0,29,0.0,16431,346671918734006,396,19.110000610351562,1076.265333283902,0.14999,16,0.0,0.0,1575420030,,,,0,6.0141918151985525,6,6.0,19.110000610351562,0.0,0.0,11.41918278605841,66.7128,C,27138056000000,
Raw,1732148254000,23080000000,,90.30533653526669,-1416183448920999936,0.0,90.30533653526669,2208.171890297924,0.0,0,27,0.0,16431,346671918363434,235,21.5,947.8312275035337,0.14999,16,0.0,0.0,1575420030,,,,0,6.496865409532941,6,6.0,21.5,0.0,0.0,11.41918278605841,66.7128,C,27138056000000,
Raw,1732148254000,23080000000,,90.30533653526669,-1416183448920999936,0.0,90.30533653526669,2208.171890297924,0.0,0,22,0.0,16431,346671931142361,316,24.1560001373291,616.6350320990488,0.14999,16,0.0,0.0,1575420030,,,,0,8.834864091969546,1,6.0,24.1560001373291,0.0,0.0,0.0,66.7128,C,27138056000000,
Raw,1732148254000,23080000000,,90.30533653526669,-1416183448920999936,0.0,90.30533653526669,2208.171890297924,0.0,0,19,0.0,16431,346671920733836,487,16.0,628.3465948663147,0.14999,16,0.0,0.0,1575420030,,,,0,0.0,6,6.0,16.0,0.0,0.0,11.41918278605841,66.7128,C,27138056000000,
Raw,1732148254000,23080000000,,90.30533653526669,-1416183448920999936,0.0,90.30533653526669,2208.171890297924,0.0,0,21,0.0,16431,346671920506136,487,18.100000381469727,556.1706113198546,0.14999,16,0.0,0.0,1575420030,,,,0,1.0911661329898044,6,6.0,18.100000381469727,0.0,0.0,11.41918278605841,66.7128,C,27138056000000,
Raw,1732148254000,23080000000,,90.30533653526669,-1416183448920999936,0.0,90.30533653526669,2208.171890297924,0.0,0,21,0.0,16431,346671919781909,74,30.836000442504883,847.3238332083146,0.14999,16,0.0,0.0,1575420030,,,,0,17.553704782688555,1,6.0,30.836000442504883,0.0,0.0,0.0,66.7128,C,27138056000000,
