# 
# Header Description:
# 
# Version: v3.1.0.3 Platform: 13 Manufacturer: samsung Model: SM-S135DL GNSS Hardware Model Name: MediaTek,MT6631,MTK_MNLD_default,MNL_VER_default
# 
# Raw,utcTimeMillis,TimeNanos,LeapSecond,TimeUncertaintyNanos,FullBiasNanos,BiasNanos,BiasUncertaintyNanos,DriftNanosPerSecond,DriftUncertaintyNanosPerSecond,HardwareClockDiscontinuityCount,Svid,TimeOffsetNanos,State,ReceivedSvTimeNanos,ReceivedSvTimeUncertaintyNanos,Cn0DbHz,PseudorangeRateMetersPerSecond,PseudorangeRateUncertaintyMetersPerSecond,AccumulatedDeltaRangeState,AccumulatedDeltaRangeMeters,AccumulatedDeltaRangeUncertaintyMeters,CarrierFrequencyHz,CarrierCycles,CarrierPhase,CarrierPhaseUncertainty,MultipathIndicator,SnrInDb,ConstellationType,AgcDb,BasebandCn0DbHz,FullInterSignalBiasNanos,FullInterSignalBiasUncertaintyNanos,SatelliteInterSignalBiasNanos,SatelliteInterSignalBiasUncertaintyNanos,CodeType,ChipsetElapsedRealtimeNanos,IsFullTracking
# 
# UncalAccel,utcTimeMillis,elapsedRealtimeNanos,UncalAccelXMps2,UncalAccelYMps2,UncalAccelZMps2,BiasXMps2,BiasYMps2,BiasZMps2
# 
# Accel,utcTimeMillis,elapsedRealtimeNanos,AccelXMps2,AccelYMps2,AccelZMps2
# 
# UncalGyro,utcTimeMillis,elapsedRealtimeNanos,UncalGyroXRadPerSec,UncalGyroYRadPerSec,UncalGyroZRadPerSec,DriftXRadPerSec,DriftYRadPerSec,DriftZRadPerSec
# 
# Gyro,utcTimeMillis,elapsedRealtimeNanos,GyroXRadPerSec,GyroYRadPerSec,GyroZRadPerSec
# 
# UncalMag,utcTimeMillis,elapsedRealtimeNanos,UncalMagXMicroT,UncalMagYMicroT,UncalMagZMicroT,BiasXMicroT,BiasYMicroT,BiasZMicroT
# 
# Mag,utcTimeMillis,elapsedRealtimeNanos,MagXMicroT,MagYMicroT,MagZMicroT
# 
# Pressure,utcTimeMillis,elapsedRealtimeNanos,PressureHpa
# 
# OrientationDeg,utcTimeMillis,elapsedRealtimeNanos,yawDeg,rollDeg,pitchDeg
# 
# Fix,Provider,LatitudeDegrees,LongitudeDegrees,AltitudeMeters,SpeedMps,AccuracyMeters,BearingDegrees,UnixTimeMillis,SpeedAccuracyMps,BearingAccuracyDegrees,elapsedRealtimeNanos,VerticalAccuracyMeters,MockLocation,NumberOfUsedSignals,VerticalSpeedAccuracyMps,SolutionType
# 
# Nav,Svid,Type,Status,MessageId,Sub-messageId,Data(Bytes)
# 
# Status,UnixTimeMillis,SignalCount,SignalIndex,ConstellationType,Svid,CarrierFrequencyHz,Cn0DbHz,AzimuthDegrees,ElevationDegrees,UsedInFix,HasAlmanacData,HasEphemerisData,BasebandCn0DbHz
# 
# Agc,utcTimeMillis,TimeNanos,LeapSecond,TimeUncertaintyNanos,FullBiasNanos,BiasNanos,BiasUncertaintyNanos,DriftNanosPerSecond,DriftUncertaintyNanosPerSecond,HardwareClockDiscontinuityCount,AgcDb,CarrierFrequencyHz,ConstellationType
# 
Fix,FLP,37.4243392000,-122.1708291000,2.0,0.004236285,2.583,,1732148319208,3.0,,27203055000000,0.9333941,0,,,
Status,,29,0,1,14,1575420030,25.10,7.0,70.0,1,0,0,20.1
Status,,29,1,1,22,1575420030,30.80,301.0,67.0,1,0,0,25.8
Status,,29,2,1,17,1575420030,29.00,170.0,61.0,1,0,0,24.0
Status,,29,3,1,30,1575420030,26.00,104.0,60.0,1,0,0,21.0
Status,,29,4,1,13,1575420030,30.90,282.0,55.0,1,0,0,25.9
Status,,29,5,1,19,1575420030,27.00,194.0,32.0,1,0,0,22.0
Status,,29,6,1,7,1575420030,30.70,115.0,26.0,1,0,0,25.7
Status,,29,7,1,15,1575420030,0.00,305.0,26.0,0,0,0,0.0
Status,,29,8,2,131,1575420030,30.00,3.0,23.0,0,0,0,25.0
Status,,29,9,1,2,1575420030,33.80,73.0,20.0,1,0,0,28.8
Status,,29,10,1,21,1575420030,32.10,55.0,14.0,1,0,0,27.099998
Status,,29,11,3,9,1602000000,29.90,42.0,48.0,1,0,0,24.9
Status,,29,12,3,8,1602000000,23.70,281.0,39.0,1,0,0,18.7
Status,,29,13,3,19,1602000000,0.00,66.0,36.0,0,0,0,0.0
Status,,29,14,3,20,1602000000,0.00,142.0,25.0,0,0,0,0.0
Status,,29,15,3,18,1602000000,22.50,27.0,13.0,1,0,0,17.5
Status,,29,16,3,11,1602000000,0.00,285.0,10.0,0,0,0,0.0
Status,,29,17,3,16,1602000000,29.80,80.0,5.0,1,0,0,24.8
Status,,29,18,3,17,1602000000,36.50,0.0,0.0,0,0,0,31.5
Status,,29,19,6,21,1575420030,24.40,290.0,63.0,1,0,0,19.4
Status,,29,20,6,19,1575420030,21.80,279.0,54.0,1,0,0,16.8
Status,,29,21,6,27,1575420030,0.00,46.0,49.0,0,0,0,0.0
Status,,29,22,6,29,1575420030,0.00,197.0,48.0,0,0,0,0.0
Status,,29,23,6,15,1575420030,0.00,85.0,17.0,0,0,0,0.0
Status,,29,24,6,13,1575420030,0.00,135.0,10.0,0,0,0,0.0
Status,,29,25,6,4,1575420030,0.00,323.0,9.0,0,0,0,0.0
Status,,29,26,6,7,1575420030,0.00,162.0,6.0,0,0,0,0.0
Status,,29,27,6,34,1575420030,0.00,37.0,6.0,0,0,0,0.0
Status,,29,28,6,30,1575420030,0.00,65.0,3.0,0,0,0,0.0
Fix,GPS,37.4243483333,-122.1708100000,-2.1999999999999993,0.0,2.7,52.56,1732148320000,2.8,174.2,27204055000000,36.9,0,,,
Fix,FLP,37.4243436000,-122.1708198000,2.0,0.017037503,2.583,,1732148320207,2.8,,27204055000000,0.94338757,0,,,
Raw,1732148320000,16242000000,,700075.3063474332,-1416183521758000128,0.0,97.20425267388883,2184.6189462483376,0.0,0,7,0.0,16431,346737923661837,396,25.700000762939453,1119.5614180198213,0.14999,16,0.0,0.0,1575420030,,,,0,10.981736807559582,1,6.0,25.700000762939453,0.0,0.0,0.0,66.7128,C,27204055000000,
Raw,1732148320000,16242000000,,700075.3063474332,-1416183521758000128,0.0,97.20425267388883,2184.6189462483376,0.0,0,2,0.0,16431,346737920515918,235,28.809999465942383,613.9945215553066,0.14999,16,0.0,0.0,1575420030,,,,0,15.069003868840232,1,6.0,28.809999465942383,0.0,0.0,0.0,66.7128,C,27204055000000,
Raw,1732148320000,16242000000,,700075.3063474332,-1416183521758000128,0.0,97.20425267388883,2184.6189462483376,0.0,0,14,0.0,16431,346737932074441,487,20.06100082397461,751.2397911789169,0.14999,16,0.0,0.0,1575420030,,,,0,2.2919165942707007,1,6.0,20.06100082397461,0.0,0.0,0.0,66.7128,C,27204055000000,
Raw,1732148320000,16242000000,,700075.3063474332,-1416183521758000128,0.0,97.20425267388883,2184.6189462483376,0.0,0,13,0.0,16431,346737930699253,316,25.8799991607666,580.2484288556254,0.14999,16,0.0,0.0,1575420030,,,,0,11.250196266948224,1,6.0,25.8799991607666,0.0,0.0,0.0,66.7128,C,27204055000000,
Raw,1732148320000,16242000000,,700075.3063474332,-1416183521758000128,0.0,97.20425267388883,2184.6189462483376,0.0,0,19,0.0,16431,346737924345235,487,22.000999450683594,12.846123749543525,0.14999,16,0.0,0.0,1575420030,,,,0,5.526578774446983,1,6.0,22.000999450683594,0.0,0.0,0.0,66.7128,C,27204055000000,
Raw,1732148320000,16242000000,,700075.3063474332,-1416183521758000128,0.0,97.20425267388883,2184.6189462483376,0.0,0,22,0.0,16431,346737930759589,316,25.777999877929688,611.6872107726264,0.14999,16,0.0,0.0,1575420030,,,,0,11.097808329544385,1,6.0,25.777999877929688,0.0,0.0,0.0,66.7128,C,27204055000000,
Raw,1732148320000,16242000000,,700075.3063474332,-1416183521758000128,0.0,97.20425267388883,2184.6189462483376,0.0,0,21,0.0,16431,346737919347934,235,27.1299991607666,845.3395942519625,0.14999,16,0.0,0.0,1575420030,,,,0,12.927723612068318,1,6.0,27.1299991607666,0.0,0.0,0.0,66.7128,C,27204055000000,
Raw,1732148320000,16242000000,,700075.3063474332,-1416183521758000128,0.0,97.20425267388883,2184.6189462483376,0.0,0,30,0.0,16431,346737930459065,396,21.003000259399414,887.2465723431867,0.14999,16,0.0,0.0,1575420030,,,,0,3.9283434385473655,1,6.0,21.003000259399414,0.0,0.0,0.0,66.7128,C,27204055000000,
Raw,1732148320000,16242000000,,700075.3063474332,-1416183521758000128,0.0,97.20425267388883,2184.6189462483376,0.0,0,19,0.0,16431,346737920348064,487,16.809999465942383,626.3121808204552,0.14999,16,0.0,0.0,1575420030,,,,0,0.0,6,6.0,16.809999465942383,0.0,0.0,9.950470231705086,66.7128,C,27204055000000,
Raw,1732148320000,16242000000,,700075.3063474332,-1416183521758000128,0.0,97.20425267388883,2184.6189462483376,0.0,0,17,0.0,16431,346737931240624,487,23.98900032043457,352.70404950152937,0.14999,16,0.0,0.0,1575420030,,,,0,8.573373638869839,1,6.0,23.98900032043457,0.0,0.0,0.0,66.7128,C,27204055000000,
Raw,1732148320000,16242000000,,700075.3063474332,-1416183521758000128,0.0,97.20425267388883,2184.6189462483376,0.0,0,21,0.0,16431,346737920136706,487,19.364999771118164,549.1900949089726,0.14999,16,0.0,0.0,1575420030,,,,0,2.07743928643524,6,6.0,19.364999771118164,0.0,0.0,9.950470231705086,66.7128,C,27204055000000,
Raw,1732148320000,16242000000,,700075.3063474332,-1416183521758000128,0.0,97.20425267388883,2184.6189462483376,0.0,0,16,0.0,17,713324,316,5.0,1147.1130239074075,0.14999,16,0.0,0.0,1601437440,,,,0,10.835505458776385,3,6.0,25.0,0.0,0.0,42.318205278961365,66.7128,C,27204055000000,
Raw,1732148320000,16242000000,,700075.3063474332,-1416183521758000128,0.0,97.20425267388883,2184.6189462483376,0.0,0,8,0.0,17,46812,396,5.0,775.5312389610889,0.14999,16,0.0,0.0,1605374980,,,,0,4.630331886119738,3,6.0,21.0,0.0,0.0,42.318205278961365,66.7128,C,27204055000000,
Raw,1732148320000,16242000000,,700075.3063474332,-1416183521758000128,0.0,97.20425267388883,2184.6189462483376,0.0,0,18,0.0,17,313659,487,5.0,1192.610042550609,0.14999,16,0.0,0.0,1600312450,,,,0,0.0,3,6.0,19.0,0.0,0.0,42.318205278961365,66.7128,C,27204055000000,
Raw,1732148320000,16242000000,,700075.3063474332,-1416183521758000128,0.0,97.20425267388883,2184.6189462483376,0.0,0,9,0.0,17,169311,316,5.0,858.7784669792167,0.14999,16,0.0,0.0,1600875010,,,,0,10.941756198198384,3,6.0,25.0,0.0,0.0,42.318205278961365,66.7128,C,27204055000000,
Status,1732148320000,29,0,1,14,1575420030,30.80,7.0,70.0,1,0,0,25.8
Status,1732148320000,29,1,1,22,1575420030,26.10,301.0,67.0,1,0,0,21.1
Status,1732148320000,29,2,1,17,1575420030,27.70,170.0,61.0,1,0,0,22.7
Status,1732148320000,29,3,1,30,1575420030,37.30,104.0,60.0,1,0,0,32.3
Status,1732148320000,29,4,1,13,1575420030,30.80,282.0,55.0,1,0,0,25.8
Status,1732148320000,29,5,1,19,1575420030,24.60,194.0,32.0,1,0,0,19.6
Status,1732148320000,29,6,1,7,1575420030,32.10,115.0,26.0,1,0,0,27.099998
Status,1732148320000,29,7,1,15,1575420030,0.00,305.0,26.0,0,0,0,0.0
Status,1732148320000,29,8,2,131,1575420030,32.00,3.0,23.0,0,0,0,27.0
Status,1732148320000,29,9,1,2,1575420030,32.90,73.0,20.0,1,0,0,27.900002
Status,1732148320000,29,10,1,21,1575420030,30.80,55.0,14.0,1,0,0,25.8
Status,1732148320000,29,11,3,9,1602000000,28.10,42.0,48.0,1,0,0,23.1
Status,1732148320000,29,12,3,8,1602000000,29.90,281.0,39.0,1,0,0,24.9
Status,1732148320000,29,13,3,19,1602000000,0.00,66.0,36.0,0,0,0,0.0
Status,1732148320000,29,14,3,20,1602000000,0.00,142.0,25.0,0,0,0,0.0
Status,1732148320000,29,15,3,18,1602000000,22.60,27.0,13.0,1,0,0,17.6
Status,1732148320000,29,16,3,11,1602000000,0.00,285.0,10.0,0,0,0,0.0
Status,1732148320000,29,17,3,16,1602000000,27.60,80.0,5.0,1,0,0,22.6
Status,1732148320000,29,18,3,17,1602000000,39.80,0.0,0.0,0,0,0,34.8
Status,1732148320000,29,19,6,21,1575420030,22.60,290.0,63.0,1,0,0,17.6
Status,1732148320000,29,20,6,19,1575420030,21.80,279.0,54.0,1,0,0,16.8
Status,1732148320000,29,21,6,27,1575420030,0.00,46.0,49.0,0,0,0,0.0
Status,1732148320000,29,22,6,29,1575420030,0.00,197.0,48.0,0,0,0,0.0
Status,1732148320000,29,23,6,15,1575420030,0.00,85.0,17.0,0,0,0,0.0
Status,1732148320000,29,24,6,13,1575420030,0.00,135.0,10.0,0,0,0,0.0
Status,1732148320000,29,25,6,4,1575420030,0.00,323.0,9.0,0,0,0,0.0
Status,1732148320000,29,26,6,7,1575420030,0.00,162.0,6.0,0,0,0,0.0
Status,1732148320000,29,27,6,34,1575420030,0.00,37.0,6.0,0,0,0,0.0
Status,1732148320000,29,28,6,30,1575420030,0.00,65.0,3.0,0,0,0,0.0
Fix,GPS,37.4243533333,-122.1708083333,-2.3000000000000007,0.0,2.7,52.56,1732148321000,2.8,179.9,27205055000000,33.1,0,,,
Raw,1732148321000,17242000000,,699794.8519105173,-1416183521758000128,0.0,86.68984016306801,2186.4399721394398,0.0,0,7,0.0,16431,346738923658094,235,27.107999801635742,1120.639717860068,0.14999,16,0.0,0.0,1575420030,,,,0,12.896535464957893,1,6.0,27.107999801635742,0.0,0.0,0.0,66.7128,C,27205055000000,
Raw,1732148321000,17242000000,,699794.8519105173,-1416183521758000128,0.0,86.68984016306801,2186.4399721394398,0.0,0,2,0.0,16431,346738920513871,396,27.92300033569336,615.4467187292156,0.14999,16,0.0,0.0,1575420030,,,,0,13.954232508060665,1,6.0,27.92300033569336,0.0,0.0,0.0,66.7128,C,27205055000000,
Raw,1732148321000,17242000000,,699794.8519105173,-1416183521758000128,0.0,86.68984016306801,2186.4399721394398,0.0,0,14,0.0,16431,346738932071929,316,25.777999877929688,752.1248240077276,0.14999,16,0.0,0.0,1575420030,,,,0,11.097808329544385,1,6.0,25.777999877929688,0.0,0.0,0.0,66.7128,C,27205055000000,
Raw,1732148321000,17242000000,,699794.8519105173,-1416183521758000128,0.0,86.68984016306801,2186.4399721394398,0.0,0,13,0.0,16431,346738930697312,316,25.75200080871582,580.9734124405909,0.14999,16,0.0,0.0,1575420030,,,,0,11.059289908823619,1,6.0,25.75200080871582,0.0,0.0,0.0,66.7128,C,27205055000000,
Raw,1732148321000,17242000000,,699794.8519105173,-1416183521758000128,0.0,86.68984016306801,2186.4399721394398,0.0,0,19,0.0,16431,346738924345189,487,19.594999313354492,13.374588233938397,0.14999,16,0.0,0.0,1575420030,,,,0,1.516864814430368,1,6.0,19.594999313354492,0.0,0.0,0.0,66.7128,C,27205055000000,
Raw,1732148321000,17242000000,,699794.8519105173,-1416183521758000128,0.0,86.68984016306801,2186.4399721394398,0.0,0,22,0.0,16431,346738930757549,487,21.052000045776367,612.2932608120929,0.14999,16,0.0,0.0,1575420030,,,,0,4.015639546596368,1,6.0,21.052000045776367,0.0,0.0,0.0,66.7128,C,27205055000000,
Raw,1732148321000,17242000000,,699794.8519105173,-1416183521758000128,0.0,86.68984016306801,2186.4399721394398,0.0,0,21,0.0,16431,346738919345112,316,25.804000854492188,845.8973739969862,0.14999,16,0.0,0.0,1575420030,,,,0,11.136156690458822,1,6.0,25.804000854492188,0.0,0.0,0.0,66.7128,C,27205055000000,
Raw,1732148321000,17242000000,,699794.8519105173,-1416183521758000128,0.0,86.68984016306801,2186.4399721394398,0.0,0,30,0.0,16431,346738930456096,74,32.26100158691406,887.1029229202637,0.14999,16,0.0,0.0,1575420030,,,,0,19.22408921506061,1,6.0,32.26100158691406,0.0,0.0,0.0,66.7128,C,27205055000000,
Raw,1732148321000,17242000000,,699794.8519105173,-1416183521758000128,0.0,86.68984016306801,2186.4399721394398,0.0,0,19,0.0,16431,346738920345976,487,16.819000244140625,626.1594720063712,0.14999,16,0.0,0.0,1575420030,,,,0,0.0,6,6.0,16.819000244140625,0.0,0.0,9.21039611860147,66.7128,C,27205055000000,
Raw,1732148321000,17242000000,,699794.8519105173,-1416183521758000128,0.0,86.68984016306801,2186.4399721394398,0.0,0,17,0.0,16431,346738931239439,316,22.726999282836914,353.6846240632771,0.14999,16,0.0,0.0,1575420030,,,,0,6.686417714000718,1,6.0,22.726999282836914,0.0,0.0,0.0,66.7128,C,27205055000000,
Raw,1732148321000,17242000000,,699794.8519105173,-1416183521758000128,0.0,86.68984016306801,2186.4399721394398,0.0,0,21,0.0,16431,346738920134872,235,17.600000381469727,550.4160860543525,0.14999,16,0.0,0.0,1575420030,,,,0,0.13923902627411078,6,6.0,17.600000381469727,0.0,0.0,9.21039611860147,66.7128,C,27205055000000,
Raw,1732148321000,17242000000,,699794.8519105173,-1416183521758000128,0.0,86.68984016306801,2186.4399721394398,0.0,0,16,0.0,17,709498,396,5.0,1147.8571705239049,0.14999,16,0.0,0.0,1601437440,,,,0,8.025353506612984,3,6.0,22.0,0.0,0.0,40.64254133802482,66.7128,C,27205055000000,
Raw,1732148321000,17242000000,,699794.8519105173,-1416183521758000128,0.0,86.68984016306801,2186.4399721394398,0.0,0,8,0.0,17,44296,316,5.0,776.1459040994966,0.14999,16,0.0,0.0,1605374980,,,,0,10.989961822824675,3,6.0,25.0,0.0,0.0,40.64254133802482,66.7128,C,27205055000000,
Raw,1732148321000,17242000000,,699794.8519105173,-1416183521758000128,0.0,86.68984016306801,2186.4399721394398,0.0,0,18,0.0,17,309682,487,5.0,1191.7306352414862,0.14999,16,0.0,0.0,1600312450,,,,0,1.9615554741221306,3,6.0,19.0,0.0,0.0,40.64254133802482,66.7128,C,27205055000000,
Raw,1732148321000,17242000000,,699794.8519105173,-1416183521758000128,0.0,86.68984016306801,2186.4399721394398,0.0,0,9,0.0,17,166444,396,5.0,859.8219733169055,0.14999,16,0.0,0.0,1600875010,,,,0,8.660248662715258,3,6.0,23.0,0.0,0.0,40.64254133802482,66.7128,C,27205055000000,
Fix,FLP,37.4243484000,-122.1708141000,2.0,0.028854825,2.6,,1732148321207,2.8,,27205055000000,0.95023173,0,,,
Status,1732148321000,29,0,1,14,1575420030,32.40,7.0,70.0,1,0,0,27.400002
Status,1732148321000,29,1,1,22,1575420030,28.90,301.0,67.0,1,0,0,23.9
Status,1732148321000,29,2,1,17,1575420030,29.00,170.0,61.0,1,0,0,24.0
Status,1732148321000,29,3,1,30,1575420030,32.80,104.0,60.0,1,0,0,27.8
Status,1732148321000,29,4,1,13,1575420030,30.40,282.0,55.0,1,0,0,25.4
Status,1732148321000,29,5,1,19,1575420030,27.60,194.0,32.0,1,0,0,22.6
Status,1732148321000,29,6,1,7,1575420030,35.60,115.0,26.0,1,0,0,30.599998
Status,1732148321000,29,7,1,15,1575420030,0.00,305.0,26.0,0,0,0,0.0
Status,1732148321000,29,8,2,131,1575420030,29.00,3.0,23.0,0,0,0,24.0
Status,1732148321000,29,9,1,2,1575420030,32.90,73.0,20.0,1,0,0,27.900002
Status,1732148321000,29,10,1,21,1575420030,30.40,55.0,14.0,1,0,0,25.4
Status,1732148321000,29,11,3,9,1602000000,28.70,42.0,48.0,1,0,0,23.7
Status,1732148321000,29,12,3,8,1602000000,34.40,281.0,39.0,1,0,0,29.400002
Status,1732148321000,29,13,3,19,1602000000,0.00,66.0,36.0,0,0,0,0.0
Status,1732148321000,29,14,3,20,1602000000,0.00,142.0,25.0,0,0,0,0.0
Status,1732148321000,29,15,3,18,1602000000,22.60,27.0,13.0,1,0,0,17.6
Status,1732148321000,29,16,3,11,1602000000,0.00,285.0,10.0,0,0,0,0.0
Status,1732148321000,29,17,3,16,1602000000,29.10,80.0,5.0,1,0,0,24.1
Status,1732148321000,29,18,3,17,1602000000,38.30,0.0,0.0,0,0,0,33.3
Status,1732148321000,29,19,6,21,1575420030,25.40,290.0,63.0,1,0,0,20.4
Status,1732148321000,29,20,6,19,1575420030,26.10,279.0,54.0,1,0,0,21.1
Status,1732148321000,29,21,6,27,1575420030,0.00,46.0,49.0,0,0,0,0.0
Status,1732148321000,29,22,6,29,1575420030,0.00,197.0,48.0,0,0,0,0.0
Status,1732148321000,29,23,6,15,1575420030,0.00,85.0,17.0,0,0,0,0.0
Status,1732148321000,29,24,6,13,1575420030,0.00,135.0,10.0,0,0,0,0.0
Status,1732148321000,29,25,6,4,1575420030,0.00,323.0,9.0,0,0,0,0.0
Status,1732148321000,29,26,6,7,1575420030,0.00,162.0,6.0,0,0,0,0.0
Status,1732148321000,29,27,6,34,1575420030,0.00,37.0,6.0,0,0,0,0.0
Status,1732148321000,29,28,6,30,1575420030,0.00,65.0,3.0,0,0,0,0.0
Fix,GPS,37.4243533333,-122.1708050000,-2.3000000000000007,0.0,2.6,52.56,1732148322000,2.6,179.9,27206055000000,32.2,0,,,
Raw,1732148322000,18242000000,,699302.7406313204,-1416183521758000128,0.0,82.86523000834957,2186.6018860966374,0.0,0,7,0.0,16431,346739923654363,74,30.62299919128418,1119.81926222979,0.14999,16,0.0,0.0,1575420030,,,,0,17.28965805438933,1,6.0,30.62299919128418,0.0,0.0,0.0,66.7128,C,27206055000000,
Raw,1732148322000,18242000000,,699302.7406313204,-1416183521758000128,0.0,82.86523000834957,2186.6018860966374,0.0,0,2,0.0,16431,346739920511819,58,27.92300033569336,614.8884744000297,0.14999,16,0.0,0.0,1575420030,,,,0,13.954232508060665,1,6.0,27.92300033569336,0.0,0.0,0.0,66.7128,C,27206055000000,
Raw,1732148322000,18242000000,,699302.7406313204,-1416183521758000128,0.0,82.86523000834957,2186.6018860966374,0.0,0,14,0.0,16431,346739932069419,487,27.388999938964844,752.1718863833489,0.14999,16,0.0,0.0,1575420030,,,,0,13.26359950457549,1,6.0,27.388999938964844,0.0,0.0,0.0,66.7128,C,27206055000000,
Raw,1732148322000,18242000000,,699302.7406313204,-1416183521758000128,0.0,82.86523000834957,2186.6018860966374,0.0,0,13,0.0,16431,346739930695370,396,25.406999588012695,580.3571415495582,0.14999,16,0.0,0.0,1575420030,,,,0,10.583231615371123,1,6.0,25.406999588012695,0.0,0.0,0.0,66.7128,C,27206055000000,
Raw,1732148322000,18242000000,,699302.7406313204,-1416183521758000128,0.0,82.86523000834957,2186.6018860966374,0.0,0,19,0.0,16431,346739924345143,396,22.56999969482422,13.2220652535192,0.14999,16,0.0,0.0,1575420030,,,,0,6.427118170713365,1,6.0,22.56999969482422,0.0,0.0,0.0,66.7128,C,27206055000000,
Raw,1732148322000,18242000000,,699302.7406313204,-1416183521758000128,0.0,82.86523000834957,2186.6018860966374,0.0,0,22,0.0,16431,346739930755505,396,23.860000610351562,612.4530777638571,0.14999,16,0.0,0.0,1575420030,,,,0,8.365318430874494,1,6.0,23.860000610351562,0.0,0.0,0.0,66.7128,C,27206055000000,
Raw,1732148322000,18242000000,,699302.7406313204,-1416183521758000128,0.0,82.86523000834957,2186.6018860966374,0.0,0,21,0.0,16431,346739919342291,487,25.3799991607666,845.8976527474834,0.14999,16,0.0,0.0,1575420030,,,,0,10.542356765171396,1,6.0,25.3799991607666,0.0,0.0,0.0,66.7128,C,27206055000000,
Raw,1732148322000,18242000000,,699302.7406313204,-1416183521758000128,0.0,82.86523000834957,2186.6018860966374,0.0,0,30,0.0,16431,346739930453133,316,27.823999404907227,888.1659843999932,0.14999,16,0.0,0.0,1575420030,,,,0,13.81480913509306,1,6.0,27.823999404907227,0.0,0.0,0.0,66.7128,C,27206055000000,
Raw,1732148322000,18242000000,,699302.7406313204,-1416183521758000128,0.0,82.86523000834957,2186.6018860966374,0.0,0,19,0.0,16431,346739920343887,487,21.100000381469727,627.7571304814354,0.14999,16,0.0,0.0,1575420030,,,,0,5.8840732498410695,6,6.0,21.100000381469727,0.0,0.0,10.555146318684425,66.7128,C,27206055000000,
Raw,1732148322000,18242000000,,699302.7406313204,-1416183521758000128,0.0,82.86523000834957,2186.6018860966374,0.0,0,17,0.0,16431,346739931238256,396,23.98900032043457,353.92729960035285,0.14999,16,0.0,0.0,1575420030,,,,0,8.573373638869839,1,6.0,23.98900032043457,0.0,0.0,0.0,66.7128,C,27206055000000,
Raw,1732148322000,18242000000,,699302.7406313204,-1416183521758000128,0.0,82.86523000834957,2186.6018860966374,0.0,0,21,0.0,16431,346739920133034,396,20.399999618530273,551.2470412866942,0.14999,16,0.0,0.0,1575420030,,,,0,4.76416950540884,6,6.0,20.399999618530273,0.0,0.0,10.555146318684425,66.7128,C,27206055000000,
Raw,1732148322000,18242000000,,699302.7406313204,-1416183521758000128,0.0,82.86523000834957,2186.6018860966374,0.0,0,16,0.0,17,705667,487,5.0,1148.1366025600962,0.14999,16,0.0,0.0,1601437440,,,,0,9.919648586661514,3,6.0,19.0,0.0,0.0,36.93708894865612,66.7128,C,27206055000000,
Raw,1732148322000,18242000000,,699302.7406313204,-1416183521758000128,0.0,82.86523000834957,2186.6018860966374,0.0,0,8,0.0,17,41706,74,5.0,776.877465945728,0.14999,16,0.0,0.0,1605374980,,,,0,16.324266889684356,3,6.0,30.0,0.0,0.0,36.93708894865612,66.7128,C,27206055000000,
Raw,1732148322000,18242000000,,699302.7406313204,-1416183521758000128,0.0,82.86523000834957,2186.6018860966374,0.0,0,18,0.0,17,305709,487,5.0,1190.5228451323057,0.14999,16,0.0,0.0,1600312450,,,,0,3.0748710585406136,3,6.0,19.0,0.0,0.0,36.93708894865612,66.7128,C,27206055000000,
Raw,1732148322000,18242000000,,699302.7406313204,-1416183521758000128,0.0,82.86523000834957,2186.6018860966374,0.0,0,9,0.0,17,163569,487,5.0,860.4166951202992,0.14999,16,0.0,0.0,1600875010,,,,0,9.37471028384427,3,6.0,20.0,0.0,0.0,36.93708894865612,66.7128,C,27206055000000,
Fix,FLP,37.4243508000,-122.1708096000,2.0,0.036562584,2.616,,1732148322208,2.6,,27206055000000,0.96022534,0,,,
Status,1732148322000,29,0,1,14,1575420030,28.90,7.0,70.0,1,0,0,23.9
Status,1732148322000,29,1,1,22,1575420030,27.30,301.0,67.0,1,0,0,22.3
Status,1732148322000,29,2,1,17,1575420030,29.40,170.0,61.0,1,0,0,24.4
Status,1732148322000,29,3,1,30,1575420030,33.60,104.0,60.0,1,0,0,28.599998
Status,1732148322000,29,4,1,13,1575420030,30.70,282.0,55.0,1,0,0,25.7
Status,1732148322000,29,5,1,19,1575420030,27.60,194.0,32.0,1,0,0,22.6
Status,1732148322000,29,6,1,7,1575420030,35.90,115.0,26.0,1,0,0,30.900002
Status,1732148322000,29,7,1,15,1575420030,0.00,305.0,26.0,0,0,0,0.0
Status,1732148322000,29,8,2,131,1575420030,30.00,3.0,23.0,0,0,0,25.0
Status,1732148322000,29,9,1,2,1575420030,28.40,73.0,20.0,1,0,0,23.4
Status,1732148322000,29,10,1,21,1575420030,27.10,55.0,14.0,1,0,0,22.1
Status,1732148322000,29,11,3,9,1602000000,25.20,42.0,48.0,1,0,0,20.2
Status,1732148322000,29,12,3,8,1602000000,26.60,281.0,39.0,1,0,0,21.6
Status,1732148322000,29,13,3,19,1602000000,0.00,66.0,36.0,0,0,0,0.0
Status,1732148322000,29,14,3,20,1602000000,0.00,142.0,25.0,0,0,0,0.0
Status,1732148322000,29,15,3,18,1602000000,0.00,27.0,13.0,0,0,0,0.0
Status,1732148322000,29,16,3,11,1602000000,0.00,285.0,10.0,0,0,0,0.0
Status,1732148322000,29,17,3,16,1602000000,31.70,80.0,5.0,1,0,0,26.7
Status,1732148322000,29,18,3,17,1602000000,28.50,0.0,0.0,0,0,0,23.5
Status,1732148322000,29,19,6,21,1575420030,24.10,290.0,63.0,1,0,0,19.1
Status,1732148322000,29,20,6,19,1575420030,20.50,279.0,54.0,1,0,0,15.5
Status,1732148322000,29,21,6,27,1575420030,0.00,46.0,49.0,0,0,0,0.0
Status,1732148322000,29,22,6,29,1575420030,0.00,197.0,48.0,0,0,0,0.0
Status,1732148322000,29,23,6,15,1575420030,0.00,85.0,17.0,0,0,0,0.0
Status,1732148322000,29,24,6,13,1575420030,0.00,135.0,10.0,0,0,0,0.0
Status,1732148322000,29,25,6,4,1575420030,0.00,323.0,9.0,0,0,0,0.0
Status,1732148322000,29,26,6,7,1575420030,0.00,162.0,6.0,0,0,0,0.0
Status,1732148322000,29,27,6,34,1575420030,0.00,37.0,6.0,0,0,0,0.0
Status,1732148322000,29,28,6,30,1575420030,0.00,65.0,3.0,0,0,0,0.0
Fix,GPS,37.4243616667,-122.1707966667,-2.3999999999999986,0.0,2.6,52.56,1732148323000,2.5,179.9,27207055000000,31.6,0,,,
Raw,1732148323000,19242000000,,698994.9756341102,-1416183521758000128,0.0,81.39625467532075,2191.098702582304,0.0,0,7,0.0,16431,346740923650622,74,30.934999465942383,1121.3614958143148,0.14999,16,0.0,0.0,1575420030,,,,0,17.658541074073,1,6.0,30.934999465942383,0.0,0.0,0.0,66.7128,C,27207055000000,
Raw,1732148323000,19242000000,,698994.9756341102,-1416183521758000128,0.0,81.39625467532075,2191.098702582304,0.0,0,2,0.0,16431,346740920509764,487,23.350000381469727,615.9029868348193,0.14999,16,0.0,0.0,1575420030,,,,0,7.595178492459757,1,6.0,23.350000381469727,0.0,0.0,0.0,66.7128,C,27207055000000,
Raw,1732148323000,19242000000,,698994.9756341102,-1416183521758000128,0.0,81.39625467532075,2191.098702582304,0.0,0,14,0.0,16431,346740932066892,396,23.89299964904785,753.8944715396033,0.14999,16,0.0,0.0,1575420030,,,,0,8.41780130739747,1,6.0,23.89299964904785,0.0,0.0,0.0,66.7128,C,27207055000000,
Raw,1732148323000,19242000000,,698994.9756341102,-1416183521758000128,0.0,81.39625467532075,2191.098702582304,0.0,0,13,0.0,16431,346740930693426,316,25.67300033569336,582.3970376885304,0.14999,16,0.0,0.0,1575420030,,,,0,10.94269903560914,1,6.0,25.67300033569336,0.0,0.0,0.0,66.7128,C,27207055000000,
Raw,1732148323000,19242000000,,698994.9756341102,-1416183521758000128,0.0,81.39625467532075,2191.098702582304,0.0,0,19,0.0,16431,346740924345097,487,22.56999969482422,15.150368276753802,0.14999,16,0.0,0.0,1575420030,,,,0,6.427118170713365,1,6.0,22.56999969482422,0.0,0.0,0.0,66.7128,C,27207055000000,
Raw,1732148323000,19242000000,,698994.9756341102,-1416183521758000128,0.0,81.39625467532075,2191.098702582304,0.0,0,22,0.0,16431,346740930753453,396,22.29400062561035,614.1941533697633,0.14999,16,0.0,0.0,1575420030,,,,0,6.023050448947625,1,6.0,22.29400062561035,0.0,0.0,0.0,66.7128,C,27207055000000,
Raw,1732148323000,19242000000,,698994.9756341102,-1416183521758000128,0.0,81.39625467532075,2191.098702582304,0.0,0,21,0.0,16431,346740919339467,396,22.086000442504883,847.8421232995593,0.14999,16,0.0,0.0,1575420030,,,,0,5.671346952925369,1,6.0,22.086000442504883,0.0,0.0,0.0,66.7128,C,27207055000000,
Raw,1732148323000,19242000000,,698994.9756341102,-1416183521758000128,0.0,81.39625467532075,2191.098702582304,0.0,0,30,0.0,16431,346740930450169,235,28.628999710083008,888.1529760434544,0.14999,16,0.0,0.0,1575420030,,,,0,14.847224425527987,1,6.0,28.628999710083008,0.0,0.0,0.0,66.7128,C,27207055000000,
Raw,1732148323000,19242000000,,698994.9756341102,-1416183521758000128,0.0,81.39625467532075,2191.098702582304,0.0,0,19,0.0,16431,346740920341788,487,15.5,628.2392759248684,0.14999,16,0.0,0.0,1575420030,,,,0,0.0,6,6.0,15.5,0.0,0.0,9.72890152387956,66.7128,C,27207055000000,
Raw,1732148323000,19242000000,,698994.9756341102,-1416183521758000128,0.0,81.39625467532075,2191.098702582304,0.0,0,17,0.0,16431,346740931237069,396,24.368999481201172,355.61620240485456,0.14999,16,0.0,0.0,1575420030,,,,0,9.12108964866249,1,6.0,24.368999481201172,0.0,0.0,0.0,66.7128,C,27207055000000,
Raw,1732148323000,19242000000,,698994.9756341102,-1416183521758000128,0.0,81.39625467532075,2191.098702582304,0.0,0,21,0.0,16431,346740920131194,316,19.100000381469727,551.7058646051895,0.14999,16,0.0,0.0,1575420030,,,,0,2.7056085714677227,6,6.0,19.100000381469727,0.0,0.0,9.72890152387956,66.7128,C,27207055000000,
Raw,1732148323000,19242000000,,698994.9756341102,-1416183521758000128,0.0,81.39625467532075,2191.098702582304,0.0,0,16,0.0,17,701834,235,5.0,1149.847655319489,0.14999,16,0.0,0.0,1601437440,,,,0,13.163183477074472,3,6.0,27.0,0.0,0.0,35.22730052670088,66.7128,C,27207055000000,
Raw,1732148323000,19242000000,,698994.9756341102,-1416183521758000128,0.0,81.39625467532075,2191.098702582304,0.0,0,8,0.0,17,39110,487,5.0,778.2599837959783,0.14999,16,0.0,0.0,1605374980,,,,0,6.614155320181947,3,6.0,20.0,0.0,0.0,35.22730052670088,66.7128,C,27207055000000,
Raw,1732148323000,19242000000,,698994.9756341102,-1416183521758000128,0.0,81.39625467532075,2191.098702582304,0.0,0,9,0.0,17,160698,396,5.0,861.4655963820962,0.14999,16,0.0,0.0,1600875010,,,,0,4.466956104571195,3,6.0,21.0,0.0,0.0,35.22730052670088,66.7128,C,27207055000000,
Fix,FLP,37.4243562000,-122.1708031000,2.0,0.05016853,2.633,,1732148323207,2.5,,27207055000000,0.9702334,0,,,
Status,1732148323000,29,0,1,14,1575420030,26.30,7.0,70.0,1,0,0,21.3
Status,1732148323000,29,1,1,22,1575420030,33.90,301.0,67.0,1,0,0,28.900002
Status,1732148323000,29,2,1,17,1575420030,31.10,170.0,61.0,1,0,0,26.1
Status,1732148323000,29,3,1,30,1575420030,34.80,104.0,60.0,1,0,0,29.8
Status,1732148323000,29,4,1,13,1575420030,30.20,282.0,55.0,1,0,0,25.2
Status,1732148323000,29,5,1,19,1575420030,24.60,194.0,32.0,1,0,0,19.6
Status,1732148323000,29,6,1,7,1575420030,35.00,115.0,26.0,1,0,0,30.0
Status,1732148323000,29,7,1,15,1575420030,0.00,305.0,26.0,0,0,0,0.0
Status,1732148323000,29,8,2,131,1575420030,32.00,3.0,23.0,0,0,0,27.0
Status,1732148323000,29,9,1,2,1575420030,32.70,73.0,20.0,1,0,0,27.7
Status,1732148323000,29,10,1,21,1575420030,29.10,55.0,14.0,1,0,0,24.1
Status,1732148323000,29,11,3,9,1602000000,26.40,42.0,48.0,1,0,0,21.4
Status,1732148323000,29,12,3,8,1602000000,26.60,281.0,39.0,1,0,0,21.6
Status,1732148323000,29,13,3,19,1602000000,0.00,66.0,36.0,0,0,0,0.0
Status,1732148323000,29,14,3,20,1602000000,0.00,142.0,25.0,0,0,0,0.0
Status,1732148323000,29,15,3,18,1602000000,22.80,27.0,13.0,1,0,0,17.8
Status,1732148323000,29,16,3,11,1602000000,0.00,285.0,10.0,0,0,0,0.0
Status,1732148323000,29,17,3,16,1602000000,37.40,80.0,5.0,1,0,0,32.4
Status,1732148323000,29,18,3,17,1602000000,28.30,0.0,0.0,0,0,0,23.3
Status,1732148323000,29,19,6,21,1575420030,25.10,290.0,63.0,1,0,0,20.1
Status,1732148323000,29,20,6,19,1575420030,20.50,279.0,54.0,1,0,0,15.5
Status,1732148323000,29,21,6,27,1575420030,0.00,46.0,49.0,0,0,0,0.0
Status,1732148323000,29,22,6,29,1575420030,0.00,197.0,48.0,0,0,0,0.0
Status,1732148323000,29,23,6,15,1575420030,0.00,85.0,17.0,0,0,0,0.0
Status,1732148323000,29,24,6,13,1575420030,0.00,135.0,10.0,0,0,0,0.0
Status,1732148323000,29,25,6,4,1575420030,0.00,323.0,9.0,0,0,0,0.0
Status,1732148323000,29,26,6,7,1575420030,0.00,162.0,6.0,0,0,0,0.0
Status,1732148323000,29,27,6,34,1575420030,0.00,37.0,6.0,0,0,0,0.0
Status,1732148323000,29,28,6,30,1575420030,0.00,65.0,3.0,0,0,0,0.0
Fix,GPS,37.4243683333,-122.1707866667,-2.5,0.0,2.6,52.56,1732148324000,2.6,179.9,27208055000000,33.1,0,,,
Fix,FLP,37.4243622000,-122.1707949000,2.0,0.06717238,2.633,,1732148324207,2.6,,27208055000000,0.9792363,0,,,
Raw,1732148324000,20242000000,,698626.2309507466,-1416183521758000128,0.0,86.72450795547857,2190.5434967565457,0.0,0,7,0.0,16431,346741923646886,74,30.023000717163086,1120.8810228738655,0.14999,16,0.0,0.0,1575420030,,,,0,16.56295667845102,1,6.0,30.023000717163086,0.0,0.0,0.0,66.7128,C,27208055000000,
Raw,1732148324000,20242000000,,698626.2309507466,-1416183521758000128,0.0,86.72450795547857,2190.5434967565457,0.0,0,2,0.0,16431,346741920507714,316,27.660999298095703,616.0806902768246,0.14999,16,0.0,0.0,1575420030,,,,0,13.615778405739382,1,6.0,27.660999298095703,0.0,0.0,0.0,66.7128,C,27208055000000,
Raw,1732148324000,20242000000,,698626.2309507466,-1416183521758000128,0.0,86.72450795547857,2190.5434967565457,0.0,0,14,0.0,16431,346741932064378,487,21.292999267578125,753.9207670031784,0.14999,16,0.0,0.0,1575420030,,,,0,4.356306332571975,1,6.0,21.292999267578125,0.0,0.0,0.0,66.7128,C,27208055000000,
Raw,1732148324000,20242000000,,698626.2309507466,-1416183521758000128,0.0,86.72450795547857,2190.5434967565457,0.0,0,13,0.0,16431,346741930691485,487,25.215999603271484,581.4007834113116,0.14999,16,0.0,0.0,1575420030,,,,0,10.335046455734723,1,6.0,25.215999603271484,0.0,0.0,0.0,66.7128,C,27208055000000,
Raw,1732148324000,20242000000,,698626.2309507466,-1416183521758000128,0.0,86.72450795547857,2190.5434967565457,0.0,0,19,0.0,16431,346741924345045,487,19.594999313354492,15.49546139236568,0.14999,16,0.0,0.0,1575420030,,,,0,1.516864814430368,1,6.0,19.594999313354492,0.0,0.0,0.0,66.7128,C,27208055000000,
Raw,1732148324000,20242000000,,698626.2309507466,-1416183521758000128,0.0,86.72450795547857,2190.5434967565457,0.0,0,22,0.0,16431,346741930751402,235,28.93400001525879,612.9151531714872,0.14999,16,0.0,0.0,1575420030,,,,0,15.213772047318617,1,6.0,28.93400001525879,0.0,0.0,0.0,66.7128,C,27208055000000,
Raw,1732148324000,20242000000,,698626.2309507466,-1416183521758000128,0.0,86.72450795547857,2190.5434967565457,0.0,0,21,0.0,16431,346741919336639,396,24.118000030517578,847.7643519108228,0.14999,16,0.0,0.0,1575420030,,,,0,8.776561609172276,1,6.0,24.118000030517578,0.0,0.0,0.0,66.7128,C,27208055000000,
Raw,1732148324000,20242000000,,698626.2309507466,-1416183521758000128,0.0,86.72450795547857,2190.5434967565457,0.0,0,30,0.0,16431,346741930447204,235,29.820999145507812,888.9721308380786,0.14999,16,0.0,0.0,1575420030,,,,0,16.31358386725906,1,6.0,29.820999145507812,0.0,0.0,0.0,66.7128,C,27208055000000,
Raw,1732148324000,20242000000,,698626.2309507466,-1416183521758000128,0.0,86.72450795547857,2190.5434967565457,0.0,0,19,0.0,16431,346741920339692,487,15.5,628.6671114797512,0.14999,16,0.0,0.0,1575420030,,,,0,0.0,6,6.0,15.5,0.0,0.0,8.922152189875963,66.7128,C,27208055000000,
Raw,1732148324000,20242000000,,698626.2309507466,-1416183521758000128,0.0,86.72450795547857,2190.5434967565457,0.0,0,17,0.0,16431,346741931235885,316,26.106000900268555,354.459573674877,0.14999,16,0.0,0.0,1575420030,,,,0,11.547178687726607,1,6.0,26.106000900268555,0.0,0.0,0.0,66.7128,C,27208055000000,
Raw,1732148324000,20242000000,,698626.2309507466,-1416183521758000128,0.0,86.72450795547857,2190.5434967565457,0.0,0,21,0.0,16431,346741920129353,396,20.100000381469727,551.4732008568071,0.14999,16,0.0,0.0,1575420030,,,,0,4.439425527995129,6,6.0,20.100000381469727,0.0,0.0,8.922152189875963,66.7128,C,27208055000000,
Raw,1732148324000,20242000000,,698626.2309507466,-1416183521758000128,0.0,86.72450795547857,2190.5434967565457,0.0,0,16,0.0,17,697997,58,5.0,1149.4510391582087,0.14999,16,0.0,0.0,1601437440,,,,0,19.636378319019006,3,6.0,33.0,0.0,0.0,34.015831268456544,66.7128,C,27208055000000,
Raw,1732148324000,20242000000,,698626.2309507466,-1416183521758000128,0.0,86.72450795547857,2190.5434967565457,0.0,0,8,0.0,17,36512,487,5.0,778.099866308507,0.14999,16,0.0,0.0,1605374980,,,,0,6.814994086064758,3,6.0,19.0,0.0,0.0,34.015831268456544,66.7128,C,27208055000000,
Raw,1732148324000,20242000000,,698626.2309507466,-1416183521758000128,0.0,86.72450795547857,2190.5434967565457,0.0,0,18,0.0,17,297750,797,5.0,1193.0491059044462,0.14999,16,0.0,0.0,1600312450,,,,0,0.5105421311498954,3,6.0,17.0,0.0,0.0,34.015831268456544,66.7128,C,27208055000000,
Raw,1732148324000,20242000000,,698626.2309507466,-1416183521758000128,0.0,86.72450795547857,2190.5434967565457,0.0,0,9,0.0,17,157823,487,5.0,861.6749925890107,0.14999,16,0.0,0.0,1600875010,,,,0,6.249848964087263,3,6.0,19.0,0.0,0.0,34.015831268456544,66.7128,C,27208055000000,
Status,1732148324000,29,0,1,14,1575420030,29.10,7.0,70.0,1,0,0,24.1
Status,1732148324000,29,1,1,22,1575420030,30.40,301.0,67.0,1,0,0,25.4
Status,1732148324000,29,2,1,17,1575420030,30.00,170.0,61.0,1,0,0,25.0
Status,1732148324000,29,3,1,30,1575420030,32.30,104.0,60.0,1,0,0,27.3
Status,1732148324000,29,4,1,13,1575420030,27.80,282.0,55.0,1,0,0,22.8
Status,1732148324000,29,5,1,19,1575420030,24.60,194.0,32.0,1,0,0,19.6
Status,1732148324000,29,6,1,7,1575420030,37.80,115.0,26.0,1,0,0,32.8
Status,1732148324000,29,7,1,15,1575420030,0.00,305.0,26.0,0,0,0,0.0
Status,1732148324000,29,8,2,131,1575420030,29.00,3.0,23.0,0,0,0,24.0
Status,1732148324000,29,9,1,2,1575420030,38.50,73.0,20.0,1,0,0,33.5
Status,1732148324000,29,10,1,21,1575420030,26.70,55.0,14.0,1,0,0,21.7
Status,1732148324000,29,11,3,9,1602000000,26.50,42.0,48.0,1,0,0,21.5
Status,1732148324000,29,12,3,8,1602000000,26.60,281.0,39.0,1,0,0,21.6
Status,1732148324000,29,13,3,19,1602000000,0.00,66.0,36.0,0,0,0,0.0
Status,1732148324000,29,14,3,20,1602000000,0.00,142.0,25.0,0,0,0,0.0
Status,1732148324000,29,15,3,18,1602000000,20.90,27.0,13.0,1,0,0,15.9
Status,1732148324000,29,16,3,11,1602000000,0.00,285.0,10.0,0,0,0,0.0
Status,1732148324000,29,17,3,16,1602000000,37.30,80.0,5.0,1,0,0,32.3
Status,1732148324000,29,18,3,17,1602000000,33.80,0.0,0.0,0,0,0,28.8
Status,1732148324000,29,19,6,21,1575420030,23.20,290.0,63.0,1,0,0,18.2
Status,1732148324000,29,20,6,19,1575420030,20.50,279.0,54.0,1,0,0,15.5
Status,1732148324000,29,21,6,27,1575420030,0.00,46.0,49.0,0,0,0,0.0
Status,1732148324000,29,22,6,29,1575420030,0.00,197.0,48.0,0,0,0,0.0
Status,1732148324000,29,23,6,15,1575420030,0.00,85.0,17.0,0,0,0,0.0
Status,1732148324000,29,24,6,13,1575420030,0.00,135.0,10.0,0,0,0,0.0
Status,1732148324000,29,25,6,4,1575420030,0.00,323.0,9.0,0,0,0,0.0
Status,1732148324000,29,26,6,7,1575420030,0.00,162.0,6.0,0,0,0,0.0
Status,1732148324000,29,27,6,34,1575420030,0.00,37.0,6.0,0,0,0,0.0
Status,1732148324000,29,28,6,30,1575420030,0.00,65.0,3.0,0,0,0,0.0
Fix,GPS,37.4243633333,-122.1707766667,-2.5,0.46222055,2.6,78.83,1732148325000,2.5,179.9,27209055000000,33.4,0,,,
Fix,FLP,37.4243630000,-122.1707856000,2.0,0.090404294,2.633,,1732148325207,2.5,,27209055000000,0.9892246,0,,,
Raw,1732148325000,21242000000,,698213.2369053793,-1416183521758000128,0.0,87.39679845946672,2191.6718555420525,0.0,0,7,0.0,16431,346742923643149,58,32.814998626708984,1121.7248935459138,0.14999,16,0.0,0.0,1575420030,,,,0,19.87747155012797,1,6.0,32.814998626708984,0.0,0.0,0.0,66.7128,C,27209055000000,
Raw,1732148325000,21242000000,,698213.2369053793,-1416183521758000128,0.0,87.39679845946672,2191.6718555420525,0.0,0,2,0.0,16431,346742920505657,58,33.45000076293945,617.1497448922453,0.14999,16,0.0,0.0,1575420030,,,,0,20.601715003216867,1,6.0,33.45000076293945,0.0,0.0,0.0,66.7128,C,27209055000000,
Raw,1732148325000,21242000000,,698213.2369053793,-1416183521758000128,0.0,87.39679845946672,2191.6718555420525,0.0,0,14,0.0,16431,346742932061863,487,24.118000030517578,754.0566578705943,0.14999,16,0.0,0.0,1575420030,,,,0,8.776561609172276,1,6.0,24.118000030517578,0.0,0.0,0.0,66.7128,C,27209055000000,
Raw,1732148325000,21242000000,,698213.2369053793,-1416183521758000128,0.0,87.39679845946672,2191.6718555420525,0.0,0,13,0.0,16431,346742930689532,396,22.764999389648438,582.788403386688,0.14999,16,0.0,0.0,1575420030,,,,0,6.750050889724504,1,6.0,22.764999389648438,0.0,0.0,0.0,66.7128,C,27209055000000,
Raw,1732148325000,21242000000,,698213.2369053793,-1416183521758000128,0.0,87.39679845946672,2191.6718555420525,0.0,0,19,0.0,16431,346742924344989,487,19.604000091552734,15.544010437305694,0.14999,16,0.0,0.0,1575420030,,,,0,1.8575316004059754,1,6.0,19.604000091552734,0.0,0.0,0.0,66.7128,C,27209055000000,
Raw,1732148325000,21242000000,,698213.2369053793,-1416183521758000128,0.0,87.39679845946672,2191.6718555420525,0.0,0,22,0.0,16431,346742930749357,487,25.406999588012695,613.0879320213742,0.14999,16,0.0,0.0,1575420030,,,,0,10.583231615371123,1,6.0,25.406999588012695,0.0,0.0,0.0,66.7128,C,27209055000000,
Raw,1732148325000,21242000000,,698213.2369053793,-1416183521758000128,0.0,87.39679845946672,2191.6718555420525,0.0,0,30,0.0,16431,346742930444235,235,27.304000854492188,888.9227920000629,0.14999,16,0.0,0.0,1575420030,,,,0,13.142960209177227,1,6.0,27.304000854492188,0.0,0.0,0.0,66.7128,C,27209055000000,
Raw,1732148325000,21242000000,,698213.2369053793,-1416183521758000128,0.0,87.39679845946672,2191.6718555420525,0.0,0,19,0.0,16431,346742920337587,797,15.5,628.1502151409927,0.14999,16,0.0,0.0,1575420030,,,,0,0.0,6,6.0,15.5,0.0,0.0,8.118004663530574,66.7128,C,27209055000000,
Raw,1732148325000,21242000000,,698213.2369053793,-1416183521758000128,0.0,87.39679845946672,2191.6718555420525,0.0,0,17,0.0,16431,346742931234701,487,25.017000198364258,354.77816226404076,0.14999,16,0.0,0.0,1575420030,,,,0,10.036239459875992,1,6.0,25.017000198364258,0.0,0.0,0.0,66.7128,C,27209055000000,
Raw,1732148325000,21242000000,,698213.2369053793,-1416183521758000128,0.0,87.39679845946672,2191.6718555420525,0.0,0,21,0.0,16431,346742920127513,396,18.200000762939453,551.502748409517,0.14999,16,0.0,0.0,1575420030,,,,0,1.2820967490054858,6,6.0,18.200000762939453,0.0,0.0,8.118004663530574,66.7128,C,27209055000000,
Raw,1732148325000,21242000000,,698213.2369053793,-1416183521758000128,0.0,87.39679845946672,2191.6718555420525,0.0,0,16,0.0,17,694162,74,5.0,1149.7169429178687,0.14999,16,0.0,0.0,1601437440,,,,0,16.858332237761854,3,6.0,30.0,0.0,0.0,35.93424358634824,66.7128,C,27209055000000,
Raw,1732148325000,21242000000,,698213.2369053793,-1416183521758000128,0.0,87.39679845946672,2191.6718555420525,0.0,0,8,0.0,17,33912,396,5.0,778.5173024461172,0.14999,16,0.0,0.0,1605374980,,,,0,7.0112937319367346,3,6.0,23.0,0.0,0.0,35.93424358634824,66.7128,C,27209055000000,
Raw,1732148325000,21242000000,,698213.2369053793,-1416183521758000128,0.0,87.39679845946672,2191.6718555420525,0.0,0,18,0.0,17,293768,487,5.0,1194.5107295150635,0.14999,16,0.0,0.0,1600312450,,,,0,0.0,3,6.0,18.0,0.0,0.0,35.93424358634824,66.7128,C,27209055000000,
Raw,1732148325000,21242000000,,698213.2369053793,-1416183521758000128,0.0,87.39679845946672,2191.6718555420525,0.0,0,9,0.0,17,154950,396,5.0,861.9754624300242,0.14999,16,0.0,0.0,1600875010,,,,0,7.803574063300736,3,6.0,22.0,0.0,0.0,35.93424358634824,66.7128,C,27209055000000,
Raw,1732148325000,21242000000,,698213.2369053793,-1416183521758000128,0.0,87.39679845946672,2191.6718555420525,0.0,0,21,0.0,16431,346742919333754,396,21.656999588012695,848.562321667655,0.14999,16,0.0,0.0,1575420030,,,,0,5.0,1,6.0,21.656999588012695,0.0,0.0,0.0,66.7128,C,27209055000000,
Status,1732148325000,29,0,1,14,1575420030,32.70,7.0,70.0,1,0,0,27.7
Status,1732148325000,29,1,1,22,1575420030,29.80,301.0,67.0,1,0,0,24.8
Status,1732148325000,29,2,1,17,1575420030,29.50,170.0,61.0,1,0,0,24.5
Status,1732148325000,29,3,1,30,1575420030,40.70,104.0,60.0,1,0,0,35.7
Status,1732148325000,29,4,1,13,1575420030,31.00,282.0,55.0,1,0,0,26.0
Status,1732148325000,29,5,1,19,1575420030,29.40,194.0,32.0,1,0,0,24.4
Status,1732148325000,29,6,1,7,1575420030,31.50,115.0,26.0,1,0,0,26.5
Status,1732148325000,29,7,1,15,1575420030,0.00,305.0,26.0,0,0,0,0.0
Status,1732148325000,29,8,2,131,1575420030,28.00,3.0,23.0,0,0,0,23.0
Status,1732148325000,29,9,1,2,1575420030,32.70,73.0,20.0,1,0,0,27.7
Status,1732148325000,29,10,1,21,1575420030,33.30,55.0,14.0,1,0,0,28.3
Status,1732148325000,29,11,3,9,1602000000,26.50,42.0,48.0,1,0,0,21.5
Status,1732148325000,29,12,3,8,1602000000,26.60,281.0,39.0,1,0,0,21.6
Status,1732148325000,29,13,3,19,1602000000,0.00,66.0,36.0,0,0,0,0.0
Status,1732148325000,29,14,3,20,1602000000,0.00,142.0,25.0,0,0,0,0.0
Status,1732148325000,29,15,3,18,1602000000,20.90,27.0,13.0,1,0,0,15.9
Status,1732148325000,29,16,3,11,1602000000,0.00,285.0,10.0,0,0,0,0.0
Status,1732148325000,29,17,3,16,1602000000,29.80,80.0,5.0,1,0,0,24.8
Status,1732148325000,29,18,3,17,1602000000,26.30,0.0,0.0,0,0,0,21.3
Status,1732148325000,29,19,6,21,1575420030,23.20,290.0,63.0,1,0,0,18.2
Status,1732148325000,29,20,6,19,1575420030,20.50,279.0,54.0,1,0,0,15.5
Status,1732148325000,29,21,6,27,1575420030,0.00,46.0,49.0,0,0,0,0.0
Status,1732148325000,29,22,6,29,1575420030,0.00,197.0,48.0,0,0,0,0.0
Status,1732148325000,29,23,6,15,1575420030,0.00,85.0,17.0,0,0,0,0.0
Status,1732148325000,29,24,6,13,1575420030,0.00,135.0,10.0,0,0,0,0.0
Status,1732148325000,29,25,6,4,1575420030,0.00,323.0,9.0,0,0,0,0.0
Status,1732148325000,29,26,6,7,1575420030,0.00,162.0,6.0,0,0,0,0.0
Status,1732148325000,29,27,6,34,1575420030,0.00,37.0,6.0,0,0,0,0.0
Status,1732148325000,29,28,6,30,1575420030,0.00,65.0,3.0,0,0,0,0.0
Fix,GPS,37.4243600000,-122.1707700000,-2.5,0.4678825,2.6,68.57,1732148326000,2.6,179.9,27210055000000,31.9,0,,,
Fix,FLP,37.4243618000,-122.1707774000,2.0,0.11132823,2.616,65.63598,1732148326208,2.6,179.9,27210055000000,0.99922496,0,,,
Raw,1732148326000,22242000000,,698016.7468055517,-1416183521758000128,0.0,84.35324749639486,2193.452895585189,0.0,0,7,0.0,16431,346743923639406,316,26.492000579833984,1122.5990551053312,0.14999,16,0.0,0.0,1575420030,,,,0,12.078049970112726,1,6.0,26.492000579833984,0.0,0.0,0.0,66.7128,C,27210055000000,
Raw,1732148326000,22242000000,,698016.7468055517,-1416183521758000128,0.0,84.35324749639486,2193.452895585189,0.0,0,2,0.0,16431,346743920503596,396,27.722000122070312,616.9544801689124,0.14999,16,0.0,0.0,1575420030,,,,0,13.673111218771442,1,6.0,27.722000122070312,0.0,0.0,0.0,66.7128,C,27210055000000,
Raw,1732148326000,22242000000,,698016.7468055517,-1416183521758000128,0.0,84.35324749639486,2193.452895585189,0.0,0,14,0.0,16431,346743932059350,235,27.660999298095703,753.5211317069354,0.14999,16,0.0,0.0,1575420030,,,,0,13.615778405739382,1,6.0,27.660999298095703,0.0,0.0,0.0,66.7128,C,27210055000000,
Raw,1732148326000,22242000000,,698016.7468055517,-1416183521758000128,0.0,84.35324749639486,2193.452895585189,0.0,0,13,0.0,16431,346743930687589,316,26.030000686645508,582.816185519582,0.14999,16,0.0,0.0,1575420030,,,,0,11.436996792031092,1,6.0,26.030000686645508,0.0,0.0,0.0,66.7128,C,27210055000000,
Raw,1732148326000,22242000000,,698016.7468055517,-1416183521758000128,0.0,84.35324749639486,2193.452895585189,0.0,0,19,0.0,16431,346743924344941,316,24.43000030517578,16.22309310705513,0.14999,16,0.0,0.0,1575420030,,,,0,9.217067306297864,1,6.0,24.43000030517578,0.0,0.0,0.0,66.7128,C,27210055000000,
Raw,1732148326000,22242000000,,698016.7468055517,-1416183521758000128,0.0,84.35324749639486,2193.452895585189,0.0,0,22,0.0,16431,346743930747309,396,24.790000915527344,613.4408301509094,0.14999,16,0.0,0.0,1575420030,,,,0,9.726785726751844,1,6.0,24.790000915527344,0.0,0.0,0.0,66.7128,C,27210055000000,
Raw,1732148326000,22242000000,,698016.7468055517,-1416183521758000128,0.0,84.35324749639486,2193.452895585189,0.0,0,30,0.0,16431,346743930441275,51,35.678001403808594,888.9024432137627,0.14999,16,0.0,0.0,1575420030,,,,0,23.11013536617763,1,6.0,35.678001403808594,0.0,0.0,0.0,66.7128,C,27210055000000,
Raw,1732148326000,22242000000,,698016.7468055517,-1416183521758000128,0.0,84.35324749639486,2193.452895585189,0.0,0,19,0.0,16431,346743920335488,797,15.5,629.3436853950253,0.14999,16,0.0,0.0,1575420030,,,,0,0.0,6,6.0,15.5,0.0,0.0,6.826075988379418,66.7128,C,27210055000000,
Raw,1732148326000,22242000000,,698016.7468055517,-1416183521758000128,0.0,84.35324749639486,2193.452895585189,0.0,0,17,0.0,16431,346743931233514,396,24.459999084472656,355.85757710627644,0.14999,16,0.0,0.0,1575420030,,,,0,9.264661341204956,1,6.0,24.459999084472656,0.0,0.0,0.0,66.7128,C,27210055000000,
Raw,1732148326000,22242000000,,698016.7468055517,-1416183521758000128,0.0,84.35324749639486,2193.452895585189,0.0,0,21,0.0,16431,346743920125672,487,18.25,551.8375277567301,0.14999,16,0.0,0.0,1575420030,,,,0,3.003439679494623,6,6.0,18.25,0.0,0.0,6.826075988379418,66.7128,C,27210055000000,
Raw,1732148326000,22242000000,,698016.7468055517,-1416183521758000128,0.0,84.35324749639486,2193.452895585189,0.0,0,16,0.0,17,690322,316,5.0,1150.341894449252,0.14999,16,0.0,0.0,1601437440,,,,0,10.864093163040494,3,6.0,25.0,0.0,0.0,37.62512357792648,66.7128,C,27210055000000,
Raw,1732148326000,22242000000,,698016.7468055517,-1416183521758000128,0.0,84.35324749639486,2193.452895585189,0.0,0,8,0.0,17,31299,396,5.0,778.8151063835212,0.14999,16,0.0,0.0,1605374980,,,,0,5.533772058202258,3,6.0,22.0,0.0,0.0,37.62512357792648,66.7128,C,27210055000000,
Raw,1732148326000,22242000000,,698016.7468055517,-1416183521758000128,0.0,84.35324749639486,2193.452895585189,0.0,0,18,0.0,17,289784,487,5.0,1191.7531372383703,0.14999,16,0.0,0.0,1600312450,,,,0,0.0,3,6.0,19.0,0.0,0.0,37.62512357792648,66.7128,C,27210055000000,
Raw,1732148326000,22242000000,,698016.7468055517,-1416183521758000128,0.0,84.35324749639486,2193.452895585189,0.0,0,9,0.0,17,152074,487,5.0,862.5823456725094,0.14999,16,0.0,0.0,1600875010,,,,0,7.803574063300736,3,6.0,18.0,0.0,0.0,37.62512357792648,66.7128,C,27210055000000,
Raw,1732148326000,22242000000,,698016.7468055517,-1416183521758000128,0.0,84.35324749639486,2193.452895585189,0.0,0,21,0.0,16431,346743919330913,235,28.33099937438965,848.8413509154155,0.14999,16,0.0,0.0,1575420030,,,,0,14.464524216722765,1,6.0,28.33099937438965,0.0,0.0,0.0,66.7128,C,27210055000000,
Status,1732148326000,29,0,1,14,1575420030,34.70,7.0,70.0,1,0,0,29.7
Status,1732148326000,29,1,1,22,1575420030,34.60,301.0,67.0,1,0,0,29.599998
Status,1732148326000,29,2,1,17,1575420030,30.70,170.0,61.0,1,0,0,25.7
Status,1732148326000,29,3,1,30,1575420030,34.50,104.0,60.0,1,0,0,29.5
Status,1732148326000,29,4,1,13,1575420030,31.00,282.0,55.0,1,0,0,26.0
Status,1732148326000,29,5,1,19,1575420030,26.30,194.0,32.0,1,0,0,21.3
Status,1732148326000,29,6,1,7,1575420030,30.90,115.0,26.0,1,0,0,25.9
Status,1732148326000,29,7,1,15,1575420030,25.40,305.0,26.0,1,0,0,20.4
Status,1732148326000,29,8,2,131,1575420030,29.00,3.0,23.0,0,0,0,24.0
Status,1732148326000,29,9,1,2,1575420030,31.60,73.0,20.0,1,0,0,26.6
Status,1732148326000,29,10,1,21,1575420030,34.30,55.0,14.0,1,0,0,29.3
Status,1732148326000,29,11,3,9,1602000000,29.60,42.0,48.0,1,0,0,24.6
Status,1732148326000,29,12,3,8,1602000000,26.50,281.0,39.0,1,0,0,21.5
Status,1732148326000,29,13,3,19,1602000000,0.00,66.0,36.0,0,0,0,0.0
Status,1732148326000,29,14,3,20,1602000000,0.00,142.0,25.0,0,0,0,0.0
Status,1732148326000,29,15,3,18,1602000000,24.00,27.0,13.0,1,0,0,19.0
Status,1732148326000,29,16,3,11,1602000000,0.00,285.0,10.0,0,0,0,0.0
Status,1732148326000,29,17,3,16,1602000000,28.70,80.0,5.0,1,0,0,23.7
Status,1732148326000,29,18,3,17,1602000000,26.80,0.0,0.0,0,0,0,21.8
Status,1732148326000,29,19,6,21,1575420030,26.90,290.0,63.0,1,0,0,21.9
Status,1732148326000,29,20,6,19,1575420030,20.50,279.0,54.0,1,0,0,15.5
Status,1732148326000,29,21,6,27,1575420030,0.00,46.0,49.0,0,0,0,0.0
Status,1732148326000,29,22,6,29,1575420030,0.00,197.0,48.0,0,0,0,0.0
Status,1732148326000,29,23,6,15,1575420030,0.00,85.0,17.0,0,0,0,0.0
Status,1732148326000,29,24,6,13,1575420030,0.00,135.0,10.0,0,0,0,0.0
Status,1732148326000,29,25,6,4,1575420030,0.00,323.0,9.0,0,0,0,0.0
Status,1732148326000,29,26,6,7,1575420030,0.00,162.0,6.0,0,0,0,0.0
Status,1732148326000,29,27,6,34,1575420030,0.00,37.0,6.0,0,0,0,0.0
Status,1732148326000,29,28,6,30,1575420030,0.00,65.0,3.0,0,0,0,0.0
Fix,FLP,37.4243603000,-122.1707707000,2.0,0.13001168,2.6,68.20416,1732148327207,2.6,179.9,27211055000000,1.0144211,0,,,
Fix,GPS,37.4243583333,-122.1707650000,-2.5,0.47869167,2.6,61.31,1732148327000,2.6,179.9,27211055000000,30.0,0,,,
Raw,1732148327000,23242000000,,697742.5988148107,-1416183521758000128,0.0,77.37736745893064,2192.548428805939,0.0,0,7,0.0,16431,346744923635658,316,25.93000030517578,1121.8713304738094,0.14999,16,0.0,0.0,1575420030,,,,0,11.325399244414363,1,6.0,25.93000030517578,0.0,0.0,0.0,66.7128,C,27211055000000,
Raw,1732148327000,23242000000,,697742.5988148107,-1416183521758000128,0.0,77.37736745893064,2192.548428805939,0.0,0,2,0.0,16431,346744920501535,316,26.611000061035156,617.5068707376557,0.14999,16,0.0,0.0,1575420030,,,,0,12.214302013222259,1,6.0,26.611000061035156,0.0,0.0,0.0,66.7128,C,27211055000000,
Raw,1732148327000,23242000000,,697742.5988148107,-1416183521758000128,0.0,77.37736745893064,2192.548428805939,0.0,0,14,0.0,16431,346744932056841,235,29.708999633789062,754.0967979422002,0.14999,16,0.0,0.0,1575420030,,,,0,16.18616021814025,1,6.0,29.708999633789062,0.0,0.0,0.0,66.7128,C,27211055000000,
Raw,1732148327000,23242000000,,697742.5988148107,-1416183521758000128,0.0,77.37736745893064,2192.548428805939,0.0,0,13,0.0,16431,346744930685653,235,26.0049991607666,582.708309077141,0.14999,16,0.0,0.0,1575420030,,,,0,11.399956694799226,1,6.0,26.0049991607666,0.0,0.0,0.0,66.7128,C,27211055000000,
Raw,1732148327000,23242000000,,697742.5988148107,-1416183521758000128,0.0,77.37736745893064,2192.548428805939,0.0,0,19,0.0,16431,346744924344885,487,21.292999267578125,15.245515113152985,0.14999,16,0.0,0.0,1575420030,,,,0,4.356306332571975,1,6.0,21.292999267578125,0.0,0.0,0.0,66.7128,C,27211055000000,
Raw,1732148327000,23242000000,,697742.5988148107,-1416183521758000128,0.0,77.37736745893064,2192.548428805939,0.0,0,22,0.0,16431,346744930745259,316,29.611000061035156,613.9088986942305,0.14999,16,0.0,0.0,1575420030,,,,0,16.056839373155615,1,6.0,29.611000061035156,0.0,0.0,0.0,66.7128,C,27211055000000,
Raw,1732148327000,23242000000,,697742.5988148107,-1416183521758000128,0.0,77.37736745893064,2192.548428805939,0.0,0,30,0.0,16431,346744930438316,235,29.52899932861328,888.7232995608549,0.14999,16,0.0,0.0,1575420030,,,,0,15.969543265106614,1,6.0,29.52899932861328,0.0,0.0,0.0,66.7128,C,27211055000000,
Raw,1732148327000,23242000000,,697742.5988148107,-1416183521758000128,0.0,77.37736745893064,2192.548428805939,0.0,0,19,0.0,16431,346744920333387,487,15.550000190734863,628.1587634895754,0.14999,16,0.0,0.0,1575420030,,,,0,0.0,6,6.0,15.550000190734863,0.0,0.0,5.379219242855501,66.7128,C,27211055000000,
Raw,1732148327000,23242000000,,697742.5988148107,-1416183521758000128,0.0,77.37736745893064,2192.548428805939,0.0,0,17,0.0,16431,346744931232323,316,25.67300033569336,356.4835810355053,0.14999,16,0.0,0.0,1575420030,,,,0,10.94269903560914,1,6.0,25.67300033569336,0.0,0.0,0.0,66.7128,C,27211055000000,
Raw,1732148327000,23242000000,,697742.5988148107,-1416183521758000128,0.0,77.37736745893064,2192.548428805939,0.0,0,21,0.0,16431,346744920123833,396,21.899999618530273,552.1268707728893,0.14999,16,0.0,0.0,1575420030,,,,0,7.061406434257497,6,6.0,21.899999618530273,0.0,0.0,5.379219242855501,66.7128,C,27211055000000,
Raw,1732148327000,23242000000,,697742.5988148107,-1416183521758000128,0.0,77.37736745893064,2192.548428805939,0.0,0,16,0.0,17,686487,316,5.0,1150.13915311583,0.14999,16,0.0,0.0,1601437440,,,,0,9.436974992327128,3,6.0,24.0,0.0,0.0,39.51731442637797,66.7128,C,27211055000000,
Raw,1732148327000,23242000000,,697742.5988148107,-1416183521758000128,0.0,77.37736745893064,2192.548428805939,0.0,0,8,0.0,17,28695,487,5.0,778.663377739357,0.14999,16,0.0,0.0,1605374980,,,,0,3.6099405186678717,3,6.0,20.0,0.0,0.0,39.51731442637797,66.7128,C,27211055000000,
Raw,1732148327000,23242000000,,697742.5988148107,-1416183521758000128,0.0,77.37736745893064,2192.548428805939,0.0,0,18,0.0,17,285809,487,5.0,1191.6188570293218,0.14999,16,0.0,0.0,1600312450,,,,0,2.6739126583180353,3,6.0,19.0,0.0,0.0,39.51731442637797,66.7128,C,27211055000000,
Raw,1732148327000,23242000000,,697742.5988148107,-1416183521758000128,0.0,77.37736745893064,2192.548428805939,0.0,0,9,0.0,17,149190,396,5.0,861.621591984278,0.14999,16,0.0,0.0,1600875010,,,,0,10.596813931880861,3,6.0,22.0,0.0,0.0,39.51731442637797,66.7128,C,27211055000000,
Raw,1732148327000,23242000000,,697742.5988148107,-1416183521758000128,0.0,77.37736745893064,2192.548428805939,0.0,0,15,0.0,16431,346744924202005,487,20.39299964904785,376.6923184400544,0.14999,16,0.0,0.0,1575420030,,,,0,2.90529298959974,1,6.0,20.39299964904785,0.0,0.0,0.0,66.7128,C,27211055000000,
Raw,1732148327000,23242000000,,697742.5988148107,-1416183521758000128,0.0,77.37736745893064,2192.548428805939,0.0,0,21,0.0,16431,346744919328145,235,29.33099937438965,849.1928552924645,0.14999,16,0.0,0.0,1575420030,,,,0,15.724854136766382,1,6.0,29.33099937438965,0.0,0.0,0.0,66.7128,C,27211055000000,
Status,1732148327000,29,0,1,14,1575420030,32.00,7.0,70.0,1,0,0,27.0
Status,1732148327000,29,1,1,22,1575420030,30.40,301.0,67.0,1,0,0,25.4
Status,1732148327000,29,2,1,17,1575420030,30.20,170.0,61.0,1,0,0,25.2
Status,1732148327000,29,3,1,30,1575420030,33.60,104.0,60.0,1,0,0,28.599998
Status,1732148327000,29,4,1,13,1575420030,32.00,282.0,55.0,1,0,0,27.0
Status,1732148327000,29,5,1,19,1575420030,0.00,194.0,32.0,0,0,0,0.0
Status,1732148327000,29,6,1,7,1575420030,31.10,115.0,26.0,1,0,0,26.1
Status,1732148327000,29,7,1,15,1575420030,0.00,305.0,26.0,0,0,0,0.0
Status,1732148327000,29,8,2,131,1575420030,30.00,3.0,23.0,0,0,0,25.0
Status,1732148327000,29,9,1,2,1575420030,32.20,73.0,20.0,1,0,0,27.2
Status,1732148327000,29,10,1,21,1575420030,0.00,55.0,14.0,0,0,0,0.0
Status,1732148327000,29,11,3,9,1602000000,29.60,42.0,48.0,1,0,0,24.6
Status,1732148327000,29,12,3,8,1602000000,26.40,281.0,39.0,1,0,0,21.4
Status,1732148327000,29,13,3,19,1602000000,0.00,66.0,36.0,0,0,0,0.0
Status,1732148327000,29,14,3,20,1602000000,0.00,142.0,25.0,0,0,0,0.0
Status,1732148327000,29,15,3,18,1602000000,25.20,27.0,13.0,1,0,0,20.2
Status,1732148327000,29,16,3,11,1602000000,0.00,285.0,10.0,0,0,0,0.0
Status,1732148327000,29,17,3,16,1602000000,25.90,80.0,5.0,1,0,0,20.9
Status,1732148327000,29,18,3,17,1602000000,27.70,0.0,0.0,0,0,0,22.7
Status,1732148327000,29,19,6,21,1575420030,26.90,290.0,63.0,1,0,0,21.9
Status,1732148327000,29,20,6,19,1575420030,20.60,279.0,54.0,1,0,0,15.6
Status,1732148327000,29,21,6,27,1575420030,0.00,46.0,49.0,0,0,0,0.0
Status,1732148327000,29,22,6,29,1575420030,0.00,197.0,48.0,0,0,0,0.0
Status,1732148327000,29,23,6,15,1575420030,0.00,85.0,17.0,0,0,0,0.0
Status,1732148327000,29,24,6,13,1575420030,0.00,135.0,10.0,0,0,0,0.0
Status,1732148327000,29,25,6,4,1575420030,0.00,323.0,9.0,0,0,0,0.0
Status,1732148327000,29,26,6,7,1575420030,0.00,162.0,6.0,0,0,0,0.0
Status,1732148327000,29,27,6,34,1575420030,0.00,37.0,6.0,0,0,0,0.0
Status,1732148327000,29,28,6,30,1575420030,0.00,65.0,3.0,0,0,0,0.0
Fix,GPS,37.4243633333,-122.1707616667,-2.5,0.4889861,2.7,29.98,1732148328000,2.8,165.1,27212055000000,30.1,0,,,
Fix,FLP,37.4243621000,-122.1707655000,2.0,0.14559159,2.616,66.42449,1732148328208,2.8,165.1,27212055000000,1.0244204,0,,,
Raw,1732148328000,24242000000,,697458.1311848746,-1416183521758000128,0.0,77.24514759072065,2195.607307436752,0.0,0,7,0.0,16431,346745923631909,316,26.131000518798828,1122.8135071545591,0.14999,16,0.0,0.0,1575420030,,,,0,11.583597565559122,1,6.0,26.131000518798828,0.0,0.0,0.0,66.7128,C,27212055000000,
Raw,1732148328000,24242000000,,697458.1311848746,-1416183521758000128,0.0,77.24514759072065,2195.607307436752,0.0,0,2,0.0,16431,346745920499472,235,27.218000411987305,618.4863070682063,0.14999,16,0.0,0.0,1575420030,,,,0,13.02062171298359,1,6.0,27.218000411987305,0.0,0.0,0.0,66.7128,C,27212055000000,
Raw,1732148328000,24242000000,,697458.1311848746,-1416183521758000128,0.0,77.24514759072065,2195.607307436752,0.0,0,14,0.0,16431,346745932054328,235,26.975000381469727,754.8804120484233,0.14999,16,0.0,0.0,1575420030,,,,0,12.707017627280342,1,6.0,26.975000381469727,0.0,0.0,0.0,66.7128,C,27212055000000,
Raw,1732148328000,24242000000,,697458.1311848746,-1416183521758000128,0.0,77.24514759072065,2195.607307436752,0.0,0,13,0.0,16431,346745930683707,235,27.018999099731445,583.795064349138,0.14999,16,0.0,0.0,1575420030,,,,0,12.770650803004127,1,6.0,27.018999099731445,0.0,0.0,0.0,66.7128,C,27212055000000,
Raw,1732148328000,24242000000,,697458.1311848746,-1416183521758000128,0.0,77.24514759072065,2195.607307436752,0.0,0,22,0.0,16431,346745930743213,396,25.406999588012695,613.8053428844972,0.14999,16,0.0,0.0,1575420030,,,,0,10.583231615371123,1,6.0,25.406999588012695,0.0,0.0,0.0,66.7128,C,27212055000000,
Raw,1732148328000,24242000000,,697458.1311848746,-1416183521758000128,0.0,77.24514759072065,2195.607307436752,0.0,0,30,0.0,16431,346745930435350,235,28.64699935913086,890.0999553500055,0.14999,16,0.0,0.0,1575420030,,,,0,14.872148085779965,1,6.0,28.64699935913086,0.0,0.0,0.0,66.7128,C,27212055000000,
Raw,1732148328000,24242000000,,697458.1311848746,-1416183521758000128,0.0,77.24514759072065,2195.607307436752,0.0,0,19,0.0,16431,346745920331290,487,15.597000122070312,627.6038641663569,0.14999,16,0.0,0.0,1575420030,,,,0,0.0,6,6.0,15.597000122070312,0.0,0.0,4.391777336835875,66.7128,C,27212055000000,
