# 
# Header Description:
# 
# Version: v3.1.0.3 Platform: 13 Manufacturer: samsung Model: SM-S135DL GNSS Hardware Model Name: MediaTek,MT6631,MTK_MNLD_default,MNL_VER_default
# 
# Raw,utcTimeMillis,TimeNanos,LeapSecond,TimeUncertaintyNanos,FullBiasNanos,BiasNanos,BiasUncertaintyNanos,DriftNanosPerSecond,DriftUncertaintyNanosPerSecond,HardwareClockDiscontinuityCount,Svid,TimeOffsetNanos,State,ReceivedSvTimeNanos,ReceivedSvTimeUncertaintyNanos,Cn0DbHz,PseudorangeRateMetersPerSecond,PseudorangeRateUncertaintyMetersPerSecond,AccumulatedDeltaRangeState,AccumulatedDeltaRangeMeters,AccumulatedDeltaRangeUncertaintyMeters,CarrierFrequencyHz,CarrierCycles,CarrierPhase,CarrierPhaseUncertainty,MultipathIndicator,SnrInDb,ConstellationType,AgcDb,BasebandCn0DbHz,FullInterSignalBiasNanos,FullInterSignalBiasUncertaintyNanos,SatelliteInterSignalBiasNanos,SatelliteInterSignalBiasUncertaintyNanos,CodeType,ChipsetElapsedRealtimeNanos,IsFullTracking
# 
# UncalAccel,utcTimeMillis,elapsedRealtimeNanos,UncalAccelXMps2,UncalAccelYMps2,UncalAccelZMps2,BiasXMps2,BiasYMps2,BiasZMps2
# 
# Accel,utcTimeMillis,elapsedRealtimeNanos,AccelXMps2,AccelYMps2,AccelZMps2
# 
# UncalGyro,utcTimeMillis,elapsedRealtimeNanos,UncalGyroXRadPerSec,UncalGyroYRadPerSec,UncalGyroZRadPerSec,DriftXRadPerSec,DriftYRadPerSec,DriftZRadPerSec
# 
# Gyro,utcTimeMillis,elapsedRealtimeNanos,GyroXRadPerSec,GyroYRadPerSec,GyroZRadPerSec
# 
# UncalMag,utcTimeMillis,elapsedRealtimeNanos,UncalMagXMicroT,UncalMagYMicroT,UncalMagZMicroT,BiasXMicroT,BiasYMicroT,BiasZMicroT
# 
# Mag,utcTimeMillis,elapsedRealtimeNanos,MagXMicroT,MagYMicroT,MagZMicroT
# 
# Pressure,utcTimeMillis,elapsedRealtimeNanos,PressureHpa
# 
# OrientationDeg,utcTimeMillis,elapsedRealtimeNanos,yawDeg,rollDeg,pitchDeg
# 
# Fix,Provider,LatitudeDegrees,LongitudeDegrees,AltitudeMeters,SpeedMps,AccuracyMeters,BearingDegrees,UnixTimeMillis,SpeedAccuracyMps,BearingAccuracyDegrees,elapsedRealtimeNanos,VerticalAccuracyMeters,MockLocation,NumberOfUsedSignals,VerticalSpeedAccuracyMps,SolutionType
# 
# Nav,Svid,Type,Status,MessageId,Sub-messageId,Data(Bytes)
# 
# Status,UnixTimeMillis,SignalCount,SignalIndex,ConstellationType,Svid,CarrierFrequencyHz,Cn0DbHz,AzimuthDegrees,ElevationDegrees,UsedInFix,HasAlmanacData,HasEphemerisData,BasebandCn0DbHz
# 
# Agc,utcTimeMillis,TimeNanos,LeapSecond,TimeUncertaintyNanos,FullBiasNanos,BiasNanos,BiasUncertaintyNanos,DriftNanosPerSecond,DriftUncertaintyNanosPerSecond,HardwareClockDiscontinuityCount,AgcDb,CarrierFrequencyHz,ConstellationType
# 
Status,,28,0,1,14,1575420030,29.30,6.0,70.0,1,0,0,24.3
Status,,28,1,1,22,1575420030,30.80,300.0,67.0,1,0,0,25.8
Status,,28,2,1,30,1575420030,33.90,104.0,60.0,1,0,0,28.900002
Status,,28,3,1,17,1575420030,28.30,170.0,60.0,1,0,0,23.3
Status,,28,4,1,13,1575420030,31.50,282.0,55.0,1,0,0,26.5
Status,,28,5,1,19,1575420030,0.00,194.0,31.0,0,0,0,0.0
Status,,28,6,1,7,1575420030,40.30,115.0,27.0,1,0,0,35.3
Status,,28,7,1,15,1575420030,27.90,305.0,26.0,1,0,0,22.9
Status,,28,8,2,131,1575420030,33.00,3.0,23.0,0,0,0,28.0
Status,,28,9,1,2,1575420030,29.70,73.0,20.0,1,0,0,24.7
Status,,28,10,1,21,1575420030,31.90,55.0,14.0,1,0,0,26.9
Status,,28,11,3,9,1602000000,29.60,42.0,48.0,1,0,0,24.6
Status,,28,12,3,8,1602000000,24.90,281.0,39.0,1,0,0,19.9
Status,,28,13,3,19,1602000000,0.00,66.0,36.0,0,0,0,0.0
Status,,28,14,3,20,1602000000,0.00,142.0,25.0,0,0,0,0.0
Status,,28,15,3,18,1602000000,0.00,27.0,13.0,0,0,0,0.0
Status,,28,16,3,11,1602000000,0.00,284.0,10.0,0,0,0,0.0
Status,,28,17,3,16,1602000000,25.00,80.0,5.0,1,0,0,20.0
Status,,28,18,6,21,1575420030,31.30,290.0,63.0,1,0,0,26.3
Status,,28,19,6,19,1575420030,17.30,279.0,54.0,1,0,0,12.299999
Status,,28,20,6,27,1575420030,23.70,46.0,49.0,1,0,0,18.7
Status,,28,21,6,29,1575420030,23.50,197.0,48.0,1,0,0,18.5
Status,,28,22,6,15,1575420030,0.00,85.0,17.0,0,0,0,0.0
Status,,28,23,6,13,1575420030,0.00,135.0,10.0,0,0,0,0.0
Status,,28,24,6,4,1575420030,0.00,324.0,9.0,0,0,0,0.0
Status,,28,25,6,7,1575420030,0.00,162.0,6.0,0,0,0,0.0
Status,,28,26,6,34,1575420030,0.00,37.0,6.0,0,0,0,0.0
Status,,28,27,6,30,1575420030,0.00,65.0,3.0,0,0,0,0.0
Fix,GPS,37.4243833333,-122.1708283333,-2.099999999999998,0.0,2.5,258.49,1732148284000,2.4,179.9,27168055000000,40.1,0,,,
Fix,FLP,37.4243802000,-122.1708311000,2.0,0.017199516,2.566,,1732148284207,2.4,,27168055000000,1.0133549,0,,,
Raw,1732148283999,12843000000,,702200.682947134,-1416183489156999936,0.0,101.48358414612746,2215.8867038512094,0.0,0,13,0.0,16431,346701930861186,396,26.481000900268555,585.3386916861493,0.14999,16,0.0,0.0,1575420030,,,,0,12.086249219746236,1,6.0,26.481000900268555,0.0,0.0,0.0,66.7128,C,27168055000000,
Raw,1732148283999,12843000000,,702200.682947134,-1416183489156999936,0.0,101.48358414612746,2215.8867038512094,0.0,0,22,0.0,16431,346701930925476,316,25.822999954223633,619.085574178906,0.14999,16,0.0,0.0,1575420030,,,,0,11.191849724844946,1,6.0,25.822999954223633,0.0,0.0,0.0,66.7128,C,27168055000000,
Raw,1732148283999,12843000000,,702200.682947134,-1416183489156999936,0.0,101.48358414612746,2215.8867038512094,0.0,0,7,0.0,16431,346701923888718,58,35.27399826049805,1127.441508743788,0.14999,16,0.0,0.0,1575420030,,,,0,22.663677968401156,1,6.0,35.27399826049805,0.0,0.0,0.0,66.7128,C,27168055000000,
Raw,1732148283999,12843000000,,702200.682947134,-1416183489156999936,0.0,101.48358414612746,2215.8867038512094,0.0,0,30,0.0,16431,346701930657953,235,28.871999740600586,892.4867100244057,0.14999,16,0.0,0.0,1575420030,,,,0,15.148519434232739,1,6.0,28.871999740600586,0.0,0.0,0.0,66.7128,C,27168055000000,
Raw,1732148283999,12843000000,,702200.682947134,-1416183489156999936,0.0,101.48358414612746,2215.8867038512094,0.0,0,21,0.0,16431,346701919541865,487,26.850000381469727,850.7432655582426,0.14999,16,0.0,0.0,1575420030,,,,0,12.549606520786757,1,6.0,26.850000381469727,0.0,0.0,0.0,66.7128,C,27168055000000,
Raw,1732148283999,12843000000,,702200.682947134,-1416183489156999936,0.0,101.48358414612746,2215.8867038512094,0.0,0,14,0.0,16431,346701932257154,487,24.34600067138672,758.8898662842253,0.14999,16,0.0,0.0,1575420030,,,,0,9.115963717774232,1,6.0,24.34600067138672,0.0,0.0,0.0,66.7128,C,27168055000000,
Raw,1732148283999,12843000000,,702200.682947134,-1416183489156999936,0.0,101.48358414612746,2215.8867038512094,0.0,0,2,0.0,16431,346701920682060,316,24.733999252319336,620.9342010183395,0.14999,16,0.0,0.0,1575420030,,,,0,9.672050517430211,1,6.0,24.733999252319336,0.0,0.0,0.0,66.7128,C,27168055000000,
Raw,1732148283999,12843000000,,702200.682947134,-1416183489156999936,0.0,101.48358414612746,2215.8867038512094,0.0,0,17,0.0,16431,346701931375289,396,23.29800033569336,358.8703124806974,0.14999,16,0.0,0.0,1575420030,,,,0,7.546683787098082,1,6.0,23.29800033569336,0.0,0.0,0.0,66.7128,C,27168055000000,
Raw,1732148283999,12843000000,,702200.682947134,-1416183489156999936,0.0,101.48358414612746,2215.8867038512094,0.0,0,29,0.0,16431,346701918471027,487,18.5,1080.3395505519013,0.14999,16,0.0,0.0,1575420030,,,,0,1.7244651804578108,6,6.0,18.5,0.0,0.0,23.40146452232533,66.7128,C,27168055000000,
Raw,1732148283999,12843000000,,702200.682947134,-1416183489156999936,0.0,101.48358414612746,2215.8867038512094,0.0,0,27,0.0,16431,346701918113480,396,18.700000762939453,948.4992995286412,0.14999,16,0.0,0.0,1575420030,,,,0,2.0543487376889757,6,6.0,18.700000762939453,0.0,0.0,23.40146452232533,66.7128,C,27168055000000,
Raw,1732148283999,12843000000,,702200.682947134,-1416183489156999936,0.0,101.48358414612746,2215.8867038512094,0.0,0,19,0.0,16431,346701920515674,396,12.300000190734863,633.1076069011544,0.14999,16,0.0,0.0,1575420030,,,,0,0.0,6,6.0,12.300000190734863,0.0,0.0,23.40146452232533,66.7128,C,27168055000000,
Raw,1732148283999,12843000000,,702200.682947134,-1416183489156999936,0.0,101.48358414612746,2215.8867038512094,0.0,0,21,0.0,16431,346701920295268,235,26.299999237060547,558.1914595081806,0.14999,16,0.0,0.0,1575420030,,,,0,12.677577743720597,6,6.0,26.299999237060547,0.0,0.0,23.40146452232533,66.7128,C,27168055000000,
Raw,1732148283999,12843000000,,702200.682947134,-1416183489156999936,0.0,101.48358414612746,2215.8867038512094,0.0,0,9,0.0,17,365027,316,5.0,867.4211354006744,0.14999,16,0.0,0.0,1600875010,,,,0,10.619023483553928,3,6.0,24.0,0.0,0.0,47.807323612006996,66.7128,C,27168055000000,
Raw,1732148283999,12843000000,,702200.682947134,-1416183489156999936,0.0,101.48358414612746,2215.8867038512094,0.0,0,16,0.0,17,943656,487,5.0,1157.9573086563837,0.14999,16,0.0,0.0,1601437440,,,,0,4.177377185062286,3,6.0,20.0,0.0,0.0,47.807323612006996,66.7128,C,27168055000000,
Raw,1732148283999,12843000000,,702200.682947134,-1416183489156999936,0.0,101.48358414612746,2215.8867038512094,0.0,0,8,0.0,17,232202,487,5.0,779.2460376168864,0.14999,16,0.0,0.0,1605374980,,,,0,4.189975703652974,3,6.0,20.0,0.0,0.0,47.807323612006996,66.7128,C,27168055000000,
Raw,1732148283999,12843000000,,702200.682947134,-1416183489156999936,0.0,101.48358414612746,2215.8867038512094,0.0,0,15,0.0,16431,346701924347793,396,22.86400032043457,378.25538862424986,0.14999,16,0.0,0.0,1575420030,,,,0,6.891957615153579,1,6.0,22.86400032043457,0.0,0.0,0.0,66.7128,C,27168055000000,
Status,1732148284000,28,0,1,14,1575420030,26.30,6.0,70.0,1,0,0,21.3
Status,1732148284000,28,1,1,22,1575420030,31.90,300.0,67.0,1,0,0,26.9
Status,1732148284000,28,2,1,17,1575420030,28.40,170.0,61.0,1,0,0,23.4
Status,1732148284000,28,3,1,30,1575420030,34.20,104.0,60.0,1,0,0,29.2
Status,1732148284000,28,4,1,13,1575420030,31.20,282.0,55.0,1,0,0,26.2
Status,1732148284000,28,5,1,19,1575420030,25.40,194.0,31.0,1,0,0,20.4
Status,1732148284000,28,6,1,7,1575420030,33.30,115.0,27.0,1,0,0,28.3
Status,1732148284000,28,7,1,15,1575420030,0.00,305.0,26.0,0,0,0,0.0
Status,1732148284000,28,8,2,131,1575420030,31.00,3.0,23.0,0,0,0,26.0
Status,1732148284000,28,9,1,2,1575420030,32.90,73.0,20.0,1,0,0,27.900002
Status,1732148284000,28,10,1,21,1575420030,28.80,55.0,14.0,1,0,0,23.8
Status,1732148284000,28,11,3,9,1602000000,24.50,42.0,48.0,1,0,0,19.5
Status,1732148284000,28,12,3,8,1602000000,24.90,281.0,39.0,1,0,0,19.9
Status,1732148284000,28,13,3,19,1602000000,0.00,66.0,36.0,0,0,0,0.0
Status,1732148284000,28,14,3,20,1602000000,0.00,142.0,25.0,0,0,0,0.0
Status,1732148284000,28,15,3,18,1602000000,23.30,27.0,13.0,1,0,0,18.3
Status,1732148284000,28,16,3,11,1602000000,0.00,284.0,10.0,0,0,0,0.0
Status,1732148284000,28,17,3,16,1602000000,28.60,80.0,5.0,1,0,0,23.6
Status,1732148284000,28,18,6,21,1575420030,29.60,290.0,63.0,1,0,0,24.6
Status,1732148284000,28,19,6,19,1575420030,17.30,279.0,54.0,1,0,0,12.299999
Status,1732148284000,28,20,6,27,1575420030,23.90,46.0,49.0,1,0,0,18.9
Status,1732148284000,28,21,6,29,1575420030,23.50,197.0,48.0,1,0,0,18.5
Status,1732148284000,28,22,6,15,1575420030,0.00,85.0,17.0,0,0,0,0.0
Status,1732148284000,28,23,6,13,1575420030,0.00,135.0,10.0,0,0,0,0.0
Status,1732148284000,28,24,6,4,1575420030,0.00,324.0,9.0,0,0,0,0.0
Status,1732148284000,28,25,6,7,1575420030,0.00,162.0,6.0,0,0,0,0.0
Status,1732148284000,28,26,6,34,1575420030,0.00,37.0,6.0,0,0,0,0.0
Status,1732148284000,28,27,6,30,1575420030,0.00,65.0,3.0,0,0,0,0.0
Fix,GPS,37.4243883333,-122.1708316667,-2.099999999999998,0.0,2.6,258.49,1732148285000,2.6,156.3,27169055000000,39.4,0,,,
Fix,FLP,37.4243840000,-122.1708315000,2.0,0.014359337,2.566,,1732148285207,2.6,,27169055000000,1.0233486,0,,,
Raw,1732148284999,13843000000,,702055.3219687735,-1416183489156999936,0.0,100.38709830516343,2215.6961429105486,0.0,0,13,0.0,16431,346702930859232,316,26.17099952697754,584.7998669749395,0.14999,16,0.0,0.0,1575420030,,,,0,11.668410441344669,1,6.0,26.17099952697754,0.0,0.0,0.0,66.7128,C,27169055000000,
Raw,1732148284999,13843000000,,702055.3219687735,-1416183489156999936,0.0,100.38709830516343,2215.6961429105486,0.0,0,22,0.0,16431,346702930923407,316,26.937999725341797,619.1786303865757,0.14999,16,0.0,0.0,1575420030,,,,0,12.677577743720597,1,6.0,26.937999725341797,0.0,0.0,0.0,66.7128,C,27169055000000,
Raw,1732148284999,13843000000,,702055.3219687735,-1416183489156999936,0.0,100.38709830516343,2215.6961429105486,0.0,0,7,0.0,16431,346702923884954,235,28.326000213623047,1128.056896924913,0.14999,16,0.0,0.0,1575420030,,,,0,14.478132501531517,1,6.0,28.326000213623047,0.0,0.0,0.0,66.7128,C,27169055000000,
Raw,1732148284999,13843000000,,702055.3219687735,-1416183489156999936,0.0,100.38709830516343,2215.6961429105486,0.0,0,30,0.0,16431,346702930654971,235,29.216999053955078,893.0508081140341,0.14999,16,0.0,0.0,1575420030,,,,0,15.591059920124335,1,6.0,29.216999053955078,0.0,0.0,0.0,66.7128,C,27169055000000,
Raw,1732148284999,13843000000,,702055.3219687735,-1416183489156999936,0.0,100.38709830516343,2215.6961429105486,0.0,0,21,0.0,16431,346702919539021,396,23.77400016784668,851.1896380211934,0.14999,16,0.0,0.0,1575420030,,,,0,8.261749176051467,1,6.0,23.77400016784668,0.0,0.0,0.0,66.7128,C,27169055000000,
Raw,1732148284999,13843000000,,702055.3219687735,-1416183489156999936,0.0,100.38709830516343,2215.6961429105486,0.0,0,14,0.0,16431,346702932254621,396,21.291000366210938,758.7684239842508,0.14999,16,0.0,0.0,1575420030,,,,0,4.4034803230058355,1,6.0,21.291000366210938,0.0,0.0,0.0,66.7128,C,27169055000000,
Raw,1732148284999,13843000000,,702055.3219687735,-1416183489156999936,0.0,100.38709830516343,2215.6961429105486,0.0,0,2,0.0,16431,346702920679985,235,27.94099998474121,620.68936516491,0.14999,16,0.0,0.0,1575420030,,,,0,13.973305722891494,1,6.0,27.94099998474121,0.0,0.0,0.0,66.7128,C,27169055000000,
Raw,1732148284999,13843000000,,702055.3219687735,-1416183489156999936,0.0,100.38709830516343,2215.6961429105486,0.0,0,19,0.0,16431,346702924439158,487,20.398000717163086,19.302635683986875,0.14999,16,0.0,0.0,1575420030,,,,0,2.974891836649845,1,6.0,20.398000717163086,0.0,0.0,0.0,66.7128,C,27169055000000,
Raw,1732148284999,13843000000,,702055.3219687735,-1416183489156999936,0.0,100.38709830516343,2215.6961429105486,0.0,0,17,0.0,16431,346702931374115,487,23.400999069213867,359.06583272531947,0.14999,16,0.0,0.0,1575420030,,,,0,7.7170008055486745,1,6.0,23.400999069213867,0.0,0.0,0.0,66.7128,C,27169055000000,
Raw,1732148284999,13843000000,,702055.3219687735,-1416183489156999936,0.0,100.38709830516343,2215.6961429105486,0.0,0,29,0.0,16431,346702918467418,487,18.520000457763672,1079.8634447025759,0.14999,16,0.0,0.0,1575420030,,,,0,2.3721606400036475,6,6.0,18.520000457763672,0.0,0.0,26.03234492474643,66.7128,C,27169055000000,
Raw,1732148284999,13843000000,,702055.3219687735,-1416183489156999936,0.0,100.38709830516343,2215.6961429105486,0.0,0,27,0.0,16431,346702918110309,487,18.899999618530273,948.3783218128291,0.14999,16,0.0,0.0,1575420030,,,,0,2.4755653093254533,6,6.0,18.899999618530273,0.0,0.0,26.03234492474643,66.7128,C,27169055000000,
Raw,1732148284999,13843000000,,702055.3219687735,-1416183489156999936,0.0,100.38709830516343,2215.6961429105486,0.0,0,19,0.0,16431,346702920513563,487,12.300000190734863,632.0831523652959,0.14999,16,0.0,0.0,1575420030,,,,0,0.0,6,6.0,12.300000190734863,0.0,0.0,26.03234492474643,66.7128,C,27169055000000,
Raw,1732148284999,13843000000,,702055.3219687735,-1416183489156999936,0.0,100.38709830516343,2215.6961429105486,0.0,0,21,0.0,16431,346702920293407,316,24.600000381469727,557.3918172483649,0.14999,16,0.0,0.0,1575420030,,,,0,10.526388717552457,6,6.0,24.600000381469727,0.0,0.0,26.03234492474643,66.7128,C,27169055000000,
Raw,1732148284999,13843000000,,702055.3219687735,-1416183489156999936,0.0,100.38709830516343,2215.6961429105486,0.0,0,9,0.0,17,362134,487,5.0,867.3367368421669,0.14999,16,0.0,0.0,1600875010,,,,0,3.416375079047504,3,6.0,20.0,0.0,0.0,48.12130381495537,66.7128,C,27169055000000,
Raw,1732148284999,13843000000,,702055.3219687735,-1416183489156999936,0.0,100.38709830516343,2215.6961429105486,0.0,0,16,0.0,17,939795,396,5.0,1157.3427775542202,0.14999,16,0.0,0.0,1601437440,,,,0,9.257224056687013,3,6.0,23.0,0.0,0.0,48.12130381495537,66.7128,C,27169055000000,
Raw,1732148284999,13843000000,,702055.3219687735,-1416183489156999936,0.0,100.38709830516343,2215.6961429105486,0.0,0,8,0.0,17,229633,487,5.0,778.2780380457045,0.14999,16,0.0,0.0,1605374980,,,,0,3.976949551052374,3,6.0,20.0,0.0,0.0,48.12130381495537,66.7128,C,27169055000000,
Raw,1732148284999,13843000000,,702055.3219687735,-1416183489156999936,0.0,100.38709830516343,2215.6961429105486,0.0,0,18,0.0,17,545123,797,5.0,1196.4748977227605,0.14999,16,0.0,0.0,1600312450,,,,0,1.34636819801137,3,6.0,15.0,0.0,0.0,48.12130381495537,66.7128,C,27169055000000,
Status,1732148285000,28,0,1,14,1575420030,29.40,6.0,70.0,1,0,0,24.4
Status,1732148285000,28,1,1,22,1575420030,29.90,300.0,67.0,1,0,0,24.9
Status,1732148285000,28,2,1,17,1575420030,28.40,170.0,61.0,1,0,0,23.4
Status,1732148285000,28,3,1,30,1575420030,34.80,104.0,60.0,1,0,0,29.8
Status,1732148285000,28,4,1,13,1575420030,29.20,282.0,55.0,1,0,0,24.2
Status,1732148285000,28,5,1,19,1575420030,27.00,194.0,31.0,1,0,0,22.0
Status,1732148285000,28,6,1,7,1575420030,40.40,115.0,27.0,1,0,0,35.4
Status,1732148285000,28,7,1,15,1575420030,0.00,305.0,26.0,0,0,0,0.0
Status,1732148285000,28,8,2,131,1575420030,33.00,3.0,23.0,0,0,0,28.0
Status,1732148285000,28,9,1,2,1575420030,30.40,73.0,20.0,1,0,0,25.4
Status,1732148285000,28,10,1,21,1575420030,31.70,55.0,14.0,1,0,0,26.7
Status,1732148285000,28,11,3,9,1602000000,24.50,42.0,48.0,1,0,0,19.5
Status,1732148285000,28,12,3,8,1602000000,25.00,281.0,39.0,1,0,0,20.0
Status,1732148285000,28,13,3,19,1602000000,0.00,66.0,36.0,0,0,0,0.0
Status,1732148285000,28,14,3,20,1602000000,0.00,142.0,25.0,0,0,0,0.0
Status,1732148285000,28,15,3,18,1602000000,20.80,27.0,13.0,1,0,0,15.799999
Status,1732148285000,28,16,3,11,1602000000,0.00,284.0,10.0,0,0,0,0.0
Status,1732148285000,28,17,3,16,1602000000,24.00,80.0,5.0,1,0,0,19.0
Status,1732148285000,28,18,6,21,1575420030,28.80,290.0,63.0,1,0,0,23.8
Status,1732148285000,28,19,6,19,1575420030,21.10,279.0,54.0,1,0,0,16.1
Status,1732148285000,28,20,6,27,1575420030,23.80,46.0,49.0,1,0,0,18.8
Status,1732148285000,28,21,6,29,1575420030,21.00,197.0,48.0,1,0,0,16.0
Status,1732148285000,28,22,6,15,1575420030,0.00,85.0,17.0,0,0,0,0.0
Status,1732148285000,28,23,6,13,1575420030,0.00,135.0,10.0,0,0,0,0.0
Status,1732148285000,28,24,6,4,1575420030,0.00,324.0,9.0,0,0,0,0.0
Status,1732148285000,28,25,6,7,1575420030,0.00,162.0,6.0,0,0,0,0.0
Status,1732148285000,28,26,6,34,1575420030,0.00,37.0,6.0,0,0,0,0.0
Status,1732148285000,28,27,6,30,1575420030,0.00,65.0,3.0,0,0,0,0.0
Fix,GPS,37.4243950000,-122.1708400000,-2.099999999999998,0.0,2.6,258.49,1732148286000,2.6,179.9,27170055000000,39.0,0,,,
Fix,FLP,37.4243893000,-122.1708357000,2.0,0.016212313,2.566,,1732148286207,2.6,,27170055000000,1.0343603,0,,,
Raw,1732148285999,14843000000,,701940.4508334897,-1416183489156999936,0.0,99.98053270809756,2210.639725756256,0.0,0,13,0.0,16431,346703930857281,396,24.159000396728516,583.0201379667461,0.14999,16,0.0,0.0,1575420030,,,,0,8.823973546368464,1,6.0,24.159000396728516,0.0,0.0,0.0,66.7128,C,27170055000000,
Raw,1732148285999,14843000000,,701940.4508334897,-1416183489156999936,0.0,99.98053270809756,2210.639725756256,0.0,0,22,0.0,16431,346703930921346,396,24.878000259399414,616.5680855212894,0.14999,16,0.0,0.0,1575420030,,,,0,9.849773129581186,1,6.0,24.878000259399414,0.0,0.0,0.0,66.7128,C,27170055000000,
Raw,1732148285999,14843000000,,701940.4508334897,-1416183489156999936,0.0,99.98053270809756,2210.639725756256,0.0,0,7,0.0,16431,346703923881190,58,35.38100051879883,1125.248299831321,0.14999,16,0.0,0.0,1575420030,,,,0,22.783554138720906,1,6.0,35.38100051879883,0.0,0.0,0.0,66.7128,C,27170055000000,
Raw,1732148285999,14843000000,,701940.4508334897,-1416183489156999936,0.0,99.98053270809756,2210.639725756256,0.0,0,30,0.0,16431,346703930651992,74,29.773000717163086,891.7553616364195,0.14999,16,0.0,0.0,1575420030,,,,0,16.267941408102914,1,6.0,29.773000717163086,0.0,0.0,0.0,66.7128,C,27170055000000,
Raw,1732148285999,14843000000,,701940.4508334897,-1416183489156999936,0.0,99.98053270809756,2210.639725756256,0.0,0,21,0.0,16431,346703919536178,316,26.667999267578125,850.5428439507103,0.14999,16,0.0,0.0,1575420030,,,,0,12.32101728517112,1,6.0,26.667999267578125,0.0,0.0,0.0,66.7128,C,27170055000000,
Raw,1732148285999,14843000000,,701940.4508334897,-1416183489156999936,0.0,99.98053270809756,2210.639725756256,0.0,0,14,0.0,16431,346703932252093,396,24.375999450683594,757.3003844904141,0.14999,16,0.0,0.0,1575420030,,,,0,9.163688506181476,1,6.0,24.375999450683594,0.0,0.0,0.0,66.7128,C,27170055000000,
Raw,1732148285999,14843000000,,701940.4508334897,-1416183489156999936,0.0,99.98053270809756,2210.639725756256,0.0,0,2,0.0,16431,346703920677918,316,25.35099983215332,617.9603513382867,0.14999,16,0.0,0.0,1575420030,,,,0,10.526388717552457,1,6.0,25.35099983215332,0.0,0.0,0.0,66.7128,C,27170055000000,
Raw,1732148285999,14843000000,,701940.4508334897,-1416183489156999936,0.0,99.98053270809756,2210.639725756256,0.0,0,19,0.0,16431,346703924439084,487,21.993000030517578,18.99763618156469,0.14999,16,0.0,0.0,1575420030,,,,0,5.558172068549349,1,6.0,21.993000030517578,0.0,0.0,0.0,66.7128,C,27170055000000,
Raw,1732148285999,14843000000,,701940.4508334897,-1416183489156999936,0.0,99.98053270809756,2210.639725756256,0.0,0,17,0.0,16431,346703931372918,487,23.400999069213867,357.83979512152337,0.14999,16,0.0,0.0,1575420030,,,,0,7.7170008055486745,1,6.0,23.400999069213867,0.0,0.0,0.0,66.7128,C,27170055000000,
Raw,1732148285999,14843000000,,701940.4508334897,-1416183489156999936,0.0,99.98053270809756,2210.639725756256,0.0,0,29,0.0,16431,346703918463818,487,16.0,1077.9890334421455,0.14999,16,0.0,0.0,1575420030,,,,0,0.0,6,6.0,16.0,0.0,0.0,27.44761404886292,66.7128,C,27170055000000,
Raw,1732148285999,14843000000,,701940.4508334897,-1416183489156999936,0.0,99.98053270809756,2210.639725756256,0.0,0,27,0.0,16431,346703918107148,487,18.795000076293945,947.3265032698224,0.14999,16,0.0,0.0,1575420030,,,,0,0.0,6,6.0,18.795000076293945,0.0,0.0,27.44761404886292,66.7128,C,27170055000000,
Raw,1732148285999,14843000000,,701940.4508334897,-1416183489156999936,0.0,99.98053270809756,2210.639725756256,0.0,0,19,0.0,16431,346703920511452,797,16.100000381469727,630.5544381798882,0.14999,16,0.0,0.0,1575420030,,,,0,0.0,6,6.0,16.100000381469727,0.0,0.0,27.44761404886292,66.7128,C,27170055000000,
Raw,1732148285999,14843000000,,701940.4508334897,-1416183489156999936,0.0,99.98053270809756,2210.639725756256,0.0,0,21,0.0,16431,346703920291549,316,23.799999237060547,556.4695712281695,0.14999,16,0.0,0.0,1575420030,,,,0,9.536330730564368,6,6.0,23.799999237060547,0.0,0.0,27.44761404886292,66.7128,C,27170055000000,
Raw,1732148285999,14843000000,,701940.4508334897,-1416183489156999936,0.0,99.98053270809756,2210.639725756256,0.0,0,9,0.0,17,359242,487,5.0,865.6411762025101,0.14999,16,0.0,0.0,1600875010,,,,0,3.416375079047504,3,6.0,20.0,0.0,0.0,46.63262163742475,66.7128,C,27170055000000,
Raw,1732148285999,14843000000,,701940.4508334897,-1416183489156999936,0.0,99.98053270809756,2210.639725756256,0.0,0,16,0.0,17,935942,396,5.0,1154.7599736240206,0.14999,16,0.0,0.0,1601437440,,,,0,2.6739126583180353,3,6.0,23.0,0.0,0.0,46.63262163742475,66.7128,C,27170055000000,
Raw,1732148285999,14843000000,,701940.4508334897,-1416183489156999936,0.0,99.98053270809756,2210.639725756256,0.0,0,8,0.0,17,227055,797,5.0,777.4673292865319,0.14999,16,0.0,0.0,1605374980,,,,0,6.841150204272887,3,6.0,17.0,0.0,0.0,46.63262163742475,66.7128,C,27170055000000,
Raw,1732148285999,14843000000,,701940.4508334897,-1416183489156999936,0.0,99.98053270809756,2210.639725756256,0.0,0,18,0.0,17,541135,487,5.0,1194.213172621307,0.14999,16,0.0,0.0,1600312450,,,,0,0.0,3,6.0,18.0,0.0,0.0,46.63262163742475,66.7128,C,27170055000000,
Status,1732148286000,28,0,1,14,1575420030,30.70,6.0,70.0,1,0,0,25.7
Status,1732148286000,28,1,1,22,1575420030,30.20,300.0,67.0,1,0,0,25.2
Status,1732148286000,28,2,1,17,1575420030,28.20,170.0,61.0,1,0,0,23.2
Status,1732148286000,28,3,1,30,1575420030,35.70,104.0,60.0,1,0,0,30.7
Status,1732148286000,28,4,1,13,1575420030,28.20,282.0,55.0,1,0,0,23.2
Status,1732148286000,28,5,1,19,1575420030,24.20,194.0,32.0,1,0,0,19.2
Status,1732148286000,28,6,1,7,1575420030,37.40,115.0,27.0,1,0,0,32.4
Status,1732148286000,28,7,1,15,1575420030,0.00,305.0,26.0,0,0,0,0.0
Status,1732148286000,28,8,2,131,1575420030,34.00,3.0,23.0,0,0,0,29.0
Status,1732148286000,28,9,1,2,1575420030,32.90,73.0,20.0,1,0,0,27.900002
Status,1732148286000,28,10,1,21,1575420030,26.70,55.0,14.0,1,0,0,21.7
Status,1732148286000,28,11,3,9,1602000000,27.10,42.0,48.0,1,0,0,22.1
Status,1732148286000,28,12,3,8,1602000000,25.10,281.0,39.0,1,0,0,20.1
Status,1732148286000,28,13,3,19,1602000000,0.00,66.0,36.0,0,0,0,0.0
Status,1732148286000,28,14,3,20,1602000000,0.00,142.0,25.0,0,0,0,0.0
Status,1732148286000,28,15,3,18,1602000000,23.30,27.0,13.0,1,0,0,18.3
Status,1732148286000,28,16,3,11,1602000000,0.00,284.0,10.0,0,0,0,0.0
Status,1732148286000,28,17,3,16,1602000000,34.40,80.0,5.0,1,0,0,29.400002
Status,1732148286000,28,18,6,21,1575420030,25.70,290.0,63.0,1,0,0,20.7
Status,1732148286000,28,19,6,19,1575420030,20.50,279.0,54.0,1,0,0,15.5
Status,1732148286000,28,20,6,27,1575420030,23.70,46.0,49.0,1,0,0,18.7
Status,1732148286000,28,21,6,29,1575420030,23.90,197.0,48.0,1,0,0,18.9
Status,1732148286000,28,22,6,15,1575420030,0.00,85.0,17.0,0,0,0,0.0
Status,1732148286000,28,23,6,13,1575420030,0.00,135.0,10.0,0,0,0,0.0
Status,1732148286000,28,24,6,4,1575420030,0.00,324.0,9.0,0,0,0,0.0
Status,1732148286000,28,25,6,7,1575420030,0.00,162.0,6.0,0,0,0,0.0
Status,1732148286000,28,26,6,34,1575420030,0.00,37.0,6.0,0,0,0,0.0
Status,1732148286000,28,27,6,30,1575420030,0.00,65.0,3.0,0,0,0,0.0
Fix,GPS,37.4243966667,-122.1708450000,-2.099999999999998,0.6361967,2.6,281.72,1732148287000,2.4,158.5,27171055000000,38.1,0,,,
Fix,FLP,37.4243928000,-122.1708404000,2.0,0.031866085,2.566,,1732148287208,2.4,,27171055000000,1.0402281,0,,,
Raw,1732148286999,15843000000,,701798.4776154709,-1416183489156999936,0.0,96.91651445044234,2205.7330340951225,0.0,0,13,0.0,16431,346704930855334,316,23.19099998474121,581.9747771435929,0.14999,16,0.0,0.0,1575420030,,,,0,7.431254983540574,1,6.0,23.19099998474121,0.0,0.0,0.0,66.7128,C,27171055000000,
Raw,1732148286999,15843000000,,701798.4776154709,-1416183489156999936,0.0,96.91651445044234,2205.7330340951225,0.0,0,22,0.0,16431,346704930919278,316,25.243000030517578,616.156231661583,0.14999,16,0.0,0.0,1575420030,,,,0,10.36211167637789,1,6.0,25.243000030517578,0.0,0.0,0.0,66.7128,C,27171055000000,
Raw,1732148286999,15843000000,,701798.4776154709,-1416183489156999936,0.0,96.91651445044234,2205.7330340951225,0.0,0,7,0.0,16431,346704923877433,74,32.41699981689453,1124.8156790595685,0.14999,16,0.0,0.0,1575420030,,,,0,19.421468309425812,1,6.0,32.41699981689453,0.0,0.0,0.0,66.7128,C,27171055000000,
Raw,1732148286999,15843000000,,701798.4776154709,-1416183489156999936,0.0,96.91651445044234,2205.7330340951225,0.0,0,30,0.0,16431,346704930649022,74,30.729999542236328,891.309732508128,0.14999,16,0.0,0.0,1575420030,,,,0,17.426467387237242,1,6.0,30.729999542236328,0.0,0.0,0.0,66.7128,C,27171055000000,
Raw,1732148286999,15843000000,,701798.4776154709,-1416183489156999936,0.0,96.91651445044234,2205.7330340951225,0.0,0,21,0.0,16431,346704919533343,487,21.650999069213867,848.8380059094484,0.14999,16,0.0,0.0,1575420030,,,,0,5.038348360914435,1,6.0,21.650999069213867,0.0,0.0,0.0,66.7128,C,27171055000000,
Raw,1732148286999,15843000000,,701798.4776154709,-1416183489156999936,0.0,96.91651445044234,2205.7330340951225,0.0,0,14,0.0,16431,346704932249566,396,25.694000244140625,756.295442489364,0.14999,16,0.0,0.0,1575420030,,,,0,11.001362054611192,1,6.0,25.694000244140625,0.0,0.0,0.0,66.7128,C,27171055000000,
Raw,1732148286999,15843000000,,701798.4776154709,-1416183489156999936,0.0,96.91651445044234,2205.7330340951225,0.0,0,2,0.0,16431,346704920675851,235,27.94099998474121,619.5913669561901,0.14999,16,0.0,0.0,1575420030,,,,0,13.973305722891494,1,6.0,27.94099998474121,0.0,0.0,0.0,66.7128,C,27171055000000,
Raw,1732148286999,15843000000,,701798.4776154709,-1416183489156999936,0.0,96.91651445044234,2205.7330340951225,0.0,0,19,0.0,16431,346704924439033,487,19.239999771118164,18.299737853249983,0.14999,16,0.0,0.0,1575420030,,,,0,0.9022134701595794,1,6.0,19.239999771118164,0.0,0.0,0.0,66.7128,C,27171055000000,
Raw,1732148286999,15843000000,,701798.4776154709,-1416183489156999936,0.0,96.91651445044234,2205.7330340951225,0.0,0,17,0.0,16431,346704931371729,396,23.155000686645508,356.09446857053393,0.14999,16,0.0,0.0,1575420030,,,,0,7.372960203396229,1,6.0,23.155000686645508,0.0,0.0,0.0,66.7128,C,27171055000000,
Raw,1732148286999,15843000000,,701798.4776154709,-1416183489156999936,0.0,96.91651445044234,2205.7330340951225,0.0,0,29,0.0,16431,346704918460223,487,18.899999618530273,1076.530146256302,0.14999,16,0.0,0.0,1575420030,,,,0,2.3721606400036475,6,6.0,18.899999618530273,0.0,0.0,28.17349695819887,66.7128,C,27171055000000,
Raw,1732148286999,15843000000,,701798.4776154709,-1416183489156999936,0.0,96.91651445044234,2205.7330340951225,0.0,0,27,0.0,16431,346704918103989,396,18.729999542236328,946.504189302896,0.14999,16,0.0,0.0,1575420030,,,,0,0.0,6,6.0,18.729999542236328,0.0,0.0,28.17349695819887,66.7128,C,27171055000000,
Raw,1732148286999,15843000000,,701798.4776154709,-1416183489156999936,0.0,96.91651445044234,2205.7330340951225,0.0,0,19,0.0,16431,346704920509344,487,15.5,629.3212459799956,0.14999,16,0.0,0.0,1575420030,,,,0,0.0,6,6.0,15.5,0.0,0.0,28.17349695819887,66.7128,C,27171055000000,
Raw,1732148286999,15843000000,,701798.4776154709,-1416183489156999936,0.0,96.91651445044234,2205.7330340951225,0.0,0,21,0.0,16431,346704920289692,396,20.700000762939453,555.914718363367,0.14999,16,0.0,0.0,1575420030,,,,0,5.264949637572361,6,6.0,20.700000762939453,0.0,0.0,28.17349695819887,66.7128,C,27171055000000,
Raw,1732148286999,15843000000,,701798.4776154709,-1416183489156999936,0.0,96.91651445044234,2205.7330340951225,0.0,0,9,0.0,17,356352,396,5.0,864.457401838006,0.14999,16,0.0,0.0,1600875010,,,,0,7.3422679819268675,3,6.0,21.0,0.0,0.0,46.16945818538896,66.7128,C,27171055000000,
Raw,1732148286999,15843000000,,701798.4776154709,-1416183489156999936,0.0,96.91651445044234,2205.7330340951225,0.0,0,16,0.0,17,932088,235,5.0,1155.1195698393874,0.14999,16,0.0,0.0,1601437440,,,,0,16.34164815544782,3,6.0,29.0,0.0,0.0,46.16945818538896,66.7128,C,27171055000000,
Raw,1732148286999,15843000000,,701798.4776154709,-1416183489156999936,0.0,96.91651445044234,2205.7330340951225,0.0,0,8,0.0,17,224464,797,5.0,775.460116159137,0.14999,16,0.0,0.0,1605374980,,,,0,6.841150204272887,3,6.0,16.0,0.0,0.0,46.16945818538896,66.7128,C,27171055000000,
Raw,1732148286999,15843000000,,701798.4776154709,-1416183489156999936,0.0,96.91651445044234,2205.7330340951225,0.0,0,18,0.0,17,537148,487,5.0,1196.3159202000586,0.14999,16,0.0,0.0,1600312450,,,,0,1.34636819801137,3,6.0,20.0,0.0,0.0,46.16945818538896,66.7128,C,27171055000000,
Status,1732148287000,28,0,1,14,1575420030,31.30,6.0,70.0,1,0,0,26.3
Status,1732148287000,28,1,1,22,1575420030,31.00,300.0,67.0,1,0,0,26.0
Status,1732148287000,28,2,1,17,1575420030,29.00,170.0,61.0,1,0,0,24.0
Status,1732148287000,28,3,1,30,1575420030,34.10,104.0,60.0,1,0,0,29.099998
Status,1732148287000,28,4,1,13,1575420030,30.10,282.0,55.0,1,0,0,25.1
Status,1732148287000,28,5,1,19,1575420030,28.30,194.0,32.0,1,0,0,23.3
Status,1732148287000,28,6,1,7,1575420030,33.40,115.0,27.0,1,0,0,28.400002
Status,1732148287000,28,7,1,15,1575420030,0.00,305.0,26.0,0,0,0,0.0
Status,1732148287000,28,8,2,131,1575420030,35.00,3.0,23.0,0,0,0,30.0
Status,1732148287000,28,9,1,2,1575420030,31.00,73.0,20.0,1,0,0,26.0
Status,1732148287000,28,10,1,21,1575420030,26.70,55.0,14.0,1,0,0,21.7
Status,1732148287000,28,11,3,9,1602000000,27.10,42.0,48.0,1,0,0,22.1
Status,1732148287000,28,12,3,8,1602000000,22.50,281.0,39.0,1,0,0,17.5
Status,1732148287000,28,13,3,19,1602000000,0.00,66.0,36.0,0,0,0,0.0
Status,1732148287000,28,14,3,20,1602000000,0.00,142.0,25.0,0,0,0,0.0
Status,1732148287000,28,15,3,18,1602000000,26.00,27.0,13.0,1,0,0,21.0
Status,1732148287000,28,16,3,11,1602000000,0.00,284.0,10.0,0,0,0,0.0
Status,1732148287000,28,17,3,16,1602000000,31.80,80.0,5.0,1,0,0,26.8
Status,1732148287000,28,18,6,21,1575420030,30.50,290.0,63.0,1,0,0,25.5
Status,1732148287000,28,19,6,19,1575420030,20.50,279.0,54.0,1,0,0,15.5
Status,1732148287000,28,20,6,27,1575420030,23.80,46.0,49.0,1,0,0,18.8
Status,1732148287000,28,21,6,29,1575420030,23.90,197.0,48.0,1,0,0,18.9
Status,1732148287000,28,22,6,15,1575420030,0.00,85.0,17.0,0,0,0,0.0
Status,1732148287000,28,23,6,13,1575420030,0.00,135.0,10.0,0,0,0,0.0
Status,1732148287000,28,24,6,4,1575420030,0.00,324.0,9.0,0,0,0,0.0
Status,1732148287000,28,25,6,7,1575420030,0.00,162.0,6.0,0,0,0,0.0
Status,1732148287000,28,26,6,34,1575420030,0.00,37.0,6.0,0,0,0,0.0
Status,1732148287000,28,27,6,30,1575420030,0.00,65.0,3.0,0,0,0,0.0
Fix,GPS,37.4244016667,-122.1708416667,-2.1999999999999993,0.398395,2.6,294.15,1732148288000,2.3,179.9,27172055000000,37.9,0,,,
Fix,FLP,37.4243971000,-122.1708413000,2.0,0.04049,2.583,,1732148288207,2.3,,27172055000000,1.05023,0,,,
Raw,1732148287999,16843000000,,701459.3367455562,-1416183489156999936,0.0,96.29650875431435,2204.583637415966,0.0,0,13,0.0,16431,346705930853391,396,25.10300064086914,581.7821605499839,0.14999,16,0.0,0.0,1575420030,,,,0,10.194667654573365,1,6.0,25.10300064086914,0.0,0.0,0.0,66.7128,C,27172055000000,
Raw,1732148287999,16843000000,,701459.3367455562,-1416183489156999936,0.0,96.29650875431435,2204.583637415966,0.0,0,22,0.0,16431,346705930917214,316,25.996999740600586,616.3660378691898,0.14999,16,0.0,0.0,1575420030,,,,0,11.41505403180821,1,6.0,25.996999740600586,0.0,0.0,0.0,66.7128,C,27172055000000,
Raw,1732148287999,16843000000,,701459.3367455562,-1416183489156999936,0.0,96.29650875431435,2204.583637415966,0.0,0,7,0.0,16431,346705923873685,235,28.41900062561035,1124.4498654903266,0.14999,16,0.0,0.0,1575420030,,,,0,14.580773455307684,1,6.0,28.41900062561035,0.0,0.0,0.0,66.7128,C,27172055000000,
Raw,1732148287999,16843000000,,701459.3367455562,-1416183489156999936,0.0,96.29650875431435,2204.583637415966,0.0,0,30,0.0,16431,346705930646049,316,29.131999969482422,890.9467993606912,0.14999,16,0.0,0.0,1575420030,,,,0,15.476770249635747,1,6.0,29.131999969482422,0.0,0.0,0.0,66.7128,C,27172055000000,
Raw,1732148287999,16843000000,,701459.3367455562,-1416183489156999936,0.0,96.29650875431435,2204.583637415966,0.0,0,21,0.0,16431,346705919530510,487,21.650999069213867,848.7159131916471,0.14999,16,0.0,0.0,1575420030,,,,0,5.038348360914435,1,6.0,21.650999069213867,0.0,0.0,0.0,66.7128,C,27172055000000,
Raw,1732148287999,16843000000,,701459.3367455562,-1416183489156999936,0.0,96.29650875431435,2204.583637415966,0.0,0,14,0.0,16431,346705932247037,316,26.268999099731445,756.5498952349491,0.14999,16,0.0,0.0,1575420030,,,,0,11.774769602596582,1,6.0,26.268999099731445,0.0,0.0,0.0,66.7128,C,27172055000000,
Raw,1732148287999,16843000000,,701459.3367455562,-1416183489156999936,0.0,96.29650875431435,2204.583637415966,0.0,0,2,0.0,16431,346705920673788,316,26.047000885009766,617.8705472197518,0.14999,16,0.0,0.0,1575420030,,,,0,11.48819879785426,1,6.0,26.047000885009766,0.0,0.0,0.0,66.7128,C,27172055000000,
Raw,1732148287999,16843000000,,701459.3367455562,-1416183489156999936,0.0,96.29650875431435,2204.583637415966,0.0,0,19,0.0,16431,346705924439011,487,23.261999130249023,18.08022183665519,0.14999,16,0.0,0.0,1575420030,,,,0,7.489161128928848,1,6.0,23.261999130249023,0.0,0.0,0.0,66.7128,C,27172055000000,
Raw,1732148287999,16843000000,,701459.3367455562,-1416183489156999936,0.0,96.29650875431435,2204.583637415966,0.0,0,17,0.0,16431,346705931370545,396,23.966999053955078,356.23851288999475,0.14999,16,0.0,0.0,1575420030,,,,0,8.572918796901936,1,6.0,23.966999053955078,0.0,0.0,0.0,66.7128,C,27172055000000,
Raw,1732148287999,16843000000,,701459.3367455562,-1416183489156999936,0.0,96.29650875431435,2204.583637415966,0.0,0,29,0.0,16431,346705918456630,487,18.905000686645508,1077.5880973102485,0.14999,16,0.0,0.0,1575420030,,,,0,2.5777534248950578,6,6.0,18.905000686645508,0.0,0.0,27.45924863104948,66.7128,C,27172055000000,
Raw,1732148287999,16843000000,,701459.3367455562,-1416183489156999936,0.0,96.29650875431435,2204.583637415966,0.0,0,27,0.0,16431,346705918100834,316,18.83799934387207,945.7902163625723,0.14999,16,0.0,0.0,1575420030,,,,0,5.558172068549349,6,6.0,18.83799934387207,0.0,0.0,27.45924863104948,66.7128,C,27172055000000,
Raw,1732148287999,16843000000,,701459.3367455562,-1416183489156999936,0.0,96.29650875431435,2204.583637415966,0.0,0,19,0.0,16431,346705920507245,487,15.5,629.1148312367721,0.14999,16,0.0,0.0,1575420030,,,,0,0.0,6,6.0,15.5,0.0,0.0,27.45924863104948,66.7128,C,27172055000000,
Raw,1732148287999,16843000000,,701459.3367455562,-1416183489156999936,0.0,96.29650875431435,2204.583637415966,0.0,0,21,0.0,16431,346705920287837,316,25.5,555.8751357927556,0.14999,16,0.0,0.0,1575420030,,,,0,11.73946105951135,6,6.0,25.5,0.0,0.0,27.45924863104948,66.7128,C,27172055000000,
Raw,1732148287999,16843000000,,701459.3367455562,-1416183489156999936,0.0,96.29650875431435,2204.583637415966,0.0,0,9,0.0,17,353467,396,5.0,864.3736433552402,0.14999,16,0.0,0.0,1600875010,,,,0,7.102089832466559,3,6.0,21.0,0.0,0.0,48.2933154976307,66.7128,C,27172055000000,
Raw,1732148287999,16843000000,,701459.3367455562,-1416183489156999936,0.0,96.29650875431435,2204.583637415966,0.0,0,16,0.0,17,928237,316,5.0,1153.9246939554844,0.14999,16,0.0,0.0,1601437440,,,,0,13.323296575564733,3,6.0,26.0,0.0,0.0,48.2933154976307,66.7128,C,27172055000000,
Raw,1732148287999,16843000000,,701459.3367455562,-1416183489156999936,0.0,96.29650875431435,2204.583637415966,0.0,0,8,0.0,17,221842,487,5.0,776.4934028151874,0.14999,16,0.0,0.0,1605374980,,,,0,0.0,3,6.0,19.0,0.0,0.0,48.2933154976307,66.7128,C,27172055000000,
Raw,1732148287999,16843000000,,701459.3367455562,-1416183489156999936,0.0,96.29650875431435,2204.583637415966,0.0,0,18,0.0,17,533157,487,5.0,1195.3671774696422,0.14999,16,0.0,0.0,1600312450,,,,0,5.7514097365825885,3,6.0,19.0,0.0,0.0,48.2933154976307,66.7128,C,27172055000000,
Status,1732148288000,28,0,1,14,1575420030,37.20,6.0,70.0,1,0,0,32.2
Status,1732148288000,28,1,1,22,1575420030,36.90,300.0,67.0,1,0,0,31.900002
Status,1732148288000,28,2,1,17,1575420030,30.40,170.0,61.0,1,0,0,25.4
Status,1732148288000,28,3,1,30,1575420030,32.50,104.0,60.0,1,0,0,27.5
Status,1732148288000,28,4,1,13,1575420030,33.90,282.0,55.0,1,0,0,28.900002
Status,1732148288000,28,5,1,19,1575420030,0.00,194.0,32.0,0,0,0,0.0
Status,1732148288000,28,6,1,7,1575420030,30.10,115.0,27.0,1,0,0,25.1
Status,1732148288000,28,7,1,15,1575420030,0.00,305.0,26.0,0,0,0,0.0
Status,1732148288000,28,8,2,131,1575420030,31.00,3.0,23.0,0,0,0,26.0
Status,1732148288000,28,9,1,2,1575420030,35.50,73.0,20.0,1,0,0,30.5
Status,1732148288000,28,10,1,21,1575420030,34.30,55.0,14.0,1,0,0,29.3
Status,1732148288000,28,11,3,9,1602000000,27.10,42.0,48.0,1,0,0,22.1
Status,1732148288000,28,12,3,8,1602000000,22.60,281.0,39.0,1,0,0,17.6
Status,1732148288000,28,13,3,19,1602000000,0.00,66.0,36.0,0,0,0,0.0
Status,1732148288000,28,14,3,20,1602000000,0.00,142.0,25.0,0,0,0,0.0
Status,1732148288000,28,15,3,18,1602000000,25.00,27.0,13.0,1,0,0,20.0
Status,1732148288000,28,16,3,11,1602000000,0.00,284.0,10.0,0,0,0,0.0
Status,1732148288000,28,17,3,16,1602000000,25.20,80.0,5.0,1,0,0,20.2
Status,1732148288000,28,18,6,21,1575420030,28.70,290.0,63.0,1,0,0,23.7
Status,1732148288000,28,19,6,19,1575420030,20.50,279.0,54.0,1,0,0,15.5
Status,1732148288000,28,20,6,27,1575420030,23.90,46.0,49.0,1,0,0,18.9
Status,1732148288000,28,21,6,29,1575420030,27.20,197.0,48.0,1,0,0,22.2
Status,1732148288000,28,22,6,15,1575420030,0.00,85.0,17.0,0,0,0,0.0
Status,1732148288000,28,23,6,13,1575420030,0.00,135.0,10.0,0,0,0,0.0
Status,1732148288000,28,24,6,4,1575420030,0.00,324.0,9.0,0,0,0,0.0
Status,1732148288000,28,25,6,7,1575420030,0.00,162.0,6.0,0,0,0,0.0
Status,1732148288000,28,26,6,34,1575420030,0.00,37.0,6.0,0,0,0,0.0
Status,1732148288000,28,27,6,30,1575420030,0.00,65.0,3.0,0,0,0,0.0
Fix,GPS,37.4244050000,-122.1708383333,-2.1999999999999993,0.4581028,2.5,281.92,1732148289000,2.4,179.9,27173055000000,36.9,0,,,
Fix,FLP,37.4244010000,-122.1708401000,2.0,0.0470686,2.566,,1732148289207,2.4,,27173055000000,1.0602257,0,,,
Raw,1732148288999,17843000000,,701073.5490217035,-1416183489156999936,0.0,93.90471101611496,2203.1055924463058,0.0,0,13,0.0,16431,346706930851455,235,28.94099998474121,582.2788474776908,0.14999,16,0.0,0.0,1575420030,,,,0,15.24357799873588,1,6.0,28.94099998474121,0.0,0.0,0.0,66.7128,C,27173055000000,
Raw,1732148288999,17843000000,,701073.5490217035,-1416183489156999936,0.0,93.90471101611496,2203.1055924463058,0.0,0,22,0.0,16431,346706930915163,74,31.92799949645996,615.5354543041777,0.14999,16,0.0,0.0,1575420030,,,,0,18.847734503746146,1,6.0,31.92799949645996,0.0,0.0,0.0,66.7128,C,27173055000000,
Raw,1732148288999,17843000000,,701073.5490217035,-1416183489156999936,0.0,93.90471101611496,2203.1055924463058,0.0,0,7,0.0,16431,346706923869933,316,25.075000762939453,1124.4068449969157,0.14999,16,0.0,0.0,1575420030,,,,0,10.152297377198817,1,6.0,25.075000762939453,0.0,0.0,0.0,66.7128,C,27173055000000,
Raw,1732148288999,17843000000,,701073.5490217035,-1416183489156999936,0.0,93.90471101611496,2203.1055924463058,0.0,0,30,0.0,16431,346706930643081,235,27.516000747680664,890.8029641041035,0.14999,16,0.0,0.0,1575420030,,,,0,13.437317839639364,1,6.0,27.516000747680664,0.0,0.0,0.0,66.7128,C,27173055000000,
Raw,1732148288999,17843000000,,701073.5490217035,-1416183489156999936,0.0,93.90471101611496,2203.1055924463058,0.0,0,21,0.0,16431,346706919527678,74,29.301000595092773,849.0430733586018,0.14999,16,0.0,0.0,1575420030,,,,0,15.681421095418479,1,6.0,29.301000595092773,0.0,0.0,0.0,66.7128,C,27173055000000,
Raw,1732148288999,17843000000,,701073.5490217035,-1416183489156999936,0.0,93.90471101611496,2203.1055924463058,0.0,0,14,0.0,16431,346706932244516,74,32.15800094604492,756.3318194292567,0.14999,16,0.0,0.0,1575420030,,,,0,19.124231790817685,1,6.0,32.15800094604492,0.0,0.0,0.0,66.7128,C,27173055000000,
Raw,1732148288999,17843000000,,701073.5490217035,-1416183489156999936,0.0,93.90471101611496,2203.1055924463058,0.0,0,2,0.0,16431,346706920671724,74,30.527999877929688,617.9933368137962,0.14999,16,0.0,0.0,1575420030,,,,0,17.18414144477421,1,6.0,30.527999877929688,0.0,0.0,0.0,66.7128,C,27173055000000,
Raw,1732148288999,17843000000,,701073.5490217035,-1416183489156999936,0.0,93.90471101611496,2203.1055924463058,0.0,0,17,0.0,16431,346706931369363,316,25.35099983215332,355.821293083216,0.14999,16,0.0,0.0,1575420030,,,,0,10.526388717552457,1,6.0,25.35099983215332,0.0,0.0,0.0,66.7128,C,27173055000000,
Raw,1732148288999,17843000000,,701073.5490217035,-1416183489156999936,0.0,93.90471101611496,2203.1055924463058,0.0,0,29,0.0,16431,346706918453044,396,22.200000762939453,1076.593236785516,0.14999,16,0.0,0.0,1575420030,,,,0,7.489161128928848,6,6.0,22.200000762939453,0.0,0.0,24.177915203853093,66.7128,C,27173055000000,
Raw,1732148288999,17843000000,,701073.5490217035,-1416183489156999936,0.0,93.90471101611496,2203.1055924463058,0.0,0,27,0.0,16431,346706918097680,487,18.881000518798828,945.2966421487516,0.14999,16,0.0,0.0,1575420030,,,,0,3.8071557402838403,6,6.0,18.881000518798828,0.0,0.0,24.177915203853093,66.7128,C,27173055000000,
Raw,1732148288999,17843000000,,701073.5490217035,-1416183489156999936,0.0,93.90471101611496,2203.1055924463058,0.0,0,19,0.0,16431,346706920505148,487,15.475000381469727,628.869205590267,0.14999,16,0.0,0.0,1575420030,,,,0,0.0,6,6.0,15.475000381469727,0.0,0.0,24.177915203853093,66.7128,C,27173055000000,
Raw,1732148288999,17843000000,,701073.5490217035,-1416183489156999936,0.0,93.90471101611496,2203.1055924463058,0.0,0,21,0.0,16431,346706920285984,316,23.700000762939453,555.4004701543325,0.14999,16,0.0,0.0,1575420030,,,,0,9.444658221167838,6,6.0,23.700000762939453,0.0,0.0,24.177915203853093,66.7128,C,27173055000000,
Raw,1732148288999,17843000000,,701073.5490217035,-1416183489156999936,0.0,93.90471101611496,2203.1055924463058,0.0,0,9,0.0,17,350583,487,5.0,864.3141163112659,0.14999,16,0.0,0.0,1600875010,,,,0,8.590488697881504,3,6.0,20.0,0.0,0.0,45.59340453616288,66.7128,C,27173055000000,
Raw,1732148288999,17843000000,,701073.5490217035,-1416183489156999936,0.0,93.90471101611496,2203.1055924463058,0.0,0,16,0.0,17,924445,487,5.0,1153.8206724778313,0.14999,16,0.0,0.0,1601437440,,,,0,4.466956104571195,3,6.0,18.0,0.0,0.0,45.59340453616288,66.7128,C,27173055000000,
Raw,1732148288999,17843000000,,701073.5490217035,-1416183489156999936,0.0,93.90471101611496,2203.1055924463058,0.0,0,8,0.0,17,219295,487,5.0,776.6035519751335,0.14999,16,0.0,0.0,1605374980,,,,0,2.9708471848244584,3,6.0,19.0,0.0,0.0,45.59340453616288,66.7128,C,27173055000000,
Raw,1732148288999,17843000000,,701073.5490217035,-1416183489156999936,0.0,93.90471101611496,2203.1055924463058,0.0,0,18,0.0,17,529169,396,5.0,1193.6537327312928,0.14999,16,0.0,0.0,1600312450,,,,0,4.177377185062286,3,6.0,23.0,0.0,0.0,45.59340453616288,66.7128,C,27173055000000,
Status,1732148289000,28,0,1,14,1575420030,28.70,6.0,70.0,1,0,0,23.7
Status,1732148289000,28,1,1,22,1575420030,34.10,301.0,67.0,1,0,0,29.099998
Status,1732148289000,28,2,1,17,1575420030,29.80,170.0,61.0,1,0,0,24.8
Status,1732148289000,28,3,1,30,1575420030,33.50,104.0,60.0,1,0,0,28.5
Status,1732148289000,28,4,1,13,1575420030,34.10,282.0,55.0,1,0,0,29.099998
Status,1732148289000,28,5,1,19,1575420030,27.50,194.0,32.0,1,0,0,22.5
Status,1732148289000,28,6,1,7,1575420030,32.80,115.0,27.0,1,0,0,27.8
Status,1732148289000,28,7,1,15,1575420030,28.40,305.0,26.0,1,0,0,23.4
Status,1732148289000,28,8,2,131,1575420030,29.00,3.0,23.0,0,0,0,24.0
Status,1732148289000,28,9,1,2,1575420030,34.20,73.0,20.0,1,0,0,29.2
Status,1732148289000,28,10,1,21,1575420030,0.00,55.0,14.0,0,0,0,0.0
Status,1732148289000,28,11,3,9,1602000000,31.90,42.0,48.0,1,0,0,26.9
Status,1732148289000,28,12,3,8,1602000000,25.90,281.0,39.0,1,0,0,20.9
Status,1732148289000,28,13,3,19,1602000000,0.00,66.0,36.0,0,0,0,0.0
Status,1732148289000,28,14,3,20,1602000000,0.00,142.0,25.0,0,0,0,0.0
Status,1732148289000,28,15,3,18,1602000000,25.00,27.0,13.0,1,0,0,20.0
Status,1732148289000,28,16,3,11,1602000000,0.00,284.0,10.0,0,0,0,0.0
Status,1732148289000,28,17,3,16,1602000000,28.10,80.0,5.0,1,0,0,23.1
Status,1732148289000,28,18,6,21,1575420030,31.10,290.0,63.0,1,0,0,26.1
Status,1732148289000,28,19,6,19,1575420030,20.50,279.0,54.0,1,0,0,15.5
Status,1732148289000,28,20,6,27,1575420030,30.10,46.0,49.0,1,0,0,25.1
Status,1732148289000,28,21,6,29,1575420030,22.30,197.0,48.0,1,0,0,17.3
Status,1732148289000,28,22,6,15,1575420030,0.00,85.0,17.0,0,0,0,0.0
Status,1732148289000,28,23,6,13,1575420030,0.00,135.0,10.0,0,0,0,0.0
Status,1732148289000,28,24,6,4,1575420030,0.00,324.0,9.0,0,0,0,0.0
Status,1732148289000,28,25,6,7,1575420030,0.00,162.0,6.0,0,0,0,0.0
Status,1732148289000,28,26,6,34,1575420030,0.00,37.0,6.0,0,0,0,0.0
Status,1732148289000,28,27,6,30,1575420030,0.00,65.0,3.0,0,0,0,0.0
Fix,GPS,37.4244033333,-122.1708433333,-2.1999999999999993,0.3448639,2.5,272.59,1732148290000,2.5,179.9,27174055000000,39.9,0,,,
Fix,FLP,37.4244022000,-122.1708420000,2.0,0.05483524,2.566,,1732148290207,2.5,,27174055000000,1.07024,0,,,
Raw,1732148289999,18843000000,,700911.6661967527,-1416183489156999936,0.0,102.1343575875477,2200.342145537612,0.0,0,13,0.0,16431,346707930849519,316,29.14900016784668,580.1232698823543,0.14999,16,0.0,0.0,1575420030,,,,0,15.499748807053438,1,6.0,29.14900016784668,0.0,0.0,0.0,66.7128,C,27174055000000,
Raw,1732148289999,18843000000,,700911.6661967527,-1416183489156999936,0.0,102.1343575875477,2200.342145537612,0.0,0,22,0.0,16431,346707930913114,235,29.131999969482422,614.7151380491482,0.14999,16,0.0,0.0,1575420030,,,,0,15.476770249635747,1,6.0,29.131999969482422,0.0,0.0,0.0,66.7128,C,27174055000000,
Raw,1732148289999,18843000000,,700911.6661967527,-1416183489156999936,0.0,102.1343575875477,2200.342145537612,0.0,0,7,0.0,16431,346707923866181,235,27.783000946044922,1123.7724088651446,0.14999,16,0.0,0.0,1575420030,,,,0,13.779663220583586,1,6.0,27.783000946044922,0.0,0.0,0.0,66.7128,C,27174055000000,
Raw,1732148289999,18843000000,,700911.6661967527,-1416183489156999936,0.0,102.1343575875477,2200.342145537612,0.0,0,30,0.0,16431,346707930640113,235,28.492000579833984,889.3945307582648,0.14999,16,0.0,0.0,1575420030,,,,0,14.682215655204498,1,6.0,28.492000579833984,0.0,0.0,0.0,66.7128,C,27174055000000,
Raw,1732148289999,18843000000,,700911.6661967527,-1416183489156999936,0.0,102.1343575875477,2200.342145537612,0.0,0,14,0.0,16431,346707932241994,316,23.740999221801758,754.337498996587,0.14999,16,0.0,0.0,1575420030,,,,0,8.208786270257702,1,6.0,23.740999221801758,0.0,0.0,0.0,66.7128,C,27174055000000,
Raw,1732148289999,18843000000,,700911.6661967527,-1416183489156999936,0.0,102.1343575875477,2200.342145537612,0.0,0,2,0.0,16431,346707920669659,235,29.183000564575195,617.3372046016548,0.14999,16,0.0,0.0,1575420030,,,,0,15.545524352463438,1,6.0,29.183000564575195,0.0,0.0,0.0,66.7128,C,27174055000000,
Raw,1732148289999,18843000000,,700911.6661967527,-1416183489156999936,0.0,102.1343575875477,2200.342145537612,0.0,0,17,0.0,16431,346707931368176,396,24.820999145507812,354.88822225204353,0.14999,16,0.0,0.0,1575420030,,,,0,9.805682224560515,1,6.0,24.820999145507812,0.0,0.0,0.0,66.7128,C,27174055000000,
Raw,1732148289999,18843000000,,700911.6661967527,-1416183489156999936,0.0,102.1343575875477,2200.342145537612,0.0,0,29,0.0,16431,346707918449452,396,17.299999237060547,1075.5411394920122,0.14999,16,0.0,0.0,1575420030,,,,0,0.0,6,6.0,17.299999237060547,0.0,0.0,26.11595892935542,66.7128,C,27174055000000,
Raw,1732148289999,18843000000,,700911.6661967527,-1416183489156999936,0.0,102.1343575875477,2200.342145537612,0.0,0,27,0.0,16431,346707918094526,235,25.100000381469727,944.5811825391094,0.14999,16,0.0,0.0,1575420030,,,,0,11.191849724844946,6,6.0,25.100000381469727,0.0,0.0,26.11595892935542,66.7128,C,27174055000000,
Raw,1732148289999,18843000000,,700911.6661967527,-1416183489156999936,0.0,102.1343575875477,2200.342145537612,0.0,0,19,0.0,16431,346707920503049,487,15.451000213623047,628.6246484873348,0.14999,16,0.0,0.0,1575420030,,,,0,0.0,6,6.0,15.451000213623047,0.0,0.0,26.11595892935542,66.7128,C,27174055000000,
Raw,1732148289999,18843000000,,700911.6661967527,-1416183489156999936,0.0,102.1343575875477,2200.342145537612,0.0,0,21,0.0,16431,346707920284131,316,26.100000381469727,554.037984182126,0.14999,16,0.0,0.0,1575420030,,,,0,12.419721638681363,6,6.0,26.100000381469727,0.0,0.0,26.11595892935542,66.7128,C,27174055000000,
Raw,1732148289999,18843000000,,700911.6661967527,-1416183489156999936,0.0,102.1343575875477,2200.342145537612,0.0,0,9,0.0,17,347692,235,5.0,863.8169603387795,0.14999,16,0.0,0.0,1600875010,,,,0,13.362867895206492,3,6.0,27.0,0.0,0.0,40.12041847181523,66.7128,C,27174055000000,
Raw,1732148289999,18843000000,,700911.6661967527,-1416183489156999936,0.0,102.1343575875477,2200.342145537612,0.0,0,16,0.0,17,920595,396,5.0,1152.800567301549,0.14999,16,0.0,0.0,1601437440,,,,0,8.590488697881504,3,6.0,23.0,0.0,0.0,40.12041847181523,66.7128,C,27174055000000,
Raw,1732148289999,18843000000,,700911.6661967527,-1416183489156999936,0.0,102.1343575875477,2200.342145537612,0.0,0,8,0.0,17,216679,487,5.0,775.8620511732449,0.14999,16,0.0,0.0,1605374980,,,,0,5.583164574824268,3,6.0,18.0,0.0,0.0,40.12041847181523,66.7128,C,27174055000000,
Raw,1732148289999,18843000000,,700911.6661967527,-1416183489156999936,0.0,102.1343575875477,2200.342145537612,0.0,0,18,0.0,17,525186,487,5.0,1192.4131958136388,0.14999,16,0.0,0.0,1600312450,,,,0,4.291666855550874,3,6.0,20.0,0.0,0.0,40.12041847181523,66.7128,C,27174055000000,
Raw,1732148289999,18843000000,,700911.6661967527,-1416183489156999936,0.0,102.1343575875477,2200.342145537612,0.0,0,15,0.0,16431,346707924340317,487,23.367000579833984,375.2533851439735,0.14999,16,0.0,0.0,1575420030,,,,0,7.660598726595712,1,6.0,23.367000579833984,0.0,0.0,0.0,66.7128,C,27174055000000,
Raw,1732148289999,18843000000,,700911.6661967527,-1416183489156999936,0.0,102.1343575875477,2200.342145537612,0.0,0,19,0.0,16431,346707924438849,396,22.479999542236328,16.933813958243945,0.14999,16,0.0,0.0,1575420030,,,,0,6.316946186847138,1,6.0,22.479999542236328,0.0,0.0,0.0,66.7128,C,27174055000000,
Status,1732148290000,28,0,1,14,1575420030,32.20,6.0,70.0,1,0,0,27.2
Status,1732148290000,28,1,1,22,1575420030,32.20,301.0,67.0,1,0,0,27.2
Status,1732148290000,28,2,1,17,1575420030,32.50,170.0,61.0,1,0,0,27.5
Status,1732148290000,28,3,1,30,1575420030,33.70,104.0,60.0,1,0,0,28.7
Status,1732148290000,28,4,1,13,1575420030,30.10,282.0,55.0,1,0,0,25.1
Status,1732148290000,28,5,1,19,1575420030,27.00,194.0,32.0,1,0,0,22.0
Status,1732148290000,28,6,1,7,1575420030,31.60,115.0,27.0,1,0,0,26.6
Status,1732148290000,28,7,1,15,1575420030,0.00,305.0,26.0,0,0,0,0.0
Status,1732148290000,28,8,2,131,1575420030,32.00,3.0,23.0,0,0,0,27.0
Status,1732148290000,28,9,1,2,1575420030,30.50,73.0,20.0,1,0,0,25.5
Status,1732148290000,28,10,1,21,1575420030,0.00,55.0,14.0,0,0,0,0.0
Status,1732148290000,28,11,3,9,1602000000,29.60,42.0,48.0,1,0,0,24.6
Status,1732148290000,28,12,3,8,1602000000,25.90,281.0,39.0,1,0,0,20.9
Status,1732148290000,28,13,3,19,1602000000,0.00,66.0,36.0,0,0,0,0.0
Status,1732148290000,28,14,3,20,1602000000,0.00,142.0,25.0,0,0,0,0.0
Status,1732148290000,28,15,3,18,1602000000,24.60,27.0,13.0,1,0,0,19.6
Status,1732148290000,28,16,3,11,1602000000,0.00,284.0,10.0,0,0,0,0.0
Status,1732148290000,28,17,3,16,1602000000,29.70,80.0,5.0,1,0,0,24.7
Status,1732148290000,28,18,6,21,1575420030,23.10,290.0,63.0,1,0,0,18.1
Status,1732148290000,28,19,6,19,1575420030,20.50,279.0,54.0,1,0,0,15.5
Status,1732148290000,28,20,6,27,1575420030,26.30,46.0,49.0,1,0,0,21.3
Status,1732148290000,28,21,6,29,1575420030,22.60,197.0,48.0,1,0,0,17.6
Status,1732148290000,28,22,6,15,1575420030,0.00,85.0,17.0,0,0,0,0.0
Status,1732148290000,28,23,6,13,1575420030,0.00,135.0,10.0,0,0,0,0.0
Status,1732148290000,28,24,6,4,1575420030,0.00,324.0,9.0,0,0,0,0.0
Status,1732148290000,28,25,6,7,1575420030,0.00,162.0,6.0,0,0,0,0.0
Status,1732148290000,28,26,6,34,1575420030,0.00,37.0,6.0,0,0,0,0.0
Status,1732148290000,28,27,6,30,1575420030,0.00,65.0,3.0,0,0,0,0.0
Fix,GPS,37.4244033333,-122.1708416667,-2.1999999999999993,0.0,2.6,272.59,1732148291000,2.6,179.9,27175055000000,39.9,0,,,
Raw,1732148290999,19843000000,,700795.5441961118,-1416183489156999936,0.0,101.43245726416541,2198.2666350742056,0.0,0,13,0.0,16431,346708930847583,316,25.075000762939453,580.1534678528911,0.14999,16,0.0,0.0,1575420030,,,,0,10.152297377198817,1,6.0,25.075000762939453,0.0,0.0,0.0,66.7128,C,27175055000000,
Raw,1732148290999,19843000000,,700795.5441961118,-1416183489156999936,0.0,101.43245726416541,2198.2666350742056,0.0,0,22,0.0,16431,346708930911056,396,27.18000030517578,614.5142983158701,0.14999,16,0.0,0.0,1575420030,,,,0,12.989492394910112,1,6.0,27.18000030517578,0.0,0.0,0.0,66.7128,C,27175055000000,
Raw,1732148290999,19843000000,,700795.5441961118,-1416183489156999936,0.0,101.43245726416541,2198.2666350742056,0.0,0,7,0.0,16431,346708923862433,316,26.645000457763672,1123.0155083482425,0.14999,16,0.0,0.0,1575420030,,,,0,12.287864994397466,1,6.0,26.645000457763672,0.0,0.0,0.0,66.7128,C,27175055000000,
Raw,1732148290999,19843000000,,700795.5441961118,-1416183489156999936,0.0,101.43245726416541,2198.2666350742056,0.0,0,30,0.0,16431,346708930637147,316,28.74799919128418,889.9616021865306,0.14999,16,0.0,0.0,1575420030,,,,0,15.003952053073595,1,6.0,28.74799919128418,0.0,0.0,0.0,66.7128,C,27175055000000,
Raw,1732148290999,19843000000,,700795.5441961118,-1416183489156999936,0.0,101.43245726416541,2198.2666350742056,0.0,0,14,0.0,16431,346708932239476,235,27.222999572753906,754.8857083078714,0.14999,16,0.0,0.0,1575420030,,,,0,13.050553381968943,1,6.0,27.222999572753906,0.0,0.0,0.0,66.7128,C,27175055000000,
Raw,1732148290999,19843000000,,700795.5441961118,-1416183489156999936,0.0,101.43245726416541,2198.2666350742056,0.0,0,2,0.0,16431,346708920667606,316,25.482999801635742,615.865866560267,0.14999,16,0.0,0.0,1575420030,,,,0,10.727459956460418,1,6.0,25.482999801635742,0.0,0.0,0.0,66.7128,C,27175055000000,
Raw,1732148290999,19843000000,,700795.5441961118,-1416183489156999936,0.0,101.43245726416541,2198.2666350742056,0.0,0,17,0.0,16431,346708931366993,396,27.45400047302246,354.6267078271944,0.14999,16,0.0,0.0,1575420030,,,,0,13.349580834677088,1,6.0,27.45400047302246,0.0,0.0,0.0,66.7128,C,27175055000000,
Raw,1732148290999,19843000000,,700795.5441961118,-1416183489156999936,0.0,101.43245726416541,2198.2666350742056,0.0,0,29,0.0,16431,346708918445866,487,17.600000381469727,1074.695317566483,0.14999,16,0.0,0.0,1575420030,,,,0,0.1296254230369609,6,6.0,17.600000381469727,0.0,0.0,24.237243301843012,66.7128,C,27175055000000,
Raw,1732148290999,19843000000,,700795.5441961118,-1416183489156999936,0.0,101.43245726416541,2198.2666350742056,0.0,0,27,0.0,16431,346708918091378,396,21.299999237060547,944.3000162042032,0.14999,16,0.0,0.0,1575420030,,,,0,6.116493683677874,6,6.0,21.299999237060547,0.0,0.0,24.237243301843012,66.7128,C,27175055000000,
Raw,1732148290999,19843000000,,700795.5441961118,-1416183489156999936,0.0,101.43245726416541,2198.2666350742056,0.0,0,19,0.0,16431,346708920500947,487,15.54800033569336,628.3678263625229,0.14999,16,0.0,0.0,1575420030,,,,0,0.0,6,6.0,15.54800033569336,0.0,0.0,24.237243301843012,66.7128,C,27175055000000,
Raw,1732148290999,19843000000,,700795.5441961118,-1416183489156999936,0.0,101.43245726416541,2198.2666350742056,0.0,0,21,0.0,16431,346708920282284,316,18.100000381469727,554.1400997809568,0.14999,16,0.0,0.0,1575420030,,,,0,1.1451912617514792,6,6.0,18.100000381469727,0.0,0.0,24.237243301843012,66.7128,C,27175055000000,
Raw,1732148290999,19843000000,,700795.5441961118,-1416183489156999936,0.0,101.43245726416541,2198.2666350742056,0.0,0,9,0.0,17,344806,316,5.0,863.6191769346067,0.14999,16,0.0,0.0,1600875010,,,,0,10.596813931880861,3,6.0,25.0,0.0,0.0,31.605473278432203,66.7128,C,27175055000000,
Raw,1732148290999,19843000000,,700795.5441961118,-1416183489156999936,0.0,101.43245726416541,2198.2666350742056,0.0,0,16,0.0,17,916739,316,5.0,1153.2345690378384,0.14999,16,0.0,0.0,1601437440,,,,0,10.758166366841522,3,6.0,24.0,0.0,0.0,31.605473278432203,66.7128,C,27175055000000,
Raw,1732148290999,19843000000,,700795.5441961118,-1416183489156999936,0.0,101.43245726416541,2198.2666350742056,0.0,0,8,0.0,17,214091,487,5.0,775.6123919017776,0.14999,16,0.0,0.0,1605374980,,,,0,5.469621916990458,3,6.0,20.0,0.0,0.0,31.605473278432203,66.7128,C,27175055000000,
Raw,1732148290999,19843000000,,700795.5441961118,-1416183489156999936,0.0,101.43245726416541,2198.2666350742056,0.0,0,18,0.0,17,521201,487,5.0,1192.9307417419743,0.14999,16,0.0,0.0,1600312450,,,,0,3.5822204923064964,3,6.0,19.0,0.0,0.0,31.605473278432203,66.7128,C,27175055000000,
Raw,1732148290999,19843000000,,700795.5441961118,-1416183489156999936,0.0,101.43245726416541,2198.2666350742056,0.0,0,19,0.0,16431,346708924438815,487,21.993000030517578,16.187924085983756,0.14999,16,0.0,0.0,1575420030,,,,0,5.558172068549349,1,6.0,21.993000030517578,0.0,0.0,0.0,66.7128,C,27175055000000,
Fix,FLP,37.4244027000,-122.1708422000,2.0,0.0511615,2.566,,1732148291207,2.6,,27175055000000,1.0792465,0,,,
Status,1732148291000,28,0,1,14,1575420030,34.30,6.0,70.0,1,0,0,29.3
Status,1732148291000,28,1,1,22,1575420030,31.00,301.0,67.0,1,0,0,26.0
Status,1732148291000,28,2,1,17,1575420030,29.40,170.0,61.0,1,0,0,24.4
Status,1732148291000,28,3,1,30,1575420030,33.00,104.0,60.0,1,0,0,28.0
Status,1732148291000,28,4,1,13,1575420030,30.60,282.0,55.0,1,0,0,25.6
Status,1732148291000,28,5,1,19,1575420030,26.70,194.0,32.0,1,0,0,21.7
Status,1732148291000,28,6,1,7,1575420030,33.20,115.0,27.0,1,0,0,28.2
Status,1732148291000,28,7,1,15,1575420030,0.00,305.0,26.0,0,0,0,0.0
Status,1732148291000,28,8,2,131,1575420030,30.00,3.0,23.0,0,0,0,25.0
Status,1732148291000,28,9,1,2,1575420030,30.70,73.0,20.0,1,0,0,25.7
Status,1732148291000,28,10,1,21,1575420030,0.00,55.0,14.0,0,0,0,0.0
Status,1732148291000,28,11,3,9,1602000000,32.30,42.0,48.0,1,0,0,27.3
