# 
# Header Description:
# 
# Version: v3.1.0.3 Platform: 13 Manufacturer: samsung Model: SM-S135DL GNSS Hardware Model Name: MediaTek,MT6631,MTK_MNLD_default,MNL_VER_default
# 
# Raw,utcTimeMillis,TimeNanos,LeapSecond,TimeUncertaintyNanos,FullBiasNanos,BiasNanos,BiasUncertaintyNanos,DriftNanosPerSecond,DriftUncertaintyNanosPerSecond,HardwareClockDiscontinuityCount,Svid,TimeOffsetNanos,State,ReceivedSvTimeNanos,ReceivedSvTimeUncertaintyNanos,Cn0DbHz,PseudorangeRateMetersPerSecond,PseudorangeRateUncertaintyMetersPerSecond,AccumulatedDeltaRangeState,AccumulatedDeltaRangeMeters,AccumulatedDeltaRangeUncertaintyMeters,CarrierFrequencyHz,CarrierCycles,CarrierPhase,CarrierPhaseUncertainty,MultipathIndicator,SnrInDb,ConstellationType,AgcDb,BasebandCn0DbHz,FullInterSignalBiasNanos,FullInterSignalBiasUncertaintyNanos,SatelliteInterSignalBiasNanos,SatelliteInterSignalBiasUncertaintyNanos,CodeType,ChipsetElapsedRealtimeNanos,IsFullTracking
# 
# UncalAccel,utcTimeMillis,elapsedRealtimeNanos,UncalAccelXMps2,UncalAccelYMps2,UncalAccelZMps2,BiasXMps2,BiasYMps2,BiasZMps2
# 
# Accel,utcTimeMillis,elapsedRealtimeNanos,AccelXMps2,AccelYMps2,AccelZMps2
# 
# UncalGyro,utcTimeMillis,elapsedRealtimeNanos,UncalGyroXRadPerSec,UncalGyroYRadPerSec,UncalGyroZRadPerSec,DriftXRadPerSec,DriftYRadPerSec,DriftZRadPerSec
# 
# Gyro,utcTimeMillis,elapsedRealtimeNanos,GyroXRadPerSec,GyroYRadPerSec,GyroZRadPerSec
# 
# UncalMag,utcTimeMillis,elapsedRealtimeNanos,UncalMagXMicroT,UncalMagYMicroT,UncalMagZMicroT,BiasXMicroT,BiasYMicroT,BiasZMicroT
# 
# Mag,utcTimeMillis,elapsedRealtimeNanos,MagXMicroT,MagYMicroT,MagZMicroT
# 
# Pressure,utcTimeMillis,elapsedRealtimeNanos,PressureHpa
# 
# OrientationDeg,utcTimeMillis,elapsedRealtimeNanos,yawDeg,rollDeg,pitchDeg
# 
# Fix,Provider,LatitudeDegrees,LongitudeDegrees,AltitudeMeters,SpeedMps,AccuracyMeters,BearingDegrees,UnixTimeMillis,SpeedAccuracyMps,BearingAccuracyDegrees,elapsedRealtimeNanos,VerticalAccuracyMeters,MockLocation,NumberOfUsedSignals,VerticalSpeedAccuracyMps,SolutionType
# 
# Nav,Svid,Type,Status,MessageId,Sub-messageId,Data(Bytes)
# 
# Status,UnixTimeMillis,SignalCount,SignalIndex,ConstellationType,Svid,CarrierFrequencyHz,Cn0DbHz,AzimuthDegrees,ElevationDegrees,UsedInFix,HasAlmanacData,HasEphemerisData,BasebandCn0DbHz
# 
# Agc,utcTimeMillis,TimeNanos,LeapSecond,TimeUncertaintyNanos,FullBiasNanos,BiasNanos,BiasUncertaintyNanos,DriftNanosPerSecond,DriftUncertaintyNanosPerSecond,HardwareClockDiscontinuityCount,AgcDb,CarrierFrequencyHz,ConstellationType
# 
Fix,FLP,37.4244468000,-122.1707897000,2.0,0.019720351,2.45,,1732148935208,2.8,,27819056000000,0.9819343,0,,,
Status,,28,0,1,22,1575420030,29.20,313.0,68.0,1,0,0,24.2
Status,,28,1,1,14,1575420030,31.10,18.0,67.0,1,0,0,26.1
Status,,28,2,1,17,1575420030,33.10,166.0,66.0,1,0,0,28.099998
Status,,28,3,1,13,1575420030,0.00,273.0,56.0,0,0,0,0.0
Status,,28,4,1,30,1575420030,29.80,110.0,56.0,1,0,0,24.8
Status,,28,5,2,133,1575420030,29.00,191.0,45.0,0,0,0,24.0
Status,,28,6,1,19,1575420030,32.30,194.0,37.0,1,0,0,27.3
Status,,28,7,1,15,1575420030,0.00,300.0,28.0,0,0,0,0.0
Status,,28,8,1,7,1575420030,39.90,119.0,23.0,1,0,0,34.9
Status,,28,9,1,2,1575420030,36.30,68.0,21.0,1,0,0,31.3
Status,,28,10,1,21,1575420030,34.90,50.0,13.0,1,0,0,29.900002
Status,,28,11,3,9,1602000000,30.50,50.0,46.0,1,0,0,25.5
Status,,28,12,3,8,1602000000,28.90,273.0,38.0,1,0,0,23.9
Status,,28,13,3,19,1602000000,0.00,59.0,35.0,0,0,0,0.0
Status,,28,14,3,20,1602000000,0.00,139.0,30.0,0,0,0,0.0
Status,,28,15,3,11,1602000000,0.00,289.0,13.0,0,0,0,0.0
Status,,28,16,3,18,1602000000,23.10,24.0,9.0,1,0,0,18.1
Status,,28,17,3,16,1602000000,0.00,85.0,3.0,0,0,0,0.0
Status,,28,18,3,17,1602000000,28.50,0.0,0.0,0,0,0,23.5
Status,,28,19,6,21,1575420030,22.10,298.0,64.0,1,0,0,17.1
Status,,28,20,6,19,1575420030,18.80,272.0,54.0,1,0,0,13.799999
Status,,28,21,6,27,1575420030,28.40,49.0,46.0,1,0,0,23.4
Status,,28,22,6,29,1575420030,0.00,196.0,44.0,0,0,0,0.0
Status,,28,23,6,15,1575420030,0.00,81.0,19.0,0,0,0,0.0
Status,,28,24,6,13,1575420030,0.00,133.0,13.0,0,0,0,0.0
Status,,28,25,6,4,1575420030,0.00,322.0,12.0,0,0,0,0.0
Status,,28,26,6,34,1575420030,0.00,34.0,5.0,0,0,0,0.0
Status,,28,27,6,7,1575420030,0.00,162.0,2.0,0,0,0,0.0
Fix,GPS,37.4244383333,-122.1707966667,3.6000000000000014,0.50803083,2.5,304.34,1732148936000,2.6,179.9,27820056000000,33.8,0,,,
Raw,1732148935999,16286000000,,696168.1241660856,-1416184137713999872,0.0,89.80473717570713,2073.9178201634404,0.0,0,7,0.0,16431,347353922663112,58,34.888999938964844,1122.2502453164225,0.14999,16,0.0,0.0,1575420030,,,,0,22.23639104432966,1,6.0,34.888999938964844,0.0,0.0,0.0,66.7128,C,27820056000000,
Raw,1732148935999,16286000000,,696168.1241660856,-1416184137713999872,0.0,89.80473717570713,2073.9178201634404,0.0,0,30,0.0,16431,347353929923673,487,24.78700065612793,903.0676143163558,0.14999,16,0.0,0.0,1575420030,,,,0,9.736915990359682,1,6.0,24.78700065612793,0.0,0.0,0.0,66.7128,C,27820056000000,
Raw,1732148935999,16286000000,,696168.1241660856,-1416184137713999872,0.0,89.80473717570713,2073.9178201634404,0.0,0,14,0.0,16431,347353931835072,316,26.139999389648438,750.39002028801,0.14999,16,0.0,0.0,1575420030,,,,0,11.60681270348456,1,6.0,26.139999389648438,0.0,0.0,0.0,66.7128,C,27820056000000,
Raw,1732148935999,16286000000,,696168.1241660856,-1416184137713999872,0.0,89.80473717570713,2073.9178201634404,0.0,0,22,0.0,16431,347353930805495,316,24.20599937438965,612.3366529728335,0.14999,16,0.0,0.0,1575420030,,,,0,8.929449050170826,1,6.0,24.20599937438965,0.0,0.0,0.0,66.7128,C,27820056000000,
Raw,1732148935999,16286000000,,696168.1241660856,-1416184137713999872,0.0,89.80473717570713,2073.9178201634404,0.0,0,21,0.0,16431,347353918878216,235,29.885000228881836,880.4897532063585,0.14999,16,0.0,0.0,1575420030,,,,0,16.402019481985732,1,6.0,29.885000228881836,0.0,0.0,0.0,66.7128,C,27820056000000,
Raw,1732148935999,16286000000,,696168.1241660856,-1416184137713999872,0.0,89.80473717570713,2073.9178201634404,0.0,0,19,0.0,16431,347353925626021,396,27.32200050354004,11.064536404701801,0.14999,16,0.0,0.0,1575420030,,,,0,13.17518583888865,1,6.0,27.32200050354004,0.0,0.0,0.0,66.7128,C,27820056000000,
Raw,1732148935999,16286000000,,696168.1241660856,-1416184137713999872,0.0,89.80473717570713,2073.9178201634404,0.0,0,27,0.0,16431,347353917306032,316,23.399999618530273,915.537424894594,0.14999,16,0.0,0.0,1575420030,,,,0,9.07750757208911,6,6.0,23.399999618530273,0.0,0.0,26.32747085885417,66.7128,C,27820056000000,
Raw,1732148935999,16286000000,,696168.1241660856,-1416184137713999872,0.0,89.80473717570713,2073.9178201634404,0.0,0,19,0.0,16431,347353920341939,487,13.800000190734863,648.178252535691,0.14999,16,0.0,0.0,1575420030,,,,0,0.0,6,6.0,13.800000190734863,0.0,0.0,26.32747085885417,66.7128,C,27820056000000,
Raw,1732148935999,16286000000,,696168.1241660856,-1416184137713999872,0.0,89.80473717570713,2073.9178201634404,0.0,0,17,0.0,16431,347353931782576,235,28.12299919128418,388.9552032324909,0.14999,16,0.0,0.0,1575420030,,,,0,14.210101101363575,1,6.0,28.12299919128418,0.0,0.0,0.0,66.7128,C,27820056000000,
Raw,1732148935999,16286000000,,696168.1241660856,-1416184137713999872,0.0,89.80473717570713,2073.9178201634404,0.0,0,21,0.0,16431,347353920322566,487,17.100000381469727,538.5874945366522,0.14999,16,0.0,0.0,1575420030,,,,0,0.0,6,6.0,17.100000381469727,0.0,0.0,26.32747085885417,66.7128,C,27820056000000,
Raw,1732148935999,16286000000,,696168.1241660856,-1416184137713999872,0.0,89.80473717570713,2073.9178201634404,0.0,0,2,0.0,16431,347353920524563,74,31.302000045776367,646.9274990544709,0.14999,16,0.0,0.0,1575420030,,,,0,18.11626174611738,1,6.0,31.302000045776367,0.0,0.0,0.0,66.7128,C,27820056000000,
Raw,1732148935999,16286000000,,696168.1241660856,-1416184137713999872,0.0,89.80473717570713,2073.9178201634404,0.0,0,9,0.0,17,716113,316,5.0,851.3098803467464,0.14999,16,0.0,0.0,1600875010,,,,0,11.651202561442762,3,6.0,26.0,0.0,0.0,9.096831788481557,66.7128,C,27820056000000,
Raw,1732148935999,16286000000,,696168.1241660856,-1416184137713999872,0.0,89.80473717570713,2073.9178201634404,0.0,0,8,0.0,17,689149,316,5.0,840.6817315768122,0.14999,16,0.0,0.0,1605374980,,,,0,9.651452300162589,3,6.0,24.0,0.0,0.0,9.096831788481557,66.7128,C,27820056000000,
Raw,1732148935999,16286000000,,696168.1241660856,-1416184137713999872,0.0,89.80473717570713,2073.9178201634404,0.0,0,18,0.0,17,131406,487,5.0,1224.392375190367,0.14999,16,0.0,0.0,1600312450,,,,0,2.809632445183877,3,6.0,20.0,0.0,0.0,9.096831788481557,66.7128,C,27820056000000,
Fix,FLP,37.4244428000,-122.1707932000,2.0,0.024273463,2.466,,1732148936208,2.6,,27820056000000,0.99192166,0,,,
Status,1732148936000,28,0,1,22,1575420030,29.60,313.0,68.0,1,0,0,24.6
Status,1732148936000,28,1,1,14,1575420030,30.10,18.0,67.0,1,0,0,25.1
Status,1732148936000,28,2,1,17,1575420030,33.70,166.0,66.0,1,0,0,28.7
Status,1732148936000,28,3,1,13,1575420030,0.00,273.0,56.0,0,0,0,0.0
Status,1732148936000,28,4,1,30,1575420030,28.90,110.0,56.0,1,0,0,23.9
Status,1732148936000,28,5,2,133,1575420030,29.00,191.0,45.0,0,0,0,24.0
Status,1732148936000,28,6,1,19,1575420030,28.50,194.0,37.0,1,0,0,23.5
Status,1732148936000,28,7,1,15,1575420030,0.00,300.0,28.0,0,0,0,0.0
Status,1732148936000,28,8,1,7,1575420030,39.90,119.0,23.0,1,0,0,34.9
Status,1732148936000,28,9,1,2,1575420030,35.50,68.0,21.0,1,0,0,30.5
Status,1732148936000,28,10,1,21,1575420030,34.10,50.0,13.0,1,0,0,29.099998
Status,1732148936000,28,11,3,9,1602000000,31.50,50.0,46.0,1,0,0,26.5
Status,1732148936000,28,12,3,8,1602000000,28.90,273.0,38.0,1,0,0,23.9
Status,1732148936000,28,13,3,19,1602000000,0.00,59.0,35.0,0,0,0,0.0
Status,1732148936000,28,14,3,20,1602000000,0.00,139.0,30.0,0,0,0,0.0
Status,1732148936000,28,15,3,11,1602000000,0.00,289.0,13.0,0,0,0,0.0
Status,1732148936000,28,16,3,18,1602000000,28.60,24.0,9.0,1,0,0,23.6
Status,1732148936000,28,17,3,16,1602000000,0.00,85.0,3.0,0,0,0,0.0
Status,1732148936000,28,18,3,17,1602000000,24.50,0.0,0.0,0,0,0,19.5
Status,1732148936000,28,19,6,21,1575420030,0.00,298.0,64.0,0,0,0,0.0
Status,1732148936000,28,20,6,19,1575420030,18.90,272.0,54.0,1,0,0,13.9
Status,1732148936000,28,21,6,27,1575420030,26.90,49.0,46.0,1,0,0,21.9
Status,1732148936000,28,22,6,29,1575420030,0.00,196.0,44.0,0,0,0,0.0
Status,1732148936000,28,23,6,15,1575420030,0.00,81.0,19.0,0,0,0,0.0
Status,1732148936000,28,24,6,13,1575420030,0.00,133.0,13.0,0,0,0,0.0
Status,1732148936000,28,25,6,4,1575420030,0.00,322.0,12.0,0,0,0,0.0
Status,1732148936000,28,26,6,34,1575420030,0.00,34.0,5.0,0,0,0,0.0
Status,1732148936000,28,27,6,7,1575420030,0.00,162.0,2.0,0,0,0,0.0
Fix,GPS,37.4244250000,-122.1708016667,3.5,0.46016166,2.5,243.43,1732148937000,2.5,179.9,27821056000000,33.7,0,,,
Raw,1732148936999,17286000000,,695689.7202864257,-1416184137713999872,0.0,89.36189414198773,2074.433757708861,0.0,0,7,0.0,16431,347354922659374,58,34.888999938964844,1122.1279667649565,0.14999,16,0.0,0.0,1575420030,,,,0,22.23639104432966,1,6.0,34.888999938964844,0.0,0.0,0.0,66.7128,C,27821056000000,
Raw,1732148936999,17286000000,,695689.7202864257,-1416184137713999872,0.0,89.36189414198773,2074.433757708861,0.0,0,30,0.0,16431,347354929920658,396,23.881000518798828,903.3671781840815,0.14999,16,0.0,0.0,1575420030,,,,0,8.416858469986714,1,6.0,23.881000518798828,0.0,0.0,0.0,66.7128,C,27821056000000,
Raw,1732148936999,17286000000,,695689.7202864257,-1416184137713999872,0.0,89.36189414198773,2074.433757708861,0.0,0,14,0.0,16431,347354931832562,396,25.104000091552734,750.9628990183021,0.14999,16,0.0,0.0,1575420030,,,,0,10.179041433809417,1,6.0,25.104000091552734,0.0,0.0,0.0,66.7128,C,27821056000000,
Raw,1732148936999,17286000000,,695689.7202864257,-1416184137713999872,0.0,89.36189414198773,2074.433757708861,0.0,0,22,0.0,16431,347354930803447,316,24.63800048828125,612.4269216755306,0.14999,16,0.0,0.0,1575420030,,,,0,9.50711714716098,1,6.0,24.63800048828125,0.0,0.0,0.0,66.7128,C,27821056000000,
Raw,1732148936999,17286000000,,695689.7202864257,-1416184137713999872,0.0,89.36189414198773,2074.433757708861,0.0,0,21,0.0,16431,347354918875276,235,29.136999130249023,881.251392481714,0.14999,16,0.0,0.0,1575420030,,,,0,15.492716786198732,1,6.0,29.136999130249023,0.0,0.0,0.0,66.7128,C,27821056000000,
Raw,1732148936999,17286000000,,695689.7202864257,-1416184137713999872,0.0,89.36189414198773,2074.433757708861,0.0,0,19,0.0,16431,347354925625975,396,23.506000518798828,11.533394741098554,0.14999,16,0.0,0.0,1575420030,,,,0,7.87211009948392,1,6.0,23.506000518798828,0.0,0.0,0.0,66.7128,C,27821056000000,
Raw,1732148936999,17286000000,,695689.7202864257,-1416184137713999872,0.0,89.36189414198773,2074.433757708861,0.0,0,27,0.0,16431,347354917302976,396,21.899999618530273,915.4682947712728,0.14999,16,0.0,0.0,1575420030,,,,0,7.047066909088825,6,6.0,21.899999618530273,0.0,0.0,23.421006012279307,66.7128,C,27821056000000,
Raw,1732148936999,17286000000,,695689.7202864257,-1416184137713999872,0.0,89.36189414198773,2074.433757708861,0.0,0,19,0.0,16431,347354920339765,487,13.854999542236328,648.8235134784392,0.14999,16,0.0,0.0,1575420030,,,,0,0.0,6,6.0,13.854999542236328,0.0,0.0,23.421006012279307,66.7128,C,27821056000000,
Raw,1732148936999,17286000000,,695689.7202864257,-1416184137713999872,0.0,89.36189414198773,2074.433757708861,0.0,0,17,0.0,16431,347354931781275,235,28.67300033569336,389.12047904815984,0.14999,16,0.0,0.0,1575420030,,,,0,14.912636602789505,1,6.0,28.67300033569336,0.0,0.0,0.0,66.7128,C,27821056000000,
Raw,1732148936999,17286000000,,695689.7202864257,-1416184137713999872,0.0,89.36189414198773,2074.433757708861,0.0,0,2,0.0,16431,347354920522401,74,30.527000427246094,647.2947528346151,0.14999,16,0.0,0.0,1575420030,,,,0,17.186695517257345,1,6.0,30.527000427246094,0.0,0.0,0.0,66.7128,C,27821056000000,
Raw,1732148936999,17286000000,,695689.7202864257,-1416184137713999872,0.0,89.36189414198773,2074.433757708861,0.0,0,9,0.0,17,713267,235,5.0,851.1225210332234,0.14999,16,0.0,0.0,1600875010,,,,0,12.874674676720282,3,6.0,27.0,0.0,0.0,17.860999846432442,66.7128,C,27821056000000,
Raw,1732148936999,17286000000,,695689.7202864257,-1416184137713999872,0.0,89.36189414198773,2074.433757708861,0.0,0,8,0.0,17,686344,487,5.0,840.8698422696672,0.14999,16,0.0,0.0,1605374980,,,,0,9.651452300162589,3,6.0,19.0,0.0,0.0,17.860999846432442,66.7128,C,27821056000000,
Raw,1732148936999,17286000000,,695689.7202864257,-1416184137713999872,0.0,89.36189414198773,2074.433757708861,0.0,0,18,0.0,17,127305,487,5.0,1228.8276468363783,0.14999,16,0.0,0.0,1600312450,,,,0,9.321091180014019,3,6.0,20.0,0.0,0.0,17.860999846432442,66.7128,C,27821056000000,
Fix,FLP,37.4244342000,-122.1707974000,2.0,0.028187234,2.466,,1732148937208,2.5,,27821056000000,1.002047,0,,,
Status,1732148937000,28,0,1,22,1575420030,30.30,313.0,68.0,1,0,0,25.3
Status,1732148937000,28,1,1,14,1575420030,30.30,18.0,67.0,1,0,0,25.3
Status,1732148937000,28,2,1,17,1575420030,27.50,166.0,66.0,1,0,0,22.5
Status,1732148937000,28,3,1,13,1575420030,25.90,273.0,56.0,1,0,0,20.9
Status,1732148937000,28,4,1,30,1575420030,29.00,110.0,56.0,1,0,0,24.0
Status,1732148937000,28,5,2,135,1575420030,0.00,197.0,45.0,0,0,0,0.0
Status,1732148937000,28,6,1,19,1575420030,27.50,194.0,37.0,1,0,0,22.5
Status,1732148937000,28,7,1,15,1575420030,0.00,300.0,28.0,0,0,0,0.0
Status,1732148937000,28,8,1,7,1575420030,33.70,119.0,23.0,1,0,0,28.7
Status,1732148937000,28,9,1,2,1575420030,30.70,68.0,21.0,1,0,0,25.7
Status,1732148937000,28,10,1,21,1575420030,29.60,50.0,13.0,1,0,0,24.6
Status,1732148937000,28,11,3,9,1602000000,25.70,50.0,46.0,1,0,0,20.7
Status,1732148937000,28,12,3,8,1602000000,23.10,273.0,38.0,1,0,0,18.1
Status,1732148937000,28,13,3,19,1602000000,0.00,59.0,35.0,0,0,0,0.0
Status,1732148937000,28,14,3,20,1602000000,0.00,139.0,30.0,0,0,0,0.0
Status,1732148937000,28,15,3,11,1602000000,0.00,289.0,13.0,0,0,0,0.0
Status,1732148937000,28,16,3,18,1602000000,22.80,24.0,9.0,1,0,0,17.8
Status,1732148937000,28,17,3,16,1602000000,0.00,85.0,3.0,0,0,0,0.0
Status,1732148937000,28,18,3,17,1602000000,26.00,0.0,0.0,0,0,0,21.0
Status,1732148937000,28,19,6,21,1575420030,0.00,298.0,64.0,0,0,0,0.0
Status,1732148937000,28,20,6,19,1575420030,18.90,272.0,54.0,1,0,0,13.9
Status,1732148937000,28,21,6,27,1575420030,23.30,49.0,46.0,1,0,0,18.3
Status,1732148937000,28,22,6,29,1575420030,0.00,196.0,44.0,0,0,0,0.0
Status,1732148937000,28,23,6,15,1575420030,0.00,81.0,19.0,0,0,0,0.0
Status,1732148937000,28,24,6,13,1575420030,0.00,133.0,13.0,0,0,0,0.0
Status,1732148937000,28,25,6,4,1575420030,0.00,322.0,12.0,0,0,0,0.0
Status,1732148937000,28,26,6,34,1575420030,0.00,34.0,5.0,0,0,0,0.0
Status,1732148937000,28,27,6,7,1575420030,0.00,162.0,2.0,0,0,0,0.0
Fix,GPS,37.4244200000,-122.1708000000,3.6000000000000014,0.0,2.6,243.43,1732148938000,2.7,179.9,27822056000000,38.1,0,,,
Fix,FLP,37.4244273000,-122.1707988000,2.0,0.0324122,2.483,,1732148938208,2.7,,27822056000000,1.0120208,0,,,
Raw,1732148937999,18286000000,,695463.5221343694,-1416184137713999872,0.0,101.82706186843777,2074.421094076196,0.0,0,7,0.0,16431,347355922655632,235,28.655000686645508,1120.8358652933089,0.14999,16,0.0,0.0,1575420030,,,,0,14.887605203223362,1,6.0,28.655000686645508,0.0,0.0,0.0,66.7128,C,27822056000000,
Raw,1732148937999,18286000000,,695463.5221343694,-1416184137713999872,0.0,101.82706186843777,2074.421094076196,0.0,0,30,0.0,16431,347355929917641,316,24.010000228881836,903.6252082277148,0.14999,16,0.0,0.0,1575420030,,,,0,8.625538528414001,1,6.0,24.010000228881836,0.0,0.0,0.0,66.7128,C,27822056000000,
Raw,1732148937999,18286000000,,695463.5221343694,-1416184137713999872,0.0,101.82706186843777,2074.421094076196,0.0,0,14,0.0,16431,347355931830053,487,25.301000595092773,750.9905882343636,0.14999,16,0.0,0.0,1575420030,,,,0,10.475661610462378,1,6.0,25.301000595092773,0.0,0.0,0.0,66.7128,C,27822056000000,
Raw,1732148937999,18286000000,,695463.5221343694,-1416184137713999872,0.0,101.82706186843777,2074.421094076196,0.0,0,22,0.0,16431,347355930801401,396,25.301000595092773,612.9489748984884,0.14999,16,0.0,0.0,1575420030,,,,0,10.475661610462378,1,6.0,25.301000595092773,0.0,0.0,0.0,66.7128,C,27822056000000,
Raw,1732148937999,18286000000,,695463.5221343694,-1416184137713999872,0.0,101.82706186843777,2074.421094076196,0.0,0,21,0.0,16431,347355918872337,487,24.63800048828125,881.1060705558075,0.14999,16,0.0,0.0,1575420030,,,,0,9.50711714716098,1,6.0,24.63800048828125,0.0,0.0,0.0,66.7128,C,27822056000000,
Raw,1732148937999,18286000000,,695463.5221343694,-1416184137713999872,0.0,101.82706186843777,2074.421094076196,0.0,0,19,0.0,16431,347355925625935,396,22.542999267578125,10.947368279018823,0.14999,16,0.0,0.0,1575420030,,,,0,6.405750657752846,1,6.0,22.542999267578125,0.0,0.0,0.0,66.7128,C,27822056000000,
Raw,1732148937999,18286000000,,695463.5221343694,-1416184137713999872,0.0,101.82706186843777,2074.421094076196,0.0,0,13,0.0,16431,347355930758898,487,20.85700035095215,627.2662043973386,0.14999,16,0.0,0.0,1575420030,,,,0,3.693607855941778,1,6.0,20.85700035095215,0.0,0.0,0.0,66.7128,C,27822056000000,
Raw,1732148937999,18286000000,,695463.5221343694,-1416184137713999872,0.0,101.82706186843777,2074.421094076196,0.0,0,27,0.0,16431,347355917299918,487,18.299999237060547,915.3364457860672,0.14999,16,0.0,0.0,1575420030,,,,0,1.4192872059507495,6,6.0,18.299999237060547,0.0,0.0,21.50171306548448,66.7128,C,27822056000000,
Raw,1732148937999,18286000000,,695463.5221343694,-1416184137713999872,0.0,101.82706186843777,2074.421094076196,0.0,0,19,0.0,16431,347355920337600,487,13.906999588012695,648.7095045250585,0.14999,16,0.0,0.0,1575420030,,,,0,0.0,6,6.0,13.906999588012695,0.0,0.0,21.50171306548448,66.7128,C,27822056000000,
Raw,1732148937999,18286000000,,695463.5221343694,-1416184137713999872,0.0,101.82706186843777,2074.421094076196,0.0,0,17,0.0,16431,347355931779976,487,22.503000259399414,388.439538041762,0.14999,16,0.0,0.0,1575420030,,,,0,6.338935792612265,1,6.0,22.503000259399414,0.0,0.0,0.0,66.7128,C,27822056000000,
Raw,1732148937999,18286000000,,695463.5221343694,-1416184137713999872,0.0,101.82706186843777,2074.421094076196,0.0,0,2,0.0,16431,347355920520247,316,25.73200035095215,646.583939066594,0.14999,16,0.0,0.0,1575420030,,,,0,11.04014073060586,1,6.0,25.73200035095215,0.0,0.0,0.0,66.7128,C,27822056000000,
Raw,1732148937999,18286000000,,695463.5221343694,-1416184137713999872,0.0,101.82706186843777,2074.421094076196,0.0,0,9,0.0,17,710425,487,5.0,851.1441007296564,0.14999,16,0.0,0.0,1600875010,,,,0,5.257760447041974,3,6.0,20.0,0.0,0.0,17.572357652952427,66.7128,C,27822056000000,
Raw,1732148937999,18286000000,,695463.5221343694,-1416184137713999872,0.0,101.82706186843777,2074.421094076196,0.0,0,8,0.0,17,683539,487,5.0,841.7090913327,0.14999,16,0.0,0.0,1605374980,,,,0,1.1085067050061115,3,6.0,18.0,0.0,0.0,17.572357652952427,66.7128,C,27822056000000,
Raw,1732148937999,18286000000,,695463.5221343694,-1416184137713999872,0.0,101.82706186843777,2074.421094076196,0.0,0,18,0.0,17,123204,797,5.0,1228.5325596739872,0.14999,16,0.0,0.0,1600312450,,,,0,0.5105421311498954,3,6.0,17.0,0.0,0.0,17.572357652952427,66.7128,C,27822056000000,
Status,1732148938000,28,0,1,22,1575420030,31.90,314.0,68.0,1,0,0,26.9
Status,1732148938000,28,1,1,14,1575420030,30.20,18.0,67.0,1,0,0,25.2
Status,1732148938000,28,2,1,17,1575420030,26.10,166.0,66.0,1,0,0,21.1
Status,1732148938000,28,3,1,13,1575420030,34.70,273.0,56.0,1,0,0,29.7
Status,1732148938000,28,4,1,30,1575420030,30.10,110.0,56.0,1,0,0,25.1
Status,1732148938000,28,5,2,135,1575420030,0.00,197.0,45.0,0,0,0,0.0
Status,1732148938000,28,6,1,19,1575420030,28.90,194.0,37.0,1,0,0,23.9
Status,1732148938000,28,7,1,15,1575420030,0.00,300.0,28.0,0,0,0,0.0
Status,1732148938000,28,8,1,7,1575420030,30.90,119.0,23.0,1,0,0,25.9
Status,1732148938000,28,9,1,2,1575420030,33.50,68.0,21.0,1,0,0,28.5
Status,1732148938000,28,10,1,21,1575420030,41.50,50.0,13.0,1,0,0,36.5
Status,1732148938000,28,11,3,9,1602000000,25.70,50.0,46.0,1,0,0,20.7
Status,1732148938000,28,12,3,8,1602000000,23.10,273.0,38.0,1,0,0,18.1
Status,1732148938000,28,13,3,19,1602000000,0.00,59.0,35.0,0,0,0,0.0
Status,1732148938000,28,14,3,20,1602000000,0.00,139.0,30.0,0,0,0,0.0
Status,1732148938000,28,15,3,11,1602000000,0.00,289.0,13.0,0,0,0,0.0
Status,1732148938000,28,16,3,18,1602000000,22.10,24.0,9.0,1,0,0,17.1
Status,1732148938000,28,17,3,16,1602000000,0.00,85.0,3.0,0,0,0,0.0
Status,1732148938000,28,18,3,17,1602000000,28.80,0.0,0.0,0,0,0,23.8
Status,1732148938000,28,19,6,21,1575420030,25.60,298.0,64.0,1,0,0,20.6
Status,1732148938000,28,20,6,19,1575420030,19.00,272.0,54.0,1,0,0,14.0
Status,1732148938000,28,21,6,27,1575420030,27.80,49.0,46.0,1,0,0,22.8
Status,1732148938000,28,22,6,29,1575420030,0.00,196.0,44.0,0,0,0,0.0
Status,1732148938000,28,23,6,15,1575420030,0.00,81.0,19.0,0,0,0,0.0
Status,1732148938000,28,24,6,13,1575420030,0.00,133.0,13.0,0,0,0,0.0
Status,1732148938000,28,25,6,4,1575420030,0.00,322.0,12.0,0,0,0,0.0
Status,1732148938000,28,26,6,34,1575420030,0.00,34.0,5.0,0,0,0,0.0
Status,1732148938000,28,27,6,7,1575420030,0.00,162.0,2.0,0,0,0,0.0
Fix,GPS,37.4244250000,-122.1708033333,3.5,0.0,2.5,243.43,1732148939000,2.6,179.9,27823056000000,35.9,0,,,
Raw,1732148938999,19286000000,,695112.9149986822,-1416184137713999872,0.0,95.63598837621343,2072.7041934545223,0.0,0,7,0.0,16431,347356922651891,316,25.886999130249023,1121.4777347716736,0.14999,16,0.0,0.0,1575420030,,,,0,11.271264512384231,1,6.0,25.886999130249023,0.0,0.0,0.0,66.7128,C,27823056000000,
Raw,1732148938999,19286000000,,695112.9149986822,-1416184137713999872,0.0,95.63598837621343,2072.7041934545223,0.0,0,30,0.0,16431,347356929914629,316,25.104000091552734,903.0499601181958,0.14999,16,0.0,0.0,1575420030,,,,0,10.179041433809417,1,6.0,25.104000091552734,0.0,0.0,0.0,66.7128,C,27823056000000,
Raw,1732148938999,19286000000,,695112.9149986822,-1416184137713999872,0.0,95.63598837621343,2072.7041934545223,0.0,0,14,0.0,16431,347356931827545,487,25.19099998474121,750.2577996354747,0.14999,16,0.0,0.0,1575420030,,,,0,7.290897366118185,1,6.0,25.19099998474121,0.0,0.0,0.0,66.7128,C,27823056000000,
Raw,1732148938999,19286000000,,695112.9149986822,-1416184137713999872,0.0,95.63598837621343,2072.7041934545223,0.0,0,22,0.0,16431,347356930799354,316,26.878000259399414,611.9710252372565,0.14999,16,0.0,0.0,1575420030,,,,0,12.607484691518673,1,6.0,26.878000259399414,0.0,0.0,0.0,66.7128,C,27823056000000,
Raw,1732148938999,19286000000,,695112.9149986822,-1416184137713999872,0.0,95.63598837621343,2072.7041934545223,0.0,0,19,0.0,16431,347356925625893,487,23.881000518798828,10.610173094162736,0.14999,16,0.0,0.0,1575420030,,,,0,8.416858469986714,1,6.0,23.881000518798828,0.0,0.0,0.0,66.7128,C,27823056000000,
Raw,1732148938999,19286000000,,695112.9149986822,-1416184137713999872,0.0,95.63598837621343,2072.7041934545223,0.0,0,13,0.0,16431,347356930756934,235,29.708999633789062,626.5306747518933,0.14999,16,0.0,0.0,1575420030,,,,0,16.188858118344598,1,6.0,29.708999633789062,0.0,0.0,0.0,66.7128,C,27823056000000,
Raw,1732148938999,19286000000,,695112.9149986822,-1416184137713999872,0.0,95.63598837621343,2072.7041934545223,0.0,0,27,0.0,16431,347356917296865,316,22.799999237060547,914.7108367533762,0.14999,16,0.0,0.0,1575420030,,,,0,8.256990957609286,6,6.0,22.799999237060547,0.0,0.0,23.21601010314272,66.7128,C,27823056000000,
Raw,1732148938999,19286000000,,695112.9149986822,-1416184137713999872,0.0,95.63598837621343,2072.7041934545223,0.0,0,19,0.0,16431,347356920335431,487,13.980999946594238,647.9636146527982,0.14999,16,0.0,0.0,1575420030,,,,0,0.0,6,6.0,13.980999946594238,0.0,0.0,23.21601010314272,66.7128,C,27823056000000,
Raw,1732148938999,19286000000,,695112.9149986822,-1416184137713999872,0.0,95.63598837621343,2072.7041934545223,0.0,0,17,0.0,16431,347356931778682,487,21.052000045776367,388.4983079382683,0.14999,16,0.0,0.0,1575420030,,,,0,4.05000203918136,1,6.0,21.052000045776367,0.0,0.0,0.0,66.7128,C,27823056000000,
Raw,1732148938999,19286000000,,695112.9149986822,-1416184137713999872,0.0,95.63598837621343,2072.7041934545223,0.0,0,21,0.0,16431,347356920317184,396,20.600000381469727,536.718658286167,0.14999,16,0.0,0.0,1575420030,,,,0,5.116590873214478,6,6.0,20.600000381469727,0.0,0.0,23.21601010314272,66.7128,C,27823056000000,
Raw,1732148938999,19286000000,,695112.9149986822,-1416184137713999872,0.0,95.63598837621343,2072.7041934545223,0.0,0,2,0.0,16431,347356920518088,235,28.48699951171875,647.3619781628718,0.14999,16,0.0,0.0,1575420030,,,,0,14.684713884690114,1,6.0,28.48699951171875,0.0,0.0,0.0,66.7128,C,27823056000000,
Raw,1732148938999,19286000000,,695112.9149986822,-1416184137713999872,0.0,95.63598837621343,2072.7041934545223,0.0,0,9,0.0,17,707587,396,5.0,850.7317090732442,0.14999,16,0.0,0.0,1600875010,,,,0,5.257760447041974,3,6.0,23.0,0.0,0.0,24.366185819659243,66.7128,C,27823056000000,
Raw,1732148938999,19286000000,,695112.9149986822,-1416184137713999872,0.0,95.63598837621343,2072.7041934545223,0.0,0,8,0.0,17,680731,487,5.0,840.9510863934354,0.14999,16,0.0,0.0,1605374980,,,,0,0.10902720576934044,3,6.0,18.0,0.0,0.0,24.366185819659243,66.7128,C,27823056000000,
Raw,1732148938999,19286000000,,695112.9149986822,-1416184137713999872,0.0,95.63598837621343,2072.7041934545223,0.0,0,18,0.0,17,119100,797,5.0,1226.3672455673136,0.14999,16,0.0,0.0,1600312450,,,,0,0.0,3,6.0,17.0,0.0,0.0,24.366185819659243,66.7128,C,27823056000000,
Raw,1732148938999,19286000000,,695112.9149986822,-1416184137713999872,0.0,95.63598837621343,2072.7041934545223,0.0,0,21,0.0,16431,347356918869413,51,36.486000061035156,880.3434091952953,0.14999,16,0.0,0.0,1575420030,,,,0,24.001856395115155,1,6.0,36.486000061035156,0.0,0.0,0.0,66.7128,C,27823056000000,
Fix,FLP,37.4244261000,-122.1708012000,2.0,0.03417038,2.5,,1732148939208,2.6,,27823056000000,1.0220395,0,,,
Fix,NLP,37.4243554000,-122.1708678000,2.0,,10.982,,1732148939301,,,27823149000000,1.0,0,,,
Status,1732148939000,28,0,1,22,1575420030,31.20,314.0,68.0,1,0,0,26.2
Status,1732148939000,28,1,1,14,1575420030,26.80,18.0,67.0,1,0,0,21.8
Status,1732148939000,28,2,1,17,1575420030,31.60,166.0,66.0,1,0,0,26.6
Status,1732148939000,28,3,1,13,1575420030,32.90,273.0,56.0,1,0,0,27.900002
Status,1732148939000,28,4,1,30,1575420030,28.80,110.0,56.0,1,0,0,23.8
Status,1732148939000,28,5,2,135,1575420030,0.00,197.0,45.0,0,0,0,0.0
Status,1732148939000,28,6,1,19,1575420030,28.90,194.0,37.0,1,0,0,23.9
Status,1732148939000,28,7,1,15,1575420030,0.00,300.0,28.0,0,0,0,0.0
Status,1732148939000,28,8,1,7,1575420030,29.70,119.0,23.0,1,0,0,24.7
Status,1732148939000,28,9,1,2,1575420030,34.30,68.0,21.0,1,0,0,29.3
Status,1732148939000,28,10,1,21,1575420030,34.80,50.0,13.0,1,0,0,29.8
Status,1732148939000,28,11,3,9,1602000000,28.60,50.0,46.0,1,0,0,23.6
Status,1732148939000,28,12,3,8,1602000000,23.10,273.0,38.0,1,0,0,18.1
Status,1732148939000,28,13,3,19,1602000000,0.00,59.0,35.0,0,0,0,0.0
Status,1732148939000,28,14,3,20,1602000000,0.00,139.0,30.0,0,0,0,0.0
Status,1732148939000,28,15,3,11,1602000000,0.00,289.0,13.0,0,0,0,0.0
Status,1732148939000,28,16,3,18,1602000000,21.60,24.0,9.0,1,0,0,16.6
Status,1732148939000,28,17,3,16,1602000000,0.00,85.0,3.0,0,0,0,0.0
Status,1732148939000,28,18,3,17,1602000000,25.20,0.0,0.0,0,0,0,20.2
Status,1732148939000,28,19,6,21,1575420030,27.70,298.0,64.0,1,0,0,22.7
Status,1732148939000,28,20,6,19,1575420030,19.10,272.0,54.0,1,0,0,14.1
Status,1732148939000,28,21,6,27,1575420030,27.80,49.0,46.0,1,0,0,22.8
Status,1732148939000,28,22,6,29,1575420030,0.00,196.0,44.0,0,0,0,0.0
Status,1732148939000,28,23,6,15,1575420030,0.00,81.0,19.0,0,0,0,0.0
Status,1732148939000,28,24,6,13,1575420030,0.00,133.0,13.0,0,0,0,0.0
Status,1732148939000,28,25,6,4,1575420030,0.00,322.0,12.0,0,0,0,0.0
Status,1732148939000,28,26,6,34,1575420030,0.00,34.0,5.0,0,0,0,0.0
Status,1732148939000,28,27,6,7,1575420030,0.00,162.0,2.0,0,0,0,0.0
Fix,GPS,37.4244250000,-122.1708083333,3.5,0.0,2.6,243.43,1732148940000,2.6,179.9,27824056000000,34.3,0,,,
Raw,1732148939999,20286000000,,694790.2959753578,-1416184137713999872,0.0,91.7262961169058,2071.0937922379994,0.0,0,7,0.0,16431,347357922648151,316,24.667999267578125,1120.4313054049476,0.14999,16,0.0,0.0,1575420030,,,,0,9.553565865541605,1,6.0,24.667999267578125,0.0,0.0,0.0,66.7128,C,27824056000000,
Raw,1732148939999,20286000000,,694790.2959753578,-1416184137713999872,0.0,91.7262961169058,2071.0937922379994,0.0,0,30,0.0,16431,347357929911620,396,23.847999572753906,902.485304527573,0.14999,16,0.0,0.0,1575420030,,,,0,8.36389556419295,1,6.0,23.847999572753906,0.0,0.0,0.0,66.7128,C,27824056000000,
Raw,1732148939999,20286000000,,694790.2959753578,-1416184137713999872,0.0,91.7262961169058,2071.0937922379994,0.0,0,14,0.0,16431,347357931825046,316,21.79599952697754,749.0032365641254,0.14999,16,0.0,0.0,1575420030,,,,0,5.269650157784986,1,6.0,21.79599952697754,0.0,0.0,0.0,66.7128,C,27824056000000,
Raw,1732148939999,20286000000,,694790.2959753578,-1416184137713999872,0.0,91.7262961169058,2071.0937922379994,0.0,0,22,0.0,16431,347357930797313,316,26.21500015258789,611.4926429255366,0.14999,16,0.0,0.0,1575420030,,,,0,11.715842038463862,1,6.0,26.21500015258789,0.0,0.0,0.0,66.7128,C,27824056000000,
Raw,1732148939999,20286000000,,694790.2959753578,-1416184137713999872,0.0,91.7262961169058,2071.0937922379994,0.0,0,19,0.0,16431,347357925625858,396,23.881000518798828,10.48352745157281,0.14999,16,0.0,0.0,1575420030,,,,0,8.416858469986714,1,6.0,23.881000518798828,0.0,0.0,0.0,66.7128,C,27824056000000,
Raw,1732148939999,20286000000,,694790.2959753578,-1416184137713999872,0.0,91.7262961169058,2071.0937922379994,0.0,0,13,0.0,16431,347357930754844,316,27.905000686645508,626.5585962600359,0.14999,16,0.0,0.0,1575420030,,,,0,13.934772514518832,1,6.0,27.905000686645508,0.0,0.0,0.0,66.7128,C,27824056000000,
Raw,1732148939999,20286000000,,694790.2959753578,-1416184137713999872,0.0,91.7262961169058,2071.0937922379994,0.0,0,27,0.0,16431,347357917293814,396,22.764999389648438,913.8311001840134,0.14999,16,0.0,0.0,1575420030,,,,0,7.290897366118185,6,6.0,22.764999389648438,0.0,0.0,20.633399977386276,66.7128,C,27824056000000,
Raw,1732148939999,20286000000,,694790.2959753578,-1416184137713999872,0.0,91.7262961169058,2071.0937922379994,0.0,0,19,0.0,16431,347357920333271,487,14.050999641418457,647.4600054210761,0.14999,16,0.0,0.0,1575420030,,,,0,0.0,6,6.0,14.050999641418457,0.0,0.0,20.633399977386276,66.7128,C,27824056000000,
Raw,1732148939999,20286000000,,694790.2959753578,-1416184137713999872,0.0,91.7262961169058,2071.0937922379994,0.0,0,17,0.0,16431,347357931777386,396,26.62299919128418,387.67585459609313,0.14999,16,0.0,0.0,1575420030,,,,0,12.275287813223553,1,6.0,26.62299919128418,0.0,0.0,0.0,66.7128,C,27824056000000,
Raw,1732148939999,20286000000,,694790.2959753578,-1416184137713999872,0.0,91.7262961169058,2071.0937922379994,0.0,0,21,0.0,16431,347357920315399,316,22.700000762939453,536.5351010837193,0.14999,16,0.0,0.0,1575420030,,,,0,8.039151586779237,6,6.0,22.700000762939453,0.0,0.0,20.633399977386276,66.7128,C,27824056000000,
Raw,1732148939999,20286000000,,694790.2959753578,-1416184137713999872,0.0,91.7262961169058,2071.0937922379994,0.0,0,2,0.0,16431,347357920515929,235,29.309999465942383,647.285879277119,0.14999,16,0.0,0.0,1575420030,,,,0,15.700633646398682,1,6.0,29.309999465942383,0.0,0.0,0.0,66.7128,C,27824056000000,
Raw,1732148939999,20286000000,,694790.2959753578,-1416184137713999872,0.0,91.7262961169058,2071.0937922379994,0.0,0,9,0.0,17,704755,316,5.0,850.2295239342162,0.14999,16,0.0,0.0,1600875010,,,,0,9.248825621890502,3,6.0,24.0,0.0,0.0,30.17700830950823,66.7128,C,27824056000000,
Raw,1732148939999,20286000000,,694790.2959753578,-1416184137713999872,0.0,91.7262961169058,2071.0937922379994,0.0,0,8,0.0,17,677923,487,5.0,840.5598197996203,0.14999,16,0.0,0.0,1605374980,,,,0,3.3179503472621033,3,6.0,19.0,0.0,0.0,30.17700830950823,66.7128,C,27824056000000,
Raw,1732148939999,20286000000,,694790.2959753578,-1416184137713999872,0.0,91.7262961169058,2071.0937922379994,0.0,0,18,0.0,17,115013,487,5.0,1223.8696153847045,0.14999,16,0.0,0.0,1600312450,,,,0,0.0,3,6.0,18.0,0.0,0.0,30.17700830950823,66.7128,C,27824056000000,
Raw,1732148939999,20286000000,,694790.2959753578,-1416184137713999872,0.0,91.7262961169058,2071.0937922379994,0.0,0,21,0.0,16431,347357918866470,74,29.756999969482422,880.1246829717761,0.14999,16,0.0,0.0,1575420030,,,,0,16.25335759521035,1,6.0,29.756999969482422,0.0,0.0,0.0,66.7128,C,27824056000000,
Fix,FLP,37.4244253000,-122.1708048000,2.0,0.037154865,2.548,,1732148940208,2.6,,27824056000000,0.81593364,0,,,
Status,1732148940000,28,0,1,22,1575420030,31.80,314.0,68.0,1,0,0,26.8
Status,1732148940000,28,1,1,14,1575420030,34.60,18.0,67.0,1,0,0,29.599998
Status,1732148940000,28,2,1,17,1575420030,31.60,166.0,66.0,1,0,0,26.6
Status,1732148940000,28,3,1,13,1575420030,32.90,273.0,56.0,1,0,0,27.900002
Status,1732148940000,28,4,1,30,1575420030,31.60,110.0,56.0,1,0,0,26.6
Status,1732148940000,28,5,2,135,1575420030,0.00,197.0,45.0,0,0,0,0.0
Status,1732148940000,28,6,1,19,1575420030,29.00,194.0,37.0,1,0,0,24.0
Status,1732148940000,28,7,1,15,1575420030,0.00,300.0,28.0,0,0,0,0.0
Status,1732148940000,28,8,1,7,1575420030,31.20,119.0,23.0,1,0,0,26.2
Status,1732148940000,28,9,1,2,1575420030,34.80,68.0,21.0,1,0,0,29.8
Status,1732148940000,28,10,1,21,1575420030,0.00,50.0,13.0,0,0,0,0.0
Status,1732148940000,28,11,3,9,1602000000,27.20,50.0,46.0,1,0,0,22.2
Status,1732148940000,28,12,3,8,1602000000,26.40,273.0,38.0,1,0,0,21.4
Status,1732148940000,28,13,3,19,1602000000,0.00,59.0,35.0,0,0,0,0.0
Status,1732148940000,28,14,3,20,1602000000,0.00,139.0,30.0,0,0,0,0.0
Status,1732148940000,28,15,3,11,1602000000,0.00,289.0,13.0,0,0,0,0.0
Status,1732148940000,28,16,3,18,1602000000,23.10,24.0,9.0,1,0,0,18.1
Status,1732148940000,28,17,3,16,1602000000,0.00,85.0,3.0,0,0,0,0.0
Status,1732148940000,28,18,3,17,1602000000,26.70,0.0,0.0,0,0,0,21.7
Status,1732148940000,28,19,6,21,1575420030,27.10,298.0,64.0,1,0,0,22.1
Status,1732148940000,28,20,6,19,1575420030,23.50,272.0,54.0,1,0,0,18.5
Status,1732148940000,28,21,6,27,1575420030,27.80,49.0,46.0,1,0,0,22.8
Status,1732148940000,28,22,6,29,1575420030,0.00,196.0,44.0,0,0,0,0.0
Status,1732148940000,28,23,6,15,1575420030,0.00,81.0,19.0,0,0,0,0.0
Status,1732148940000,28,24,6,13,1575420030,0.00,133.0,13.0,0,0,0,0.0
Status,1732148940000,28,25,6,4,1575420030,0.00,322.0,12.0,0,0,0,0.0
Status,1732148940000,28,26,6,34,1575420030,0.00,34.0,5.0,0,0,0,0.0
Status,1732148940000,28,27,6,7,1575420030,0.00,162.0,2.0,0,0,0,0.0
Fix,GPS,37.4244233333,-122.1708100000,3.5,0.4375139,2.6,298.56,1732148941000,2.5,179.9,27825056000000,33.4,0,,,
Fix,FLP,37.4244244000,-122.1708075000,2.0,0.043604653,2.562,,1732148941208,2.5,,27825056000000,0.8260786,0,,,
Raw,1732148940999,21286000000,,694421.186456265,-1416184137713999872,0.0,88.01514361351008,2066.5989978320144,0.0,0,7,0.0,16431,347358922644418,316,26.190000534057617,1119.6392823253902,0.14999,16,0.0,0.0,1575420030,,,,0,11.679650779278493,1,6.0,26.190000534057617,0.0,0.0,0.0,66.7128,C,27825056000000,
Raw,1732148940999,21286000000,,694421.186456265,-1416184137713999872,0.0,88.01514361351008,2066.5989978320144,0.0,0,30,0.0,16431,347358929908607,316,26.552000045776367,902.1377026574858,0.14999,16,0.0,0.0,1575420030,,,,0,12.173099697653948,1,6.0,26.552000045776367,0.0,0.0,0.0,66.7128,C,27825056000000,
Raw,1732148940999,21286000000,,694421.186456265,-1416184137713999872,0.0,88.01514361351008,2066.5989978320144,0.0,0,14,0.0,16431,347358931822550,235,29.610000610351562,748.3773952393533,0.14999,16,0.0,0.0,1575420030,,,,0,16.080283084116633,1,6.0,29.610000610351562,0.0,0.0,0.0,66.7128,C,27825056000000,
Raw,1732148940999,21286000000,,694421.186456265,-1416184137713999872,0.0,88.01514361351008,2066.5989978320144,0.0,0,22,0.0,16431,347358930795276,235,26.78700065612793,610.2156868975738,0.14999,16,0.0,0.0,1575420030,,,,0,12.476126579106364,1,6.0,26.78700065612793,0.0,0.0,0.0,66.7128,C,27825056000000,
Raw,1732148940999,21286000000,,694421.186456265,-1416184137713999872,0.0,88.01514361351008,2066.5989978320144,0.0,0,19,0.0,16431,347358925625821,316,23.968000411987305,8.941433242296412,0.14999,16,0.0,0.0,1575420030,,,,0,10.922230915829655,1,6.0,23.968000411987305,0.0,0.0,0.0,66.7128,C,27825056000000,
Raw,1732148940999,21286000000,,694421.186456265,-1416184137713999872,0.0,88.01514361351008,2066.5989978320144,0.0,0,13,0.0,16431,347358930752749,316,27.924999237060547,626.0897843820554,0.14999,16,0.0,0.0,1575420030,,,,0,13.96270144417062,1,6.0,27.924999237060547,0.0,0.0,0.0,66.7128,C,27825056000000,
Raw,1732148940999,21286000000,,694421.186456265,-1416184137713999872,0.0,88.01514361351008,2066.5989978320144,0.0,0,27,0.0,16431,347358917290766,316,22.76099967956543,913.6242673150441,0.14999,16,0.0,0.0,1575420030,,,,0,8.094125755342258,6,6.0,22.76099967956543,0.0,0.0,17.17712138072774,66.7128,C,27825056000000,
Raw,1732148940999,21286000000,,694421.186456265,-1416184137713999872,0.0,88.01514361351008,2066.5989978320144,0.0,0,19,0.0,16431,347358920331111,487,18.5,646.9646193290231,0.14999,16,0.0,0.0,1575420030,,,,0,1.7667691273392028,6,6.0,18.5,0.0,0.0,17.17712138072774,66.7128,C,27825056000000,
Raw,1732148940999,21286000000,,694421.186456265,-1416184137713999872,0.0,88.01514361351008,2066.5989978320144,0.0,0,17,0.0,16431,347358931776095,396,26.62299919128418,386.8048986673942,0.14999,16,0.0,0.0,1575420030,,,,0,12.275287813223553,1,6.0,26.62299919128418,0.0,0.0,0.0,66.7128,C,27825056000000,
Raw,1732148940999,21286000000,,694421.186456265,-1416184137713999872,0.0,88.01514361351008,2066.5989978320144,0.0,0,21,0.0,16431,347358920313621,487,22.100000381469727,536.0011080477954,0.14999,16,0.0,0.0,1575420030,,,,0,7.290897366118185,6,6.0,22.100000381469727,0.0,0.0,17.17712138072774,66.7128,C,27825056000000,
Raw,1732148940999,21286000000,,694421.186456265,-1416184137713999872,0.0,88.01514361351008,2066.5989978320144,0.0,0,2,0.0,16431,347358920513774,235,29.788999557495117,644.772293126464,0.14999,16,0.0,0.0,1575420030,,,,0,16.29609268578676,1,6.0,29.788999557495117,0.0,0.0,0.0,66.7128,C,27825056000000,
Raw,1732148940999,21286000000,,694421.186456265,-1416184137713999872,0.0,88.01514361351008,2066.5989978320144,0.0,0,9,0.0,17,701918,396,5.0,848.9892400256628,0.14999,16,0.0,0.0,1600875010,,,,0,7.420873854495515,3,6.0,23.0,0.0,0.0,31.658024952165327,66.7128,C,27825056000000,
Raw,1732148940999,21286000000,,694421.186456265,-1416184137713999872,0.0,88.01514361351008,2066.5989978320144,0.0,0,8,0.0,17,675119,396,5.0,839.203471493165,0.14999,16,0.0,0.0,1605374980,,,,0,6.303911996616996,3,6.0,23.0,0.0,0.0,31.658024952165327,66.7128,C,27825056000000,
Raw,1732148940999,21286000000,,694421.186456265,-1416184137713999872,0.0,88.01514361351008,2066.5989978320144,0.0,0,18,0.0,17,110924,487,5.0,1224.4975674522238,0.14999,16,0.0,0.0,1600312450,,,,0,1.0216242205976593,3,6.0,19.0,0.0,0.0,31.658024952165327,66.7128,C,27825056000000,
Status,1732148941000,28,0,1,22,1575420030,30.40,314.0,68.0,1,0,0,25.4
Status,1732148941000,28,1,1,14,1575420030,35.80,18.0,67.0,1,0,0,30.8
Status,1732148941000,28,2,1,17,1575420030,35.00,166.0,66.0,1,0,0,30.0
Status,1732148941000,28,3,1,13,1575420030,32.40,273.0,56.0,1,0,0,27.400002
Status,1732148941000,28,4,1,30,1575420030,30.90,110.0,56.0,1,0,0,25.9
Status,1732148941000,28,5,2,135,1575420030,0.00,197.0,45.0,0,0,0,0.0
Status,1732148941000,28,6,1,19,1575420030,29.00,194.0,37.0,1,0,0,24.0
Status,1732148941000,28,7,1,15,1575420030,27.60,300.0,28.0,1,0,0,22.6
Status,1732148941000,28,8,1,7,1575420030,32.90,119.0,23.0,1,0,0,27.900002
Status,1732148941000,28,9,1,2,1575420030,35.20,68.0,21.0,1,0,0,30.2
Status,1732148941000,28,10,1,21,1575420030,30.40,50.0,13.0,1,0,0,25.4
Status,1732148941000,28,11,3,9,1602000000,28.00,50.0,46.0,1,0,0,23.0
Status,1732148941000,28,12,3,8,1602000000,26.40,273.0,38.0,1,0,0,21.4
Status,1732148941000,28,13,3,19,1602000000,0.00,59.0,35.0,0,0,0,0.0
Status,1732148941000,28,14,3,20,1602000000,0.00,139.0,30.0,0,0,0,0.0
Status,1732148941000,28,15,3,11,1602000000,0.00,289.0,13.0,0,0,0,0.0
Status,1732148941000,28,16,3,18,1602000000,23.10,24.0,9.0,1,0,0,18.1
Status,1732148941000,28,17,3,16,1602000000,0.00,85.0,3.0,0,0,0,0.0
Status,1732148941000,28,18,3,17,1602000000,29.30,0.0,0.0,0,0,0,24.3
Status,1732148941000,28,19,6,21,1575420030,23.80,298.0,64.0,1,0,0,18.8
Status,1732148941000,28,20,6,19,1575420030,19.80,272.0,54.0,1,0,0,14.799999
Status,1732148941000,28,21,6,27,1575420030,27.80,49.0,46.0,1,0,0,22.8
Status,1732148941000,28,22,6,29,1575420030,0.00,196.0,44.0,0,0,0,0.0
Status,1732148941000,28,23,6,15,1575420030,0.00,81.0,19.0,0,0,0,0.0
Status,1732148941000,28,24,6,13,1575420030,0.00,133.0,13.0,0,0,0,0.0
Status,1732148941000,28,25,6,4,1575420030,0.00,322.0,12.0,0,0,0,0.0
Status,1732148941000,28,26,6,34,1575420030,0.00,34.0,5.0,0,0,0,0.0
Status,1732148941000,28,27,6,7,1575420030,0.00,162.0,2.0,0,0,0,0.0
Fix,GPS,37.4244166667,-122.1708116667,3.6999999999999993,0.45655861,2.5,273.26,1732148942000,2.2,179.9,27826056000000,35.1,0,,,
Raw,1732148941999,22286000000,,693830.465291425,-1416184137713999872,0.0,90.44662258152495,2064.8392586540945,0.0,0,7,0.0,16431,347359922640673,235,27.885000228881836,1119.9074403037575,0.14999,16,0.0,0.0,1575420030,,,,0,13.906753491389587,1,6.0,27.885000228881836,0.0,0.0,0.0,66.7128,C,27826056000000,
Raw,1732148941999,22286000000,,693830.465291425,-1416184137713999872,0.0,90.44662258152495,2064.8392586540945,0.0,0,30,0.0,16431,347359929905595,316,25.861000061035156,902.4334569350821,0.14999,16,0.0,0.0,1575420030,,,,0,11.233168444129475,1,6.0,25.861000061035156,0.0,0.0,0.0,66.7128,C,27826056000000,
Raw,1732148941999,22286000000,,693830.465291425,-1416184137713999872,0.0,90.44662258152495,2064.8392586540945,0.0,0,14,0.0,16431,347359931820054,235,30.804000854492188,748.858611514462,0.14999,16,0.0,0.0,1575420030,,,,0,17.526252356309445,1,6.0,30.804000854492188,0.0,0.0,0.0,66.7128,C,27826056000000,
Raw,1732148941999,22286000000,,693830.465291425,-1416184137713999872,0.0,90.44662258152495,2064.8392586540945,0.0,0,22,0.0,16431,347359930793239,316,25.382999420166016,610.9551190499808,0.14999,16,0.0,0.0,1575420030,,,,0,10.558582427700593,1,6.0,25.382999420166016,0.0,0.0,0.0,66.7128,C,27826056000000,
Raw,1732148941999,22286000000,,693830.465291425,-1416184137713999872,0.0,90.44662258152495,2064.8392586540945,0.0,0,15,0.0,16431,347359924696091,396,22.62299919128418,414.5288423949924,0.14999,16,0.0,0.0,1575420030,,,,0,6.537857989723385,1,6.0,22.62299919128418,0.0,0.0,0.0,66.7128,C,27826056000000,
Raw,1732148941999,22286000000,,693830.465291425,-1416184137713999872,0.0,90.44662258152495,2064.8392586540945,0.0,0,21,0.0,16431,347359918860591,316,25.382999420166016,878.672485797867,0.14999,16,0.0,0.0,1575420030,,,,0,10.558582427700593,1,6.0,25.382999420166016,0.0,0.0,0.0,66.7128,C,27826056000000,
Raw,1732148941999,22286000000,,693830.465291425,-1416184137713999872,0.0,90.44662258152495,2064.8392586540945,0.0,0,19,0.0,16431,347359925625788,316,24.034000396728516,8.70658594835214,0.14999,16,0.0,0.0,1575420030,,,,0,10.475661610462378,1,6.0,24.034000396728516,0.0,0.0,0.0,66.7128,C,27826056000000,
Raw,1732148941999,22286000000,,693830.465291425,-1416184137713999872,0.0,90.44662258152495,2064.8392586540945,0.0,0,13,0.0,16431,347359930750650,235,27.364999771118164,625.8755181664924,0.14999,16,0.0,0.0,1575420030,,,,0,13.236032950335026,1,6.0,27.364999771118164,0.0,0.0,0.0,66.7128,C,27826056000000,
Raw,1732148941999,22286000000,,693830.465291425,-1416184137713999872,0.0,90.44662258152495,2064.8392586540945,0.0,0,27,0.0,16431,347359917287717,74,22.832000732421875,913.115175990209,0.14999,16,0.0,0.0,1575420030,,,,0,10.135827963390874,6,6.0,22.832000732421875,0.0,0.0,17.450890138391458,66.7128,C,27826056000000,
Raw,1732148941999,22286000000,,693830.465291425,-1416184137713999872,0.0,90.44662258152495,2064.8392586540945,0.0,0,19,0.0,16431,347359920328940,396,14.800000190734863,646.7718633601655,0.14999,16,0.0,0.0,1575420030,,,,0,0.0,6,6.0,14.800000190734863,0.0,0.0,17.450890138391458,66.7128,C,27826056000000,
Raw,1732148941999,22286000000,,693830.465291425,-1416184137713999872,0.0,90.44662258152495,2064.8392586540945,0.0,0,17,0.0,16431,347359931774804,74,30.025999069213867,386.9852270099154,0.14999,16,0.0,0.0,1575420030,,,,0,16.58949200348207,1,6.0,30.025999069213867,0.0,0.0,0.0,66.7128,C,27826056000000,
Raw,1732148941999,22286000000,,693830.465291425,-1416184137713999872,0.0,90.44662258152495,2064.8392586540945,0.0,0,21,0.0,16431,347359920311833,487,18.799999237060547,535.309481605669,0.14999,16,0.0,0.0,1575420030,,,,0,2.209458031624222,6,6.0,18.799999237060547,0.0,0.0,17.450890138391458,66.7128,C,27826056000000,
Raw,1732148941999,22286000000,,693830.465291425,-1416184137713999872,0.0,90.44662258152495,2064.8392586540945,0.0,0,2,0.0,16431,347359920511626,74,30.19700050354004,645.7807195087299,0.14999,16,0.0,0.0,1575420030,,,,0,16.79315642529142,1,6.0,30.19700050354004,0.0,0.0,0.0,66.7128,C,27826056000000,
Raw,1732148941999,22286000000,,693830.465291425,-1416184137713999872,0.0,90.44662258152495,2064.8392586540945,0.0,0,9,0.0,17,699088,487,5.0,848.4572456449519,0.14999,16,0.0,0.0,1600875010,,,,0,8.452614538923495,3,6.0,19.0,0.0,0.0,30.604751150655225,66.7128,C,27826056000000,
Raw,1732148941999,22286000000,,693830.465291425,-1416184137713999872,0.0,90.44662258152495,2064.8392586540945,0.0,0,8,0.0,17,672320,487,5.0,839.0608611569435,0.14999,16,0.0,0.0,1605374980,,,,0,6.913698439575002,3,6.0,20.0,0.0,0.0,30.604751150655225,66.7128,C,27826056000000,
Raw,1732148941999,22286000000,,693830.465291425,-1416184137713999872,0.0,90.44662258152495,2064.8392586540945,0.0,0,18,0.0,17,106837,487,5.0,1224.4026200019564,0.14999,16,0.0,0.0,1600312450,,,,0,1.0216242205976593,3,6.0,20.0,0.0,0.0,30.604751150655225,66.7128,C,27826056000000,
Fix,FLP,37.4244206000,-122.1708099000,2.0,0.055447552,2.562,,1732148942208,2.2,,27826056000000,0.8360323,0,,,
Status,1732148942000,28,0,1,22,1575420030,29.80,314.0,68.0,1,0,0,24.8
Status,1732148942000,28,1,1,14,1575420030,32.00,18.0,67.0,1,0,0,27.0
Status,1732148942000,28,2,1,17,1575420030,30.50,166.0,66.0,1,0,0,25.5
Status,1732148942000,28,3,1,13,1575420030,30.80,273.0,56.0,1,0,0,25.8
Status,1732148942000,28,4,1,30,1575420030,34.40,110.0,56.0,1,0,0,29.400002
Status,1732148942000,28,5,2,135,1575420030,0.00,197.0,45.0,0,0,0,0.0
Status,1732148942000,28,6,1,19,1575420030,28.60,194.0,37.0,1,0,0,23.6
Status,1732148942000,28,7,1,15,1575420030,0.00,300.0,28.0,0,0,0,0.0
Status,1732148942000,28,8,1,7,1575420030,34.90,119.0,23.0,1,0,0,29.900002
Status,1732148942000,28,9,1,2,1575420030,30.30,68.0,21.0,1,0,0,25.3
Status,1732148942000,28,10,1,21,1575420030,37.40,50.0,13.0,1,0,0,32.4
Status,1732148942000,28,11,3,9,1602000000,31.30,50.0,46.0,1,0,0,26.3
Status,1732148942000,28,12,3,8,1602000000,26.40,273.0,38.0,1,0,0,21.4
Status,1732148942000,28,13,3,19,1602000000,0.00,59.0,35.0,0,0,0,0.0
Status,1732148942000,28,14,3,20,1602000000,0.00,139.0,30.0,0,0,0,0.0
Status,1732148942000,28,15,3,11,1602000000,0.00,289.0,13.0,0,0,0,0.0
Status,1732148942000,28,16,3,18,1602000000,23.00,24.0,9.0,1,0,0,18.0
Status,1732148942000,28,17,3,16,1602000000,0.00,85.0,3.0,0,0,0,0.0
Status,1732148942000,28,18,3,17,1602000000,28.80,0.0,0.0,0,0,0,23.8
Status,1732148942000,28,19,6,21,1575420030,23.70,298.0,64.0,1,0,0,18.7
Status,1732148942000,28,20,6,19,1575420030,19.90,272.0,54.0,1,0,0,14.9
Status,1732148942000,28,21,6,27,1575420030,28.00,49.0,46.0,1,0,0,23.0
Status,1732148942000,28,22,6,29,1575420030,0.00,196.0,44.0,0,0,0,0.0
Status,1732148942000,28,23,6,15,1575420030,0.00,81.0,19.0,0,0,0,0.0
Status,1732148942000,28,24,6,13,1575420030,0.00,133.0,13.0,0,0,0,0.0
Status,1732148942000,28,25,6,4,1575420030,0.00,322.0,12.0,0,0,0,0.0
Status,1732148942000,28,26,6,34,1575420030,0.00,34.0,5.0,0,0,0,0.0
Status,1732148942000,28,27,6,7,1575420030,0.00,162.0,2.0,0,0,0,0.0
Fix,GPS,37.4244100000,-122.1708100000,3.6999999999999993,0.46942666,2.5,242.87,1732148943000,2.7,179.9,27827056000000,34.5,0,,,
Raw,1732148942999,23286000000,,693454.3717740892,-1416184137713999872,0.0,88.338822075409,2065.3886668952186,0.0,0,7,0.0,16431,347360922636939,74,29.900999069213867,1120.6440849511919,0.14999,16,0.0,0.0,1575420030,,,,0,16.42305070203816,1,6.0,29.900999069213867,0.0,0.0,0.0,66.7128,C,27827056000000,
Raw,1732148942999,23286000000,,693454.3717740892,-1416184137713999872,0.0,88.338822075409,2065.3886668952186,0.0,0,30,0.0,16431,347360929902585,235,29.37700080871582,902.6354581287654,0.14999,16,0.0,0.0,1575420030,,,,0,15.791467307015846,1,6.0,29.37700080871582,0.0,0.0,0.0,66.7128,C,27827056000000,
Raw,1732148942999,23286000000,,693454.3717740892,-1416184137713999872,0.0,88.338822075409,2065.3886668952186,0.0,0,14,0.0,16431,347360931817555,316,26.968000411987305,749.445799436947,0.14999,16,0.0,0.0,1575420030,,,,0,12.704715814722,1,6.0,26.968000411987305,0.0,0.0,0.0,66.7128,C,27827056000000,
Raw,1732148942999,23286000000,,693454.3717740892,-1416184137713999872,0.0,88.338822075409,2065.3886668952186,0.0,0,22,0.0,16431,347360930791199,396,24.757999420166016,611.4036750584935,0.14999,16,0.0,0.0,1575420030,,,,0,9.691440024499613,1,6.0,24.757999420166016,0.0,0.0,0.0,66.7128,C,27827056000000,
Raw,1732148942999,23286000000,,693454.3717740892,-1416184137713999872,0.0,88.338822075409,2065.3886668952186,0.0,0,21,0.0,16431,347360918857668,74,32.38800048828125,879.4839284954003,0.14999,16,0.0,0.0,1575420030,,,,0,19.384534805556193,1,6.0,32.38800048828125,0.0,0.0,0.0,66.7128,C,27827056000000,
Raw,1732148942999,23286000000,,693454.3717740892,-1416184137713999872,0.0,88.338822075409,2065.3886668952186,0.0,0,19,0.0,16431,347360925625760,487,23.611000061035156,9.090100174170134,0.14999,16,0.0,0.0,1575420030,,,,0,8.039151586779237,1,6.0,23.611000061035156,0.0,0.0,0.0,66.7128,C,27827056000000,
Raw,1732148942999,23286000000,,693454.3717740892,-1416184137713999872,0.0,88.338822075409,2065.3886668952186,0.0,0,13,0.0,16431,347360930748561,396,25.757999420166016,626.0256717676848,0.14999,16,0.0,0.0,1575420030,,,,0,11.079090973625956,1,6.0,25.757999420166016,0.0,0.0,0.0,66.7128,C,27827056000000,
Raw,1732148942999,23286000000,,693454.3717740892,-1416184137713999872,0.0,88.338822075409,2065.3886668952186,0.0,0,27,0.0,16431,347360917284671,316,23.0,913.5250321380183,0.14999,16,0.0,0.0,1575420030,,,,0,8.469500386501602,6,6.0,23.0,0.0,0.0,16.751197889806775,66.7128,C,27827056000000,
Raw,1732148942999,23286000000,,693454.3717740892,-1416184137713999872,0.0,88.338822075409,2065.3886668952186,0.0,0,19,0.0,16431,347360920326778,487,14.864999771118164,647.3605379519693,0.14999,16,0.0,0.0,1575420030,,,,0,0.0,6,6.0,14.864999771118164,0.0,0.0,16.751197889806775,66.7128,C,27827056000000,
Raw,1732148942999,23286000000,,693454.3717740892,-1416184137713999872,0.0,88.338822075409,2065.3886668952186,0.0,0,17,0.0,16431,347360931773511,316,25.516000747680664,388.43505480459766,0.14999,16,0.0,0.0,1575420030,,,,0,10.762485914201859,1,6.0,25.516000747680664,0.0,0.0,0.0,66.7128,C,27827056000000,
Raw,1732148942999,23286000000,,693454.3717740892,-1416184137713999872,0.0,88.338822075409,2065.3886668952186,0.0,0,21,0.0,16431,347360920310039,487,18.735000610351562,535.8044031135598,0.14999,16,0.0,0.0,1575420030,,,,0,0.011140771148355988,6,6.0,18.735000610351562,0.0,0.0,16.751197889806775,66.7128,C,27827056000000,
Raw,1732148942999,23286000000,,693454.3717740892,-1416184137713999872,0.0,88.338822075409,2065.3886668952186,0.0,0,2,0.0,16431,347360920509473,316,25.327999114990234,646.307465031725,0.14999,16,0.0,0.0,1575420030,,,,0,10.517220970313133,1,6.0,25.327999114990234,0.0,0.0,0.0,66.7128,C,27827056000000,
Raw,1732148942999,23286000000,,693454.3717740892,-1416184137713999872,0.0,88.338822075409,2065.3886668952186,0.0,0,9,0.0,17,696252,316,5.0,849.8845231094616,0.14999,16,0.0,0.0,1600875010,,,,0,12.664335037026625,3,6.0,26.0,0.0,0.0,33.939478311730305,66.7128,C,27827056000000,
Raw,1732148942999,23286000000,,693454.3717740892,-1416184137713999872,0.0,88.338822075409,2065.3886668952186,0.0,0,8,0.0,17,669515,487,5.0,839.6962248543807,0.14999,16,0.0,0.0,1605374980,,,,0,5.300579807302392,3,6.0,20.0,0.0,0.0,33.939478311730305,66.7128,C,27827056000000,
Raw,1732148942999,23286000000,,693454.3717740892,-1416184137713999872,0.0,88.338822075409,2065.3886668952186,0.0,0,18,0.0,17,102749,487,5.0,1227.7448068399776,0.14999,16,0.0,0.0,1600312450,,,,0,0.0,3,6.0,18.0,0.0,0.0,33.939478311730305,66.7128,C,27827056000000,
Fix,FLP,37.4244153000,-122.1708103000,2.0,0.067166656,2.562,,1732148943209,2.7,,27827056000000,0.84628224,0,,,
Status,1732148943000,28,0,1,22,1575420030,31.20,314.0,68.0,1,0,0,26.2
Status,1732148943000,28,1,1,14,1575420030,34.50,18.0,67.0,1,0,0,29.5
Status,1732148943000,28,2,1,17,1575420030,32.50,166.0,66.0,1,0,0,27.5
Status,1732148943000,28,3,1,13,1575420030,30.60,273.0,56.0,1,0,0,25.6
Status,1732148943000,28,4,1,30,1575420030,34.00,110.0,56.0,1,0,0,29.0
Status,1732148943000,28,5,2,135,1575420030,0.00,197.0,45.0,0,0,0,0.0
Status,1732148943000,28,6,1,19,1575420030,29.80,194.0,37.0,1,0,0,24.8
Status,1732148943000,28,7,1,15,1575420030,0.00,300.0,28.0,0,0,0,0.0
Status,1732148943000,28,8,1,7,1575420030,31.80,119.0,23.0,1,0,0,26.8
Status,1732148943000,28,9,1,2,1575420030,30.70,68.0,21.0,1,0,0,25.7
Status,1732148943000,28,10,1,21,1575420030,26.60,50.0,13.0,1,0,0,21.6
Status,1732148943000,28,11,3,9,1602000000,27.60,50.0,46.0,1,0,0,22.6
Status,1732148943000,28,12,3,8,1602000000,26.50,273.0,38.0,1,0,0,21.5
Status,1732148943000,28,13,3,19,1602000000,0.00,59.0,35.0,0,0,0,0.0
Status,1732148943000,28,14,3,20,1602000000,0.00,139.0,30.0,0,0,0,0.0
Status,1732148943000,28,15,3,11,1602000000,0.00,289.0,13.0,0,0,0,0.0
Status,1732148943000,28,16,3,18,1602000000,23.00,24.0,9.0,1,0,0,18.0
Status,1732148943000,28,17,3,16,1602000000,0.00,85.0,3.0,0,0,0,0.0
Status,1732148943000,28,18,3,17,1602000000,29.00,0.0,0.0,0,0,0,24.0
Status,1732148943000,28,19,6,21,1575420030,23.80,298.0,64.0,1,0,0,18.8
Status,1732148943000,28,20,6,19,1575420030,19.90,272.0,54.0,1,0,0,14.9
Status,1732148943000,28,21,6,27,1575420030,23.40,49.0,46.0,1,0,0,18.4
Status,1732148943000,28,22,6,29,1575420030,0.00,196.0,44.0,0,0,0,0.0
Status,1732148943000,28,23,6,15,1575420030,0.00,81.0,19.0,0,0,0,0.0
Status,1732148943000,28,24,6,13,1575420030,0.00,133.0,13.0,0,0,0,0.0
Status,1732148943000,28,25,6,4,1575420030,0.00,322.0,12.0,0,0,0,0.0
Status,1732148943000,28,26,6,34,1575420030,0.00,34.0,5.0,0,0,0,0.0
Status,1732148943000,28,27,6,7,1575420030,0.00,162.0,2.0,0,0,0,0.0
Fix,GPS,37.4244033333,-122.1708100000,3.6999999999999993,0.0,2.5,242.87,1732148944000,2.8,124.6,27828056000000,35.0,0,,,
Raw,1732148943999,24286000000,,693092.2462532397,-1416184137713999872,0.0,89.8484266105545,2068.885784369923,0.0,0,7,0.0,16431,347361922633193,316,26.809999465942383,1121.7226635419356,0.14999,16,0.0,0.0,1575420030,,,,0,12.50915281523816,1,6.0,26.809999465942383,0.0,0.0,0.0,66.7128,C,27828056000000,
Raw,1732148943999,24286000000,,693092.2462532397,-1416184137713999872,0.0,89.8484266105545,2068.885784369923,0.0,0,30,0.0,16431,347361929899571,316,29.048999786376953,904.1542766715204,0.14999,16,0.0,0.0,1575420030,,,,0,15.375020003809786,1,6.0,29.048999786376953,0.0,0.0,0.0,66.7128,C,27828056000000,
Raw,1732148943999,24286000000,,693092.2462532397,-1416184137713999872,0.0,89.8484266105545,2068.885784369923,0.0,0,14,0.0,16431,347361931815054,235,29.493999481201172,750.3756181789847,0.14999,16,0.0,0.0,1575420030,,,,0,15.925961188533233,1,6.0,29.493999481201172,0.0,0.0,0.0,66.7128,C,27828056000000,
Raw,1732148943999,24286000000,,693092.2462532397,-1416184137713999872,0.0,89.8484266105545,2068.885784369923,0.0,0,22,0.0,16431,347361930789161,316,26.21500015258789,612.2680803505068,0.14999,16,0.0,0.0,1575420030,,,,0,11.715842038463862,1,6.0,26.21500015258789,0.0,0.0,0.0,66.7128,C,27828056000000,
Raw,1732148943999,24286000000,,693092.2462532397,-1416184137713999872,0.0,89.8484266105545,2068.885784369923,0.0,0,21,0.0,16431,347361918854734,396,21.617000579833984,879.9117175918669,0.14999,16,0.0,0.0,1575420030,,,,0,4.9607859846894415,1,6.0,21.617000579833984,0.0,0.0,0.0,66.7128,C,27828056000000,
Raw,1732148943999,24286000000,,693092.2462532397,-1416184137713999872,0.0,89.8484266105545,2068.885784369923,0.0,0,13,0.0,16431,347361930746469,316,25.570999145507812,627.0826007364745,0.14999,16,0.0,0.0,1575420030,,,,0,10.842725650079974,1,6.0,25.570999145507812,0.0,0.0,0.0,66.7128,C,27828056000000,
Raw,1732148943999,24286000000,,693092.2462532397,-1416184137713999872,0.0,89.8484266105545,2068.885784369923,0.0,0,27,0.0,16431,347361917281621,487,18.399999618530273,915.0786015760988,0.14999,16,0.0,0.0,1575420030,,,,0,1.652479456850617,6,6.0,18.399999618530273,0.0,0.0,15.130288816177115,66.7128,C,27828056000000,
Raw,1732148943999,24286000000,,693092.2462532397,-1416184137713999872,0.0,89.8484266105545,2068.885784369923,0.0,0,19,0.0,16431,347361920324624,797,14.855999946594238,648.1249647322975,0.14999,16,0.0,0.0,1575420030,,,,0,0.0,6,6.0,14.855999946594238,0.0,0.0,15.130288816177115,66.7128,C,27828056000000,
Raw,1732148943999,24286000000,,693092.2462532397,-1416184137713999872,0.0,89.8484266105545,2068.885784369923,0.0,0,17,0.0,16431,347361931772215,235,27.490999221801758,389.23839050850216,0.14999,16,0.0,0.0,1575420030,,,,0,13.416057832630838,1,6.0,27.490999221801758,0.0,0.0,0.0,66.7128,C,27828056000000,
Raw,1732148943999,24286000000,,693092.2462532397,-1416184137713999872,0.0,89.8484266105545,2068.885784369923,0.0,0,21,0.0,16431,347361920308241,396,18.788000106811523,537.5458968452119,0.14999,16,0.0,0.0,1575420030,,,,0,3.873632738237588,6,6.0,18.788000106811523,0.0,0.0,15.130288816177115,66.7128,C,27828056000000,
Raw,1732148943999,24286000000,,693092.2462532397,-1416184137713999872,0.0,89.8484266105545,2068.885784369923,0.0,0,2,0.0,16431,347361920507316,396,25.679000854492188,646.6156701648657,0.14999,16,0.0,0.0,1575420030,,,,0,11.001015035448619,1,6.0,25.679000854492188,0.0,0.0,0.0,66.7128,C,27828056000000,
Raw,1732148943999,24286000000,,693092.2462532397,-1416184137713999872,0.0,89.8484266105545,2068.885784369923,0.0,0,9,0.0,17,693411,396,5.0,850.7285086945359,0.14999,16,0.0,0.0,1600875010,,,,0,8.025353506612984,3,6.0,23.0,0.0,0.0,35.515060309933595,66.7128,C,27828056000000,
