# 
# Header Description:
# 
# Version: v3.1.0.3 Platform: 13 Manufacturer: samsung Model: SM-S135DL GNSS Hardware Model Name: MediaTek,MT6631,MTK_MNLD_default,MNL_VER_default
# 
# Raw,utcTimeMillis,TimeNanos,LeapSecond,TimeUncertaintyNanos,FullBiasNanos,BiasNanos,BiasUncertaintyNanos,DriftNanosPerSecond,DriftUncertaintyNanosPerSecond,HardwareClockDiscontinuityCount,Svid,TimeOffsetNanos,State,ReceivedSvTimeNanos,ReceivedSvTimeUncertaintyNanos,Cn0DbHz,PseudorangeRateMetersPerSecond,PseudorangeRateUncertaintyMetersPerSecond,AccumulatedDeltaRangeState,AccumulatedDeltaRangeMeters,AccumulatedDeltaRangeUncertaintyMeters,CarrierFrequencyHz,CarrierCycles,CarrierPhase,CarrierPhaseUncertainty,MultipathIndicator,SnrInDb,ConstellationType,AgcDb,BasebandCn0DbHz,FullInterSignalBiasNanos,FullInterSignalBiasUncertaintyNanos,SatelliteInterSignalBiasNanos,SatelliteInterSignalBiasUncertaintyNanos,CodeType,ChipsetElapsedRealtimeNanos,IsFullTracking
# 
# UncalAccel,utcTimeMillis,elapsedRealtimeNanos,UncalAccelXMps2,UncalAccelYMps2,UncalAccelZMps2,BiasXMps2,BiasYMps2,BiasZMps2
# 
# Accel,utcTimeMillis,elapsedRealtimeNanos,AccelXMps2,AccelYMps2,AccelZMps2
# 
# UncalGyro,utcTimeMillis,elapsedRealtimeNanos,UncalGyroXRadPerSec,UncalGyroYRadPerSec,UncalGyroZRadPerSec,DriftXRadPerSec,DriftYRadPerSec,DriftZRadPerSec
# 
# Gyro,utcTimeMillis,elapsedRealtimeNanos,GyroXRadPerSec,GyroYRadPerSec,GyroZRadPerSec
# 
# UncalMag,utcTimeMillis,elapsedRealtimeNanos,UncalMagXMicroT,UncalMagYMicroT,UncalMagZMicroT,BiasXMicroT,BiasYMicroT,BiasZMicroT
# 
# Mag,utcTimeMillis,elapsedRealtimeNanos,MagXMicroT,MagYMicroT,MagZMicroT
# 
# Pressure,utcTimeMillis,elapsedRealtimeNanos,PressureHpa
# 
# OrientationDeg,utcTimeMillis,elapsedRealtimeNanos,yawDeg,rollDeg,pitchDeg
# 
# Fix,Provider,LatitudeDegrees,LongitudeDegrees,AltitudeMeters,SpeedMps,AccuracyMeters,BearingDegrees,UnixTimeMillis,SpeedAccuracyMps,BearingAccuracyDegrees,elapsedRealtimeNanos,VerticalAccuracyMeters,MockLocation,NumberOfUsedSignals,VerticalSpeedAccuracyMps,SolutionType
# 
# Nav,Svid,Type,Status,MessageId,Sub-messageId,Data(Bytes)
# 
# Status,UnixTimeMillis,SignalCount,SignalIndex,ConstellationType,Svid,CarrierFrequencyHz,Cn0DbHz,AzimuthDegrees,ElevationDegrees,UsedInFix,HasAlmanacData,HasEphemerisData,BasebandCn0DbHz
# 
# Agc,utcTimeMillis,TimeNanos,LeapSecond,TimeUncertaintyNanos,FullBiasNanos,BiasNanos,BiasUncertaintyNanos,DriftNanosPerSecond,DriftUncertaintyNanosPerSecond,HardwareClockDiscontinuityCount,AgcDb,CarrierFrequencyHz,ConstellationType
# 
Fix,FLP,37.4243662000,-122.1707916000,2.0,0.054487407,2.683,,1732148108208,2.8,,26992055000000,0.93682986,0,,,
Status,,26,0,1,14,1575420030,28.40,3.0,70.0,1,0,0,23.4
Status,,26,1,1,22,1575420030,31.30,297.0,66.0,1,0,0,26.3
Status,,26,2,1,30,1575420030,31.50,101.0,61.0,1,0,0,26.5
Status,,26,3,1,17,1575420030,26.90,171.0,59.0,1,0,0,21.9
Status,,26,4,1,13,1575420030,34.10,284.0,55.0,1,0,0,29.099998
Status,,26,5,1,19,1575420030,0.00,193.0,30.0,0,0,0,0.0
Status,,26,6,1,7,1575420030,37.30,114.0,28.0,1,0,0,32.3
Status,,26,7,1,15,1575420030,26.90,306.0,25.0,1,0,0,21.9
Status,,26,8,2,131,1575420030,29.00,3.0,23.0,0,0,0,24.0
Status,,26,9,1,2,1575420030,34.90,75.0,20.0,1,0,0,29.900002
Status,,26,10,1,21,1575420030,25.80,56.0,14.0,1,0,0,20.8
Status,,26,11,3,9,1602000000,24.70,40.0,49.0,0,0,0,19.7
Status,,26,12,3,20,1602000000,0.00,142.0,23.0,0,0,0,0.0
Status,,26,13,3,11,1602000000,0.00,283.0,9.0,0,0,0,0.0
Status,,26,14,3,16,1602000000,30.50,79.0,6.0,1,0,0,25.5
Status,,26,15,3,17,1602000000,32.30,0.0,0.0,0,0,0,27.3
Status,,26,16,6,21,1575420030,27.50,288.0,62.0,1,0,0,22.5
Status,,26,17,6,19,1575420030,0.00,281.0,54.0,0,0,0,0.0
Status,,26,18,6,27,1575420030,26.40,45.0,50.0,1,0,0,21.4
Status,,26,19,6,29,1575420030,0.00,198.0,50.0,0,0,0,0.0
Status,,26,20,6,15,1575420030,0.00,86.0,17.0,0,0,0,0.0
Status,,26,21,6,13,1575420030,0.00,136.0,9.0,0,0,0,0.0
Status,,26,22,6,4,1575420030,0.00,324.0,8.0,0,0,0,0.0
Status,,26,23,6,7,1575420030,0.00,162.0,7.0,0,0,0,0.0
Status,,26,24,6,34,1575420030,0.00,38.0,6.0,0,0,0,0.0
Status,,26,25,6,30,1575420030,0.00,65.0,3.0,0,0,0,0.0
Fix,GPS,37.4243783333,-122.1707850000,-5.300000000000001,0.0,2.7,24.42,1732148109000,3.0,148.4,26993055000000,33.0,0,,,
Raw,1732148109000,16707000000,,700824.9395320012,-1416183310293999872,0.0,80.17751221865451,2231.791332291708,0.0,0,15,0.0,16431,346526924794196,487,21.895999908447266,361.82381337444997,0.14999,16,0.0,0.0,1575420030,,,,0,5.405784131145509,1,6.0,21.895999908447266,0.0,0.0,0.0,66.7128,C,26993055000000,
Raw,1732148109000,16707000000,,700824.9395320012,-1416183310293999872,0.0,80.17751221865451,2231.791332291708,0.0,0,22,0.0,16431,346526931515498,316,26.343000411987305,613.4766031313915,0.14999,16,0.0,0.0,1575420030,,,,0,11.899798926383317,1,6.0,26.343000411987305,0.0,0.0,0.0,66.7128,C,26993055000000,
Raw,1732148109000,16707000000,,700824.9395320012,-1416183310293999872,0.0,80.17751221865451,2231.791332291708,0.0,0,30,0.0,16431,346526931407097,396,26.458999633789062,883.666579706835,0.14999,16,0.0,0.0,1575420030,,,,0,12.035254141526993,1,6.0,26.458999633789062,0.0,0.0,0.0,66.7128,C,26993055000000,
Raw,1732148109000,16707000000,,700824.9395320012,-1416183310293999872,0.0,80.17751221865451,2231.791332291708,0.0,0,17,0.0,16431,346526931810923,797,21.937000274658203,344.6892061413441,0.14999,16,0.0,0.0,1575420030,,,,0,5.477568751614386,1,6.0,21.937000274658203,0.0,0.0,0.0,66.7128,C,26993055000000,
Raw,1732148109000,16707000000,,700824.9395320012,-1416183310293999872,0.0,80.17751221865451,2231.791332291708,0.0,0,14,0.0,16431,346526932929106,396,23.399999618530273,754.7314199076361,0.14999,16,0.0,0.0,1575420030,,,,0,7.731654355440154,1,6.0,23.399999618530273,0.0,0.0,0.0,66.7128,C,26993055000000,
Raw,1732148109000,16707000000,,700824.9395320012,-1416183310293999872,0.0,80.17751221865451,2231.791332291708,0.0,0,21,0.0,16431,346526920264840,487,20.764999389648438,836.260225971937,0.14999,16,0.0,0.0,1575420030,,,,0,3.566135506898503,1,6.0,20.764999389648438,0.0,0.0,0.0,66.7128,C,26993055000000,
Raw,1732148109000,16707000000,,700824.9395320012,-1416183310293999872,0.0,80.17751221865451,2231.791332291708,0.0,0,13,0.0,16431,346526931427670,235,29.091999053955078,566.214688612492,0.14999,16,0.0,0.0,1575420030,,,,0,15.438671982720496,1,6.0,29.091999053955078,0.0,0.0,0.0,66.7128,C,26993055000000,
Raw,1732148109000,16707000000,,700824.9395320012,-1416183310293999872,0.0,80.17751221865451,2231.791332291708,0.0,0,2,0.0,16431,346526921270473,74,29.910999298095703,607.4550348895112,0.14999,16,0.0,0.0,1575420030,,,,0,16.44530655627299,1,6.0,29.910999298095703,0.0,0.0,0.0,66.7128,C,26993055000000,
Raw,1732148109000,16707000000,,700824.9395320012,-1416183310293999872,0.0,80.17751221865451,2231.791332291708,0.0,0,27,0.0,16431,346526918898163,396,21.399999618530273,950.3799362168438,0.14999,16,0.0,0.0,1575420030,,,,0,6.295668506939647,6,6.0,21.399999618530273,0.0,0.0,6.141868186852636,66.7128,C,26993055000000,
Raw,1732148109000,16707000000,,700824.9395320012,-1416183310293999872,0.0,80.17751221865451,2231.791332291708,0.0,0,7,0.0,16431,346526924775209,74,32.27399826049805,1121.3153161486016,0.14999,16,0.0,0.0,1575420030,,,,0,19.254457658739966,1,6.0,32.27399826049805,0.0,0.0,0.0,66.7128,C,26993055000000,
Raw,1732148109000,16707000000,,700824.9395320012,-1416183310293999872,0.0,80.17751221865451,2231.791332291708,0.0,0,21,0.0,16431,346526920851110,396,22.5,556.3590466560046,0.14999,16,0.0,0.0,1575420030,,,,0,7.786628524003172,6,6.0,22.5,0.0,0.0,6.141868186852636,66.7128,C,26993055000000,
Raw,1732148109000,16707000000,,700824.9395320012,-1416183310293999872,0.0,80.17751221865451,2231.791332291708,0.0,0,9,0.0,17,100978,396,5.0,865.1620337901818,0.14999,16,0.0,0.0,1600875010,,,,0,3.794081962254979,3,6.0,22.0,0.0,0.0,29.233084956182363,66.7128,C,26993055000000,
Raw,1732148109000,16707000000,,700824.9395320012,-1416183310293999872,0.0,80.17751221865451,2231.791332291708,0.0,0,16,0.0,17,850451,316,5.0,1160.8920305909455,0.14999,16,0.0,0.0,1601437440,,,,0,11.69972721076528,3,6.0,24.0,0.0,0.0,29.233084956182363,66.7128,C,26993055000000,
Fix,FLP,37.4243720000,-122.1707882000,2.0,0.047663245,2.7,,1732148109207,3.0,,26993055000000,0.94269836,0,,,
Status,1732148109000,26,0,1,14,1575420030,31.50,3.0,70.0,1,0,0,26.5
Status,1732148109000,26,1,1,22,1575420030,28.70,297.0,66.0,1,0,0,23.7
Status,1732148109000,26,2,1,30,1575420030,31.20,101.0,61.0,1,0,0,26.2
Status,1732148109000,26,3,1,17,1575420030,26.90,171.0,59.0,1,0,0,21.9
Status,1732148109000,26,4,1,13,1575420030,31.10,284.0,55.0,1,0,0,26.1
Status,1732148109000,26,5,1,19,1575420030,0.00,193.0,30.0,0,0,0,0.0
Status,1732148109000,26,6,1,7,1575420030,30.30,114.0,28.0,1,0,0,25.3
Status,1732148109000,26,7,1,15,1575420030,25.90,306.0,25.0,1,0,0,20.9
Status,1732148109000,26,8,2,131,1575420030,32.00,3.0,23.0,0,0,0,27.0
Status,1732148109000,26,9,1,2,1575420030,34.00,75.0,20.0,1,0,0,29.0
Status,1732148109000,26,10,1,21,1575420030,32.40,56.0,14.0,1,0,0,27.400002
Status,1732148109000,26,11,3,9,1602000000,29.20,40.0,49.0,0,0,0,24.2
Status,1732148109000,26,12,3,20,1602000000,0.00,142.0,23.0,0,0,0,0.0
Status,1732148109000,26,13,3,11,1602000000,0.00,283.0,9.0,0,0,0,0.0
Status,1732148109000,26,14,3,16,1602000000,29.00,79.0,6.0,1,0,0,24.0
Status,1732148109000,26,15,3,17,1602000000,34.90,0.0,0.0,0,0,0,29.900002
Status,1732148109000,26,16,6,21,1575420030,23.20,288.0,62.0,1,0,0,18.2
Status,1732148109000,26,17,6,19,1575420030,0.00,281.0,54.0,0,0,0,0.0
Status,1732148109000,26,18,6,27,1575420030,26.40,45.0,50.0,1,0,0,21.4
Status,1732148109000,26,19,6,29,1575420030,0.00,198.0,50.0,0,0,0,0.0
Status,1732148109000,26,20,6,15,1575420030,0.00,86.0,17.0,0,0,0,0.0
Status,1732148109000,26,21,6,13,1575420030,0.00,136.0,9.0,0,0,0,0.0
Status,1732148109000,26,22,6,4,1575420030,0.00,324.0,8.0,0,0,0,0.0
Status,1732148109000,26,23,6,7,1575420030,0.00,162.0,7.0,0,0,0,0.0
Status,1732148109000,26,24,6,34,1575420030,0.00,38.0,6.0,0,0,0,0.0
Status,1732148109000,26,25,6,30,1575420030,0.00,65.0,3.0,0,0,0,0.0
Fix,GPS,37.4243766667,-122.1707800000,-5.199999999999999,0.0,2.8,24.42,1732148110000,3.1,178.3,26994055000000,32.6,0,,,
Raw,1732148110000,17707000000,,700630.8990434976,-1416183310293999872,0.0,80.3307019976344,2233.731756784927,0.0,0,15,0.0,16431,346527924792984,487,20.90999984741211,362.0990330320812,0.14999,16,0.0,0.0,1575420030,,,,0,3.8293644280579193,1,6.0,20.90999984741211,0.0,0.0,0.0,66.7128,C,26994055000000,
Raw,1732148110000,17707000000,,700630.8990434976,-1416183310293999872,0.0,80.3307019976344,2233.731756784927,0.0,0,22,0.0,16431,346527931513446,396,23.701000213623047,613.2407337522906,0.14999,16,0.0,0.0,1575420030,,,,0,8.162003155162516,1,6.0,23.701000213623047,0.0,0.0,0.0,66.7128,C,26994055000000,
Raw,1732148110000,17707000000,,700630.8990434976,-1416183310293999872,0.0,80.3307019976344,2233.731756784927,0.0,0,30,0.0,16431,346527931404145,316,26.177000045776367,884.0329507770714,0.14999,16,0.0,0.0,1575420030,,,,0,11.657547258319516,1,6.0,26.177000045776367,0.0,0.0,0.0,66.7128,C,26994055000000,
Raw,1732148110000,17707000000,,700630.8990434976,-1416183310293999872,0.0,80.3307019976344,2233.731756784927,0.0,0,17,0.0,16431,346527931809772,797,21.937000274658203,345.43723310074995,0.14999,16,0.0,0.0,1575420030,,,,0,5.477568751614386,1,6.0,21.937000274658203,0.0,0.0,0.0,66.7128,C,26994055000000,
Raw,1732148110000,17707000000,,700630.8990434976,-1416183310293999872,0.0,80.3307019976344,2233.731756784927,0.0,0,14,0.0,16431,346527932926594,396,26.549999237060547,754.2319454749567,0.14999,16,0.0,0.0,1575420030,,,,0,12.16862934776728,1,6.0,26.549999237060547,0.0,0.0,0.0,66.7128,C,26994055000000,
Raw,1732148110000,17707000000,,700630.8990434976,-1416183310293999872,0.0,80.3307019976344,2233.731756784927,0.0,0,21,0.0,16431,346527920262042,235,27.35700035095215,836.754729354082,0.14999,16,0.0,0.0,1575420030,,,,0,13.226537146933396,1,6.0,27.35700035095215,0.0,0.0,0.0,66.7128,C,26994055000000,
Raw,1732148110000,17707000000,,700630.8990434976,-1416183310293999872,0.0,80.3307019976344,2233.731756784927,0.0,0,13,0.0,16431,346527931425782,487,26.079999923706055,566.3930424723242,0.14999,16,0.0,0.0,1575420030,,,,0,11.516022503940828,1,6.0,26.079999923706055,0.0,0.0,0.0,66.7128,C,26994055000000,
Raw,1732148110000,17707000000,,700630.8990434976,-1416183310293999872,0.0,80.3307019976344,2233.731756784927,0.0,0,2,0.0,16431,346527921268451,235,29.02400016784668,606.8019689328397,0.14999,16,0.0,0.0,1575420030,,,,0,15.347360869649599,1,6.0,29.02400016784668,0.0,0.0,0.0,66.7128,C,26994055000000,
Raw,1732148110000,17707000000,,700630.8990434976,-1416183310293999872,0.0,80.3307019976344,2233.731756784927,0.0,0,27,0.0,16431,346527918894990,396,21.364999771118164,950.6835884251959,0.14999,16,0.0,0.0,1575420030,,,,0,5.333401298610896,6,6.0,21.364999771118164,0.0,0.0,5.87131130439916,66.7128,C,26994055000000,
Raw,1732148110000,17707000000,,700630.8990434976,-1416183310293999872,0.0,80.3307019976344,2233.731756784927,0.0,0,7,0.0,16431,346527924771466,316,25.31999969482422,1120.8402323844327,0.14999,16,0.0,0.0,1575420030,,,,0,10.49520120671545,1,6.0,25.31999969482422,0.0,0.0,0.0,66.7128,C,26994055000000,
Raw,1732148110000,17707000000,,700630.8990434976,-1416183310293999872,0.0,80.3307019976344,2233.731756784927,0.0,0,21,0.0,16431,346527920849253,396,18.200000762939453,556.910136389094,0.14999,16,0.0,0.0,1575420030,,,,0,1.2291686478936237,6,6.0,18.200000762939453,0.0,0.0,5.87131130439916,66.7128,C,26994055000000,
Raw,1732148110000,17707000000,,700630.8990434976,-1416183310293999872,0.0,80.3307019976344,2233.731756784927,0.0,0,9,0.0,17,98085,316,5.0,865.0926312919075,0.14999,16,0.0,0.0,1600875010,,,,0,10.070069647289188,3,6.0,24.0,0.0,0.0,28.07230159785966,66.7128,C,26994055000000,
Raw,1732148110000,17707000000,,700630.8990434976,-1416183310293999872,0.0,80.3307019976344,2233.731756784927,0.0,0,16,0.0,17,846574,396,5.0,1161.8795947777332,0.14999,16,0.0,0.0,1601437440,,,,0,9.875698018917044,3,6.0,23.0,0.0,0.0,28.07230159785966,66.7128,C,26994055000000,
Fix,FLP,37.4243742000,-122.1707840000,2.0,0.048124332,2.716,,1732148110207,3.1,,26994055000000,0.9527088,0,,,
Status,1732148110000,26,0,1,14,1575420030,0.00,3.0,70.0,0,0,0,0.0
Status,1732148110000,26,1,1,22,1575420030,29.40,297.0,67.0,1,0,0,24.4
Status,1732148110000,26,2,1,30,1575420030,30.70,101.0,61.0,1,0,0,25.7
Status,1732148110000,26,3,1,17,1575420030,27.00,171.0,59.0,1,0,0,22.0
Status,1732148110000,26,4,1,13,1575420030,26.00,284.0,55.0,1,0,0,21.0
Status,1732148110000,26,5,1,19,1575420030,0.00,193.0,30.0,0,0,0,0.0
Status,1732148110000,26,6,1,7,1575420030,25.90,114.0,28.0,1,0,0,20.9
Status,1732148110000,26,7,1,15,1575420030,26.30,306.0,25.0,1,0,0,21.3
Status,1732148110000,26,8,2,131,1575420030,27.00,3.0,23.0,0,0,0,22.0
Status,1732148110000,26,9,1,2,1575420030,37.80,75.0,20.0,1,0,0,32.8
Status,1732148110000,26,10,1,21,1575420030,25.90,56.0,14.0,1,0,0,20.9
Status,1732148110000,26,11,3,9,1602000000,29.80,40.0,49.0,0,0,0,24.8
Status,1732148110000,26,12,3,20,1602000000,0.00,142.0,23.0,0,0,0,0.0
Status,1732148110000,26,13,3,11,1602000000,0.00,283.0,9.0,0,0,0,0.0
Status,1732148110000,26,14,3,16,1602000000,31.80,79.0,6.0,1,0,0,26.8
Status,1732148110000,26,15,3,17,1602000000,30.80,0.0,0.0,0,0,0,25.8
Status,1732148110000,26,16,6,21,1575420030,32.40,288.0,62.0,1,0,0,27.400002
Status,1732148110000,26,17,6,19,1575420030,0.00,281.0,54.0,0,0,0,0.0
Status,1732148110000,26,18,6,27,1575420030,26.40,45.0,50.0,1,0,0,21.4
Status,1732148110000,26,19,6,29,1575420030,0.00,198.0,50.0,0,0,0,0.0
Status,1732148110000,26,20,6,15,1575420030,0.00,86.0,17.0,0,0,0,0.0
Status,1732148110000,26,21,6,13,1575420030,0.00,136.0,9.0,0,0,0,0.0
Status,1732148110000,26,22,6,4,1575420030,0.00,324.0,8.0,0,0,0,0.0
Status,1732148110000,26,23,6,7,1575420030,0.00,162.0,7.0,0,0,0,0.0
Status,1732148110000,26,24,6,34,1575420030,0.00,38.0,6.0,0,0,0,0.0
Status,1732148110000,26,25,6,30,1575420030,0.00,65.0,3.0,0,0,0,0.0
Fix,GPS,37.4243816667,-122.1707750000,-5.199999999999999,0.83385,2.9,34.48,1732148111000,2.9,132.2,26995055000000,31.6,0,,,
Raw,1732148111000,18707000000,,700388.2832836309,-1416183310293999872,0.0,77.42967135348142,2228.5036150266087,0.0,0,15,0.0,16431,346528924791776,487,21.285999298095703,360.79736112669434,0.14999,16,0.0,0.0,1575420030,,,,0,4.414212477960249,1,6.0,21.285999298095703,0.0,0.0,0.0,66.7128,C,26995055000000,
Raw,1732148111000,18707000000,,700388.2832836309,-1416183310293999872,0.0,77.42967135348142,2228.5036150266087,0.0,0,22,0.0,16431,346528931511401,396,24.358999252319336,612.0468918309284,0.14999,16,0.0,0.0,1575420030,,,,0,9.10597060282935,1,6.0,24.358999252319336,0.0,0.0,0.0,66.7128,C,26995055000000,
Raw,1732148111000,18707000000,,700388.2832836309,-1416183310293999872,0.0,77.42967135348142,2228.5036150266087,0.0,0,30,0.0,16431,346528931401199,316,25.709999084472656,882.5837269417998,0.14999,16,0.0,0.0,1575420030,,,,0,11.039461787441105,1,6.0,25.709999084472656,0.0,0.0,0.0,66.7128,C,26995055000000,
Raw,1732148111000,18707000000,,700388.2832836309,-1416183310293999872,0.0,77.42967135348142,2228.5036150266087,0.0,0,17,0.0,16431,346528931808650,396,21.976999282836914,343.11528791696344,0.14999,16,0.0,0.0,1575420030,,,,0,5.548764966938792,1,6.0,21.976999282836914,0.0,0.0,0.0,66.7128,C,26995055000000,
Raw,1732148111000,18707000000,,700388.2832836309,-1416183310293999872,0.0,77.42967135348142,2228.5036150266087,0.0,0,27,0.0,16431,346528918891820,396,21.43600082397461,948.8912227277933,0.14999,16,0.0,0.0,1575420030,,,,0,8.21432794977454,6,6.0,21.43600082397461,0.0,0.0,4.475343518588079,66.7128,C,26995055000000,
Raw,1732148111000,18707000000,,700388.2832836309,-1416183310293999872,0.0,77.42967135348142,2228.5036150266087,0.0,0,21,0.0,16431,346528920847397,235,27.399999618530273,554.8812508947635,0.14999,16,0.0,0.0,1575420030,,,,0,13.98352889302215,6,6.0,27.399999618530273,0.0,0.0,4.475343518588079,66.7128,C,26995055000000,
Raw,1732148111000,18707000000,,700388.2832836309,-1416183310293999872,0.0,77.42967135348142,2228.5036150266087,0.0,0,9,0.0,17,95200,316,5.0,863.4732396655082,0.14999,16,0.0,0.0,1600875010,,,,0,10.806122605444163,3,6.0,25.0,0.0,0.0,28.96589624058542,66.7128,C,26995055000000,
Raw,1732148111000,18707000000,,700388.2832836309,-1416183310293999872,0.0,77.42967135348142,2228.5036150266087,0.0,0,16,0.0,17,842700,235,5.0,1159.453280100383,0.14999,16,0.0,0.0,1601437440,,,,0,13.287383642413529,3,6.0,27.0,0.0,0.0,28.96589624058542,66.7128,C,26995055000000,
Raw,1732148111000,18707000000,,700388.2832836309,-1416183310293999872,0.0,77.42967135348142,2228.5036150266087,0.0,0,13,0.0,16431,346528931423873,487,20.957000732421875,565.6070589868743,0.14999,16,0.0,0.0,1575420030,,,,0,3.9153640379124006,1,6.0,20.957000732421875,0.0,0.0,0.0,66.7128,C,26995055000000,
Raw,1732148111000,18707000000,,700388.2832836309,-1416183310293999872,0.0,77.42967135348142,2228.5036150266087,0.0,0,7,0.0,16431,346528924767658,487,20.86199951171875,1119.7361945816053,0.14999,16,0.0,0.0,1575420030,,,,0,3.742504807842275,1,6.0,20.86199951171875,0.0,0.0,0.0,66.7128,C,26995055000000,
Raw,1732148111000,18707000000,,700388.2832836309,-1416183310293999872,0.0,77.42967135348142,2228.5036150266087,0.0,0,2,0.0,16431,346528921266443,58,32.82400131225586,605.4220145961381,0.14999,16,0.0,0.0,1575420030,,,,0,19.889261224916446,1,6.0,32.82400131225586,0.0,0.0,0.0,66.7128,C,26995055000000,
Raw,1732148111000,18707000000,,700388.2832836309,-1416183310293999872,0.0,77.42967135348142,2228.5036150266087,0.0,0,21,0.0,16431,346528920259261,487,20.86199951171875,834.3924118066085,0.14999,16,0.0,0.0,1575420030,,,,0,3.742504807842275,1,6.0,20.86199951171875,0.0,0.0,0.0,66.7128,C,26995055000000,
Fix,FLP,37.4243779000,-122.1707793000,2.0,0.06251464,2.75,,1732148111207,2.9,,26995055000000,0.9627159,0,,,
Status,1732148111000,26,0,1,14,1575420030,0.00,3.0,70.0,0,0,0,0.0
Status,1732148111000,26,1,1,22,1575420030,33.20,297.0,67.0,1,0,0,28.2
Status,1732148111000,26,2,1,30,1575420030,36.50,101.0,61.0,1,0,0,31.5
Status,1732148111000,26,3,1,17,1575420030,30.40,171.0,59.0,1,0,0,25.4
Status,1732148111000,26,4,1,13,1575420030,0.00,284.0,55.0,0,0,0,0.0
Status,1732148111000,26,5,1,19,1575420030,0.00,193.0,30.0,0,0,0,0.0
Status,1732148111000,26,6,1,7,1575420030,26.30,114.0,28.0,1,0,0,21.3
Status,1732148111000,26,7,1,15,1575420030,25.50,306.0,25.0,1,0,0,20.5
Status,1732148111000,26,8,2,131,1575420030,30.00,3.0,23.0,0,0,0,25.0
Status,1732148111000,26,9,1,2,1575420030,33.10,75.0,20.0,1,0,0,28.099998
Status,1732148111000,26,10,1,21,1575420030,30.60,56.0,14.0,1,0,0,25.6
Status,1732148111000,26,11,3,9,1602000000,29.60,40.0,49.0,0,0,0,24.6
Status,1732148111000,26,12,3,20,1602000000,0.00,142.0,23.0,0,0,0,0.0
Status,1732148111000,26,13,3,11,1602000000,0.00,283.0,9.0,0,0,0,0.0
Status,1732148111000,26,14,3,16,1602000000,29.60,79.0,6.0,1,0,0,24.6
Status,1732148111000,26,15,3,17,1602000000,25.00,0.0,0.0,0,0,0,20.0
Status,1732148111000,26,16,6,21,1575420030,36.90,288.0,62.0,1,0,0,31.900002
Status,1732148111000,26,17,6,19,1575420030,0.00,281.0,54.0,0,0,0,0.0
Status,1732148111000,26,18,6,27,1575420030,26.40,45.0,50.0,1,0,0,21.4
Status,1732148111000,26,19,6,29,1575420030,0.00,198.0,50.0,0,0,0,0.0
Status,1732148111000,26,20,6,15,1575420030,0.00,86.0,17.0,0,0,0,0.0
Status,1732148111000,26,21,6,13,1575420030,0.00,136.0,9.0,0,0,0,0.0
Status,1732148111000,26,22,6,4,1575420030,0.00,324.0,8.0,0,0,0,0.0
Status,1732148111000,26,23,6,7,1575420030,0.00,162.0,7.0,0,0,0,0.0
Status,1732148111000,26,24,6,34,1575420030,0.00,38.0,6.0,0,0,0,0.0
Status,1732148111000,26,25,6,30,1575420030,0.00,65.0,3.0,0,0,0,0.0
Fix,GPS,37.4243800000,-122.1707800000,-5.099999999999998,0.0,3.0,34.48,1732148112000,3.0,177.1,26996055000000,31.5,0,,,
Raw,1732148112000,19707000000,,700281.9076088965,-1416183310293999872,0.0,77.5029451588021,2223.095107222647,0.0,0,15,0.0,16431,346529924790573,487,20.509000778198242,359.9216199811257,0.14999,16,0.0,0.0,1575420030,,,,0,3.1088778477084187,1,6.0,20.509000778198242,0.0,0.0,0.0,66.7128,C,26996055000000,
Raw,1732148112000,19707000000,,700281.9076088965,-1416183310293999872,0.0,77.5029451588021,2223.095107222647,0.0,0,22,0.0,16431,346529931509366,235,28.18600082397461,611.3416530728524,0.14999,16,0.0,0.0,1575420030,,,,0,14.299893683027983,1,6.0,28.18600082397461,0.0,0.0,0.0,66.7128,C,26996055000000,
Raw,1732148112000,19707000000,,700281.9076088965,-1416183310293999872,0.0,77.5029451588021,2223.095107222647,0.0,0,30,0.0,16431,346529931398260,74,31.472000122070312,881.6811328316616,0.14999,16,0.0,0.0,1575420030,,,,0,18.31243543514327,1,6.0,31.472000122070312,0.0,0.0,0.0,66.7128,C,26996055000000,
Raw,1732148112000,19707000000,,700281.9076088965,-1416183310293999872,0.0,77.5029451588021,2223.095107222647,0.0,0,17,0.0,16431,346529931807423,316,25.37299919128418,342.00316634971557,0.14999,16,0.0,0.0,1575420030,,,,0,10.575072019056577,1,6.0,25.37299919128418,0.0,0.0,0.0,66.7128,C,26996055000000,
Raw,1732148112000,19707000000,,700281.9076088965,-1416183310293999872,0.0,77.5029451588021,2223.095107222647,0.0,0,27,0.0,16431,346529918888654,396,21.39900016784668,947.790251180436,0.14999,16,0.0,0.0,1575420030,,,,0,5.333401298610896,6,6.0,21.39900016784668,0.0,0.0,-1.1031958896027843,66.7128,C,26996055000000,
Raw,1732148112000,19707000000,,700281.9076088965,-1416183310293999872,0.0,77.5029451588021,2223.095107222647,0.0,0,21,0.0,16431,346529920845552,58,31.899999618530273,554.0944776162381,0.14999,16,0.0,0.0,1575420030,,,,0,19.121733502884943,6,6.0,31.899999618530273,0.0,0.0,-1.1031958896027843,66.7128,C,26996055000000,
Raw,1732148112000,19707000000,,700281.9076088965,-1416183310293999872,0.0,77.5029451588021,2223.095107222647,0.0,0,9,0.0,17,92321,316,5.0,862.3328990120453,0.14999,16,0.0,0.0,1600875010,,,,0,10.619023483553928,3,6.0,25.0,0.0,0.0,28.225951690508776,66.7128,C,26996055000000,
Raw,1732148112000,19707000000,,700281.9076088965,-1416183310293999872,0.0,77.5029451588021,2223.095107222647,0.0,0,16,0.0,17,838833,316,5.0,1158.7475245389066,0.14999,16,0.0,0.0,1601437440,,,,0,10.619023483553928,3,6.0,25.0,0.0,0.0,28.225951690508776,66.7128,C,26996055000000,
Raw,1732148112000,19707000000,,700281.9076088965,-1416183310293999872,0.0,77.5029451588021,2223.095107222647,0.0,0,7,0.0,16431,346529924763956,487,21.285999298095703,1119.3460368022693,0.14999,16,0.0,0.0,1575420030,,,,0,4.414212477960249,1,6.0,21.285999298095703,0.0,0.0,0.0,66.7128,C,26996055000000,
Raw,1732148112000,19707000000,,700281.9076088965,-1416183310293999872,0.0,77.5029451588021,2223.095107222647,0.0,0,2,0.0,16431,346529921264418,316,28.090999603271484,606.0838611934734,0.14999,16,0.0,0.0,1575420030,,,,0,14.169472469360947,1,6.0,28.090999603271484,0.0,0.0,0.0,66.7128,C,26996055000000,
Raw,1732148112000,19707000000,,700281.9076088965,-1416183310293999872,0.0,77.5029451588021,2223.095107222647,0.0,0,21,0.0,16431,346529920256456,316,25.606000900268555,834.3891597174737,0.14999,16,0.0,0.0,1575420030,,,,0,10.88740731990478,1,6.0,25.606000900268555,0.0,0.0,0.0,66.7128,C,26996055000000,
Fix,FLP,37.4243790000,-122.1707793000,2.0,0.059569467,2.8,,1732148112208,3.0,,26996055000000,0.97271776,0,,,
Status,1732148112000,26,0,1,14,1575420030,37.10,3.0,70.0,1,0,0,32.1
Status,1732148112000,26,1,1,22,1575420030,34.90,297.0,67.0,1,0,0,29.900002
Status,1732148112000,26,2,1,30,1575420030,34.00,101.0,61.0,1,0,0,29.0
Status,1732148112000,26,3,1,17,1575420030,31.00,171.0,59.0,1,0,0,26.0
Status,1732148112000,26,4,1,13,1575420030,34.10,284.0,55.0,1,0,0,29.099998
Status,1732148112000,26,5,1,19,1575420030,0.00,193.0,30.0,0,0,0,0.0
Status,1732148112000,26,6,1,7,1575420030,0.00,114.0,28.0,0,0,0,0.0
Status,1732148112000,26,7,1,15,1575420030,26.40,306.0,25.0,1,0,0,21.4
Status,1732148112000,26,8,2,131,1575420030,29.00,3.0,23.0,0,0,0,24.0
Status,1732148112000,26,9,1,2,1575420030,33.80,75.0,20.0,1,0,0,28.8
Status,1732148112000,26,10,1,21,1575420030,30.80,56.0,14.0,1,0,0,25.8
Status,1732148112000,26,11,3,9,1602000000,29.30,40.0,49.0,0,0,0,24.3
Status,1732148112000,26,12,3,20,1602000000,0.00,142.0,23.0,0,0,0,0.0
Status,1732148112000,26,13,3,11,1602000000,0.00,283.0,9.0,0,0,0,0.0
Status,1732148112000,26,14,3,16,1602000000,29.30,79.0,6.0,1,0,0,24.3
Status,1732148112000,26,15,3,17,1602000000,25.40,0.0,0.0,0,0,0,20.4
Status,1732148112000,26,16,6,21,1575420030,28.10,288.0,62.0,1,0,0,23.1
Status,1732148112000,26,17,6,19,1575420030,0.00,281.0,54.0,0,0,0,0.0
Status,1732148112000,26,18,6,27,1575420030,26.50,45.0,50.0,1,0,0,21.5
Status,1732148112000,26,19,6,29,1575420030,0.00,198.0,50.0,0,0,0,0.0
Status,1732148112000,26,20,6,15,1575420030,0.00,86.0,17.0,0,0,0,0.0
Status,1732148112000,26,21,6,13,1575420030,0.00,136.0,9.0,0,0,0,0.0
Status,1732148112000,26,22,6,4,1575420030,0.00,324.0,8.0,0,0,0,0.0
Status,1732148112000,26,23,6,7,1575420030,0.00,162.0,7.0,0,0,0,0.0
Status,1732148112000,26,24,6,34,1575420030,0.00,38.0,6.0,0,0,0,0.0
Status,1732148112000,26,25,6,30,1575420030,0.00,65.0,3.0,0,0,0,0.0
Fix,GPS,37.4243850000,-122.1707866667,-4.899999999999999,0.3407461,3.0,341.03,1732148113000,3.1,179.9,26997055000000,31.4,0,,,
Raw,1732148113000,20707000000,,700097.4049687401,-1416183310293999872,0.0,81.10001651231461,2221.895521934644,0.0,0,15,0.0,16431,346530924789372,396,21.375999450683594,359.7978083019246,0.14999,16,0.0,0.0,1575420030,,,,0,4.5743255764505095,1,6.0,21.375999450683594,0.0,0.0,0.0,66.7128,C,26997055000000,
Raw,1732148113000,20707000000,,700097.4049687401,-1416183310293999872,0.0,81.10001651231461,2221.895521934644,0.0,0,22,0.0,16431,346530931507331,74,29.926000595092773,610.932679634951,0.14999,16,0.0,0.0,1575420030,,,,0,16.46550630872124,1,6.0,29.926000595092773,0.0,0.0,0.0,66.7128,C,26997055000000,
Raw,1732148113000,20707000000,,700097.4049687401,-1416183310293999872,0.0,81.10001651231461,2221.895521934644,0.0,0,30,0.0,16431,346530931395317,235,28.95599937438965,882.3231881436911,0.14999,16,0.0,0.0,1575420030,,,,0,15.255079633637472,1,6.0,28.95599937438965,0.0,0.0,0.0,66.7128,C,26997055000000,
Raw,1732148113000,20707000000,,700097.4049687401,-1416183310293999872,0.0,81.10001651231461,2221.895521934644,0.0,0,17,0.0,16431,346530931806289,316,25.95800018310547,342.12198374917403,0.14999,16,0.0,0.0,1575420030,,,,0,11.372153547939408,1,6.0,25.95800018310547,0.0,0.0,0.0,66.7128,C,26997055000000,
Raw,1732148113000,20707000000,,700097.4049687401,-1416183310293999872,0.0,81.10001651231461,2221.895521934644,0.0,0,14,0.0,16431,346530932919081,74,32.13399887084961,752.2158825035003,0.14999,16,0.0,0.0,1575420030,,,,0,19.0919617868889,1,6.0,32.13399887084961,0.0,0.0,0.0,66.7128,C,26997055000000,
Raw,1732148113000,20707000000,,700097.4049687401,-1416183310293999872,0.0,81.10001651231461,2221.895521934644,0.0,0,27,0.0,16431,346530918885491,316,21.48900032043457,947.8658854820268,0.14999,16,0.0,0.0,1575420030,,,,0,8.818807601892006,6,6.0,21.48900032043457,0.0,0.0,2.052270221024219,66.7128,C,26997055000000,
Raw,1732148113000,20707000000,,700097.4049687401,-1416183310293999872,0.0,81.10001651231461,2221.895521934644,0.0,0,13,0.0,16431,346530931420127,235,29.058000564575195,564.560815453813,0.14999,16,0.0,0.0,1575420030,,,,0,15.393136415059601,1,6.0,29.058000564575195,0.0,0.0,0.0,66.7128,C,26997055000000,
Raw,1732148113000,20707000000,,700097.4049687401,-1416183310293999872,0.0,81.10001651231461,2221.895521934644,0.0,0,21,0.0,16431,346530920843702,316,23.100000381469727,554.4149013128422,0.14999,16,0.0,0.0,1575420030,,,,0,8.671585608964625,6,6.0,23.100000381469727,0.0,0.0,2.052270221024219,66.7128,C,26997055000000,
Raw,1732148113000,20707000000,,700097.4049687401,-1416183310293999872,0.0,81.10001651231461,2221.895521934644,0.0,0,9,0.0,17,89443,316,5.0,862.8744945288812,0.14999,16,0.0,0.0,1600875010,,,,0,10.187448320571146,3,6.0,25.0,0.0,0.0,29.13494390534076,66.7128,C,26997055000000,
Raw,1732148113000,20707000000,,700097.4049687401,-1416183310293999872,0.0,81.10001651231461,2221.895521934644,0.0,0,16,0.0,17,834964,316,5.0,1159.0318925678864,0.14999,16,0.0,0.0,1601437440,,,,0,10.226690809244998,3,6.0,24.0,0.0,0.0,29.13494390534076,66.7128,C,26997055000000,
Raw,1732148113000,20707000000,,700097.4049687401,-1416183310293999872,0.0,81.10001651231461,2221.895521934644,0.0,0,2,0.0,16431,346530921262397,235,28.819000244140625,605.3806201472945,0.14999,16,0.0,0.0,1575420030,,,,0,15.09119006133204,1,6.0,28.819000244140625,0.0,0.0,0.0,66.7128,C,26997055000000,
Raw,1732148113000,20707000000,,700097.4049687401,-1416183310293999872,0.0,81.10001651231461,2221.895521934644,0.0,0,21,0.0,16431,346530920253682,316,25.809999465942383,834.4544802506657,0.14999,16,0.0,0.0,1575420030,,,,0,11.151780890970386,1,6.0,25.809999465942383,0.0,0.0,0.0,66.7128,C,26997055000000,
Fix,FLP,37.4243821000,-122.1707827000,2.0,0.050239034,2.85,,1732148113207,3.1,,26997055000000,0.98270553,0,,,
Status,1732148113000,26,0,1,14,1575420030,34.00,3.0,70.0,1,0,0,29.0
Status,1732148113000,26,1,1,22,1575420030,35.40,297.0,67.0,1,0,0,30.400002
Status,1732148113000,26,2,1,30,1575420030,32.30,101.0,61.0,1,0,0,27.3
Status,1732148113000,26,3,1,17,1575420030,29.80,171.0,59.0,1,0,0,24.8
Status,1732148113000,26,4,1,13,1575420030,32.70,284.0,55.0,1,0,0,27.7
Status,1732148113000,26,5,1,19,1575420030,0.00,193.0,30.0,0,0,0,0.0
Status,1732148113000,26,6,1,7,1575420030,34.80,114.0,28.0,1,0,0,29.8
Status,1732148113000,26,7,1,15,1575420030,28.40,306.0,25.0,1,0,0,23.4
Status,1732148113000,26,8,2,131,1575420030,32.00,3.0,23.0,0,0,0,27.0
Status,1732148113000,26,9,1,2,1575420030,29.40,75.0,20.0,1,0,0,24.4
Status,1732148113000,26,10,1,21,1575420030,34.00,56.0,14.0,1,0,0,29.0
Status,1732148113000,26,11,3,9,1602000000,30.80,40.0,49.0,0,0,0,25.8
Status,1732148113000,26,12,3,20,1602000000,0.00,142.0,23.0,0,0,0,0.0
Status,1732148113000,26,13,3,11,1602000000,0.00,283.0,9.0,0,0,0,0.0
Status,1732148113000,26,14,3,16,1602000000,29.10,79.0,6.0,1,0,0,24.1
Status,1732148113000,26,15,3,17,1602000000,32.80,0.0,0.0,0,0,0,27.8
Status,1732148113000,26,16,6,21,1575420030,31.00,288.0,62.0,1,0,0,26.0
Status,1732148113000,26,17,6,19,1575420030,29.80,281.0,54.0,1,0,0,24.8
Status,1732148113000,26,18,6,27,1575420030,26.20,45.0,50.0,1,0,0,21.2
Status,1732148113000,26,19,6,29,1575420030,0.00,198.0,50.0,0,0,0,0.0
Status,1732148113000,26,20,6,15,1575420030,0.00,86.0,17.0,0,0,0,0.0
Status,1732148113000,26,21,6,13,1575420030,0.00,136.0,9.0,0,0,0,0.0
Status,1732148113000,26,22,6,4,1575420030,0.00,324.0,8.0,0,0,0,0.0
Status,1732148113000,26,23,6,7,1575420030,0.00,162.0,7.0,0,0,0,0.0
Status,1732148113000,26,24,6,34,1575420030,0.00,38.0,6.0,0,0,0,0.0
Status,1732148113000,26,25,6,30,1575420030,0.00,65.0,3.0,0,0,0,0.0
Fix,GPS,37.4243850000,-122.1707933333,-4.800000000000001,0.79781944,3.0,283.13,1732148114000,3.1,179.9,26998055000000,31.8,0,,,
Raw,1732148114000,21707000000,,699997.4399789604,-1416183310293999872,0.0,81.67537207683363,2220.596797760674,0.0,0,15,0.0,16431,346531924788167,396,23.433000564575195,359.4846553474575,0.14999,16,0.0,0.0,1575420030,,,,0,7.786628524003172,1,6.0,23.433000564575195,0.0,0.0,0.0,66.7128,C,26998055000000,
Raw,1732148114000,21707000000,,699997.4399789604,-1416183310293999872,0.0,81.67537207683363,2220.596797760674,0.0,0,22,0.0,16431,346531931505293,74,30.402000427246094,610.8348382104117,0.14999,16,0.0,0.0,1575420030,,,,0,17.031753507370368,1,6.0,30.402000427246094,0.0,0.0,0.0,66.7128,C,26998055000000,
Raw,1732148114000,21707000000,,699997.4399789604,-1416183310293999872,0.0,81.67537207683363,2220.596797760674,0.0,0,30,0.0,16431,346531931392375,235,27.295000076293945,882.7398272202672,0.14999,16,0.0,0.0,1575420030,,,,0,13.138205304600433,1,6.0,27.295000076293945,0.0,0.0,0.0,66.7128,C,26998055000000,
Raw,1732148114000,21707000000,,699997.4399789604,-1416183310293999872,0.0,81.67537207683363,2220.596797760674,0.0,0,17,0.0,16431,346531931805153,316,24.797000885009766,342.2697447419317,0.14999,16,0.0,0.0,1575420030,,,,0,9.741253414910444,1,6.0,24.797000885009766,0.0,0.0,0.0,66.7128,C,26998055000000,
Raw,1732148114000,21707000000,,699997.4399789604,-1416183310293999872,0.0,81.67537207683363,2220.596797760674,0.0,0,7,0.0,16431,346531924756482,235,29.804000854492188,1119.1947681990878,0.14999,16,0.0,0.0,1575420030,,,,0,16.30257745864199,1,6.0,29.804000854492188,0.0,0.0,0.0,66.7128,C,26998055000000,
Raw,1732148114000,21707000000,,699997.4399789604,-1416183310293999872,0.0,81.67537207683363,2220.596797760674,0.0,0,14,0.0,16431,346531932916574,235,29.041000366210938,751.5733626073086,0.14999,16,0.0,0.0,1575420030,,,,0,15.370278797557749,1,6.0,29.041000366210938,0.0,0.0,0.0,66.7128,C,26998055000000,
Raw,1732148114000,21707000000,,699997.4399789604,-1416183310293999872,0.0,81.67537207683363,2220.596797760674,0.0,0,13,0.0,16431,346531931418245,316,27.722999572753906,564.3535180006816,0.14999,16,0.0,0.0,1575420030,,,,0,13.710794096262472,1,6.0,27.722999572753906,0.0,0.0,0.0,66.7128,C,26998055000000,
Raw,1732148114000,21707000000,,699997.4399789604,-1416183310293999872,0.0,81.67537207683363,2220.596797760674,0.0,0,27,0.0,16431,346531918882329,396,21.200000762939453,947.7023518569657,0.14999,16,0.0,0.0,1575420030,,,,0,6.031438561273179,6,6.0,21.200000762939453,0.0,0.0,2.8765219989664277,66.7128,C,26998055000000,
Raw,1732148114000,21707000000,,699997.4399789604,-1416183310293999872,0.0,81.67537207683363,2220.596797760674,0.0,0,19,0.0,16431,346531921101581,396,24.799999237060547,615.3636510810311,0.14999,16,0.0,0.0,1575420030,,,,0,10.848974117207353,6,6.0,24.799999237060547,0.0,0.0,2.8765219989664277,66.7128,C,26998055000000,
Raw,1732148114000,21707000000,,699997.4399789604,-1416183310293999872,0.0,81.67537207683363,2220.596797760674,0.0,0,21,0.0,16431,346531920841853,316,26.0,554.5308615197036,0.14999,16,0.0,0.0,1575420030,,,,0,12.267333701277524,6,6.0,26.0,0.0,0.0,2.8765219989664277,66.7128,C,26998055000000,
Raw,1732148114000,21707000000,,699997.4399789604,-1416183310293999872,0.0,81.67537207683363,2220.596797760674,0.0,0,9,0.0,17,86558,316,5.0,862.9232317246391,0.14999,16,0.0,0.0,1600875010,,,,0,12.11398183668399,3,6.0,26.0,0.0,0.0,30.380573504807483,66.7128,C,26998055000000,
Raw,1732148114000,21707000000,,699997.4399789604,-1416183310293999872,0.0,81.67537207683363,2220.596797760674,0.0,0,16,0.0,17,831096,316,5.0,1158.7531917898862,0.14999,16,0.0,0.0,1601437440,,,,0,9.978139647007847,3,6.0,26.0,0.0,0.0,30.380573504807483,66.7128,C,26998055000000,
Raw,1732148114000,21707000000,,699997.4399789604,-1416183310293999872,0.0,81.67537207683363,2220.596797760674,0.0,0,2,0.0,16431,346531921260384,316,24.44700050354004,605.124309065061,0.14999,16,0.0,0.0,1575420030,,,,0,9.24606863420252,1,6.0,24.44700050354004,0.0,0.0,0.0,66.7128,C,26998055000000,
Raw,1732148114000,21707000000,,699997.4399789604,-1416183310293999872,0.0,81.67537207683363,2220.596797760674,0.0,0,21,0.0,16431,346531920250895,235,29.02400016784668,835.4791670786054,0.14999,16,0.0,0.0,1575420030,,,,0,15.347360869649599,1,6.0,29.02400016784668,0.0,0.0,0.0,66.7128,C,26998055000000,
Fix,FLP,37.4243837000,-122.1707877000,2.0,0.041204806,2.9,,1732148114207,3.1,,26998055000000,0.99271125,0,,,
Status,1732148114000,26,0,1,14,1575420030,0.00,3.0,70.0,0,0,0,0.0
Status,1732148114000,26,1,1,22,1575420030,29.40,297.0,67.0,1,0,0,24.4
Status,1732148114000,26,2,1,30,1575420030,34.30,101.0,61.0,1,0,0,29.3
Status,1732148114000,26,3,1,17,1575420030,31.10,171.0,59.0,1,0,0,26.1
Status,1732148114000,26,4,1,13,1575420030,30.30,284.0,55.0,1,0,0,25.3
Status,1732148114000,26,5,1,19,1575420030,0.00,193.0,30.0,0,0,0,0.0
Status,1732148114000,26,6,1,7,1575420030,30.60,114.0,28.0,1,0,0,25.6
Status,1732148114000,26,7,1,15,1575420030,25.40,306.0,25.0,1,0,0,20.4
Status,1732148114000,26,8,2,131,1575420030,28.00,3.0,23.0,0,0,0,23.0
Status,1732148114000,26,9,1,2,1575420030,0.00,75.0,20.0,0,0,0,0.0
Status,1732148114000,26,10,1,21,1575420030,0.00,56.0,14.0,0,0,0,0.0
Status,1732148114000,26,11,3,9,1602000000,31.80,40.0,49.0,0,0,0,26.8
Status,1732148114000,26,12,3,20,1602000000,0.00,142.0,23.0,0,0,0,0.0
Status,1732148114000,26,13,3,11,1602000000,0.00,283.0,9.0,0,0,0,0.0
Status,1732148114000,26,14,3,16,1602000000,29.60,79.0,6.0,1,0,0,24.6
Status,1732148114000,26,15,3,17,1602000000,28.10,0.0,0.0,0,0,0,23.1
Status,1732148114000,26,16,6,21,1575420030,28.60,288.0,62.0,1,0,0,23.6
Status,1732148114000,26,17,6,19,1575420030,24.30,281.0,54.0,1,0,0,19.3
Status,1732148114000,26,18,6,27,1575420030,30.70,45.0,50.0,1,0,0,25.7
Status,1732148114000,26,19,6,29,1575420030,0.00,198.0,50.0,0,0,0,0.0
Status,1732148114000,26,20,6,15,1575420030,0.00,86.0,17.0,0,0,0,0.0
Status,1732148114000,26,21,6,13,1575420030,0.00,136.0,9.0,0,0,0,0.0
Status,1732148114000,26,22,6,4,1575420030,0.00,324.0,8.0,0,0,0,0.0
Status,1732148114000,26,23,6,7,1575420030,0.00,162.0,7.0,0,0,0,0.0
Status,1732148114000,26,24,6,34,1575420030,0.00,38.0,6.0,0,0,0,0.0
Status,1732148114000,26,25,6,30,1575420030,0.00,65.0,3.0,0,0,0,0.0
Fix,GPS,37.4243950000,-122.1707950000,-4.800000000000001,0.0,3.1,283.13,1732148115000,3.2,179.9,26999055000000,36.8,0,,,
Raw,1732148115000,22707000000,,699829.6676629537,-1416183310293999872,0.0,96.53045432134107,2221.588604619537,0.0,0,15,0.0,16431,346532924786965,487,20.409000396728516,360.08373662449236,0.14999,16,0.0,0.0,1575420030,,,,0,2.919014777031833,1,6.0,20.409000396728516,0.0,0.0,0.0,66.7128,C,26999055000000,
Raw,1732148115000,22707000000,,699829.6676629537,-1416183310293999872,0.0,96.53045432134107,2221.588604619537,0.0,0,22,0.0,16431,346532931503255,396,24.358999252319336,610.4761327788501,0.14999,16,0.0,0.0,1575420030,,,,0,9.10597060282935,1,6.0,24.358999252319336,0.0,0.0,0.0,66.7128,C,26999055000000,
Raw,1732148115000,22707000000,,699829.6676629537,-1416183310293999872,0.0,96.53045432134107,2221.588604619537,0.0,0,30,0.0,16431,346532931389430,74,29.30900001525879,882.874370793613,0.14999,16,0.0,0.0,1575420030,,,,0,15.70698334383655,1,6.0,29.30900001525879,0.0,0.0,0.0,66.7128,C,26999055000000,
Raw,1732148115000,22707000000,,699829.6676629537,-1416183310293999872,0.0,96.53045432134107,2221.588604619537,0.0,0,17,0.0,16431,346532931804017,316,26.128999710083008,342.47506771237414,0.14999,16,0.0,0.0,1575420030,,,,0,11.587073122107512,1,6.0,26.128999710083008,0.0,0.0,0.0,66.7128,C,26999055000000,
Raw,1732148115000,22707000000,,699829.6676629537,-1416183310293999872,0.0,96.53045432134107,2221.588604619537,0.0,0,27,0.0,16431,346532918879167,235,25.700000762939453,948.1111859196185,0.14999,16,0.0,0.0,1575420030,,,,0,11.899798926383317,6,6.0,25.700000762939453,0.0,0.0,3.6059046088317532,66.7128,C,26999055000000,
Raw,1732148115000,22707000000,,699829.6676629537,-1416183310293999872,0.0,96.53045432134107,2221.588604619537,0.0,0,19,0.0,16431,346532921099572,797,19.299999237060547,615.3719206791167,0.14999,16,0.0,0.0,1575420030,,,,0,3.1088778477084187,6,6.0,19.299999237060547,0.0,0.0,3.6059046088317532,66.7128,C,26999055000000,
Raw,1732148115000,22707000000,,699829.6676629537,-1416183310293999872,0.0,96.53045432134107,2221.588604619537,0.0,0,21,0.0,16431,346532920840000,396,23.600000381469727,554.9187428366455,0.14999,16,0.0,0.0,1575420030,,,,0,9.292270283764001,6,6.0,23.600000381469727,0.0,0.0,3.6059046088317532,66.7128,C,26999055000000,
Raw,1732148115000,22707000000,,699829.6676629537,-1416183310293999872,0.0,96.53045432134107,2221.588604619537,0.0,0,9,0.0,17,83681,235,5.0,862.2912026494458,0.14999,16,0.0,0.0,1600875010,,,,0,13.250440170900696,3,6.0,28.0,0.0,0.0,32.57693948278749,66.7128,C,26999055000000,
Raw,1732148115000,22707000000,,699829.6676629537,-1416183310293999872,0.0,96.53045432134107,2221.588604619537,0.0,0,16,0.0,17,827223,316,5.0,1158.6416749157763,0.14999,16,0.0,0.0,1601437440,,,,0,10.596813931880861,3,6.0,25.0,0.0,0.0,32.57693948278749,66.7128,C,26999055000000,
Raw,1732148115000,22707000000,,699829.6676629537,-1416183310293999872,0.0,96.53045432134107,2221.588604619537,0.0,0,7,0.0,16431,346532924752760,316,25.554000854492188,1118.8961334996866,0.14999,16,0.0,0.0,1575420030,,,,0,10.810370099714605,1,6.0,25.554000854492188,0.0,0.0,0.0,66.7128,C,26999055000000,
Raw,1732148115000,22707000000,,699829.6676629537,-1416183310293999872,0.0,96.53045432134107,2221.588604619537,0.0,0,13,0.0,16431,346532931416273,316,25.34600067138672,565.1476781673845,0.14999,16,0.0,0.0,1575420030,,,,0,10.535228418740889,1,6.0,25.34600067138672,0.0,0.0,0.0,66.7128,C,26999055000000,
Fix,FLP,37.4243893000,-122.1707911000,2.0,0.0421105,2.966,,1732148115207,3.2,,26999055000000,1.0068295,0,,,
Status,1732148115000,26,0,1,14,1575420030,31.20,3.0,70.0,1,0,0,26.2
Status,1732148115000,26,1,1,22,1575420030,30.60,297.0,67.0,1,0,0,25.6
Status,1732148115000,26,2,1,30,1575420030,34.50,101.0,61.0,1,0,0,29.5
Status,1732148115000,26,3,1,17,1575420030,28.00,171.0,59.0,1,0,0,23.0
Status,1732148115000,26,4,1,13,1575420030,30.30,284.0,55.0,1,0,0,25.3
Status,1732148115000,26,5,1,19,1575420030,0.00,193.0,30.0,0,0,0,0.0
Status,1732148115000,26,6,1,7,1575420030,31.80,114.0,28.0,1,0,0,26.8
Status,1732148115000,26,7,1,15,1575420030,25.50,306.0,25.0,1,0,0,20.5
Status,1732148115000,26,8,2,131,1575420030,29.00,3.0,23.0,0,0,0,24.0
Status,1732148115000,26,9,1,2,1575420030,28.50,75.0,20.0,1,0,0,23.5
Status,1732148115000,26,10,1,21,1575420030,25.00,56.0,14.0,1,0,0,20.0
Status,1732148115000,26,11,3,9,1602000000,28.30,40.0,49.0,0,0,0,23.3
Status,1732148115000,26,12,3,20,1602000000,0.00,142.0,23.0,0,0,0,0.0
Status,1732148115000,26,13,3,11,1602000000,0.00,283.0,9.0,0,0,0,0.0
Status,1732148115000,26,14,3,16,1602000000,28.90,79.0,6.0,1,0,0,23.9
Status,1732148115000,26,15,3,17,1602000000,30.10,0.0,0.0,0,0,0,25.1
Status,1732148115000,26,16,6,21,1575420030,24.50,288.0,62.0,1,0,0,19.5
Status,1732148115000,26,17,6,19,1575420030,24.30,281.0,54.0,1,0,0,19.3
Status,1732148115000,26,18,6,27,1575420030,26.90,45.0,50.0,1,0,0,21.9
Status,1732148115000,26,19,6,29,1575420030,0.00,198.0,50.0,0,0,0,0.0
Status,1732148115000,26,20,6,15,1575420030,0.00,86.0,17.0,0,0,0,0.0
Status,1732148115000,26,21,6,13,1575420030,0.00,136.0,9.0,0,0,0,0.0
Status,1732148115000,26,22,6,4,1575420030,0.00,324.0,8.0,0,0,0,0.0
Status,1732148115000,26,23,6,7,1575420030,0.00,162.0,7.0,0,0,0,0.0
Status,1732148115000,26,24,6,34,1575420030,0.00,38.0,6.0,0,0,0,0.0
Status,1732148115000,26,25,6,30,1575420030,0.00,65.0,3.0,0,0,0,0.0
Fix,GPS,37.4243933333,-122.1708000000,-4.699999999999999,0.0,3.2,283.13,1732148116000,3.1,179.9,27000055000000,36.7,0,,,
Raw,1732148116000,23707000000,,699804.9109527632,-1416183310293999872,0.0,96.26932930686014,2223.722689018945,0.0,0,15,0.0,16431,346533924785759,396,20.520999908447266,361.08096652845154,0.14999,16,0.0,0.0,1575420030,,,,0,6.552097156253396,1,6.0,20.520999908447266,0.0,0.0,0.0,66.7128,C,27000055000000,
Raw,1732148116000,23707000000,,699804.9109527632,-1416183310293999872,0.0,96.26932930686014,2223.722689018945,0.0,0,22,0.0,16431,346533931501214,316,25.631999969482422,610.9747245016216,0.14999,16,0.0,0.0,1575420030,,,,0,10.925671212790391,1,6.0,25.631999969482422,0.0,0.0,0.0,66.7128,C,27000055000000,
Raw,1732148116000,23707000000,,699804.9109527632,-1416183310293999872,0.0,96.26932930686014,2223.722689018945,0.0,0,30,0.0,16431,346533931386485,235,29.503000259399414,882.7506984896605,0.14999,16,0.0,0.0,1575420030,,,,0,15.945860363871262,1,6.0,29.503000259399414,0.0,0.0,0.0,66.7128,C,27000055000000,
Raw,1732148116000,23707000000,,699804.9109527632,-1416183310293999872,0.0,96.26932930686014,2223.722689018945,0.0,0,17,0.0,16431,346533931802871,396,23.01300048828125,342.81084591553577,0.14999,16,0.0,0.0,1575420030,,,,0,7.161883599211402,1,6.0,23.01300048828125,0.0,0.0,0.0,66.7128,C,27000055000000,
Raw,1732148116000,23707000000,,699804.9109527632,-1416183310293999872,0.0,96.26932930686014,2223.722689018945,0.0,0,27,0.0,16431,346533918876001,396,21.899999618530273,949.848823602725,0.14999,16,0.0,0.0,1575420030,,,,0,7.043303059366289,6,6.0,21.899999618530273,0.0,0.0,3.715793338891657,66.7128,C,27000055000000,
Raw,1732148116000,23707000000,,699804.9109527632,-1416183310293999872,0.0,96.26932930686014,2223.722689018945,0.0,0,19,0.0,16431,346533921097516,487,19.299999237060547,617.4002486724526,0.14999,16,0.0,0.0,1575420030,,,,0,3.1088778477084187,6,6.0,19.299999237060547,0.0,0.0,3.715793338891657,66.7128,C,27000055000000,
Raw,1732148116000,23707000000,,699804.9109527632,-1416183310293999872,0.0,96.26932930686014,2223.722689018945,0.0,0,21,0.0,16431,346533920838148,487,19.5,555.6354103651092,0.14999,16,0.0,0.0,1575420030,,,,0,3.476589459803618,6,6.0,19.5,0.0,0.0,3.715793338891657,66.7128,C,27000055000000,
Raw,1732148116000,23707000000,,699804.9109527632,-1416183310293999872,0.0,96.26932930686014,2223.722689018945,0.0,0,9,0.0,17,80795,396,5.0,863.4822921652831,0.14999,16,0.0,0.0,1600875010,,,,0,8.935517158310645,3,6.0,23.0,0.0,0.0,33.17947233972894,66.7128,C,27000055000000,
Raw,1732148116000,23707000000,,699804.9109527632,-1416183310293999872,0.0,96.26932930686014,2223.722689018945,0.0,0,16,0.0,17,823352,316,5.0,1159.151361874822,0.14999,16,0.0,0.0,1601437440,,,,0,9.741774323461865,3,6.0,24.0,0.0,0.0,33.17947233972894,66.7128,C,27000055000000,
Raw,1732148116000,23707000000,,699804.9109527632,-1416183310293999872,0.0,96.26932930686014,2223.722689018945,0.0,0,21,0.0,16431,346533920245293,487,20.031999588012695,835.5089933818125,0.14999,16,0.0,0.0,1575420030,,,,0,2.323177371921613,1,6.0,20.031999588012695,0.0,0.0,0.0,66.7128,C,27000055000000,
Raw,1732148116000,23707000000,,699804.9109527632,-1416183310293999872,0.0,96.26932930686014,2223.722689018945,0.0,0,14,0.0,16431,346533932911547,316,26.201000213623047,752.1267288027923,0.14999,16,0.0,0.0,1575420030,,,,0,11.692571054314786,1,6.0,26.201000213623047,0.0,0.0,0.0,66.7128,C,27000055000000,
Raw,1732148116000,23707000000,,699804.9109527632,-1416183310293999872,0.0,96.26932930686014,2223.722689018945,0.0,0,7,0.0,16431,346533924749045,316,26.799999237060547,1120.2055175021644,0.14999,16,0.0,0.0,1575420030,,,,0,12.49337332518099,1,6.0,26.799999237060547,0.0,0.0,0.0,66.7128,C,27000055000000,
Raw,1732148116000,23707000000,,699804.9109527632,-1416183310293999872,0.0,96.26932930686014,2223.722689018945,0.0,0,13,0.0,16431,346533931414388,396,25.34600067138672,565.6307992375579,0.14999,16,0.0,0.0,1575420030,,,,0,10.535228418740889,1,6.0,25.34600067138672,0.0,0.0,0.0,66.7128,C,27000055000000,
Raw,1732148116000,23707000000,,699804.9109527632,-1416183310293999872,0.0,96.26932930686014,2223.722689018945,0.0,0,2,0.0,16431,346533921256367,396,23.499000549316406,605.6485458335807,0.14999,16,0.0,0.0,1575420030,,,,0,7.8955439277455834,1,6.0,23.499000549316406,0.0,0.0,0.0,66.7128,C,27000055000000,
Fix,FLP,37.4243914000,-122.1707954000,2.0,0.035207964,3.033,,1732148116207,3.1,,27000055000000,1.0168312,0,,,
Status,1732148116000,26,0,1,14,1575420030,33.60,3.0,70.0,1,0,0,28.599998
Status,1732148116000,26,1,1,22,1575420030,28.70,297.0,67.0,1,0,0,23.7
Status,1732148116000,26,2,1,30,1575420030,34.50,101.0,61.0,1,0,0,29.5
Status,1732148116000,26,3,1,17,1575420030,31.80,171.0,59.0,1,0,0,26.8
Status,1732148116000,26,4,1,13,1575420030,34.40,284.0,55.0,1,0,0,29.400002
Status,1732148116000,26,5,1,19,1575420030,33.30,193.0,30.0,1,0,0,28.3
Status,1732148116000,26,6,1,7,1575420030,31.10,114.0,28.0,1,0,0,26.1
Status,1732148116000,26,7,1,15,1575420030,30.90,306.0,25.0,1,0,0,25.9
Status,1732148116000,26,8,2,131,1575420030,30.00,3.0,23.0,0,0,0,25.0
Status,1732148116000,26,9,1,2,1575420030,33.60,75.0,20.0,1,0,0,28.599998
Status,1732148116000,26,10,1,21,1575420030,0.00,56.0,14.0,0,0,0,0.0
Status,1732148116000,26,11,3,9,1602000000,28.60,40.0,49.0,0,0,0,23.6
Status,1732148116000,26,12,3,20,1602000000,0.00,142.0,23.0,0,0,0,0.0
Status,1732148116000,26,13,3,11,1602000000,0.00,283.0,9.0,0,0,0,0.0
Status,1732148116000,26,14,3,16,1602000000,27.90,79.0,6.0,1,0,0,22.9
Status,1732148116000,26,15,3,17,1602000000,34.50,0.0,0.0,0,0,0,29.5
Status,1732148116000,26,16,6,21,1575420030,22.60,288.0,62.0,1,0,0,17.6
Status,1732148116000,26,17,6,19,1575420030,20.80,281.0,54.0,1,0,0,15.799999
Status,1732148116000,26,18,6,27,1575420030,26.90,45.0,50.0,1,0,0,21.9
Status,1732148116000,26,19,6,29,1575420030,0.00,198.0,50.0,0,0,0,0.0
Status,1732148116000,26,20,6,15,1575420030,0.00,86.0,17.0,0,0,0,0.0
Status,1732148116000,26,21,6,13,1575420030,0.00,136.0,9.0,0,0,0,0.0
Status,1732148116000,26,22,6,4,1575420030,0.00,324.0,8.0,0,0,0,0.0
Status,1732148116000,26,23,6,7,1575420030,0.00,162.0,7.0,0,0,0,0.0
Status,1732148116000,26,24,6,34,1575420030,0.00,38.0,6.0,0,0,0,0.0
Status,1732148116000,26,25,6,30,1575420030,0.00,65.0,3.0,0,0,0,0.0
Fix,GPS,37.4244050000,-122.1708133333,-4.699999999999999,0.55744416,3.1,263.54,1732148117000,2.7,179.9,27001055000000,34.8,0,,,
Fix,FLP,37.4243981000,-122.1708042000,2.0,0.04918855,3.066,,1732148117207,2.7,,27001055000000,1.026826,0,,,
Raw,1732148117000,24707000000,,699624.9426995259,-1416183310293999872,0.0,89.2094932795538,2221.711284874381,0.0,0,15,0.0,16431,346534924784561,316,25.885000228881836,360.3204887135013,0.14999,16,0.0,0.0,1575420030,,,,0,11.262666094404373,1,6.0,25.885000228881836,0.0,0.0,0.0,66.7128,C,27001055000000,
Raw,1732148117000,24707000000,,699624.9426995259,-1416183310293999872,0.0,89.2094932795538,2221.711284874381,0.0,0,22,0.0,16431,346534931499172,487,23.701000213623047,610.5191068138448,0.14999,16,0.0,0.0,1575420030,,,,0,8.162003155162516,1,6.0,23.701000213623047,0.0,0.0,0.0,66.7128,C,27001055000000,
Raw,1732148117000,24707000000,,699624.9426995259,-1416183310293999872,0.0,89.2094932795538,2221.711284874381,0.0,0,30,0.0,16431,346534931383543,235,29.47100067138672,882.0108017530915,0.14999,16,0.0,0.0,1575420030,,,,0,15.90291397408955,1,6.0,29.47100067138672,0.0,0.0,0.0,66.7128,C,27001055000000,
Raw,1732148117000,24707000000,,699624.9426995259,-1416183310293999872,0.0,89.2094932795538,2221.711284874381,0.0,0,17,0.0,16431,346534931801732,316,26.8439998626709,342.3302568290459,0.14999,16,0.0,0.0,1575420030,,,,0,12.556890168649982,1,6.0,26.8439998626709,0.0,0.0,0.0,66.7128,C,27001055000000,
Raw,1732148117000,24707000000,,699624.9426995259,-1416183310293999872,0.0,89.2094932795538,2221.711284874381,0.0,0,27,0.0,16431,346534918872835,316,21.899999618530273,947.9277680924192,0.14999,16,0.0,0.0,1575420030,,,,0,7.043303059366289,6,6.0,21.899999618530273,0.0,0.0,1.1673003666819421,66.7128,C,27001055000000,
Raw,1732148117000,24707000000,,699624.9426995259,-1416183310293999872,0.0,89.2094932795538,2221.711284874381,0.0,0,19,0.0,16431,346534921095452,487,15.800000190734863,618.3806141713272,0.14999,16,0.0,0.0,1575420030,,,,0,0.0,6,6.0,15.800000190734863,0.0,0.0,1.1673003666819421,66.7128,C,27001055000000,
Raw,1732148117000,24707000000,,699624.9426995259,-1416183310293999872,0.0,89.2094932795538,2221.711284874381,0.0,0,21,0.0,16431,346534920836296,316,17.600000381469727,554.2293463984972,0.14999,16,0.0,0.0,1575420030,,,,0,0.242476098989858,6,6.0,17.600000381469727,0.0,0.0,1.1673003666819421,66.7128,C,27001055000000,
Raw,1732148117000,24707000000,,699624.9426995259,-1416183310293999872,0.0,89.2094932795538,2221.711284874381,0.0,0,9,0.0,17,77915,316,5.0,863.1498185371867,0.14999,16,0.0,0.0,1600875010,,,,0,9.330398322225788,3,6.0,24.0,0.0,0.0,34.75398119635663,66.7128,C,27001055000000,
Raw,1732148117000,24707000000,,699624.9426995259,-1416183310293999872,0.0,89.2094932795538,2221.711284874381,0.0,0,16,0.0,17,819484,396,5.0,1158.4432297242254,0.14999,16,0.0,0.0,1601437440,,,,0,8.312516507550324,3,6.0,22.0,0.0,0.0,34.75398119635663,66.7128,C,27001055000000,
Raw,1732148117000,24707000000,,699624.9426995259,-1416183310293999872,0.0,89.2094932795538,2221.711284874381,0.0,0,19,0.0,16431,346534924680406,235,28.31599998474121,15.252530334000776,0.14999,16,0.0,0.0,1575420030,,,,0,14.453857353278794,1,6.0,28.31599998474121,0.0,0.0,0.0,66.7128,C,27001055000000,
Raw,1732148117000,24707000000,,699624.9426995259,-1416183310293999872,0.0,89.2094932795538,2221.711284874381,0.0,0,14,0.0,16431,346534932909039,235,28.56999969482422,751.2215794797623,0.14999,16,0.0,0.0,1575420030,,,,0,14.778367983309474,1,6.0,28.56999969482422,0.0,0.0,0.0,66.7128,C,27001055000000,
Raw,1732148117000,24707000000,,699624.9426995259,-1416183310293999872,0.0,89.2094932795538,2221.711284874381,0.0,0,7,0.0,16431,346534924745314,235,26.104999542236328,1119.5912443230286,0.14999,16,0.0,0.0,1575420030,,,,0,11.551620462120548,1,6.0,26.104999542236328,0.0,0.0,0.0,66.7128,C,27001055000000,
Raw,1732148117000,24707000000,,699624.9426995259,-1416183310293999872,0.0,89.2094932795538,2221.711284874381,0.0,0,13,0.0,16431,346534931412544,235,29.391000747680664,565.0864924332352,0.14999,16,0.0,0.0,1575420030,,,,0,15.794609707570391,1,6.0,29.391000747680664,0.0,0.0,0.0,66.7128,C,27001055000000,
Raw,1732148117000,24707000000,,699624.9426995259,-1416183310293999872,0.0,89.2094932795538,2221.711284874381,0.0,0,2,0.0,16431,346534921254340,316,28.58799934387207,604.8531777480562,0.14999,16,0.0,0.0,1575420030,,,,0,14.802835294243469,1,6.0,28.58799934387207,0.0,0.0,0.0,66.7128,C,27001055000000,
Status,1732148117000,26,0,1,14,1575420030,36.10,3.0,70.0,1,0,0,31.099998
Status,1732148117000,26,1,1,22,1575420030,30.40,297.0,67.0,1,0,0,25.4
Status,1732148117000,26,2,1,30,1575420030,40.10,101.0,61.0,1,0,0,35.1
Status,1732148117000,26,3,1,17,1575420030,35.50,171.0,59.0,1,0,0,30.5
Status,1732148117000,26,4,1,13,1575420030,34.90,284.0,55.0,1,0,0,29.900002
Status,1732148117000,26,5,1,19,1575420030,30.30,193.0,30.0,1,0,0,25.3
Status,1732148117000,26,6,1,7,1575420030,34.60,114.0,28.0,1,0,0,29.599998
Status,1732148117000,26,7,1,15,1575420030,31.20,306.0,25.0,1,0,0,26.2
Status,1732148117000,26,8,2,131,1575420030,31.00,3.0,23.0,0,0,0,26.0
Status,1732148117000,26,9,1,2,1575420030,31.70,75.0,20.0,1,0,0,26.7
Status,1732148117000,26,10,1,21,1575420030,0.00,56.0,14.0,0,0,0,0.0
Status,1732148117000,26,11,3,9,1602000000,31.40,40.0,49.0,0,0,0,26.4
Status,1732148117000,26,12,3,20,1602000000,0.00,142.0,23.0,0,0,0,0.0
Status,1732148117000,26,13,3,11,1602000000,0.00,283.0,9.0,0,0,0,0.0
Status,1732148117000,26,14,3,16,1602000000,26.50,79.0,6.0,1,0,0,21.5
Status,1732148117000,26,15,3,17,1602000000,30.80,0.0,0.0,0,0,0,25.8
Status,1732148117000,26,16,6,21,1575420030,25.00,288.0,62.0,1,0,0,20.0
Status,1732148117000,26,17,6,19,1575420030,20.80,281.0,54.0,1,0,0,15.799999
Status,1732148117000,26,18,6,27,1575420030,24.60,45.0,50.0,1,0,0,19.6
Status,1732148117000,26,19,6,29,1575420030,0.00,198.0,50.0,0,0,0,0.0
Status,1732148117000,26,20,6,15,1575420030,0.00,86.0,17.0,0,0,0,0.0
Status,1732148117000,26,21,6,13,1575420030,0.00,136.0,9.0,0,0,0,0.0
Status,1732148117000,26,22,6,4,1575420030,0.00,324.0,8.0,0,0,0,0.0
Status,1732148117000,26,23,6,7,1575420030,0.00,162.0,7.0,0,0,0,0.0
Status,1732148117000,26,24,6,34,1575420030,0.00,38.0,6.0,0,0,0,0.0
Status,1732148117000,26,25,6,30,1575420030,0.00,65.0,3.0,0,0,0,0.0
Fix,GPS,37.4244233333,-122.1707916667,-4.599999999999998,0.50597197,2.9,323.83,1732148118000,2.8,179.9,27002055000000,33.7,0,,,
Raw,1732148118000,25707000000,,699082.7446866592,-1416183310293999872,0.0,85.74933712014577,2224.236849621927,0.0,0,15,0.0,16431,346535924783356,396,26.249000549316406,361.5822760685714,0.14999,16,0.0,0.0,1575420030,,,,0,11.762197796993057,1,6.0,26.249000549316406,0.0,0.0,0.0,66.7128,C,27002055000000,
Raw,1732148118000,25707000000,,699082.7446866592,-1416183310293999872,0.0,85.74933712014577,2224.236849621927,0.0,0,22,0.0,16431,346535931497135,316,25.37299919128418,612.060922272624,0.14999,16,0.0,0.0,1575420030,,,,0,10.575072019056577,1,6.0,25.37299919128418,0.0,0.0,0.0,66.7128,C,27002055000000,
Raw,1732148118000,25707000000,,699082.7446866592,-1416183310293999872,0.0,85.74933712014577,2224.236849621927,0.0,0,30,0.0,16431,346535931380601,58,35.095001220703125,883.0882653418463,0.14999,16,0.0,0.0,1575420030,,,,0,22.460849182866475,1,6.0,35.095001220703125,0.0,0.0,0.0,66.7128,C,27002055000000,
Raw,1732148118000,25707000000,,699082.7446866592,-1416183310293999872,0.0,85.74933712014577,2224.236849621927,0.0,0,17,0.0,16431,346535931800596,235,30.54400062561035,344.0041767943197,0.14999,16,0.0,0.0,1575420030,,,,0,17.20023509740371,1,6.0,30.54400062561035,0.0,0.0,0.0,66.7128,C,27002055000000,
Raw,1732148118000,25707000000,,699082.7446866592,-1416183310293999872,0.0,85.74933712014577,2224.236849621927,0.0,0,13,0.0,16431,346535931410662,74,29.864999771118164,566.6979025994978,0.14999,16,0.0,0.0,1575420030,,,,0,16.384423902998606,1,6.0,29.864999771118164,0.0,0.0,0.0,66.7128,C,27002055000000,
Raw,1732148118000,25707000000,,699082.7446866592,-1416183310293999872,0.0,85.74933712014577,2224.236849621927,0.0,0,7,0.0,16431,346535924741599,235,29.58300018310547,1120.3281677209602,0.14999,16,0.0,0.0,1575420030,,,,0,16.031121314856513,1,6.0,29.58300018310547,0.0,0.0,0.0,66.7128,C,27002055000000,
Raw,1732148118000,25707000000,,699082.7446866592,-1416183310293999872,0.0,85.74933712014577,2224.236849621927,0.0,0,27,0.0,16431,346535918869670,487,19.600000381469727,949.076498891641,0.14999,16,0.0,0.0,1575420030,,,,0,3.566135506898503,6,6.0,19.600000381469727,0.0,0.0,-1.946777517765455,66.7128,C,27002055000000,
Raw,1732148118000,25707000000,,699082.7446866592,-1416183310293999872,0.0,85.74933712014577,2224.236849621927,0.0,0,19,0.0,16431,346535924680362,316,25.267000198364258,16.480472732861514,0.14999,16,0.0,0.0,1575420030,,,,0,10.414589123342626,1,6.0,25.267000198364258,0.0,0.0,0.0,66.7128,C,27002055000000,
Raw,1732148118000,25707000000,,699082.7446866592,-1416183310293999872,0.0,85.74933712014577,2224.236849621927,0.0,0,19,0.0,16431,346535921093388,487,15.800000190734863,619.3055083212466,0.14999,16,0.0,0.0,1575420030,,,,0,0.0,6,6.0,15.800000190734863,0.0,0.0,-1.946777517765455,66.7128,C,27002055000000,
Raw,1732148118000,25707000000,,699082.7446866592,-1416183310293999872,0.0,85.74933712014577,2224.236849621927,0.0,0,14,0.0,16431,346535932906533,74,31.0939998626709,753.7915661476969,0.14999,16,0.0,0.0,1575420030,,,,0,17.860466391468165,1,6.0,31.0939998626709,0.0,0.0,0.0,66.7128,C,27002055000000,
Raw,1732148118000,25707000000,,699082.7446866592,-1416183310293999872,0.0,85.74933712014577,2224.236849621927,0.0,0,21,0.0,16431,346535920834449,396,20.0,555.4510633695858,0.14999,16,0.0,0.0,1575420030,,,,0,4.251092385601996,6,6.0,20.0,0.0,0.0,-1.946777517765455,66.7128,C,27002055000000,
