# 
# Header Description:
# 
# Version: v3.1.0.3 Platform: 13 Manufacturer: samsung Model: SM-S135DL GNSS Hardware Model Name: MediaTek,MT6631,MTK_MNLD_default,MNL_VER_default
# 
# Raw,utcTimeMillis,TimeNanos,LeapSecond,TimeUncertaintyNanos,FullBiasNanos,BiasNanos,BiasUncertaintyNanos,DriftNanosPerSecond,DriftUncertaintyNanosPerSecond,HardwareClockDiscontinuityCount,Svid,TimeOffsetNanos,State,ReceivedSvTimeNanos,ReceivedSvTimeUncertaintyNanos,Cn0DbHz,PseudorangeRateMetersPerSecond,PseudorangeRateUncertaintyMetersPerSecond,AccumulatedDeltaRangeState,AccumulatedDeltaRangeMeters,AccumulatedDeltaRangeUncertaintyMeters,CarrierFrequencyHz,CarrierCycles,CarrierPhase,CarrierPhaseUncertainty,MultipathIndicator,SnrInDb,ConstellationType,AgcDb,BasebandCn0DbHz,FullInterSignalBiasNanos,FullInterSignalBiasUncertaintyNanos,SatelliteInterSignalBiasNanos,SatelliteInterSignalBiasUncertaintyNanos,CodeType,ChipsetElapsedRealtimeNanos,IsFullTracking
# 
# UncalAccel,utcTimeMillis,elapsedRealtimeNanos,UncalAccelXMps2,UncalAccelYMps2,UncalAccelZMps2,BiasXMps2,BiasYMps2,BiasZMps2
# 
# Accel,utcTimeMillis,elapsedRealtimeNanos,AccelXMps2,AccelYMps2,AccelZMps2
# 
# UncalGyro,utcTimeMillis,elapsedRealtimeNanos,UncalGyroXRadPerSec,UncalGyroYRadPerSec,UncalGyroZRadPerSec,DriftXRadPerSec,DriftYRadPerSec,DriftZRadPerSec
# 
# Gyro,utcTimeMillis,elapsedRealtimeNanos,GyroXRadPerSec,GyroYRadPerSec,GyroZRadPerSec
# 
# UncalMag,utcTimeMillis,elapsedRealtimeNanos,UncalMagXMicroT,UncalMagYMicroT,UncalMagZMicroT,BiasXMicroT,BiasYMicroT,BiasZMicroT
# 
# Mag,utcTimeMillis,elapsedRealtimeNanos,MagXMicroT,MagYMicroT,MagZMicroT
# 
# Pressure,utcTimeMillis,elapsedRealtimeNanos,PressureHpa
# 
# OrientationDeg,utcTimeMillis,elapsedRealtimeNanos,yawDeg,rollDeg,pitchDeg
# 
# Fix,Provider,LatitudeDegrees,LongitudeDegrees,AltitudeMeters,SpeedMps,AccuracyMeters,BearingDegrees,UnixTimeMillis,SpeedAccuracyMps,BearingAccuracyDegrees,elapsedRealtimeNanos,VerticalAccuracyMeters,MockLocation,NumberOfUsedSignals,VerticalSpeedAccuracyMps,SolutionType
# 
# Nav,Svid,Type,Status,MessageId,Sub-messageId,Data(Bytes)
# 
# Status,UnixTimeMillis,SignalCount,SignalIndex,ConstellationType,Svid,CarrierFrequencyHz,Cn0DbHz,AzimuthDegrees,ElevationDegrees,UsedInFix,HasAlmanacData,HasEphemerisData,BasebandCn0DbHz
# 
# Agc,utcTimeMillis,TimeNanos,LeapSecond,TimeUncertaintyNanos,FullBiasNanos,BiasNanos,BiasUncertaintyNanos,DriftNanosPerSecond,DriftUncertaintyNanosPerSecond,HardwareClockDiscontinuityCount,AgcDb,CarrierFrequencyHz,ConstellationType
# 
Fix,FLP,37.4243624000,-122.1708201000,2.0,0.051980957,2.533,,1732148143207,1.2,,27027055000000,1.0889671,0,,,
Status,,29,0,1,14,1575420030,28.20,4.0,70.0,1,0,0,23.2
Status,,29,1,1,22,1575420030,32.10,298.0,67.0,1,0,0,27.099998
Status,,29,2,1,30,1575420030,35.50,102.0,61.0,1,0,0,30.5
Status,,29,3,1,17,1575420030,28.70,171.0,59.0,1,0,0,23.7
Status,,29,4,1,13,1575420030,33.70,284.0,55.0,1,0,0,28.7
Status,,29,5,1,19,1575420030,0.00,193.0,30.0,0,0,0,0.0
Status,,29,6,1,7,1575420030,40.20,114.0,27.0,1,0,0,35.2
Status,,29,7,1,15,1575420030,26.80,306.0,25.0,1,0,0,21.8
Status,,29,8,2,131,1575420030,32.00,3.0,23.0,0,0,0,27.0
Status,,29,9,1,2,1575420030,39.50,74.0,20.0,1,0,0,34.5
Status,,29,10,1,21,1575420030,0.00,56.0,14.0,0,0,0,0.0
Status,,29,11,3,9,1602000000,24.10,40.0,48.0,1,0,0,19.1
Status,,29,12,3,8,1602000000,0.00,283.0,40.0,0,0,0,0.0
Status,,29,13,3,19,1602000000,0.00,68.0,36.0,0,0,0,0.0
Status,,29,14,3,20,1602000000,0.00,142.0,24.0,0,0,0,0.0
Status,,29,15,3,18,1602000000,22.40,28.0,14.0,1,0,0,17.4
Status,,29,16,3,11,1602000000,0.00,283.0,9.0,0,0,0,0.0
Status,,29,17,3,16,1602000000,25.10,79.0,6.0,1,0,0,20.1
Status,,29,18,3,17,1602000000,29.90,0.0,0.0,0,0,0,24.9
Status,,29,19,6,21,1575420030,29.10,288.0,62.0,1,0,0,24.1
Status,,29,20,6,19,1575420030,0.00,281.0,54.0,0,0,0,0.0
Status,,29,21,6,27,1575420030,18.50,45.0,50.0,1,0,0,13.5
Status,,29,22,6,29,1575420030,0.00,198.0,49.0,0,0,0,0.0
Status,,29,23,6,15,1575420030,0.00,86.0,17.0,0,0,0,0.0
Status,,29,24,6,13,1575420030,0.00,136.0,9.0,0,0,0,0.0
Status,,29,25,6,4,1575420030,0.00,324.0,8.0,0,0,0,0.0
Status,,29,26,6,7,1575420030,0.00,162.0,7.0,0,0,0,0.0
Status,,29,27,6,34,1575420030,0.00,38.0,6.0,0,0,0,0.0
Status,,29,28,6,30,1575420030,0.00,65.0,3.0,0,0,0,0.0
Fix,GPS,37.4243666667,-122.1708016667,-4.399999999999999,0.28361195,2.5,91.12,1732148144000,1.2,177.0,27028055000000,33.6,0,,,
Raw,1732148144000,14470000000,,698629.7229498682,-1416183347530999808,0.0,86.8825012182665,2225.8346110585526,0.0,0,13,0.0,16431,346561931361621,235,28.731000900268555,569.2349037919229,0.14999,16,0.0,0.0,1575420030,,,,0,14.972203411068016,1,6.0,28.731000900268555,0.0,0.0,0.0,66.7128,C,27028055000000,
Raw,1732148144000,14470000000,,698629.7229498682,-1416183347530999808,0.0,86.8825012182665,2225.8346110585526,0.0,0,30,0.0,16431,346561931304146,74,30.54400062561035,884.388357661082,0.14999,16,0.0,0.0,1575420030,,,,0,17.20023509740371,1,6.0,30.54400062561035,0.0,0.0,0.0,66.7128,C,27028055000000,
Raw,1732148144000,14470000000,,698629.7229498682,-1416183347530999808,0.0,86.8825012182665,2225.8346110585526,0.0,0,15,0.0,16431,346561924752150,487,21.770000457763672,364.1004848316393,0.14999,16,0.0,0.0,1575420030,,,,0,5.186800525082869,1,6.0,21.770000457763672,0.0,0.0,0.0,66.7128,C,27028055000000,
Raw,1732148144000,14470000000,,698629.7229498682,-1416183347530999808,0.0,86.8825012182665,2225.8346110585526,0.0,0,2,0.0,16431,346561921199866,58,34.452999114990234,607.64323793358,0.14999,16,0.0,0.0,1575420030,,,,0,21.744080678292324,1,6.0,34.452999114990234,0.0,0.0,0.0,66.7128,C,27028055000000,
Raw,1732148144000,14470000000,,698629.7229498682,-1416183347530999808,0.0,86.8825012182665,2225.8346110585526,0.0,0,27,0.0,16431,346561918787566,487,13.5,949.5763914500664,0.14999,16,0.0,0.0,1575420030,,,,0,0.0,6,6.0,13.5,0.0,0.0,24.194321541946724,66.7128,C,27028055000000,
Raw,1732148144000,14470000000,,698629.7229498682,-1416183347530999808,0.0,86.8825012182665,2225.8346110585526,0.0,0,22,0.0,16431,346561931444191,487,27.14699935913086,612.8441182531012,0.14999,16,0.0,0.0,1575420030,,,,0,12.958800173440752,1,6.0,27.14699935913086,0.0,0.0,0.0,66.7128,C,27028055000000,
Raw,1732148144000,14470000000,,698629.7229498682,-1416183347530999808,0.0,86.8825012182665,2225.8346110585526,0.0,0,7,0.0,16431,346561924644614,58,35.21099853515625,1120.5868481824205,0.14999,16,0.0,0.0,1575420030,,,,0,22.591391021848008,1,6.0,35.21099853515625,0.0,0.0,0.0,66.7128,C,27028055000000,
Raw,1732148144000,14470000000,,698629.7229498682,-1416183347530999808,0.0,86.8825012182665,2225.8346110585526,0.0,0,21,0.0,16431,346561920786434,235,24.100000381469727,555.579335056743,0.14999,16,0.0,0.0,1575420030,,,,0,9.999909439794978,6,6.0,24.100000381469727,0.0,0.0,24.194321541946724,66.7128,C,27028055000000,
Raw,1732148144000,14470000000,,698629.7229498682,-1416183347530999808,0.0,86.8825012182665,2225.8346110585526,0.0,0,17,0.0,16431,346561931770921,396,23.733999252319336,346.3337411583647,0.14999,16,0.0,0.0,1575420030,,,,0,8.21432794977454,1,6.0,23.733999252319336,0.0,0.0,0.0,66.7128,C,27028055000000,
Raw,1732148144000,14470000000,,698629.7229498682,-1416183347530999808,0.0,86.8825012182665,2225.8346110585526,0.0,0,14,0.0,16431,346561932841397,487,23.19300079345703,754.0604674607235,0.14999,16,0.0,0.0,1575420030,,,,0,7.394295849694243,1,6.0,23.19300079345703,0.0,0.0,0.0,66.7128,C,27028055000000,
Raw,1732148144000,14470000000,,698629.7229498682,-1416183347530999808,0.0,86.8825012182665,2225.8346110585526,0.0,0,16,0.0,17,715321,487,5.0,1157.1010967221332,0.14999,16,0.0,0.0,1601437440,,,,0,4.309014620619196,3,6.0,20.0,0.0,0.0,46.08728527628679,66.7128,C,27028055000000,
Raw,1732148144000,14470000000,,698629.7229498682,-1416183347530999808,0.0,86.8825012182665,2225.8346110585526,0.0,0,9,0.0,17,340,797,5.0,865.0945515191326,0.14999,16,0.0,0.0,1600875010,,,,0,2.84732243200341,3,6.0,17.0,0.0,0.0,46.08728527628679,66.7128,C,27028055000000,
Raw,1732148144000,14470000000,,698629.7229498682,-1416183347530999808,0.0,86.8825012182665,2225.8346110585526,0.0,0,18,0.0,17,336076,487,5.0,1183.1479528608224,0.14999,16,0.0,0.0,1600312450,,,,0,0.0,3,6.0,19.0,0.0,0.0,46.08728527628679,66.7128,C,27028055000000,
Fix,FLP,37.4243643000,-122.1708111000,2.0,0.045809433,2.516,,1732148144207,1.2,,27028055000000,1.0989485,0,,,
Status,1732148144000,29,0,1,14,1575420030,28.60,4.0,70.0,1,0,0,23.6
Status,1732148144000,29,1,1,22,1575420030,29.20,298.0,67.0,1,0,0,24.2
Status,1732148144000,29,2,1,30,1575420030,29.70,102.0,61.0,1,0,0,24.7
Status,1732148144000,29,3,1,17,1575420030,28.80,171.0,59.0,1,0,0,23.8
Status,1732148144000,29,4,1,13,1575420030,30.60,284.0,55.0,1,0,0,25.6
Status,1732148144000,29,5,1,19,1575420030,0.00,193.0,30.0,0,0,0,0.0
Status,1732148144000,29,6,1,7,1575420030,32.00,114.0,27.0,1,0,0,27.0
Status,1732148144000,29,7,1,15,1575420030,27.30,306.0,25.0,1,0,0,22.3
Status,1732148144000,29,8,2,131,1575420030,32.00,3.0,23.0,0,0,0,27.0
Status,1732148144000,29,9,1,2,1575420030,31.80,74.0,20.0,1,0,0,26.8
Status,1732148144000,29,10,1,21,1575420030,0.00,56.0,14.0,0,0,0,0.0
Status,1732148144000,29,11,3,9,1602000000,24.10,40.0,48.0,1,0,0,19.1
Status,1732148144000,29,12,3,8,1602000000,25.70,283.0,40.0,1,0,0,20.7
Status,1732148144000,29,13,3,19,1602000000,0.00,68.0,36.0,0,0,0,0.0
Status,1732148144000,29,14,3,20,1602000000,0.00,142.0,24.0,0,0,0,0.0
Status,1732148144000,29,15,3,18,1602000000,22.40,28.0,14.0,1,0,0,17.4
Status,1732148144000,29,16,3,11,1602000000,0.00,283.0,9.0,0,0,0,0.0
Status,1732148144000,29,17,3,16,1602000000,32.90,79.0,6.0,1,0,0,27.900002
Status,1732148144000,29,18,3,17,1602000000,29.80,0.0,0.0,0,0,0,24.8
Status,1732148144000,29,19,6,21,1575420030,23.50,288.0,62.0,1,0,0,18.5
Status,1732148144000,29,20,6,19,1575420030,0.00,281.0,54.0,0,0,0,0.0
Status,1732148144000,29,21,6,27,1575420030,18.50,45.0,50.0,1,0,0,13.5
Status,1732148144000,29,22,6,29,1575420030,0.00,198.0,49.0,0,0,0,0.0
Status,1732148144000,29,23,6,15,1575420030,0.00,86.0,17.0,0,0,0,0.0
Status,1732148144000,29,24,6,13,1575420030,0.00,136.0,9.0,0,0,0,0.0
Status,1732148144000,29,25,6,4,1575420030,0.00,324.0,8.0,0,0,0,0.0
Status,1732148144000,29,26,6,7,1575420030,0.00,162.0,7.0,0,0,0,0.0
Status,1732148144000,29,27,6,34,1575420030,0.00,38.0,6.0,0,0,0,0.0
Status,1732148144000,29,28,6,30,1575420030,0.00,65.0,3.0,0,0,0,0.0
Fix,GPS,37.4243716667,-122.1707933333,-4.399999999999999,0.0,2.5,91.12,1732148145000,1.2,145.1,27029055000000,34.0,0,,,
Raw,1732148145000,15470000000,,698486.9158216115,-1416183347530999808,0.0,88.89658607339925,2224.732998661394,0.0,0,13,0.0,16431,346562931359723,396,25.579999923706055,568.7944780062469,0.14999,16,0.0,0.0,1575420030,,,,0,10.848974117207353,1,6.0,25.579999923706055,0.0,0.0,0.0,66.7128,C,27029055000000,
Raw,1732148145000,15470000000,,698486.9158216115,-1416183347530999808,0.0,88.89658607339925,2224.732998661394,0.0,0,30,0.0,16431,346562931301195,316,24.652999877929688,884.3253600487005,0.14999,16,0.0,0.0,1575420030,,,,0,9.564435306162297,1,6.0,24.652999877929688,0.0,0.0,0.0,66.7128,C,27029055000000,
Raw,1732148145000,15470000000,,698486.9158216115,-1416183347530999808,0.0,88.89658607339925,2224.732998661394,0.0,0,15,0.0,16431,346562924750931,487,22.30299949645996,363.9155338767051,0.14999,16,0.0,0.0,1575420030,,,,0,6.031438561273179,1,6.0,22.30299949645996,0.0,0.0,0.0,66.7128,C,27029055000000,
Raw,1732148145000,15470000000,,698486.9158216115,-1416183347530999808,0.0,88.89658607339925,2224.732998661394,0.0,0,2,0.0,16431,346562921197844,316,26.7549991607666,607.3556138788207,0.14999,16,0.0,0.0,1575420030,,,,0,12.42938858177953,1,6.0,26.7549991607666,0.0,0.0,0.0,66.7128,C,27029055000000,
Raw,1732148145000,15470000000,,698486.9158216115,-1416183347530999808,0.0,88.89658607339925,2224.732998661394,0.0,0,27,0.0,16431,346562918784400,487,13.5,949.0119216931083,0.14999,16,0.0,0.0,1575420030,,,,0,0.0,6,6.0,13.5,0.0,0.0,24.71760706796849,66.7128,C,27029055000000,
Raw,1732148145000,15470000000,,698486.9158216115,-1416183347530999808,0.0,88.89658607339925,2224.732998661394,0.0,0,22,0.0,16431,346562931442141,396,24.238000869750977,613.1362952326493,0.14999,16,0.0,0.0,1575420030,,,,0,8.963575780370393,1,6.0,24.238000869750977,0.0,0.0,0.0,66.7128,C,27029055000000,
Raw,1732148145000,15470000000,,698486.9158216115,-1416183347530999808,0.0,88.89658607339925,2224.732998661394,0.0,0,7,0.0,16431,346562924640876,316,26.974000930786133,1120.5622252218288,0.14999,16,0.0,0.0,1575420030,,,,0,12.713679437376609,1,6.0,26.974000930786133,0.0,0.0,0.0,66.7128,C,27029055000000,
Raw,1732148145000,15470000000,,698486.9158216115,-1416183347530999808,0.0,88.89658607339925,2224.732998661394,0.0,0,21,0.0,16431,346562920784580,487,18.5,555.5132247304755,0.14999,16,0.0,0.0,1575420030,,,,0,1.7933857660571721,6,6.0,18.5,0.0,0.0,24.71760706796849,66.7128,C,27029055000000,
Raw,1732148145000,15470000000,,698486.9158216115,-1416183347530999808,0.0,88.89658607339925,2224.732998661394,0.0,0,17,0.0,16431,346562931769749,487,23.83099937438965,346.44033999435976,0.14999,16,0.0,0.0,1575420030,,,,0,8.369437243709786,1,6.0,23.83099937438965,0.0,0.0,0.0,66.7128,C,27029055000000,
Raw,1732148145000,15470000000,,698486.9158216115,-1416183347530999808,0.0,88.89658607339925,2224.732998661394,0.0,0,14,0.0,16431,346562932838883,396,23.566999435424805,753.2830787822726,0.14999,16,0.0,0.0,1575420030,,,,0,7.949493726270201,1,6.0,23.566999435424805,0.0,0.0,0.0,66.7128,C,27029055000000,
Raw,1732148145000,15470000000,,698486.9158216115,-1416183347530999808,0.0,88.89658607339925,2224.732998661394,0.0,0,16,0.0,17,711459,235,5.0,1157.8616052406517,0.14999,16,0.0,0.0,1601437440,,,,0,14.542425094393248,3,6.0,27.0,0.0,0.0,49.97145825953518,66.7128,C,27029055000000,
Raw,1732148145000,15470000000,,698486.9158216115,-1416183347530999808,0.0,88.89658607339925,2224.732998661394,0.0,0,9,0.0,17,997455,487,5.0,864.1139554829097,0.14999,16,0.0,0.0,1600875010,,,,0,2.981990085182778,3,6.0,19.0,0.0,0.0,49.97145825953518,66.7128,C,27029055000000,
Raw,1732148145000,15470000000,,698486.9158216115,-1416183347530999808,0.0,88.89658607339925,2224.732998661394,0.0,0,8,0.0,17,819736,487,5.0,757.1863887606983,0.14999,16,0.0,0.0,1605374980,,,,0,5.292481830174646,3,6.0,20.0,0.0,0.0,49.97145825953518,66.7128,C,27029055000000,
Raw,1732148145000,15470000000,,698486.9158216115,-1416183347530999808,0.0,88.89658607339925,2224.732998661394,0.0,0,18,0.0,17,332131,487,5.0,1181.8390867087276,0.14999,16,0.0,0.0,1600312450,,,,0,0.0,3,6.0,19.0,0.0,0.0,49.97145825953518,66.7128,C,27029055000000,
Fix,FLP,37.4243680000,-122.1708024000,2.0,0.02378833,2.5,,1732148145207,1.2,,27029055000000,1.1045663,0,,,
Fix,NLP,37.4243522000,-122.1708626000,2.0,,10.976,,1732148144503,,,27028351000000,1.0,0,,,
Status,1732148145000,29,0,1,14,1575420030,28.70,4.0,70.0,1,0,0,23.7
Status,1732148145000,29,1,1,22,1575420030,28.80,298.0,67.0,1,0,0,23.8
Status,1732148145000,29,2,1,30,1575420030,33.00,102.0,61.0,1,0,0,28.0
Status,1732148145000,29,3,1,17,1575420030,25.30,171.0,59.0,1,0,0,20.3
Status,1732148145000,29,4,1,13,1575420030,29.40,284.0,55.0,1,0,0,24.4
Status,1732148145000,29,5,1,19,1575420030,0.00,193.0,31.0,0,0,0,0.0
Status,1732148145000,29,6,1,7,1575420030,31.80,114.0,27.0,1,0,0,26.8
Status,1732148145000,29,7,1,15,1575420030,25.20,306.0,25.0,1,0,0,20.2
Status,1732148145000,29,8,2,131,1575420030,31.00,3.0,23.0,0,0,0,26.0
Status,1732148145000,29,9,1,2,1575420030,32.30,74.0,20.0,1,0,0,27.3
Status,1732148145000,29,10,1,21,1575420030,30.00,56.0,14.0,1,0,0,25.0
Status,1732148145000,29,11,3,9,1602000000,24.10,40.0,48.0,1,0,0,19.1
Status,1732148145000,29,12,3,8,1602000000,21.90,283.0,40.0,1,0,0,16.9
Status,1732148145000,29,13,3,19,1602000000,0.00,68.0,36.0,0,0,0,0.0
Status,1732148145000,29,14,3,20,1602000000,0.00,142.0,24.0,0,0,0,0.0
Status,1732148145000,29,15,3,18,1602000000,22.50,28.0,14.0,1,0,0,17.5
Status,1732148145000,29,16,3,11,1602000000,0.00,283.0,9.0,0,0,0,0.0
Status,1732148145000,29,17,3,16,1602000000,27.30,79.0,6.0,1,0,0,22.3
Status,1732148145000,29,18,3,17,1602000000,29.80,0.0,0.0,0,0,0,24.8
Status,1732148145000,29,19,6,21,1575420030,22.20,288.0,62.0,1,0,0,17.2
Status,1732148145000,29,20,6,19,1575420030,0.00,281.0,54.0,0,0,0,0.0
Status,1732148145000,29,21,6,27,1575420030,21.30,45.0,50.0,1,0,0,16.3
Status,1732148145000,29,22,6,29,1575420030,20.40,198.0,49.0,1,0,0,15.4
Status,1732148145000,29,23,6,15,1575420030,0.00,86.0,17.0,0,0,0,0.0
Status,1732148145000,29,24,6,13,1575420030,0.00,136.0,9.0,0,0,0,0.0
Status,1732148145000,29,25,6,4,1575420030,0.00,324.0,8.0,0,0,0,0.0
Status,1732148145000,29,26,6,7,1575420030,0.00,162.0,7.0,0,0,0,0.0
Status,1732148145000,29,27,6,34,1575420030,0.00,38.0,6.0,0,0,0,0.0
Status,1732148145000,29,28,6,30,1575420030,0.00,65.0,3.0,0,0,0,0.0
Fix,GPS,37.4243766667,-122.1707800000,-4.5,0.0,2.6,91.12,1732148146000,1.2,88.3,27030055000000,33.9,0,,,
Fix,FLP,37.4243721000,-122.1707914000,2.0,0.03503704,2.516,,1732148146207,1.2,,27030055000000,0.89400685,0,,,
Raw,1732148146000,16470000000,,698292.406258599,-1416183347530999808,0.0,89.37262086212064,2219.836713445322,0.0,0,13,0.0,16431,346563931357820,316,24.417999267578125,567.6305088465081,0.14999,16,0.0,0.0,1575420030,,,,0,9.199619915821895,1,6.0,24.417999267578125,0.0,0.0,0.0,66.7128,C,27030055000000,
Raw,1732148146000,16470000000,,698292.406258599,-1416183347530999808,0.0,89.37262086212064,2219.836713445322,0.0,0,30,0.0,16431,346563931298243,235,27.97599983215332,883.0360460820257,0.14999,16,0.0,0.0,1575420030,,,,0,14.03706305101198,1,6.0,27.97599983215332,0.0,0.0,0.0,66.7128,C,27030055000000,
Raw,1732148146000,16470000000,,698292.406258599,-1416183347530999808,0.0,89.37262086212064,2219.836713445322,0.0,0,15,0.0,16431,346563924749715,487,20.198999404907227,363.0097109066402,0.14999,16,0.0,0.0,1575420030,,,,0,2.626204253374032,1,6.0,20.198999404907227,0.0,0.0,0.0,66.7128,C,27030055000000,
Raw,1732148146000,16470000000,,698292.406258599,-1416183347530999808,0.0,89.37262086212064,2219.836713445322,0.0,0,2,0.0,16431,346563921195816,235,27.295000076293945,606.2983132427012,0.14999,16,0.0,0.0,1575420030,,,,0,13.138205304600433,1,6.0,27.295000076293945,0.0,0.0,0.0,66.7128,C,27030055000000,
Raw,1732148146000,16470000000,,698292.406258599,-1416183347530999808,0.0,89.37262086212064,2219.836713445322,0.0,0,29,0.0,16431,346563919197546,487,15.399999618530273,1072.0433782523532,0.14999,16,0.0,0.0,1575420030,,,,0,0.0,6,6.0,15.399999618530273,0.0,0.0,24.75000988104009,66.7128,C,27030055000000,
Raw,1732148146000,16470000000,,698292.406258599,-1416183347530999808,0.0,89.37262086212064,2219.836713445322,0.0,0,27,0.0,16431,346563918781231,487,16.299999237060547,947.8267674955775,0.14999,16,0.0,0.0,1575420030,,,,0,0.0,6,6.0,16.299999237060547,0.0,0.0,24.75000988104009,66.7128,C,27030055000000,
Raw,1732148146000,16470000000,,698292.406258599,-1416183347530999808,0.0,89.37262086212064,2219.836713445322,0.0,0,22,0.0,16431,346563931440094,316,23.798999786376953,611.8588746205244,0.14999,16,0.0,0.0,1575420030,,,,0,8.318041297074915,1,6.0,23.798999786376953,0.0,0.0,0.0,66.7128,C,27030055000000,
Raw,1732148146000,16470000000,,698292.406258599,-1416183347530999808,0.0,89.37262086212064,2219.836713445322,0.0,0,7,0.0,16431,346563924637142,316,26.799999237060547,1118.65064722843,0.14999,16,0.0,0.0,1575420030,,,,0,12.49337332518099,1,6.0,26.799999237060547,0.0,0.0,0.0,66.7128,C,27030055000000,
Raw,1732148146000,16470000000,,698292.406258599,-1416183347530999808,0.0,89.37262086212064,2219.836713445322,0.0,0,21,0.0,16431,346563920161758,316,24.992000579833984,836.9461380288693,0.14999,16,0.0,0.0,1575420030,,,,0,10.042279717169524,1,6.0,24.992000579833984,0.0,0.0,0.0,66.7128,C,27030055000000,
Raw,1732148146000,16470000000,,698292.406258599,-1416183347530999808,0.0,89.37262086212064,2219.836713445322,0.0,0,21,0.0,16431,346563920782728,396,17.200000762939453,554.3445168122832,0.14999,16,0.0,0.0,1575420030,,,,0,0.0,6,6.0,17.200000762939453,0.0,0.0,24.75000988104009,66.7128,C,27030055000000,
Raw,1732148146000,16470000000,,698292.406258599,-1416183347530999808,0.0,89.37262086212064,2219.836713445322,0.0,0,17,0.0,16431,346563931768593,487,20.253000259399414,344.7652353394726,0.14999,16,0.0,0.0,1575420030,,,,0,2.724908606884275,1,6.0,20.253000259399414,0.0,0.0,0.0,66.7128,C,27030055000000,
Raw,1732148146000,16470000000,,698292.406258599,-1416183347530999808,0.0,89.37262086212064,2219.836713445322,0.0,0,14,0.0,16431,346563932836368,487,23.733999252319336,752.3662219383576,0.14999,16,0.0,0.0,1575420030,,,,0,8.21432794977454,1,6.0,23.733999252319336,0.0,0.0,0.0,66.7128,C,27030055000000,
Raw,1732148146000,16470000000,,698292.406258599,-1416183347530999808,0.0,89.37262086212064,2219.836713445322,0.0,0,16,0.0,17,707603,396,5.0,1156.2318135477208,0.14999,16,0.0,0.0,1601437440,,,,0,7.587731219232282,3,6.0,23.0,0.0,0.0,49.94681757941387,66.7128,C,27030055000000,
Raw,1732148146000,16470000000,,698292.406258599,-1416183347530999808,0.0,89.37262086212064,2219.836713445322,0.0,0,9,0.0,17,994571,487,5.0,862.801800212507,0.14999,16,0.0,0.0,1600875010,,,,0,3.7488899267071716,3,6.0,18.0,0.0,0.0,49.94681757941387,66.7128,C,27030055000000,
Raw,1732148146000,16470000000,,698292.406258599,-1416183347530999808,0.0,89.37262086212064,2219.836713445322,0.0,0,8,0.0,17,817216,487,5.0,756.5137767753156,0.14999,16,0.0,0.0,1605374980,,,,0,0.0,3,6.0,18.0,0.0,0.0,49.94681757941387,66.7128,C,27030055000000,
Raw,1732148146000,16470000000,,698292.406258599,-1416183347530999808,0.0,89.37262086212064,2219.836713445322,0.0,0,18,0.0,17,328192,487,5.0,1179.4090539883032,0.14999,16,0.0,0.0,1600312450,,,,0,3.0748710585406136,3,6.0,19.0,0.0,0.0,49.94681757941387,66.7128,C,27030055000000,
Status,1732148146000,29,0,1,14,1575420030,25.90,4.0,70.0,1,0,0,20.9
Status,1732148146000,29,1,1,22,1575420030,28.70,298.0,67.0,1,0,0,23.7
Status,1732148146000,29,2,1,30,1575420030,32.40,102.0,61.0,1,0,0,27.400002
Status,1732148146000,29,3,1,17,1575420030,0.00,171.0,59.0,0,0,0,0.0
Status,1732148146000,29,4,1,13,1575420030,32.50,284.0,55.0,1,0,0,27.5
Status,1732148146000,29,5,1,19,1575420030,28.30,193.0,31.0,1,0,0,23.3
Status,1732148146000,29,6,1,7,1575420030,29.80,114.0,27.0,1,0,0,24.8
Status,1732148146000,29,7,1,15,1575420030,24.90,306.0,25.0,1,0,0,19.9
Status,1732148146000,29,8,2,131,1575420030,32.00,3.0,23.0,0,0,0,27.0
Status,1732148146000,29,9,1,2,1575420030,33.70,74.0,20.0,1,0,0,28.7
Status,1732148146000,29,10,1,21,1575420030,32.20,56.0,14.0,1,0,0,27.2
Status,1732148146000,29,11,3,9,1602000000,31.90,40.0,48.0,1,0,0,26.9
Status,1732148146000,29,12,3,8,1602000000,26.50,283.0,40.0,1,0,0,21.5
Status,1732148146000,29,13,3,19,1602000000,0.00,68.0,36.0,0,0,0,0.0
Status,1732148146000,29,14,3,20,1602000000,0.00,142.0,24.0,0,0,0,0.0
Status,1732148146000,29,15,3,18,1602000000,22.50,28.0,14.0,1,0,0,17.5
Status,1732148146000,29,16,3,11,1602000000,0.00,283.0,9.0,0,0,0,0.0
Status,1732148146000,29,17,3,16,1602000000,31.40,79.0,6.0,1,0,0,26.4
Status,1732148146000,29,18,3,17,1602000000,29.50,0.0,0.0,0,0,0,24.5
Status,1732148146000,29,19,6,21,1575420030,28.20,288.0,62.0,1,0,0,23.2
Status,1732148146000,29,20,6,19,1575420030,0.00,281.0,54.0,0,0,0,0.0
Status,1732148146000,29,21,6,27,1575420030,21.30,45.0,50.0,1,0,0,16.3
Status,1732148146000,29,22,6,29,1575420030,20.40,198.0,49.0,1,0,0,15.4
Status,1732148146000,29,23,6,15,1575420030,0.00,86.0,17.0,0,0,0,0.0
Status,1732148146000,29,24,6,13,1575420030,0.00,136.0,9.0,0,0,0,0.0
Status,1732148146000,29,25,6,4,1575420030,0.00,324.0,8.0,0,0,0,0.0
Status,1732148146000,29,26,6,7,1575420030,0.00,162.0,7.0,0,0,0,0.0
Status,1732148146000,29,27,6,34,1575420030,0.00,38.0,6.0,0,0,0,0.0
Status,1732148146000,29,28,6,30,1575420030,0.00,65.0,3.0,0,0,0,0.0
Fix,GPS,37.4243666667,-122.1707750000,-4.5,0.41332194,2.6,79.81,1732148147000,1.2,119.3,27031055000000,33.4,0,,,
Raw,1732148147000,17470000000,,697912.6122645821,-1416183347530999808,0.0,86.77940763995475,2216.4435596388917,0.0,0,13,0.0,16431,346564931355928,316,27.520000457763672,566.7700060614565,0.14999,16,0.0,0.0,1575420030,,,,0,13.429217101153295,1,6.0,27.520000457763672,0.0,0.0,0.0,66.7128,C,27031055000000,
Raw,1732148147000,17470000000,,697912.6122645821,-1416183347530999808,0.0,86.77940763995475,2216.4435596388917,0.0,0,30,0.0,16431,346564931295302,235,27.35700035095215,881.9876654618187,0.14999,16,0.0,0.0,1575420030,,,,0,13.226537146933396,1,6.0,27.35700035095215,0.0,0.0,0.0,66.7128,C,27031055000000,
Raw,1732148147000,17470000000,,697912.6122645821,-1416183347530999808,0.0,86.77940763995475,2216.4435596388917,0.0,0,15,0.0,16431,346564924748509,487,19.868000030517578,361.49855800256,0.14999,16,0.0,0.0,1575420030,,,,0,2.009195367727299,1,6.0,19.868000030517578,0.0,0.0,0.0,66.7128,C,27031055000000,
Raw,1732148147000,17470000000,,697912.6122645821,-1416183347530999808,0.0,86.77940763995475,2216.4435596388917,0.0,0,2,0.0,16431,346564921193790,235,28.749000549316406,607.1210453353737,0.14999,16,0.0,0.0,1575420030,,,,0,14.9961314968289,1,6.0,28.749000549316406,0.0,0.0,0.0,66.7128,C,27031055000000,
Raw,1732148147000,17470000000,,697912.6122645821,-1416183347530999808,0.0,86.77940763995475,2216.4435596388917,0.0,0,29,0.0,16431,346564919193974,487,15.399999618530273,1070.0537501197207,0.14999,16,0.0,0.0,1575420030,,,,0,0.0,6,6.0,15.399999618530273,0.0,0.0,22.733437194426163,66.7128,C,27031055000000,
Raw,1732148147000,17470000000,,697912.6122645821,-1416183347530999808,0.0,86.77940763995475,2216.4435596388917,0.0,0,27,0.0,16431,346564918778071,487,16.299999237060547,946.8448224105516,0.14999,16,0.0,0.0,1575420030,,,,0,0.0,6,6.0,16.299999237060547,0.0,0.0,22.733437194426163,66.7128,C,27031055000000,
Raw,1732148147000,17470000000,,697912.6122645821,-1416183347530999808,0.0,86.77940763995475,2216.4435596388917,0.0,0,22,0.0,16431,346564931438054,396,23.667999267578125,611.1752390259862,0.14999,16,0.0,0.0,1575420030,,,,0,8.109361238647628,1,6.0,23.667999267578125,0.0,0.0,0.0,66.7128,C,27031055000000,
Raw,1732148147000,17470000000,,697912.6122645821,-1416183347530999808,0.0,86.77940763995475,2216.4435596388917,0.0,0,7,0.0,16431,346564924633409,396,24.826000213623047,1118.5279970096342,0.14999,16,0.0,0.0,1575420030,,,,0,9.784901193383106,1,6.0,24.826000213623047,0.0,0.0,0.0,66.7128,C,27031055000000,
Raw,1732148147000,17470000000,,697912.6122645821,-1416183347530999808,0.0,86.77940763995475,2216.4435596388917,0.0,0,21,0.0,16431,346564920158964,316,27.190000534057617,836.5774440378225,0.14999,16,0.0,0.0,1575420030,,,,0,13.019014554196866,1,6.0,27.190000534057617,0.0,0.0,0.0,66.7128,C,27031055000000,
Raw,1732148147000,17470000000,,697912.6122645821,-1416183347530999808,0.0,86.77940763995475,2216.4435596388917,0.0,0,21,0.0,16431,346564920780884,316,23.200000762939453,553.0953893756305,0.14999,16,0.0,0.0,1575420030,,,,0,8.770010340750023,6,6.0,23.200000762939453,0.0,0.0,22.733437194426163,66.7128,C,27031055000000,
Raw,1732148147000,17470000000,,697912.6122645821,-1416183347530999808,0.0,86.77940763995475,2216.4435596388917,0.0,0,19,0.0,16431,346564924679005,396,23.332000732421875,14.43030928390667,0.14999,16,0.0,0.0,1575420030,,,,0,7.620651060184892,1,6.0,23.332000732421875,0.0,0.0,0.0,66.7128,C,27031055000000,
Raw,1732148147000,17470000000,,697912.6122645821,-1416183347530999808,0.0,86.77940763995475,2216.4435596388917,0.0,0,14,0.0,16431,346564932833859,487,20.86199951171875,751.6082528778827,0.14999,16,0.0,0.0,1575420030,,,,0,3.742504807842275,1,6.0,20.86199951171875,0.0,0.0,0.0,66.7128,C,27031055000000,
Raw,1732148147000,17470000000,,697912.6122645821,-1416183347530999808,0.0,86.77940763995475,2216.4435596388917,0.0,0,16,0.0,17,703743,316,5.0,1157.409687678686,0.14999,16,0.0,0.0,1601437440,,,,0,12.751983506676376,3,6.0,24.0,0.0,0.0,46.43468499465407,66.7128,C,27031055000000,
Raw,1732148147000,17470000000,,697912.6122645821,-1416183347530999808,0.0,86.77940763995475,2216.4435596388917,0.0,0,9,0.0,17,991676,235,5.0,861.8080369038843,0.14999,16,0.0,0.0,1600875010,,,,0,13.452917629296257,3,6.0,27.0,0.0,0.0,46.43468499465407,66.7128,C,27031055000000,
Raw,1732148147000,17470000000,,697912.6122645821,-1416183347530999808,0.0,86.77940763995475,2216.4435596388917,0.0,0,8,0.0,17,814693,487,5.0,755.2293719185271,0.14999,16,0.0,0.0,1605374980,,,,0,6.473864946887167,3,6.0,20.0,0.0,0.0,46.43468499465407,66.7128,C,27031055000000,
Raw,1732148147000,17470000000,,697912.6122645821,-1416183347530999808,0.0,86.77940763995475,2216.4435596388917,0.0,0,18,0.0,17,324254,316,5.0,1182.206436381438,0.14999,16,0.0,0.0,1600312450,,,,0,1.8117950462711314,3,6.0,25.0,0.0,0.0,46.43468499465407,66.7128,C,27031055000000,
Fix,FLP,37.4243695000,-122.1707830000,2.0,0.06728519,2.533,,1732148147207,1.2,,27031055000000,0.9077418,0,,,
Status,1732148147000,29,0,1,14,1575420030,33.60,4.0,70.0,1,0,0,28.599998
Status,1732148147000,29,1,1,22,1575420030,38.60,298.0,67.0,1,0,0,33.6
Status,1732148147000,29,2,1,30,1575420030,32.30,102.0,61.0,1,0,0,27.3
Status,1732148147000,29,3,1,17,1575420030,0.00,171.0,59.0,0,0,0,0.0
Status,1732148147000,29,4,1,13,1575420030,33.50,284.0,55.0,1,0,0,28.5
Status,1732148147000,29,5,1,19,1575420030,29.30,193.0,31.0,1,0,0,24.3
Status,1732148147000,29,6,1,7,1575420030,0.00,114.0,27.0,0,0,0,0.0
Status,1732148147000,29,7,1,15,1575420030,24.90,306.0,25.0,1,0,0,19.9
Status,1732148147000,29,8,2,131,1575420030,29.00,3.0,23.0,0,0,0,24.0
Status,1732148147000,29,9,1,2,1575420030,35.50,74.0,20.0,1,0,0,30.5
Status,1732148147000,29,10,1,21,1575420030,31.80,56.0,14.0,1,0,0,26.8
Status,1732148147000,29,11,3,9,1602000000,28.70,40.0,48.0,1,0,0,23.7
Status,1732148147000,29,12,3,8,1602000000,24.50,283.0,40.0,1,0,0,19.5
Status,1732148147000,29,13,3,19,1602000000,0.00,68.0,36.0,0,0,0,0.0
Status,1732148147000,29,14,3,20,1602000000,0.00,142.0,24.0,0,0,0,0.0
Status,1732148147000,29,15,3,18,1602000000,25.80,28.0,14.0,1,0,0,20.8
Status,1732148147000,29,16,3,11,1602000000,0.00,283.0,9.0,0,0,0,0.0
Status,1732148147000,29,17,3,16,1602000000,26.10,79.0,6.0,1,0,0,21.1
Status,1732148147000,29,18,3,17,1602000000,30.50,0.0,0.0,0,0,0,25.5
Status,1732148147000,29,19,6,21,1575420030,31.40,288.0,62.0,1,0,0,26.4
Status,1732148147000,29,20,6,19,1575420030,0.00,281.0,54.0,0,0,0,0.0
Status,1732148147000,29,21,6,27,1575420030,26.60,45.0,50.0,1,0,0,21.6
Status,1732148147000,29,22,6,29,1575420030,20.40,198.0,49.0,1,0,0,15.4
Status,1732148147000,29,23,6,15,1575420030,0.00,86.0,17.0,0,0,0,0.0
Status,1732148147000,29,24,6,13,1575420030,0.00,136.0,9.0,0,0,0,0.0
Status,1732148147000,29,25,6,4,1575420030,0.00,324.0,8.0,0,0,0,0.0
Status,1732148147000,29,26,6,7,1575420030,0.00,162.0,7.0,0,0,0,0.0
Status,1732148147000,29,27,6,34,1575420030,0.00,38.0,6.0,0,0,0,0.0
Status,1732148147000,29,28,6,30,1575420030,0.00,65.0,3.0,0,0,0,0.0
Fix,GPS,37.4243716667,-122.1707733333,-4.399999999999999,0.36648223,2.5,74.04,1732148148000,1.2,132.8,27032055000000,31.5,0,,,
Raw,1732148148000,18470000000,,697527.3457346282,-1416183347530999808,0.0,80.92081793623903,2212.284372204309,0.0,0,13,0.0,16431,346565931354048,235,28.516000747680664,566.57306883514,0.14999,16,0.0,0.0,1575420030,,,,0,14.704549780044621,1,6.0,28.516000747680664,0.0,0.0,0.0,66.7128,C,27032055000000,
Raw,1732148148000,18470000000,,697527.3457346282,-1416183347530999808,0.0,80.92081793623903,2212.284372204309,0.0,0,30,0.0,16431,346565931292364,316,27.31599998474121,881.1075572251262,0.14999,16,0.0,0.0,1575420030,,,,0,13.167749175390176,1,6.0,27.31599998474121,0.0,0.0,0.0,66.7128,C,27032055000000,
Raw,1732148148000,18470000000,,697527.3457346282,-1416183347530999808,0.0,80.92081793623903,2212.284372204309,0.0,0,15,0.0,16431,346565924747305,487,19.868000030517578,360.7214945330225,0.14999,16,0.0,0.0,1575420030,,,,0,2.009195367727299,1,6.0,19.868000030517578,0.0,0.0,0.0,66.7128,C,27032055000000,
Raw,1732148148000,18470000000,,697527.3457346282,-1416183347530999808,0.0,80.92081793623903,2212.284372204309,0.0,0,2,0.0,16431,346565921191760,74,30.48699951171875,606.2924130238425,0.14999,16,0.0,0.0,1575420030,,,,0,17.144436899274993,1,6.0,30.48699951171875,0.0,0.0,0.0,66.7128,C,27032055000000,
Raw,1732148148000,18470000000,,697527.3457346282,-1416183347530999808,0.0,80.92081793623903,2212.284372204309,0.0,0,29,0.0,16431,346565919190407,396,15.399999618530273,1070.0935185239969,0.14999,16,0.0,0.0,1575420030,,,,0,0.0,6,6.0,15.399999618530273,0.0,0.0,16.729763192040057,66.7128,C,27032055000000,
Raw,1732148148000,18470000000,,697527.3457346282,-1416183347530999808,0.0,80.92081793623903,2212.284372204309,0.0,0,27,0.0,16431,346565918774924,396,21.600000381469727,945.5858922480784,0.14999,16,0.0,0.0,1575420030,,,,0,6.615038660937113,6,6.0,21.600000381469727,0.0,0.0,16.729763192040057,66.7128,C,27032055000000,
Raw,1732148148000,18470000000,,697527.3457346282,-1416183347530999808,0.0,80.92081793623903,2212.284372204309,0.0,0,22,0.0,16431,346565931436028,58,33.62300109863281,610.8635959700459,0.14999,16,0.0,0.0,1575420030,,,,0,20.805091188797622,1,6.0,33.62300109863281,0.0,0.0,0.0,66.7128,C,27032055000000,
Raw,1732148148000,18470000000,,697527.3457346282,-1416183347530999808,0.0,80.92081793623903,2212.284372204309,0.0,0,21,0.0,16431,346565920156174,396,26.799999237060547,835.7086716546854,0.14999,16,0.0,0.0,1575420030,,,,0,12.49337332518099,1,6.0,26.799999237060547,0.0,0.0,0.0,66.7128,C,27032055000000,
Raw,1732148148000,18470000000,,697527.3457346282,-1416183347530999808,0.0,80.92081793623903,2212.284372204309,0.0,0,21,0.0,16431,346565920779047,235,26.399999618530273,553.2909328494607,0.14999,16,0.0,0.0,1575420030,,,,0,12.775611176675067,6,6.0,26.399999618530273,0.0,0.0,16.729763192040057,66.7128,C,27032055000000,
Raw,1732148148000,18470000000,,697527.3457346282,-1416183347530999808,0.0,80.92081793623903,2212.284372204309,0.0,0,19,0.0,16431,346565924678884,396,24.268999099731445,14.204939506869348,0.14999,16,0.0,0.0,1575420030,,,,0,9.011300568777635,1,6.0,24.268999099731445,0.0,0.0,0.0,66.7128,C,27032055000000,
Raw,1732148148000,18470000000,,697527.3457346282,-1416183347530999808,0.0,80.92081793623903,2212.284372204309,0.0,0,14,0.0,16431,346565932831353,235,28.606000900268555,750.6795955962502,0.14999,16,0.0,0.0,1575420030,,,,0,14.827233876685455,1,6.0,28.606000900268555,0.0,0.0,0.0,66.7128,C,27032055000000,
Raw,1732148148000,18470000000,,697527.3457346282,-1416183347530999808,0.0,80.92081793623903,2212.284372204309,0.0,0,16,0.0,17,699887,396,5.0,1155.3827313808315,0.14999,16,0.0,0.0,1601437440,,,,0,5.827853703164502,3,6.0,22.0,0.0,0.0,46.779818555273785,66.7128,C,27032055000000,
Raw,1732148148000,18470000000,,697527.3457346282,-1416183347530999808,0.0,80.92081793623903,2212.284372204309,0.0,0,9,0.0,17,988801,396,5.0,860.9849909395015,0.14999,16,0.0,0.0,1600875010,,,,0,9.394501119730016,3,6.0,22.0,0.0,0.0,46.779818555273785,66.7128,C,27032055000000,
Raw,1732148148000,18470000000,,697527.3457346282,-1416183347530999808,0.0,80.92081793623903,2212.284372204309,0.0,0,8,0.0,17,812173,487,5.0,752.6435109690976,0.14999,16,0.0,0.0,1605374980,,,,0,3.3686502906402596,3,6.0,20.0,0.0,0.0,46.779818555273785,66.7128,C,27032055000000,
Raw,1732148148000,18470000000,,697527.3457346282,-1416183347530999808,0.0,80.92081793623903,2212.284372204309,0.0,0,18,0.0,17,320313,396,5.0,1180.451280624474,0.14999,16,0.0,0.0,1600312450,,,,0,5.458599212924787,3,6.0,21.0,0.0,0.0,46.779818555273785,66.7128,C,27032055000000,
Fix,FLP,37.4243706000,-122.1707777000,2.0,0.0912654,2.533,,1732148148207,1.2,,27032055000000,0.9177439,0,,,
Status,1732148148000,29,0,1,14,1575420030,33.30,4.0,70.0,1,0,0,28.3
Status,1732148148000,29,1,1,22,1575420030,31.60,298.0,67.0,1,0,0,26.6
Status,1732148148000,29,2,1,30,1575420030,31.90,102.0,61.0,1,0,0,26.9
Status,1732148148000,29,3,1,17,1575420030,0.00,171.0,59.0,0,0,0,0.0
Status,1732148148000,29,4,1,13,1575420030,33.10,284.0,55.0,1,0,0,28.099998
Status,1732148148000,29,5,1,19,1575420030,27.20,193.0,31.0,1,0,0,22.2
Status,1732148148000,29,6,1,7,1575420030,0.00,114.0,27.0,0,0,0,0.0
Status,1732148148000,29,7,1,15,1575420030,25.90,306.0,25.0,1,0,0,20.9
Status,1732148148000,29,8,2,131,1575420030,30.00,3.0,23.0,0,0,0,25.0
Status,1732148148000,29,9,1,2,1575420030,31.40,74.0,20.0,1,0,0,26.4
Status,1732148148000,29,10,1,21,1575420030,35.60,56.0,14.0,1,0,0,30.599998
Status,1732148148000,29,11,3,9,1602000000,32.10,40.0,48.0,1,0,0,27.099998
Status,1732148148000,29,12,3,8,1602000000,23.80,283.0,40.0,1,0,0,18.8
Status,1732148148000,29,13,3,19,1602000000,0.00,68.0,36.0,0,0,0,0.0
Status,1732148148000,29,14,3,20,1602000000,0.00,142.0,24.0,0,0,0,0.0
Status,1732148148000,29,15,3,18,1602000000,25.70,28.0,14.0,1,0,0,20.7
Status,1732148148000,29,16,3,11,1602000000,0.00,283.0,9.0,0,0,0,0.0
Status,1732148148000,29,17,3,16,1602000000,31.10,79.0,6.0,1,0,0,26.1
Status,1732148148000,29,18,3,17,1602000000,28.20,0.0,0.0,0,0,0,23.2
Status,1732148148000,29,19,6,21,1575420030,30.20,288.0,62.0,1,0,0,25.2
Status,1732148148000,29,20,6,19,1575420030,0.00,281.0,54.0,0,0,0,0.0
Status,1732148148000,29,21,6,27,1575420030,30.20,45.0,50.0,1,0,0,25.2
Status,1732148148000,29,22,6,29,1575420030,24.20,198.0,49.0,1,0,0,19.2
Status,1732148148000,29,23,6,15,1575420030,0.00,86.0,17.0,0,0,0,0.0
Status,1732148148000,29,24,6,13,1575420030,0.00,136.0,9.0,0,0,0,0.0
Status,1732148148000,29,25,6,4,1575420030,0.00,324.0,8.0,0,0,0,0.0
Status,1732148148000,29,26,6,7,1575420030,0.00,162.0,7.0,0,0,0,0.0
Status,1732148148000,29,27,6,34,1575420030,0.00,38.0,6.0,0,0,0,0.0
Status,1732148148000,29,28,6,30,1575420030,0.00,65.0,3.0,0,0,0,0.0
Fix,GPS,37.4243683333,-122.1707750000,-4.300000000000001,0.24037528,2.6,74.98,1732148149000,1.2,179.9,27033055000000,30.7,0,,,
Fix,FLP,37.4243695000,-122.1707758000,2.0,0.10176981,2.55,86.50567,1732148149207,1.2,179.9,27033055000000,0.9277412,0,,,
Raw,1732148149000,19470000000,,697387.0403370855,-1416183347530999808,0.0,77.4791695045099,2210.2983035004568,0.0,0,13,0.0,16431,346566931352155,316,28.052000045776367,566.6680298378743,0.14999,16,0.0,0.0,1575420030,,,,0,14.116750670843759,1,6.0,28.052000045776367,0.0,0.0,0.0,66.7128,C,27033055000000,
Raw,1732148149000,19470000000,,697387.0403370855,-1416183347530999808,0.0,77.4791695045099,2210.2983035004568,0.0,0,30,0.0,16431,346566931289423,316,26.88800048828125,880.9147547978524,0.14999,16,0.0,0.0,1575420030,,,,0,12.619945905742108,1,6.0,26.88800048828125,0.0,0.0,0.0,66.7128,C,27033055000000,
Raw,1732148149000,19470000000,,697387.0403370855,-1416183347530999808,0.0,77.4791695045099,2210.2983035004568,0.0,0,15,0.0,16431,346566924746101,487,20.86199951171875,360.4693414790398,0.14999,16,0.0,0.0,1575420030,,,,0,3.742504807842275,1,6.0,20.86199951171875,0.0,0.0,0.0,66.7128,C,27033055000000,
Raw,1732148149000,19470000000,,697387.0403370855,-1416183347530999808,0.0,77.4791695045099,2210.2983035004568,0.0,0,2,0.0,16431,346566921189743,316,26.413000106811523,605.9529413765921,0.14999,16,0.0,0.0,1575420030,,,,0,11.967790581884467,1,6.0,26.413000106811523,0.0,0.0,0.0,66.7128,C,27033055000000,
Raw,1732148149000,19470000000,,697387.0403370855,-1416183347530999808,0.0,77.4791695045099,2210.2983035004568,0.0,0,29,0.0,16431,346566919186829,396,19.200000762939453,1069.7273332874254,0.14999,16,0.0,0.0,1575420030,,,,0,3.0144650742567314,6,6.0,19.200000762939453,0.0,0.0,15.223024902348445,66.7128,C,27033055000000,
Raw,1732148149000,19470000000,,697387.0403370855,-1416183347530999808,0.0,77.4791695045099,2210.2983035004568,0.0,0,27,0.0,16431,346566918771775,316,25.200000762939453,945.0543150497974,0.14999,16,0.0,0.0,1575420030,,,,0,11.299315472145473,6,6.0,25.200000762939453,0.0,0.0,15.223024902348445,66.7128,C,27033055000000,
Raw,1732148149000,19470000000,,697387.0403370855,-1416183347530999808,0.0,77.4791695045099,2210.2983035004568,0.0,0,22,0.0,16431,346566931433994,316,26.642000198364258,610.1969176974247,0.14999,16,0.0,0.0,1575420030,,,,0,12.299987460179587,1,6.0,26.642000198364258,0.0,0.0,0.0,66.7128,C,27033055000000,
Raw,1732148149000,19470000000,,697387.0403370855,-1416183347530999808,0.0,77.4791695045099,2210.2983035004568,0.0,0,21,0.0,16431,346566920153390,74,30.643999099731445,835.2086861794277,0.14999,16,0.0,0.0,1575420030,,,,0,17.329053618396422,1,6.0,30.643999099731445,0.0,0.0,0.0,66.7128,C,27033055000000,
Raw,1732148149000,19470000000,,697387.0403370855,-1416183347530999808,0.0,77.4791695045099,2210.2983035004568,0.0,0,21,0.0,16431,346566920777204,316,25.200000762939453,552.395121668089,0.14999,16,0.0,0.0,1575420030,,,,0,11.299315472145473,6,6.0,25.200000762939453,0.0,0.0,15.223024902348445,66.7128,C,27033055000000,
Raw,1732148149000,19470000000,,697387.0403370855,-1416183347530999808,0.0,77.4791695045099,2210.2983035004568,0.0,0,19,0.0,16431,346566924678804,396,22.222999572753906,13.687113999786687,0.14999,16,0.0,0.0,1575420030,,,,0,5.896246888327246,1,6.0,22.222999572753906,0.0,0.0,0.0,66.7128,C,27033055000000,
Raw,1732148149000,19470000000,,697387.0403370855,-1416183347530999808,0.0,77.4791695045099,2210.2983035004568,0.0,0,14,0.0,16431,346566932828847,235,28.29800033569336,750.6939047884431,0.14999,16,0.0,0.0,1575420030,,,,0,14.428385517903845,1,6.0,28.29800033569336,0.0,0.0,0.0,66.7128,C,27033055000000,
Raw,1732148149000,19470000000,,697387.0403370855,-1416183347530999808,0.0,77.4791695045099,2210.2983035004568,0.0,0,16,0.0,17,696030,316,5.0,1155.7899507858797,0.14999,16,0.0,0.0,1601437440,,,,0,12.459951733392904,3,6.0,26.0,0.0,0.0,41.023738054144594,66.7128,C,27033055000000,
Raw,1732148149000,19470000000,,697387.0403370855,-1416183347530999808,0.0,77.4791695045099,2210.2983035004568,0.0,0,9,0.0,17,985928,316,5.0,861.1248017693582,0.14999,16,0.0,0.0,1600875010,,,,0,13.61156842602788,3,6.0,25.0,0.0,0.0,41.023738054144594,66.7128,C,27033055000000,
Raw,1732148149000,19470000000,,697387.0403370855,-1416183347530999808,0.0,77.4791695045099,2210.2983035004568,0.0,0,8,0.0,17,809661,487,5.0,753.5492780885714,0.14999,16,0.0,0.0,1605374980,,,,0,2.3006184380154515,3,6.0,20.0,0.0,0.0,41.023738054144594,66.7128,C,27033055000000,
Raw,1732148149000,19470000000,,697387.0403370855,-1416183347530999808,0.0,77.4791695045099,2210.2983035004568,0.0,0,18,0.0,17,316436,487,5.0,1180.82869216571,0.14999,16,0.0,0.0,1600312450,,,,0,2.1087774670495136,3,6.0,18.0,0.0,0.0,41.023738054144594,66.7128,C,27033055000000,
Status,1732148149000,29,0,1,14,1575420030,31.30,4.0,70.0,1,0,0,26.3
Status,1732148149000,29,1,1,22,1575420030,29.50,298.0,67.0,1,0,0,24.5
Status,1732148149000,29,2,1,30,1575420030,28.50,102.0,61.0,1,0,0,23.5
Status,1732148149000,29,3,1,17,1575420030,0.00,171.0,59.0,0,0,0,0.0
Status,1732148149000,29,4,1,13,1575420030,33.30,284.0,55.0,1,0,0,28.3
Status,1732148149000,29,5,1,19,1575420030,27.20,193.0,31.0,1,0,0,22.2
Status,1732148149000,29,6,1,7,1575420030,0.00,114.0,27.0,0,0,0,0.0
Status,1732148149000,29,7,1,15,1575420030,25.80,306.0,25.0,1,0,0,20.8
Status,1732148149000,29,8,2,131,1575420030,29.00,3.0,23.0,0,0,0,24.0
Status,1732148149000,29,9,1,2,1575420030,39.30,74.0,20.0,1,0,0,34.3
Status,1732148149000,29,10,1,21,1575420030,31.80,56.0,14.0,1,0,0,26.8
Status,1732148149000,29,11,3,9,1602000000,31.20,40.0,48.0,1,0,0,26.2
Status,1732148149000,29,12,3,8,1602000000,22.30,283.0,40.0,1,0,0,17.3
Status,1732148149000,29,13,3,19,1602000000,0.00,68.0,36.0,0,0,0,0.0
Status,1732148149000,29,14,3,20,1602000000,0.00,142.0,24.0,0,0,0,0.0
Status,1732148149000,29,15,3,18,1602000000,25.60,28.0,14.0,1,0,0,20.6
Status,1732148149000,29,16,3,11,1602000000,0.00,283.0,9.0,0,0,0,0.0
Status,1732148149000,29,17,3,16,1602000000,28.70,79.0,6.0,1,0,0,23.7
Status,1732148149000,29,18,3,17,1602000000,26.40,0.0,0.0,0,0,0,21.4
Status,1732148149000,29,19,6,21,1575420030,24.60,288.0,62.0,1,0,0,19.6
Status,1732148149000,29,20,6,19,1575420030,0.00,281.0,54.0,0,0,0,0.0
Status,1732148149000,29,21,6,27,1575420030,26.30,45.0,50.0,1,0,0,21.3
Status,1732148149000,29,22,6,29,1575420030,24.10,198.0,49.0,1,0,0,19.1
Status,1732148149000,29,23,6,15,1575420030,0.00,86.0,17.0,0,0,0,0.0
Status,1732148149000,29,24,6,13,1575420030,0.00,136.0,9.0,0,0,0,0.0
Status,1732148149000,29,25,6,4,1575420030,0.00,324.0,8.0,0,0,0,0.0
Status,1732148149000,29,26,6,7,1575420030,0.00,162.0,7.0,0,0,0,0.0
Status,1732148149000,29,27,6,34,1575420030,0.00,38.0,6.0,0,0,0,0.0
Status,1732148149000,29,28,6,30,1575420030,0.00,65.0,3.0,0,0,0,0.0
Fix,GPS,37.4243666667,-122.1707700000,-4.300000000000001,0.0,2.6,74.98,1732148150000,1.2,179.9,27034055000000,31.0,0,,,
Raw,1732148150000,20470000000,,697184.9734625412,-1416183347530999808,0.0,77.62356031911031,2207.6188152373547,0.0,0,13,0.0,16431,346567931350269,235,28.334999084472656,565.8021378765424,0.14999,16,0.0,0.0,1575420030,,,,0,14.479254709496654,1,6.0,28.334999084472656,0.0,0.0,0.0,66.7128,C,27034055000000,
Raw,1732148150000,20470000000,,697184.9734625412,-1416183347530999808,0.0,77.62356031911031,2207.6188152373547,0.0,0,30,0.0,16431,346567931286489,396,23.499000549316406,880.218250222024,0.14999,16,0.0,0.0,1575420030,,,,0,7.8955439277455834,1,6.0,23.499000549316406,0.0,0.0,0.0,66.7128,C,27034055000000,
Raw,1732148150000,20470000000,,697184.9734625412,-1416183347530999808,0.0,77.62356031911031,2207.6188152373547,0.0,0,15,0.0,16431,346567924744896,487,20.81399917602539,359.95927452746434,0.14999,16,0.0,0.0,1575420030,,,,0,3.6547678028800012,1,6.0,20.81399917602539,0.0,0.0,0.0,66.7128,C,27034055000000,
Raw,1732148150000,20470000000,,697184.9734625412,-1416183347530999808,0.0,77.62356031911031,2207.6188152373547,0.0,0,2,0.0,16431,346567921187728,58,34.345001220703125,605.6036205451051,0.14999,16,0.0,0.0,1575420030,,,,0,21.622365583424976,1,6.0,34.345001220703125,0.0,0.0,0.0,66.7128,C,27034055000000,
Raw,1732148150000,20470000000,,697184.9734625412,-1416183347530999808,0.0,77.62356031911031,2207.6188152373547,0.0,0,29,0.0,16431,346567919183260,487,19.100000381469727,1069.1536647640576,0.14999,16,0.0,0.0,1575420030,,,,0,2.8225038992460054,6,6.0,19.100000381469727,0.0,0.0,13.52999696228446,66.7128,C,27034055000000,
Raw,1732148150000,20470000000,,697184.9734625412,-1416183347530999808,0.0,77.62356031911031,2207.6188152373547,0.0,0,27,0.0,16431,346567918768635,487,21.299999237060547,944.7376544849064,0.14999,16,0.0,0.0,1575420030,,,,0,6.1645582494433,6,6.0,21.299999237060547,0.0,0.0,13.52999696228446,66.7128,C,27034055000000,
Raw,1732148150000,20470000000,,697184.9734625412,-1416183347530999808,0.0,77.62356031911031,2207.6188152373547,0.0,0,22,0.0,16431,346567931431963,316,24.47599983215332,608.9165237466623,0.14999,16,0.0,0.0,1575420030,,,,0,9.292270283764001,1,6.0,24.47599983215332,0.0,0.0,0.0,66.7128,C,27034055000000,
Raw,1732148150000,20470000000,,697184.9734625412,-1416183347530999808,0.0,77.62356031911031,2207.6188152373547,0.0,0,21,0.0,16431,346567920150604,316,26.777999877929688,835.1914965654297,0.14999,16,0.0,0.0,1575420030,,,,0,12.461439871425082,1,6.0,26.777999877929688,0.0,0.0,0.0,66.7128,C,27034055000000,
Raw,1732148150000,20470000000,,697184.9734625412,-1416183347530999808,0.0,77.62356031911031,2207.6188152373547,0.0,0,21,0.0,16431,346567920775362,396,19.600000381469727,552.0143484888274,0.14999,16,0.0,0.0,1575420030,,,,0,3.566135506898503,6,6.0,19.600000381469727,0.0,0.0,13.52999696228446,66.7128,C,27034055000000,
Raw,1732148150000,20470000000,,697184.9734625412,-1416183347530999808,0.0,77.62356031911031,2207.6188152373547,0.0,0,19,0.0,16431,346567924678761,487,22.222999572753906,12.23473099221284,0.14999,16,0.0,0.0,1575420030,,,,0,5.896246888327246,1,6.0,22.222999572753906,0.0,0.0,0.0,66.7128,C,27034055000000,
Raw,1732148150000,20470000000,,697184.9734625412,-1416183347530999808,0.0,77.62356031911031,2207.6188152373547,0.0,0,14,0.0,16431,346567932826345,316,26.273000717163086,750.2079032964647,0.14999,16,0.0,0.0,1575420030,,,,0,11.79680298076669,1,6.0,26.273000717163086,0.0,0.0,0.0,66.7128,C,27034055000000,
Raw,1732148150000,20470000000,,697184.9734625412,-1416183347530999808,0.0,77.62356031911031,2207.6188152373547,0.0,0,16,0.0,17,692176,316,5.0,1154.3060451020299,0.14999,16,0.0,0.0,1601437440,,,,0,9.426750282920327,3,6.0,24.0,0.0,0.0,42.890856736030976,66.7128,C,27034055000000,
Raw,1732148150000,20470000000,,697184.9734625412,-1416183347530999808,0.0,77.62356031911031,2207.6188152373547,0.0,0,9,0.0,17,983051,316,5.0,860.5174613299148,0.14999,16,0.0,0.0,1600875010,,,,0,12.524415179576026,3,6.0,26.0,0.0,0.0,42.890856736030976,66.7128,C,27034055000000,
Raw,1732148150000,20470000000,,697184.9734625412,-1416183347530999808,0.0,77.62356031911031,2207.6188152373547,0.0,0,8,0.0,17,807152,487,5.0,752.3409199200239,0.14999,16,0.0,0.0,1605374980,,,,0,0.0,3,6.0,20.0,0.0,0.0,42.890856736030976,66.7128,C,27034055000000,
Raw,1732148150000,20470000000,,697184.9734625412,-1416183347530999808,0.0,77.62356031911031,2207.6188152373547,0.0,0,18,0.0,17,312500,487,5.0,1180.0771620583919,0.14999,16,0.0,0.0,1600312450,,,,0,2.253545645527899,3,6.0,19.0,0.0,0.0,42.890856736030976,66.7128,C,27034055000000,
Fix,FLP,37.4243682000,-122.1707725000,2.0,0.097628176,2.566,,1732148150207,1.2,,27034055000000,0.94211465,0,,,
Status,1732148150000,29,0,1,14,1575420030,32.40,4.0,70.0,1,0,0,27.400002
Status,1732148150000,29,1,1,22,1575420030,28.60,298.0,67.0,1,0,0,23.6
Status,1732148150000,29,2,1,30,1575420030,34.80,102.0,61.0,1,0,0,29.8
Status,1732148150000,29,3,1,17,1575420030,0.00,171.0,59.0,0,0,0,0.0
Status,1732148150000,29,4,1,13,1575420030,30.50,284.0,55.0,1,0,0,25.5
Status,1732148150000,29,5,1,19,1575420030,26.70,193.0,31.0,1,0,0,21.7
Status,1732148150000,29,6,1,7,1575420030,26.00,114.0,27.0,1,0,0,21.0
Status,1732148150000,29,7,1,15,1575420030,25.90,306.0,25.0,1,0,0,20.9
Status,1732148150000,29,8,2,131,1575420030,30.00,3.0,23.0,0,0,0,25.0
Status,1732148150000,29,9,1,2,1575420030,29.40,74.0,20.0,1,0,0,24.4
Status,1732148150000,29,10,1,21,1575420030,32.90,56.0,14.0,1,0,0,27.900002
Status,1732148150000,29,11,3,9,1602000000,29.60,40.0,48.0,1,0,0,24.6
Status,1732148150000,29,12,3,8,1602000000,23.70,283.0,40.0,1,0,0,18.7
Status,1732148150000,29,13,3,19,1602000000,0.00,68.0,36.0,0,0,0,0.0
Status,1732148150000,29,14,3,20,1602000000,0.00,142.0,24.0,0,0,0,0.0
Status,1732148150000,29,15,3,18,1602000000,25.60,28.0,14.0,1,0,0,20.6
Status,1732148150000,29,16,3,11,1602000000,0.00,283.0,9.0,0,0,0,0.0
Status,1732148150000,29,17,3,16,1602000000,31.70,79.0,6.0,1,0,0,26.7
Status,1732148150000,29,18,3,17,1602000000,28.40,0.0,0.0,0,0,0,23.4
Status,1732148150000,29,19,6,21,1575420030,23.40,288.0,62.0,1,0,0,18.4
Status,1732148150000,29,20,6,19,1575420030,0.00,281.0,54.0,0,0,0,0.0
Status,1732148150000,29,21,6,27,1575420030,26.40,45.0,50.0,1,0,0,21.4
Status,1732148150000,29,22,6,29,1575420030,23.60,198.0,49.0,1,0,0,18.6
Status,1732148150000,29,23,6,15,1575420030,0.00,86.0,17.0,0,0,0,0.0
Status,1732148150000,29,24,6,13,1575420030,0.00,136.0,9.0,0,0,0,0.0
Status,1732148150000,29,25,6,4,1575420030,0.00,324.0,8.0,0,0,0,0.0
Status,1732148150000,29,26,6,7,1575420030,0.00,162.0,7.0,0,0,0,0.0
Status,1732148150000,29,27,6,34,1575420030,0.00,38.0,6.0,0,0,0,0.0
Status,1732148150000,29,28,6,30,1575420030,0.00,65.0,3.0,0,0,0,0.0
Fix,GPS,37.4243583333,-122.1707666667,-4.300000000000001,0.0,2.6,74.98,1732148151000,2.3,179.9,27035055000000,30.8,0,,,
Fix,FLP,37.4243635000,-122.1707691000,2.0,0.09886279,2.583,,1732148151207,2.3,,27035055000000,0.9521154,0,,,
Raw,1732148151000,21470000000,,697050.8181530037,-1416183347530999808,0.0,76.34324419847832,2207.1217212297756,0.0,0,13,0.0,16431,346568931348381,396,25.47599983215332,566.0133378366355,0.14999,16,0.0,0.0,1575420030,,,,0,10.693517804109533,1,6.0,25.47599983215332,0.0,0.0,0.0,66.7128,C,27035055000000,
Raw,1732148151000,21470000000,,697050.8181530037,-1416183347530999808,0.0,76.34324419847832,2207.1217212297756,0.0,0,30,0.0,16431,346568931283548,396,29.804000854492188,881.6846636712935,0.14999,16,0.0,0.0,1575420030,,,,0,16.30257745864199,1,6.0,29.804000854492188,0.0,0.0,0.0,66.7128,C,27035055000000,
Raw,1732148151000,21470000000,,697050.8181530037,-1416183347530999808,0.0,76.34324419847832,2207.1217212297756,0.0,0,15,0.0,16431,346568924743690,487,20.865999221801758,360.174353765311,0.14999,16,0.0,0.0,1575420030,,,,0,5.333401298610896,1,6.0,20.865999221801758,0.0,0.0,0.0,66.7128,C,27035055000000,
Raw,1732148151000,21470000000,,697050.8181530037,-1416183347530999808,0.0,76.34324419847832,2207.1217212297756,0.0,0,2,0.0,16431,346568921185709,316,24.44700050354004,605.3571586471081,0.14999,16,0.0,0.0,1575420030,,,,0,9.24606863420252,1,6.0,24.44700050354004,0.0,0.0,0.0,66.7128,C,27035055000000,
Raw,1732148151000,21470000000,,697050.8181530037,-1416183347530999808,0.0,76.34324419847832,2207.1217212297756,0.0,0,29,0.0,16431,346568919179682,487,18.600000381469727,1069.8334443100503,0.14999,16,0.0,0.0,1575420030,,,,0,1.9019608002851363,6,6.0,18.600000381469727,0.0,0.0,12.826129720015675,66.7128,C,27035055000000,
Raw,1732148151000,21470000000,,697050.8181530037,-1416183347530999808,0.0,76.34324419847832,2207.1217212297756,0.0,0,27,0.0,16431,346568918765487,396,21.375,945.1839340310248,0.14999,16,0.0,0.0,1575420030,,,,0,8.21432794977454,6,6.0,21.375,0.0,0.0,12.826129720015675,66.7128,C,27035055000000,
Raw,1732148151000,21470000000,,697050.8181530037,-1416183347530999808,0.0,76.34324419847832,2207.1217212297756,0.0,0,22,0.0,16431,346568931429932,487,23.634000778198242,608.3651552630756,0.14999,16,0.0,0.0,1575420030,,,,0,8.056398332853863,1,6.0,23.634000778198242,0.0,0.0,0.0,66.7128,C,27035055000000,
Raw,1732148151000,21470000000,,697050.8181530037,-1416183347530999808,0.0,76.34324419847832,2207.1217212297756,0.0,0,21,0.0,16431,346568920147814,235,27.860000610351562,835.7876509622433,0.14999,16,0.0,0.0,1575420030,,,,0,13.875460442816147,1,6.0,27.860000610351562,0.0,0.0,0.0,66.7128,C,27035055000000,
Raw,1732148151000,21470000000,,697050.8181530037,-1416183347530999808,0.0,76.34324419847832,2207.1217212297756,0.0,0,21,0.0,16431,346568920773521,487,18.399999618530273,552.1361624561315,0.14999,16,0.0,0.0,1575420030,,,,0,1.5720772430539718,6,6.0,18.399999618530273,0.0,0.0,12.826129720015675,66.7128,C,27035055000000,
Raw,1732148151000,21470000000,,697050.8181530037,-1416183347530999808,0.0,76.34324419847832,2207.1217212297756,0.0,0,19,0.0,16431,346568924678692,487,21.68400001525879,12.959900410843133,0.14999,16,0.0,0.0,1575420030,,,,0,5.0376828774910285,1,6.0,21.68400001525879,0.0,0.0,0.0,66.7128,C,27035055000000,
Raw,1732148151000,21470000000,,697050.8181530037,-1416183347530999808,0.0,76.34324419847832,2207.1217212297756,0.0,0,14,0.0,16431,346568932823842,396,27.35700035095215,749.4185283466314,0.14999,16,0.0,0.0,1575420030,,,,0,13.226537146933396,1,6.0,27.35700035095215,0.0,0.0,0.0,66.7128,C,27035055000000,
Raw,1732148151000,21470000000,,697050.8181530037,-1416183347530999808,0.0,76.34324419847832,2207.1217212297756,0.0,0,16,0.0,17,688363,396,5.0,1154.406227474181,0.14999,16,0.0,0.0,1601437440,,,,0,13.200650311842958,3,6.0,22.0,0.0,0.0,34.41441318896353,66.7128,C,27035055000000,
Raw,1732148151000,21470000000,,697050.8181530037,-1416183347530999808,0.0,76.34324419847832,2207.1217212297756,0.0,0,9,0.0,17,980179,396,5.0,860.0022917972702,0.14999,16,0.0,0.0,1600875010,,,,0,10.530356915731495,3,6.0,22.0,0.0,0.0,34.41441318896353,66.7128,C,27035055000000,
Raw,1732148151000,21470000000,,697050.8181530037,-1416183347530999808,0.0,76.34324419847832,2207.1217212297756,0.0,0,8,0.0,17,804637,487,5.0,754.7183819414263,0.14999,16,0.0,0.0,1605374980,,,,0,2.1734169440706137,3,6.0,18.0,0.0,0.0,34.41441318896353,66.7128,C,27035055000000,
Raw,1732148151000,21470000000,,697050.8181530037,-1416183347530999808,0.0,76.34324419847832,2207.1217212297756,0.0,0,18,0.0,17,308560,396,5.0,1180.4620742652558,0.14999,16,0.0,0.0,1600312450,,,,0,6.093381923404368,3,6.0,21.0,0.0,0.0,34.41441318896353,66.7128,C,27035055000000,
Raw,1732148151000,21470000000,,697050.8181530037,-1416183347530999808,0.0,76.34324419847832,2207.1217212297756,0.0,0,7,0.0,16431,346568924618529,487,20.957000732421875,1117.901737559116,0.14999,16,0.0,0.0,1575420030,,,,0,3.9153640379124006,1,6.0,20.957000732421875,0.0,0.0,0.0,66.7128,C,27035055000000,
Status,1732148151000,29,0,1,14,1575420030,37.50,4.0,70.0,1,0,0,32.5
Status,1732148151000,29,1,1,22,1575420030,26.30,298.0,67.0,1,0,0,21.3
Status,1732148151000,29,2,1,30,1575420030,35.50,102.0,61.0,1,0,0,30.5
Status,1732148151000,29,3,1,17,1575420030,0.00,171.0,59.0,0,0,0,0.0
Status,1732148151000,29,4,1,13,1575420030,28.20,284.0,55.0,1,0,0,23.2
Status,1732148151000,29,5,1,19,1575420030,29.00,193.0,31.0,1,0,0,24.0
Status,1732148151000,29,6,1,7,1575420030,0.00,114.0,27.0,0,0,0,0.0
Status,1732148151000,29,7,1,15,1575420030,25.90,306.0,25.0,1,0,0,20.9
Status,1732148151000,29,8,2,131,1575420030,29.00,3.0,23.0,0,0,0,24.0
Status,1732148151000,29,9,1,2,1575420030,32.20,74.0,20.0,1,0,0,27.2
Status,1732148151000,29,10,1,21,1575420030,25.80,56.0,14.0,1,0,0,20.8
Status,1732148151000,29,11,3,9,1602000000,33.70,40.0,48.0,1,0,0,28.7
Status,1732148151000,29,12,3,8,1602000000,23.70,283.0,40.0,1,0,0,18.7
Status,1732148151000,29,13,3,19,1602000000,0.00,68.0,36.0,0,0,0,0.0
Status,1732148151000,29,14,3,20,1602000000,0.00,142.0,24.0,0,0,0,0.0
Status,1732148151000,29,15,3,18,1602000000,25.70,28.0,14.0,1,0,0,20.7
Status,1732148151000,29,16,3,11,1602000000,0.00,283.0,9.0,0,0,0,0.0
Status,1732148151000,29,17,3,16,1602000000,25.40,79.0,6.0,1,0,0,20.4
Status,1732148151000,29,18,3,17,1602000000,29.10,0.0,0.0,0,0,0,24.1
Status,1732148151000,29,19,6,21,1575420030,20.80,288.0,62.0,1,0,0,15.799999
Status,1732148151000,29,20,6,19,1575420030,0.00,281.0,54.0,0,0,0,0.0
Status,1732148151000,29,21,6,27,1575420030,23.10,45.0,50.0,1,0,0,18.1
Status,1732148151000,29,22,6,29,1575420030,21.80,198.0,49.0,1,0,0,16.8
Status,1732148151000,29,23,6,15,1575420030,0.00,86.0,17.0,0,0,0,0.0
Status,1732148151000,29,24,6,13,1575420030,0.00,136.0,9.0,0,0,0,0.0
Status,1732148151000,29,25,6,4,1575420030,0.00,324.0,8.0,0,0,0,0.0
Status,1732148151000,29,26,6,7,1575420030,0.00,162.0,7.0,0,0,0,0.0
Status,1732148151000,29,27,6,34,1575420030,0.00,38.0,6.0,0,0,0,0.0
Status,1732148151000,29,28,6,30,1575420030,0.00,65.0,3.0,0,0,0,0.0
Fix,GPS,37.4243600000,-122.1707700000,-4.300000000000001,0.3561878,2.6,232.5,1732148152000,2.4,131.4,27036055000000,30.5,0,,,
Raw,1732148152000,22470000000,,696859.4357533838,-1416183347530999808,0.0,76.76844476782728,2211.385955922817,0.0,0,13,0.0,16431,346569931346486,396,23.19300079345703,567.1619292606086,0.14999,16,0.0,0.0,1575420030,,,,0,7.394295849694243,1,6.0,23.19300079345703,0.0,0.0,0.0,66.7128,C,27036055000000,
Raw,1732148152000,22470000000,,696859.4357533838,-1416183347530999808,0.0,76.76844476782728,2211.385955922817,0.0,0,30,0.0,16431,346569931280607,74,30.54400062561035,882.7488401530121,0.14999,16,0.0,0.0,1575420030,,,,0,17.20023509740371,1,6.0,30.54400062561035,0.0,0.0,0.0,66.7128,C,27036055000000,
Raw,1732148152000,22470000000,,696859.4357533838,-1416183347530999808,0.0,76.76844476782728,2211.385955922817,0.0,0,15,0.0,16431,346569924742484,487,20.868000030517578,361.97889156776074,0.14999,16,0.0,0.0,1575420030,,,,0,3.8293644280579193,1,6.0,20.868000030517578,0.0,0.0,0.0,66.7128,C,27036055000000,
Raw,1732148152000,22470000000,,696859.4357533838,-1416183347530999808,0.0,76.76844476782728,2211.385955922817,0.0,0,2,0.0,16431,346569921183685,235,27.167999267578125,606.6085625461552,0.14999,16,0.0,0.0,1575420030,,,,0,12.988959542762771,1,6.0,27.167999267578125,0.0,0.0,0.0,66.7128,C,27036055000000,
Raw,1732148152000,22470000000,,696859.4357533838,-1416183347530999808,0.0,76.76844476782728,2211.385955922817,0.0,0,29,0.0,16431,346569919176111,487,16.799999237060547,1071.3974204333617,0.14999,16,0.0,0.0,1575420030,,,,0,0.0,6,6.0,16.799999237060547,0.0,0.0,13.3030322930035,66.7128,C,27036055000000,
Raw,1732148152000,22470000000,,696859.4357533838,-1416183347530999808,0.0,76.76844476782728,2211.385955922817,0.0,0,27,0.0,16431,346569918762331,487,18.100000381469727,946.9791801502324,0.14999,16,0.0,0.0,1575420030,,,,0,1.1117899746116637,6,6.0,18.100000381469727,0.0,0.0,13.3030322930035,66.7128,C,27036055000000,
Raw,1732148152000,22470000000,,696859.4357533838,-1416183347530999808,0.0,76.76844476782728,2211.385955922817,0.0,0,22,0.0,16431,346569931427898,396,21.285999298095703,610.1744782823951,0.14999,16,0.0,0.0,1575420030,,,,0,4.414212477960249,1,6.0,21.285999298095703,0.0,0.0,0.0,66.7128,C,27036055000000,
