# 
# Header Description:
# 
# Version: v3.1.0.3 Platform: 13 Manufacturer: samsung Model: SM-S135DL GNSS Hardware Model Name: MediaTek,MT6631,MTK_MNLD_default,MNL_VER_default
# 
# Raw,utcTimeMillis,TimeNanos,LeapSecond,TimeUncertaintyNanos,FullBiasNanos,BiasNanos,BiasUncertaintyNanos,DriftNanosPerSecond,DriftUncertaintyNanosPerSecond,HardwareClockDiscontinuityCount,Svid,TimeOffsetNanos,State,ReceivedSvTimeNanos,ReceivedSvTimeUncertaintyNanos,Cn0DbHz,PseudorangeRateMetersPerSecond,PseudorangeRateUncertaintyMetersPerSecond,AccumulatedDeltaRangeState,AccumulatedDeltaRangeMeters,AccumulatedDeltaRangeUncertaintyMeters,CarrierFrequencyHz,CarrierCycles,CarrierPhase,CarrierPhaseUncertainty,MultipathIndicator,SnrInDb,ConstellationType,AgcDb,BasebandCn0DbHz,FullInterSignalBiasNanos,FullInterSignalBiasUncertaintyNanos,SatelliteInterSignalBiasNanos,SatelliteInterSignalBiasUncertaintyNanos,CodeType,ChipsetElapsedRealtimeNanos,IsFullTracking
# 
# UncalAccel,utcTimeMillis,elapsedRealtimeNanos,UncalAccelXMps2,UncalAccelYMps2,UncalAccelZMps2,BiasXMps2,BiasYMps2,BiasZMps2
# 
# Accel,utcTimeMillis,elapsedRealtimeNanos,AccelXMps2,AccelYMps2,AccelZMps2
# 
# UncalGyro,utcTimeMillis,elapsedRealtimeNanos,UncalGyroXRadPerSec,UncalGyroYRadPerSec,UncalGyroZRadPerSec,DriftXRadPerSec,DriftYRadPerSec,DriftZRadPerSec
# 
# Gyro,utcTimeMillis,elapsedRealtimeNanos,GyroXRadPerSec,GyroYRadPerSec,GyroZRadPerSec
# 
# UncalMag,utcTimeMillis,elapsedRealtimeNanos,UncalMagXMicroT,UncalMagYMicroT,UncalMagZMicroT,BiasXMicroT,BiasYMicroT,BiasZMicroT
# 
# Mag,utcTimeMillis,elapsedRealtimeNanos,MagXMicroT,MagYMicroT,MagZMicroT
# 
# Pressure,utcTimeMillis,elapsedRealtimeNanos,PressureHpa
# 
# OrientationDeg,utcTimeMillis,elapsedRealtimeNanos,yawDeg,rollDeg,pitchDeg
# 
# Fix,Provider,LatitudeDegrees,LongitudeDegrees,AltitudeMeters,SpeedMps,AccuracyMeters,BearingDegrees,UnixTimeMillis,SpeedAccuracyMps,BearingAccuracyDegrees,elapsedRealtimeNanos,VerticalAccuracyMeters,MockLocation,NumberOfUsedSignals,VerticalSpeedAccuracyMps,SolutionType
# 
# Nav,Svid,Type,Status,MessageId,Sub-messageId,Data(Bytes)
# 
# Status,UnixTimeMillis,SignalCount,SignalIndex,ConstellationType,Svid,CarrierFrequencyHz,Cn0DbHz,AzimuthDegrees,ElevationDegrees,UsedInFix,HasAlmanacData,HasEphemerisData,BasebandCn0DbHz
# 
# Agc,utcTimeMillis,TimeNanos,LeapSecond,TimeUncertaintyNanos,FullBiasNanos,BiasNanos,BiasUncertaintyNanos,DriftNanosPerSecond,DriftUncertaintyNanosPerSecond,HardwareClockDiscontinuityCount,AgcDb,CarrierFrequencyHz,ConstellationType
# 
Fix,FLP,37.4243826000,-122.1708019000,2.0,0.061763808,2.633,,1732149006209,3.2,,27890057000000,0.8509346,0,,,
Status,,28,0,1,22,1575420030,27.50,315.0,69.0,1,0,0,22.5
Status,,28,1,1,14,1575420030,23.70,19.0,67.0,1,0,0,18.7
Status,,28,2,1,17,1575420030,28.80,166.0,66.0,1,0,0,23.8
Status,,28,3,1,13,1575420030,33.40,272.0,56.0,1,0,0,28.400002
Status,,28,4,1,30,1575420030,28.50,111.0,56.0,1,0,0,23.5
Status,,28,5,2,133,1575420030,29.00,191.0,45.0,0,0,0,24.0
Status,,28,6,1,19,1575420030,0.00,194.0,37.0,0,0,0,0.0
Status,,28,7,1,15,1575420030,0.00,300.0,28.0,0,0,0,0.0
Status,,28,8,1,7,1575420030,43.60,119.0,22.0,1,0,0,38.6
Status,,28,9,1,2,1575420030,31.40,68.0,21.0,1,0,0,26.4
Status,,28,10,1,21,1575420030,34.20,50.0,13.0,1,0,0,29.2
Status,,28,11,3,9,1602000000,31.00,50.0,45.0,1,0,0,26.0
Status,,28,12,3,8,1602000000,25.40,273.0,38.0,1,0,0,20.4
Status,,28,13,3,19,1602000000,0.00,58.0,35.0,0,0,0,0.0
Status,,28,14,3,20,1602000000,0.00,138.0,31.0,0,0,0,0.0
Status,,28,15,3,11,1602000000,0.00,290.0,13.0,0,0,0,0.0
Status,,28,16,3,18,1602000000,0.00,23.0,9.0,0,0,0,0.0
Status,,28,17,3,16,1602000000,0.00,85.0,2.0,0,0,0,0.0
Status,,28,18,3,17,1602000000,27.60,0.0,0.0,0,0,0,22.6
Status,,28,19,6,21,1575420030,23.80,299.0,64.0,1,0,0,18.8
Status,,28,20,6,19,1575420030,19.80,271.0,54.0,1,0,0,14.799999
Status,,28,21,6,27,1575420030,23.60,49.0,46.0,1,0,0,18.6
Status,,28,22,6,29,1575420030,0.00,196.0,44.0,0,0,0,0.0
Status,,28,23,6,15,1575420030,0.00,81.0,19.0,0,0,0,0.0
Status,,28,24,6,13,1575420030,0.00,133.0,13.0,0,0,0,0.0
Status,,28,25,6,4,1575420030,0.00,322.0,12.0,0,0,0,0.0
Status,,28,26,6,34,1575420030,0.00,34.0,5.0,0,0,0,0.0
Status,,28,27,6,7,1575420030,0.00,162.0,2.0,0,0,0,0.0
Fix,GPS,37.4243916667,-122.1708050000,2.6999999999999993,0.0,2.7,55.79,1732149007000,2.8,179.9,27891057000000,37.1,0,,,
Raw,1732149006999,16767000000,,700843.7025123561,-1416184208232999936,0.0,98.81306346468818,2078.76161942927,0.0,0,30,0.0,16431,347424930053900,396,23.506000518798828,910.4805192069093,0.14999,16,0.0,0.0,1575420030,,,,0,7.87211009948392,1,6.0,23.506000518798828,0.0,0.0,0.0,66.7128,C,27891057000000,
Raw,1732149006999,16767000000,,700843.7025123561,-1416184208232999936,0.0,98.81306346468818,2078.76161942927,0.0,0,7,0.0,16431,347424922741895,42,38.57600021362305,1127.3094739249177,0.14999,16,0.0,0.0,1575420030,,,,0,26.27498204384444,1,6.0,38.57600021362305,0.0,0.0,0.0,66.7128,C,27891057000000,
Raw,1732149006999,16767000000,,700843.7025123561,-1416184208232999936,0.0,98.81306346468818,2078.76161942927,0.0,0,14,0.0,16431,347424932001800,487,18.72800064086914,755.6840497320333,0.14999,16,0.0,0.0,1575420030,,,,0,0.011140771148355988,1,6.0,18.72800064086914,0.0,0.0,0.0,66.7128,C,27891057000000,
Raw,1732149006999,16767000000,,700843.7025123561,-1416184208232999936,0.0,98.81306346468818,2078.76161942927,0.0,0,17,0.0,16431,347424932034394,396,23.847999572753906,398.34932728234276,0.14999,16,0.0,0.0,1575420030,,,,0,8.36389556419295,1,6.0,23.847999572753906,0.0,0.0,0.0,66.7128,C,27891057000000,
Raw,1732149006999,16767000000,,700843.7025123561,-1416184208232999936,0.0,98.81306346468818,2078.76161942927,0.0,0,27,0.0,16431,347424917434048,396,18.600000381469727,918.0664352394309,0.14999,16,0.0,0.0,1575420030,,,,0,1.8795744743930562,6,6.0,18.600000381469727,0.0,0.0,16.945846652192838,66.7128,C,27891057000000,
Raw,1732149006999,16767000000,,700843.7025123561,-1416184208232999936,0.0,98.81306346468818,2078.76161942927,0.0,0,21,0.0,16431,347424919013719,235,29.190000534057617,889.1641899306929,0.14999,16,0.0,0.0,1575420030,,,,0,15.562576864976556,1,6.0,29.190000534057617,0.0,0.0,0.0,66.7128,C,27891057000000,
Raw,1732149006999,16767000000,,700843.7025123561,-1416184208232999936,0.0,98.81306346468818,2078.76161942927,0.0,0,19,0.0,16431,347424920532314,487,14.835000038146973,656.861888026435,0.14999,16,0.0,0.0,1575420030,,,,0,0.0,6,6.0,14.835000038146973,0.0,0.0,16.945846652192838,66.7128,C,27891057000000,
Raw,1732149006999,16767000000,,700843.7025123561,-1416184208232999936,0.0,98.81306346468818,2078.76161942927,0.0,0,21,0.0,16431,347424920539800,487,18.799999237060547,541.9541965841812,0.14999,16,0.0,0.0,1575420030,,,,0,2.209458031624222,6,6.0,18.799999237060547,0.0,0.0,16.945846652192838,66.7128,C,27891057000000,
Raw,1732149006999,16767000000,,700843.7025123561,-1416184208232999936,0.0,98.81306346468818,2078.76161942927,0.0,0,9,0.0,17,859097,316,5.0,855.7675506904487,0.14999,16,0.0,0.0,1600875010,,,,0,12.322963484963728,3,6.0,26.0,0.0,0.0,52.87309992324133,66.7128,C,27891057000000,
Raw,1732149006999,16767000000,,700843.7025123561,-1416184208232999936,0.0,98.81306346468818,2078.76161942927,0.0,0,8,0.0,17,833513,487,5.0,853.8270490391191,0.14999,16,0.0,0.0,1605374980,,,,0,4.814529117420772,3,6.0,20.0,0.0,0.0,52.87309992324133,66.7128,C,27891057000000,
Raw,1732149006999,16767000000,,700843.7025123561,-1416184208232999936,0.0,98.81306346468818,2078.76161942927,0.0,0,13,0.0,16431,347424930958301,235,28.430999755859375,637.7255270140657,0.14999,16,0.0,0.0,1575420030,,,,0,14.60739091436707,1,6.0,28.430999755859375,0.0,0.0,0.0,66.7128,C,27891057000000,
Raw,1732149006999,16767000000,,700843.7025123561,-1416184208232999936,0.0,98.81306346468818,2078.76161942927,0.0,0,22,0.0,16431,347424931004800,396,22.464000701904297,617.267516977339,0.14999,16,0.0,0.0,1575420030,,,,0,6.271602977613117,1,6.0,22.464000701904297,0.0,0.0,0.0,66.7128,C,27891057000000,
Raw,1732149006999,16767000000,,700843.7025123561,-1416184208232999936,0.0,98.81306346468818,2078.76161942927,0.0,0,2,0.0,16431,347424920715408,316,26.385000228881836,656.5942410906462,0.14999,16,0.0,0.0,1575420030,,,,0,11.929878896531829,1,6.0,26.385000228881836,0.0,0.0,0.0,66.7128,C,27891057000000,
Fix,FLP,37.4243871000,-122.1708037000,2.0,0.06472424,2.666,,1732149007209,2.8,,27891057000000,0.8605572,0,,,
Status,1732149007000,28,0,1,22,1575420030,26.60,315.0,69.0,1,0,0,21.6
Status,1732149007000,28,1,1,14,1575420030,25.40,19.0,67.0,1,0,0,20.4
Status,1732149007000,28,2,1,17,1575420030,28.20,166.0,66.0,1,0,0,23.2
Status,1732149007000,28,3,1,13,1575420030,30.90,272.0,56.0,1,0,0,25.9
Status,1732149007000,28,4,1,30,1575420030,28.80,111.0,56.0,1,0,0,23.8
Status,1732149007000,28,5,2,133,1575420030,30.00,191.0,45.0,0,0,0,25.0
Status,1732149007000,28,6,1,19,1575420030,0.00,194.0,37.0,0,0,0,0.0
Status,1732149007000,28,7,1,15,1575420030,0.00,300.0,28.0,0,0,0,0.0
Status,1732149007000,28,8,1,7,1575420030,33.60,119.0,22.0,1,0,0,28.599998
Status,1732149007000,28,9,1,2,1575420030,37.70,68.0,21.0,1,0,0,32.7
Status,1732149007000,28,10,1,21,1575420030,31.30,50.0,13.0,1,0,0,26.3
Status,1732149007000,28,11,3,9,1602000000,32.60,50.0,45.0,1,0,0,27.599998
Status,1732149007000,28,12,3,8,1602000000,21.90,273.0,38.0,1,0,0,16.9
Status,1732149007000,28,13,3,19,1602000000,0.00,58.0,35.0,0,0,0,0.0
Status,1732149007000,28,14,3,20,1602000000,0.00,138.0,31.0,0,0,0,0.0
Status,1732149007000,28,15,3,11,1602000000,0.00,290.0,13.0,0,0,0,0.0
Status,1732149007000,28,16,3,18,1602000000,0.00,23.0,9.0,0,0,0,0.0
Status,1732149007000,28,17,3,16,1602000000,0.00,85.0,2.0,0,0,0,0.0
Status,1732149007000,28,18,3,17,1602000000,25.70,0.0,0.0,0,0,0,20.7
Status,1732149007000,28,19,6,21,1575420030,22.70,299.0,64.0,1,0,0,17.7
Status,1732149007000,28,20,6,19,1575420030,19.90,271.0,54.0,1,0,0,14.9
Status,1732149007000,28,21,6,27,1575420030,24.10,49.0,46.0,1,0,0,19.1
Status,1732149007000,28,22,6,29,1575420030,0.00,196.0,44.0,0,0,0,0.0
Status,1732149007000,28,23,6,15,1575420030,0.00,81.0,19.0,0,0,0,0.0
Status,1732149007000,28,24,6,13,1575420030,0.00,133.0,13.0,0,0,0,0.0
Status,1732149007000,28,25,6,4,1575420030,0.00,322.0,12.0,0,0,0,0.0
Status,1732149007000,28,26,6,34,1575420030,0.00,34.0,5.0,0,0,0,0.0
Status,1732149007000,28,27,6,7,1575420030,0.00,162.0,2.0,0,0,0,0.0
Fix,GPS,37.4243850000,-122.1708066667,2.6999999999999993,0.0,2.7,55.79,1732149008000,2.6,179.9,27892057000000,34.7,0,,,
Fix,FLP,37.4243862000,-122.1708055000,2.0,0.06390586,2.7,,1732149008209,2.6,,27892057000000,0.87055975,0,,,
Raw,1732149007999,17767000000,,700527.8590097153,-1416184208232999936,0.0,91.42400111074039,2079.694378360386,0.0,0,30,0.0,16431,347425930050855,396,23.847999572753906,910.9018970419389,0.14999,16,0.0,0.0,1575420030,,,,0,8.36389556419295,1,6.0,23.847999572753906,0.0,0.0,0.0,66.7128,C,27892057000000,
Raw,1732149007999,17767000000,,700527.8590097153,-1416184208232999936,0.0,91.42400111074039,2079.694378360386,0.0,0,7,0.0,16431,347425922738141,235,28.618000030517578,1126.318515907147,0.14999,16,0.0,0.0,1575420030,,,,0,14.837324949139743,1,6.0,28.618000030517578,0.0,0.0,0.0,66.7128,C,27892057000000,
Raw,1732149007999,17767000000,,700527.8590097153,-1416184208232999936,0.0,91.42400111074039,2079.694378360386,0.0,0,14,0.0,16431,347425931999277,487,20.386999130249023,755.3447174600315,0.14999,16,0.0,0.0,1575420030,,,,0,2.933701484713117,1,6.0,20.386999130249023,0.0,0.0,0.0,66.7128,C,27892057000000,
Raw,1732149007999,17767000000,,700527.8590097153,-1416184208232999936,0.0,91.42400111074039,2079.694378360386,0.0,0,17,0.0,16431,347425932033061,487,23.18899917602539,399.07946775150754,0.14999,16,0.0,0.0,1575420030,,,,0,7.410292918069417,1,6.0,23.18899917602539,0.0,0.0,0.0,66.7128,C,27892057000000,
Raw,1732149007999,17767000000,,700527.8590097153,-1416184208232999936,0.0,91.42400111074039,2079.694378360386,0.0,0,27,0.0,16431,347425917430984,487,19.100000381469727,916.8574943328002,0.14999,16,0.0,0.0,1575420030,,,,0,2.732862718830304,6,6.0,19.100000381469727,0.0,0.0,17.067944095459804,66.7128,C,27892057000000,
Raw,1732149007999,17767000000,,700527.8590097153,-1416184208232999936,0.0,91.42400111074039,2079.694378360386,0.0,0,21,0.0,16431,347425919010749,396,26.263999938964844,889.5927223618189,0.14999,16,0.0,0.0,1575420030,,,,0,11.787775283032502,1,6.0,26.263999938964844,0.0,0.0,0.0,66.7128,C,27892057000000,
Raw,1732149007999,17767000000,,700527.8590097153,-1416184208232999936,0.0,91.42400111074039,2079.694378360386,0.0,0,19,0.0,16431,347425920530121,797,14.868000030517578,658.0382151248859,0.14999,16,0.0,0.0,1575420030,,,,0,0.0,6,6.0,14.868000030517578,0.0,0.0,17.067944095459804,66.7128,C,27892057000000,
Raw,1732149007999,17767000000,,700527.8590097153,-1416184208232999936,0.0,91.42400111074039,2079.694378360386,0.0,0,21,0.0,16431,347425920537991,487,17.700000762939453,541.706340933698,0.14999,16,0.0,0.0,1575420030,,,,0,0.418366424102512,6,6.0,17.700000762939453,0.0,0.0,17.067944095459804,66.7128,C,27892057000000,
Raw,1732149007999,17767000000,,700527.8590097153,-1416184208232999936,0.0,91.42400111074039,2079.694378360386,0.0,0,9,0.0,17,856239,396,5.0,855.2774355511207,0.14999,16,0.0,0.0,1600875010,,,,0,14.177198754906927,3,6.0,23.0,0.0,0.0,53.57303686498064,66.7128,C,27892057000000,
Raw,1732149007999,17767000000,,700527.8590097153,-1416184208232999936,0.0,91.42400111074039,2079.694378360386,0.0,0,8,0.0,17,830664,487,5.0,854.6692159606936,0.14999,16,0.0,0.0,1605374980,,,,0,0.0,3,6.0,18.0,0.0,0.0,53.57303686498064,66.7128,C,27892057000000,
Raw,1732149007999,17767000000,,700527.8590097153,-1416184208232999936,0.0,91.42400111074039,2079.694378360386,0.0,0,13,0.0,16431,347425930956175,487,25.861000061035156,637.4884032577272,0.14999,16,0.0,0.0,1575420030,,,,0,11.233168444129475,1,6.0,25.861000061035156,0.0,0.0,0.0,66.7128,C,27892057000000,
Raw,1732149007999,17767000000,,700527.8590097153,-1416184208232999936,0.0,91.42400111074039,2079.694378360386,0.0,0,22,0.0,16431,347425931002692,487,21.617000579833984,617.5401814220786,0.14999,16,0.0,0.0,1575420030,,,,0,4.9607859846894415,1,6.0,21.617000579833984,0.0,0.0,0.0,66.7128,C,27892057000000,
Raw,1732149007999,17767000000,,700527.8590097153,-1416184208232999936,0.0,91.42400111074039,2079.694378360386,0.0,0,2,0.0,16431,347425920713210,58,32.67900085449219,655.6465358583674,0.14999,16,0.0,0.0,1575420030,,,,0,19.721466528202665,1,6.0,32.67900085449219,0.0,0.0,0.0,66.7128,C,27892057000000,
Status,1732149008000,28,0,1,22,1575420030,27.60,315.0,69.0,1,0,0,22.6
Status,1732149008000,28,1,1,14,1575420030,25.90,19.0,67.0,1,0,0,20.9
Status,1732149008000,28,2,1,17,1575420030,25.10,166.0,66.0,1,0,0,20.1
Status,1732149008000,28,3,1,13,1575420030,29.30,272.0,56.0,1,0,0,24.3
Status,1732149008000,28,4,1,30,1575420030,30.50,111.0,56.0,1,0,0,25.5
Status,1732149008000,28,5,2,133,1575420030,31.00,191.0,45.0,0,0,0,26.0
Status,1732149008000,28,6,1,19,1575420030,0.00,194.0,37.0,0,0,0,0.0
Status,1732149008000,28,7,1,15,1575420030,0.00,300.0,28.0,0,0,0,0.0
Status,1732149008000,28,8,1,7,1575420030,32.80,119.0,22.0,1,0,0,27.8
Status,1732149008000,28,9,1,2,1575420030,29.20,68.0,21.0,1,0,0,24.2
Status,1732149008000,28,10,1,21,1575420030,32.90,50.0,13.0,1,0,0,27.900002
Status,1732149008000,28,11,3,9,1602000000,25.80,50.0,45.0,1,0,0,20.8
Status,1732149008000,28,12,3,8,1602000000,26.80,273.0,38.0,1,0,0,21.8
Status,1732149008000,28,13,3,19,1602000000,0.00,58.0,35.0,0,0,0,0.0
Status,1732149008000,28,14,3,20,1602000000,0.00,138.0,31.0,0,0,0,0.0
Status,1732149008000,28,15,3,11,1602000000,0.00,290.0,13.0,0,0,0,0.0
Status,1732149008000,28,16,3,18,1602000000,0.00,23.0,9.0,0,0,0,0.0
Status,1732149008000,28,17,3,16,1602000000,0.00,85.0,2.0,0,0,0,0.0
Status,1732149008000,28,18,3,17,1602000000,25.00,0.0,0.0,0,0,0,20.0
Status,1732149008000,28,19,6,21,1575420030,22.10,299.0,64.0,1,0,0,17.1
Status,1732149008000,28,20,6,19,1575420030,16.90,271.0,54.0,1,0,0,11.9
Status,1732149008000,28,21,6,27,1575420030,26.90,49.0,46.0,1,0,0,21.9
Status,1732149008000,28,22,6,29,1575420030,0.00,196.0,44.0,0,0,0,0.0
Status,1732149008000,28,23,6,15,1575420030,0.00,81.0,19.0,0,0,0,0.0
Status,1732149008000,28,24,6,13,1575420030,0.00,133.0,13.0,0,0,0,0.0
Status,1732149008000,28,25,6,4,1575420030,0.00,322.0,12.0,0,0,0,0.0
Status,1732149008000,28,26,6,34,1575420030,0.00,34.0,5.0,0,0,0,0.0
Status,1732149008000,28,27,6,7,1575420030,0.00,162.0,2.0,0,0,0,0.0
Fix,GPS,37.4243850000,-122.1708100000,2.8000000000000007,0.0,2.8,55.79,1732149009000,3.0,179.9,27893057000000,34.0,0,,,
Fix,FLP,37.4243857000,-122.1708080000,2.0,0.0652564,2.733,,1732149009209,3.0,,27893057000000,0.8805644,0,,,
Raw,1732149008999,18767000000,,700419.2422012164,-1416184208232999936,0.0,89.5792660993192,2074.466248673012,0.0,0,30,0.0,16431,347426930047818,316,25.464000701904297,908.9621652483165,0.14999,16,0.0,0.0,1575420030,,,,0,10.681498011487705,1,6.0,25.464000701904297,0.0,0.0,0.0,66.7128,C,27893057000000,
Raw,1732149008999,18767000000,,700419.2422012164,-1416184208232999936,0.0,89.5792660993192,2074.466248673012,0.0,0,7,0.0,16431,347426922734384,396,27.784000396728516,1126.0150495324597,0.14999,16,0.0,0.0,1575420030,,,,0,13.765286363644735,1,6.0,27.784000396728516,0.0,0.0,0.0,66.7128,C,27893057000000,
Raw,1732149008999,18767000000,,700419.2422012164,-1416184208232999936,0.0,89.5792660993192,2074.466248673012,0.0,0,14,0.0,16431,347426931996760,487,20.85700035095215,753.6828534537643,0.14999,16,0.0,0.0,1575420030,,,,0,3.693607855941778,1,6.0,20.85700035095215,0.0,0.0,0.0,66.7128,C,27893057000000,
Raw,1732149008999,18767000000,,700419.2422012164,-1416184208232999936,0.0,89.5792660993192,2074.466248673012,0.0,0,17,0.0,16431,347426932031733,487,20.110000610351562,396.89815219359036,0.14999,16,0.0,0.0,1575420030,,,,0,2.4226193952653525,1,6.0,20.110000610351562,0.0,0.0,0.0,66.7128,C,27893057000000,
Raw,1732149008999,18767000000,,700419.2422012164,-1416184208232999936,0.0,89.5792660993192,2074.466248673012,0.0,0,27,0.0,16431,347426917427925,396,21.899999618530273,916.1934177314869,0.14999,16,0.0,0.0,1575420030,,,,0,7.047066909088825,6,6.0,21.899999618530273,0.0,0.0,12.358391791765397,66.7128,C,27893057000000,
Raw,1732149008999,18767000000,,700419.2422012164,-1416184208232999936,0.0,89.5792660993192,2074.466248673012,0.0,0,21,0.0,16431,347426919007785,316,27.864999771118164,888.4099840019311,0.14999,16,0.0,0.0,1575420030,,,,0,13.87864379165206,1,6.0,27.864999771118164,0.0,0.0,0.0,66.7128,C,27893057000000,
Raw,1732149008999,18767000000,,700419.2422012164,-1416184208232999936,0.0,89.5792660993192,2074.466248673012,0.0,0,19,0.0,16431,347426920527982,1797,11.899999618530273,656.7083429608592,0.14999,16,0.0,0.0,1575420030,,,,0,0.0,6,6.0,11.899999618530273,0.0,0.0,12.358391791765397,66.7128,C,27893057000000,
Raw,1732149008999,18767000000,,700419.2422012164,-1416184208232999936,0.0,89.5792660993192,2074.466248673012,0.0,0,21,0.0,16431,347426920536184,487,17.100000381469727,540.773781145104,0.14999,16,0.0,0.0,1575420030,,,,0,0.0,6,6.0,17.100000381469727,0.0,0.0,12.358391791765397,66.7128,C,27893057000000,
Raw,1732149008999,18767000000,,700419.2422012164,-1416184208232999936,0.0,89.5792660993192,2074.466248673012,0.0,0,9,0.0,17,853388,396,5.0,854.0739102780169,0.14999,16,0.0,0.0,1600875010,,,,0,5.448082192032385,3,6.0,22.0,0.0,0.0,55.79388681336731,66.7128,C,27893057000000,
Raw,1732149008999,18767000000,,700419.2422012164,-1416184208232999936,0.0,89.5792660993192,2074.466248673012,0.0,0,8,0.0,17,827815,396,5.0,851.7404154495445,0.14999,16,0.0,0.0,1605374980,,,,0,6.814994086064758,3,6.0,21.0,0.0,0.0,55.79388681336731,66.7128,C,27893057000000,
Raw,1732149008999,18767000000,,700419.2422012164,-1416184208232999936,0.0,89.5792660993192,2074.466248673012,0.0,0,13,0.0,16431,347426930954056,396,24.301000595092773,636.1289370825743,0.14999,16,0.0,0.0,1575420030,,,,0,9.028434618743677,1,6.0,24.301000595092773,0.0,0.0,0.0,66.7128,C,27893057000000,
Raw,1732149008999,18767000000,,700419.2422012164,-1416184208232999936,0.0,89.5792660993192,2074.466248673012,0.0,0,22,0.0,16431,347426931000648,396,22.58300018310547,616.3098696439912,0.14999,16,0.0,0.0,1575420030,,,,0,6.472055480782384,1,6.0,22.58300018310547,0.0,0.0,0.0,66.7128,C,27893057000000,
Raw,1732149008999,18767000000,,700419.2422012164,-1416184208232999936,0.0,89.5792660993192,2074.466248673012,0.0,0,2,0.0,16431,347426920711029,316,24.20599937438965,653.8543559946297,0.14999,16,0.0,0.0,1575420030,,,,0,8.929449050170826,1,6.0,24.20599937438965,0.0,0.0,0.0,66.7128,C,27893057000000,
Status,1732149009000,28,0,1,22,1575420030,26.50,315.0,69.0,1,0,0,21.5
Status,1732149009000,28,1,1,14,1575420030,25.90,19.0,67.0,1,0,0,20.9
Status,1732149009000,28,2,1,17,1575420030,25.50,166.0,66.0,1,0,0,20.5
Status,1732149009000,28,3,1,13,1575420030,0.00,272.0,56.0,0,0,0,0.0
Status,1732149009000,28,4,1,30,1575420030,29.80,111.0,56.0,1,0,0,24.8
Status,1732149009000,28,5,2,135,1575420030,0.00,197.0,45.0,0,0,0,0.0
Status,1732149009000,28,6,1,19,1575420030,0.00,194.0,37.0,0,0,0,0.0
Status,1732149009000,28,7,1,15,1575420030,0.00,300.0,28.0,0,0,0,0.0
Status,1732149009000,28,8,1,7,1575420030,30.20,119.0,22.0,1,0,0,25.2
Status,1732149009000,28,9,1,2,1575420030,0.00,68.0,21.0,0,0,0,0.0
Status,1732149009000,28,10,1,21,1575420030,39.90,50.0,13.0,1,0,0,34.9
Status,1732149009000,28,11,3,9,1602000000,25.40,50.0,45.0,1,0,0,20.4
Status,1732149009000,28,12,3,8,1602000000,23.60,273.0,38.0,1,0,0,18.6
Status,1732149009000,28,13,3,19,1602000000,0.00,58.0,35.0,0,0,0,0.0
Status,1732149009000,28,14,3,20,1602000000,0.00,138.0,31.0,0,0,0,0.0
Status,1732149009000,28,15,3,11,1602000000,0.00,290.0,13.0,0,0,0,0.0
Status,1732149009000,28,16,3,18,1602000000,0.00,23.0,9.0,0,0,0,0.0
Status,1732149009000,28,17,3,16,1602000000,0.00,85.0,2.0,0,0,0,0.0
Status,1732149009000,28,18,3,17,1602000000,24.10,0.0,0.0,0,0,0,19.1
Status,1732149009000,28,19,6,21,1575420030,22.00,299.0,64.0,1,0,0,17.0
Status,1732149009000,28,20,6,19,1575420030,16.90,271.0,54.0,1,0,0,11.9
Status,1732149009000,28,21,6,27,1575420030,23.70,49.0,46.0,1,0,0,18.7
Status,1732149009000,28,22,6,29,1575420030,0.00,196.0,44.0,0,0,0,0.0
Status,1732149009000,28,23,6,15,1575420030,0.00,81.0,19.0,0,0,0,0.0
Status,1732149009000,28,24,6,13,1575420030,0.00,133.0,13.0,0,0,0,0.0
Status,1732149009000,28,25,6,4,1575420030,0.00,322.0,12.0,0,0,0,0.0
Status,1732149009000,28,26,6,34,1575420030,0.00,34.0,5.0,0,0,0,0.0
Status,1732149009000,28,27,6,7,1575420030,0.00,162.0,2.0,0,0,0,0.0
Fix,GPS,37.4243800000,-122.1708166667,2.900000000000002,0.0,2.8,55.79,1732149010000,3.2,179.9,27894057000000,31.9,0,,,
Fix,FLP,37.4243830000,-122.1708126000,2.0,0.06960136,2.766,,1732149010209,3.2,,27894057000000,0.8906018,0,,,
Raw,1732149009999,19767000000,,700310.6775121074,-1416184208232999936,0.0,86.13184712479023,2070.8622042838074,0.0,0,30,0.0,16431,347427930044789,316,24.757999420166016,908.0680265699285,0.14999,16,0.0,0.0,1575420030,,,,0,9.691440024499613,1,6.0,24.757999420166016,0.0,0.0,0.0,66.7128,C,27894057000000,
Raw,1732149009999,19767000000,,700310.6775121074,-1416184208232999936,0.0,86.13184712479023,2070.8622042838074,0.0,0,7,0.0,16431,347427922730629,396,25.18899917602539,1124.9065517216764,0.14999,16,0.0,0.0,1575420030,,,,0,10.307406671134064,1,6.0,25.18899917602539,0.0,0.0,0.0,66.7128,C,27894057000000,
Raw,1732149009999,19767000000,,700310.6775121074,-1416184208232999936,0.0,86.13184712479023,2070.8622042838074,0.0,0,14,0.0,16431,347427931994244,487,20.865999221801758,752.8148244052866,0.14999,16,0.0,0.0,1575420030,,,,0,4.05000203918136,1,6.0,20.865999221801758,0.0,0.0,0.0,66.7128,C,27894057000000,
Raw,1732149009999,19767000000,,700310.6775121074,-1416184208232999936,0.0,86.13184712479023,2070.8622042838074,0.0,0,17,0.0,16431,347427932030409,487,20.492000579833984,397.00612155286365,0.14999,16,0.0,0.0,1575420030,,,,0,3.1300011305850903,1,6.0,20.492000579833984,0.0,0.0,0.0,66.7128,C,27894057000000,
Raw,1732149009999,19767000000,,700310.6775121074,-1416184208232999936,0.0,86.13184712479023,2070.8622042838074,0.0,0,27,0.0,16431,347427917424868,487,18.700000762939453,914.4438866938303,0.14999,16,0.0,0.0,1575420030,,,,0,2.1008829973962575,6,6.0,18.700000762939453,0.0,0.0,7.430570529608102,66.7128,C,27894057000000,
Raw,1732149009999,19767000000,,700310.6775121074,-1416184208232999936,0.0,86.13184712479023,2070.8622042838074,0.0,0,22,0.0,16431,347427930998700,396,21.52400016784668,615.2209308264323,0.14999,16,0.0,0.0,1575420030,,,,0,4.802135187957818,1,6.0,21.52400016784668,0.0,0.0,0.0,66.7128,C,27894057000000,
Raw,1732149009999,19767000000,,700310.6775121074,-1416184208232999936,0.0,86.13184712479023,2070.8622042838074,0.0,0,19,0.0,16431,347427920525794,1797,11.899999618530273,655.2580041235987,0.14999,16,0.0,0.0,1575420030,,,,0,0.0,6,6.0,11.899999618530273,0.0,0.0,7.430570529608102,66.7128,C,27894057000000,
Raw,1732149009999,19767000000,,700310.6775121074,-1416184208232999936,0.0,86.13184712479023,2070.8622042838074,0.0,0,21,0.0,16431,347427920534380,396,16.989999771118164,539.6873975404367,0.14999,16,0.0,0.0,1575420030,,,,0,0.0,6,6.0,16.989999771118164,0.0,0.0,7.430570529608102,66.7128,C,27894057000000,
Raw,1732149009999,19767000000,,700310.6775121074,-1416184208232999936,0.0,86.13184712479023,2070.8622042838074,0.0,0,9,0.0,17,850538,487,5.0,852.7151209178647,0.14999,16,0.0,0.0,1600875010,,,,0,4.845350995386187,3,6.0,20.0,0.0,0.0,56.51619447149706,66.7128,C,27894057000000,
Raw,1732149009999,19767000000,,700310.6775121074,-1416184208232999936,0.0,86.13184712479023,2070.8622042838074,0.0,0,8,0.0,17,824975,487,5.0,852.2598854530319,0.14999,16,0.0,0.0,1605374980,,,,0,1.866937004289868,3,6.0,18.0,0.0,0.0,56.51619447149706,66.7128,C,27894057000000,
Raw,1732149009999,19767000000,,700310.6775121074,-1416184208232999936,0.0,86.13184712479023,2070.8622042838074,0.0,0,21,0.0,16431,347427919004823,58,34.87200164794922,887.9755978103625,0.14999,16,0.0,0.0,1575420030,,,,0,22.21485131937159,1,6.0,34.87200164794922,0.0,0.0,0.0,66.7128,C,27894057000000,
Status,1732149010000,28,0,1,22,1575420030,0.00,315.0,69.0,0,0,0,0.0
Status,1732149010000,28,1,1,14,1575420030,30.50,19.0,67.0,1,0,0,25.5
Status,1732149010000,28,2,1,17,1575420030,28.70,166.0,66.0,1,0,0,23.7
Status,1732149010000,28,3,1,13,1575420030,29.10,272.0,56.0,1,0,0,24.1
Status,1732149010000,28,4,1,30,1575420030,30.40,111.0,56.0,1,0,0,25.4
Status,1732149010000,28,5,2,135,1575420030,0.00,197.0,45.0,0,0,0,0.0
Status,1732149010000,28,6,1,19,1575420030,0.00,194.0,37.0,0,0,0,0.0
Status,1732149010000,28,7,1,15,1575420030,0.00,300.0,28.0,0,0,0,0.0
Status,1732149010000,28,8,1,7,1575420030,29.80,119.0,22.0,1,0,0,24.8
Status,1732149010000,28,9,1,2,1575420030,27.30,68.0,21.0,1,0,0,22.3
Status,1732149010000,28,10,1,21,1575420030,32.90,50.0,13.0,1,0,0,27.900002
Status,1732149010000,28,11,3,9,1602000000,28.90,50.0,45.0,1,0,0,23.9
Status,1732149010000,28,12,3,8,1602000000,24.00,273.0,38.0,1,0,0,19.0
Status,1732149010000,28,13,3,19,1602000000,0.00,58.0,35.0,0,0,0,0.0
Status,1732149010000,28,14,3,20,1602000000,0.00,138.0,31.0,0,0,0,0.0
Status,1732149010000,28,15,3,11,1602000000,0.00,290.0,13.0,0,0,0,0.0
Status,1732149010000,28,16,3,18,1602000000,0.00,23.0,9.0,0,0,0,0.0
Status,1732149010000,28,17,3,16,1602000000,0.00,85.0,2.0,0,0,0,0.0
Status,1732149010000,28,18,3,17,1602000000,24.00,0.0,0.0,0,0,0,19.0
Status,1732149010000,28,19,6,21,1575420030,31.10,299.0,64.0,1,0,0,26.1
Status,1732149010000,28,20,6,19,1575420030,16.90,271.0,54.0,1,0,0,11.9
Status,1732149010000,28,21,6,27,1575420030,26.50,49.0,46.0,1,0,0,21.5
Status,1732149010000,28,22,6,29,1575420030,0.00,196.0,44.0,0,0,0,0.0
Status,1732149010000,28,23,6,15,1575420030,0.00,81.0,19.0,0,0,0,0.0
Status,1732149010000,28,24,6,13,1575420030,0.00,133.0,13.0,0,0,0,0.0
Status,1732149010000,28,25,6,4,1575420030,0.00,322.0,12.0,0,0,0,0.0
Status,1732149010000,28,26,6,34,1575420030,0.00,34.0,5.0,0,0,0,0.0
Status,1732149010000,28,27,6,7,1575420030,0.00,162.0,2.0,0,0,0,0.0
Fix,GPS,37.4243783333,-122.1708183333,2.900000000000002,0.0,2.9,55.79,1732149011000,3.2,179.9,27895057000000,33.6,0,,,
Raw,1732149010999,20767000000,,700186.0079315271,-1416184208232999936,0.0,91.32588915868254,2068.9708255745804,0.0,0,30,0.0,16431,347428930041758,316,25.382999420166016,908.8103391441405,0.14999,16,0.0,0.0,1575420030,,,,0,10.558582427700593,1,6.0,25.382999420166016,0.0,0.0,0.0,66.7128,C,27895057000000,
Raw,1732149010999,20767000000,,700186.0079315271,-1416184208232999936,0.0,91.32588915868254,2068.9708255745804,0.0,0,7,0.0,16431,347428922726867,316,24.78700065612793,1124.6744454742884,0.14999,16,0.0,0.0,1575420030,,,,0,9.736915990359682,1,6.0,24.78700065612793,0.0,0.0,0.0,66.7128,C,27895057000000,
Raw,1732149010999,20767000000,,700186.0079315271,-1416184208232999936,0.0,91.32588915868254,2068.9708255745804,0.0,0,14,0.0,16431,347428931991731,235,25.464000701904297,753.0948292797875,0.14999,16,0.0,0.0,1575420030,,,,0,10.681498011487705,1,6.0,25.464000701904297,0.0,0.0,0.0,66.7128,C,27895057000000,
Raw,1732149010999,20767000000,,700186.0079315271,-1416184208232999936,0.0,91.32588915868254,2068.9708255745804,0.0,0,17,0.0,16431,347428932029082,396,23.714000701904297,396.34929246447905,0.14999,16,0.0,0.0,1575420030,,,,0,8.20304115908467,1,6.0,23.714000701904297,0.0,0.0,0.0,66.7128,C,27895057000000,
Raw,1732149010999,20767000000,,700186.0079315271,-1416184208232999936,0.0,91.32588915868254,2068.9708255745804,0.0,0,21,0.0,16431,347428919001857,235,27.864999771118164,888.2103986458906,0.14999,16,0.0,0.0,1575420030,,,,0,13.87864379165206,1,6.0,27.864999771118164,0.0,0.0,0.0,66.7128,C,27895057000000,
Raw,1732149010999,20767000000,,700186.0079315271,-1416184208232999936,0.0,91.32588915868254,2068.9708255745804,0.0,0,27,0.0,16431,347428917421814,396,21.5,915.3934038043413,0.14999,16,0.0,0.0,1575420030,,,,0,6.405750657752846,6,6.0,21.5,0.0,0.0,4.357978348921873,66.7128,C,27895057000000,
Raw,1732149010999,20767000000,,700186.0079315271,-1416184208232999936,0.0,91.32588915868254,2068.9708255745804,0.0,0,19,0.0,16431,347428920523609,797,11.899999618530273,654.3568502243629,0.14999,16,0.0,0.0,1575420030,,,,0,0.0,6,6.0,11.899999618530273,0.0,0.0,4.357978348921873,66.7128,C,27895057000000,
Raw,1732149010999,20767000000,,700186.0079315271,-1416184208232999936,0.0,91.32588915868254,2068.9708255745804,0.0,0,21,0.0,16431,347428920532581,316,26.100000381469727,539.0229492717935,0.14999,16,0.0,0.0,1575420030,,,,0,12.476126579106364,6,6.0,26.100000381469727,0.0,0.0,4.357978348921873,66.7128,C,27895057000000,
Raw,1732149010999,20767000000,,700186.0079315271,-1416184208232999936,0.0,91.32588915868254,2068.9708255745804,0.0,0,9,0.0,17,847688,396,5.0,853.0096471984199,0.14999,16,0.0,0.0,1600875010,,,,0,9.668881352152667,3,6.0,23.0,0.0,0.0,56.90827242493427,66.7128,C,27895057000000,
Raw,1732149010999,20767000000,,700186.0079315271,-1416184208232999936,0.0,91.32588915868254,2068.9708255745804,0.0,0,8,0.0,17,822131,487,5.0,852.3530745602048,0.14999,16,0.0,0.0,1605374980,,,,0,2.7027630711513426,3,6.0,20.0,0.0,0.0,56.90827242493427,66.7128,C,27895057000000,
Raw,1732149010999,20767000000,,700186.0079315271,-1416184208232999936,0.0,91.32588915868254,2068.9708255745804,0.0,0,13,0.0,16431,347428930949866,396,24.108999252319336,636.6923847543758,0.14999,16,0.0,0.0,1575420030,,,,0,8.778822911842637,1,6.0,24.108999252319336,0.0,0.0,0.0,66.7128,C,27895057000000,
Raw,1732149010999,20767000000,,700186.0079315271,-1416184208232999936,0.0,91.32588915868254,2068.9708255745804,0.0,0,2,0.0,16431,347428920706706,396,22.30500030517578,654.2881846852038,0.14999,16,0.0,0.0,1575420030,,,,0,6.06641494060799,1,6.0,22.30500030517578,0.0,0.0,0.0,66.7128,C,27895057000000,
Fix,FLP,37.4243808000,-122.1708158000,2.0,0.07205393,2.783,,1732149011209,3.2,,27895057000000,0.896455,0,,,
Status,1732149011000,28,0,1,22,1575420030,33.30,315.0,69.0,1,0,0,28.3
Status,1732149011000,28,1,1,14,1575420030,35.10,19.0,67.0,1,0,0,30.099998
Status,1732149011000,28,2,1,17,1575420030,31.20,166.0,66.0,1,0,0,26.2
Status,1732149011000,28,3,1,13,1575420030,34.50,272.0,56.0,1,0,0,29.5
Status,1732149011000,28,4,1,30,1575420030,30.20,111.0,56.0,1,0,0,25.2
Status,1732149011000,28,5,2,135,1575420030,0.00,197.0,45.0,0,0,0,0.0
Status,1732149011000,28,6,1,19,1575420030,0.00,194.0,37.0,0,0,0,0.0
Status,1732149011000,28,7,1,15,1575420030,0.00,300.0,28.0,0,0,0,0.0
Status,1732149011000,28,8,1,7,1575420030,29.70,119.0,22.0,1,0,0,24.7
Status,1732149011000,28,9,1,2,1575420030,32.00,68.0,21.0,1,0,0,27.0
Status,1732149011000,28,10,1,21,1575420030,0.00,50.0,13.0,0,0,0,0.0
Status,1732149011000,28,11,3,9,1602000000,24.80,50.0,45.0,1,0,0,19.8
Status,1732149011000,28,12,3,8,1602000000,25.60,273.0,38.0,1,0,0,20.6
Status,1732149011000,28,13,3,19,1602000000,0.00,58.0,35.0,0,0,0,0.0
Status,1732149011000,28,14,3,20,1602000000,0.00,138.0,31.0,0,0,0,0.0
Status,1732149011000,28,15,3,11,1602000000,0.00,290.0,13.0,0,0,0,0.0
Status,1732149011000,28,16,3,18,1602000000,0.00,23.0,9.0,0,0,0,0.0
Status,1732149011000,28,17,3,16,1602000000,0.00,85.0,2.0,0,0,0,0.0
Status,1732149011000,28,18,3,17,1602000000,33.50,0.0,0.0,0,0,0,28.5
Status,1732149011000,28,19,6,21,1575420030,26.50,299.0,64.0,1,0,0,21.5
Status,1732149011000,28,20,6,19,1575420030,16.90,271.0,54.0,1,0,0,11.9
Status,1732149011000,28,21,6,27,1575420030,27.20,49.0,46.0,1,0,0,22.2
Status,1732149011000,28,22,6,29,1575420030,0.00,196.0,44.0,0,0,0,0.0
Status,1732149011000,28,23,6,15,1575420030,0.00,81.0,19.0,0,0,0,0.0
Status,1732149011000,28,24,6,13,1575420030,0.00,133.0,13.0,0,0,0,0.0
Status,1732149011000,28,25,6,4,1575420030,0.00,322.0,12.0,0,0,0,0.0
Status,1732149011000,28,26,6,34,1575420030,0.00,34.0,5.0,0,0,0,0.0
Status,1732149011000,28,27,6,7,1575420030,0.00,162.0,2.0,0,0,0,0.0
Fix,GPS,37.4243850000,-122.1708233333,2.900000000000002,0.0,2.9,55.79,1732149012000,3.3,179.9,27896057000000,34.1,0,,,
Fix,FLP,37.4243829000,-122.1708199000,2.0,0.07819579,2.8,,1732149012209,3.3,,27896057000000,0.9063903,0,,,
Raw,1732149011999,21767000000,,699936.5124121968,-1416184208232999936,0.0,91.92809969691508,2068.938771878078,0.0,0,30,0.0,16431,347429930038724,316,25.160999298095703,909.001561985263,0.14999,16,0.0,0.0,1575420030,,,,0,10.264828695491628,1,6.0,25.160999298095703,0.0,0.0,0.0,66.7128,C,27896057000000,
Raw,1732149011999,21767000000,,699936.5124121968,-1416184208232999936,0.0,91.92809969691508,2068.938771878078,0.0,0,7,0.0,16431,347429922723112,396,24.667999267578125,1125.746148219433,0.14999,16,0.0,0.0,1575420030,,,,0,9.553565865541605,1,6.0,24.667999267578125,0.0,0.0,0.0,66.7128,C,27896057000000,
Raw,1732149011999,21767000000,,699936.5124121968,-1416184208232999936,0.0,91.92809969691508,2068.938771878078,0.0,0,14,0.0,16431,347429931989216,235,30.089000701904297,752.6821856270055,0.14999,16,0.0,0.0,1575420030,,,,0,16.65109431586628,1,6.0,30.089000701904297,0.0,0.0,0.0,66.7128,C,27896057000000,
Raw,1732149011999,21767000000,,699936.5124121968,-1416184208232999936,0.0,91.92809969691508,2068.938771878078,0.0,0,17,0.0,16431,347429932027758,235,26.190000534057617,396.262554601414,0.14999,16,0.0,0.0,1575420030,,,,0,11.679650779278493,1,6.0,26.190000534057617,0.0,0.0,0.0,66.7128,C,27896057000000,
Raw,1732149011999,21767000000,,699936.5124121968,-1416184208232999936,0.0,91.92809969691508,2068.938771878078,0.0,0,27,0.0,16431,347429917418758,316,22.200000762939453,915.3831829527751,0.14999,16,0.0,0.0,1575420030,,,,0,7.469380830550487,6,6.0,22.200000762939453,0.0,0.0,6.3489430753390055,66.7128,C,27896057000000,
Raw,1732149011999,21767000000,,699936.5124121968,-1416184208232999936,0.0,91.92809969691508,2068.938771878078,0.0,0,13,0.0,16431,347429930947769,235,29.476999282836914,636.2591600232125,0.14999,16,0.0,0.0,1575420030,,,,0,15.903689664438517,1,6.0,29.476999282836914,0.0,0.0,0.0,66.7128,C,27896057000000,
Raw,1732149011999,21767000000,,699936.5124121968,-1416184208232999936,0.0,91.92809969691508,2068.938771878078,0.0,0,19,0.0,16431,347429920521426,487,11.899999618530273,654.4072576059513,0.14999,16,0.0,0.0,1575420030,,,,0,0.0,6,6.0,11.899999618530273,0.0,0.0,6.3489430753390055,66.7128,C,27896057000000,
Raw,1732149011999,21767000000,,699936.5124121968,-1416184208232999936,0.0,91.92809969691508,2068.938771878078,0.0,0,21,0.0,16431,347429920530784,396,21.5,539.5699971226726,0.14999,16,0.0,0.0,1575420030,,,,0,6.472055480782384,6,6.0,21.5,0.0,0.0,6.3489430753390055,66.7128,C,27896057000000,
Raw,1732149011999,21767000000,,699936.5124121968,-1416184208232999936,0.0,91.92809969691508,2068.938771878078,0.0,0,9,0.0,17,844844,396,5.0,852.9224140187708,0.14999,16,0.0,0.0,1600875010,,,,0,3.9705605182979093,3,6.0,22.0,0.0,0.0,58.49805206619877,66.7128,C,27896057000000,
Raw,1732149011999,21767000000,,699936.5124121968,-1416184208232999936,0.0,91.92809969691508,2068.938771878078,0.0,0,8,0.0,17,819289,396,5.0,852.0126881247091,0.14999,16,0.0,0.0,1605374980,,,,0,5.1815931570383675,3,6.0,21.0,0.0,0.0,58.49805206619877,66.7128,C,27896057000000,
Raw,1732149011999,21767000000,,699936.5124121968,-1416184208232999936,0.0,91.92809969691508,2068.938771878078,0.0,0,22,0.0,16431,347429930994589,235,28.29800033569336,615.5459074478251,0.14999,16,0.0,0.0,1575420030,,,,0,14.424247902182843,1,6.0,28.29800033569336,0.0,0.0,0.0,66.7128,C,27896057000000,
Raw,1732149011999,21767000000,,699936.5124121968,-1416184208232999936,0.0,91.92809969691508,2068.938771878078,0.0,0,2,0.0,16431,347429920704513,316,27.034000396728516,654.6357400968748,0.14999,16,0.0,0.0,1575420030,,,,0,12.800870556520076,1,6.0,27.034000396728516,0.0,0.0,0.0,66.7128,C,27896057000000,
Status,1732149012000,28,0,1,22,1575420030,29.60,315.0,69.0,1,0,0,24.6
Status,1732149012000,28,1,1,14,1575420030,30.80,19.0,67.0,1,0,0,25.8
Status,1732149012000,28,2,1,17,1575420030,34.20,166.0,66.0,1,0,0,29.2
Status,1732149012000,28,3,1,13,1575420030,34.40,272.0,56.0,1,0,0,29.400002
Status,1732149012000,28,4,1,30,1575420030,34.50,111.0,56.0,1,0,0,29.5
Status,1732149012000,28,5,2,135,1575420030,0.00,197.0,45.0,0,0,0,0.0
Status,1732149012000,28,6,1,19,1575420030,29.80,194.0,37.0,1,0,0,24.8
Status,1732149012000,28,7,1,15,1575420030,0.00,300.0,28.0,0,0,0,0.0
Status,1732149012000,28,8,1,7,1575420030,29.50,119.0,22.0,1,0,0,24.5
Status,1732149012000,28,9,1,2,1575420030,30.60,68.0,21.0,1,0,0,25.6
Status,1732149012000,28,10,1,21,1575420030,29.80,50.0,13.0,1,0,0,24.8
Status,1732149012000,28,11,3,9,1602000000,29.10,50.0,45.0,1,0,0,24.1
Status,1732149012000,28,12,3,8,1602000000,25.90,273.0,38.0,1,0,0,20.9
Status,1732149012000,28,13,3,19,1602000000,0.00,58.0,35.0,0,0,0,0.0
Status,1732149012000,28,14,3,20,1602000000,0.00,138.0,31.0,0,0,0,0.0
Status,1732149012000,28,15,3,11,1602000000,0.00,290.0,13.0,0,0,0,0.0
Status,1732149012000,28,16,3,18,1602000000,0.00,23.0,9.0,0,0,0,0.0
Status,1732149012000,28,17,3,16,1602000000,0.00,85.0,2.0,0,0,0,0.0
Status,1732149012000,28,18,3,17,1602000000,30.50,0.0,0.0,0,0,0,25.5
Status,1732149012000,28,19,6,21,1575420030,22.00,299.0,64.0,1,0,0,17.0
Status,1732149012000,28,20,6,19,1575420030,21.40,271.0,54.0,1,0,0,16.4
Status,1732149012000,28,21,6,27,1575420030,27.90,49.0,46.0,1,0,0,22.9
Status,1732149012000,28,22,6,29,1575420030,0.00,196.0,44.0,0,0,0,0.0
Status,1732149012000,28,23,6,15,1575420030,0.00,81.0,19.0,0,0,0,0.0
Status,1732149012000,28,24,6,13,1575420030,0.00,133.0,13.0,0,0,0,0.0
Status,1732149012000,28,25,6,4,1575420030,0.00,322.0,12.0,0,0,0,0.0
Status,1732149012000,28,26,6,34,1575420030,0.00,34.0,5.0,0,0,0,0.0
Status,1732149012000,28,27,6,7,1575420030,0.00,162.0,2.0,0,0,0,0.0
Fix,GPS,37.4243900000,-122.1708233333,2.900000000000002,0.0,2.9,55.79,1732149013000,2.9,179.9,27897057000000,34.7,0,,,
Raw,1732149012999,22767000000,,699687.8508031046,-1416184208232999936,0.0,97.24002113212559,2069.9883926447465,0.0,0,30,0.0,16431,347430930035697,235,29.527000427246094,909.1451184913536,0.14999,16,0.0,0.0,1575420030,,,,0,15.970333645892278,1,6.0,29.527000427246094,0.0,0.0,0.0,66.7128,C,27897057000000,
Raw,1732149012999,22767000000,,699687.8508031046,-1416184208232999936,0.0,97.24002113212559,2069.9883926447465,0.0,0,7,0.0,16431,347430922719358,316,24.513999938964844,1126.3547534717911,0.14999,16,0.0,0.0,1575420030,,,,0,9.366261796029015,1,6.0,24.513999938964844,0.0,0.0,0.0,66.7128,C,27897057000000,
Raw,1732149012999,22767000000,,699687.8508031046,-1416184208232999936,0.0,97.24002113212559,2069.9883926447465,0.0,0,14,0.0,16431,347430931986703,316,25.809999465942383,754.3771744840308,0.14999,16,0.0,0.0,1575420030,,,,0,11.156471348546438,1,6.0,25.809999465942383,0.0,0.0,0.0,66.7128,C,27897057000000,
Raw,1732149012999,22767000000,,699687.8508031046,-1416184208232999936,0.0,97.24002113212559,2069.9883926447465,0.0,0,17,0.0,16431,347430932026440,235,29.155000686645508,397.09643671397697,0.14999,16,0.0,0.0,1575420030,,,,0,15.516065965953086,1,6.0,29.155000686645508,0.0,0.0,0.0,66.7128,C,27897057000000,
Raw,1732149012999,22767000000,,699687.8508031046,-1416184208232999936,0.0,97.24002113212559,2069.9883926447465,0.0,0,27,0.0,16431,347430917415703,316,22.899999618530273,915.7025381058063,0.14999,16,0.0,0.0,1575420030,,,,0,8.310607730564715,6,6.0,22.899999618530273,0.0,0.0,11.804841475070047,66.7128,C,27897057000000,
Raw,1732149012999,22767000000,,699687.8508031046,-1416184208232999936,0.0,97.24002113212559,2069.9883926447465,0.0,0,13,0.0,16431,347430930945658,235,29.37700080871582,636.623347547887,0.14999,16,0.0,0.0,1575420030,,,,0,15.791467307015846,1,6.0,29.37700080871582,0.0,0.0,0.0,66.7128,C,27897057000000,
Raw,1732149012999,22767000000,,699687.8508031046,-1416184208232999936,0.0,97.24002113212559,2069.9883926447465,0.0,0,19,0.0,16431,347430920519176,487,16.399999618530273,654.7716774227068,0.14999,16,0.0,0.0,1575420030,,,,0,0.0,6,6.0,16.399999618530273,0.0,0.0,11.804841475070047,66.7128,C,27897057000000,
Raw,1732149012999,22767000000,,699687.8508031046,-1416184208232999936,0.0,97.24002113212559,2069.9883926447465,0.0,0,21,0.0,16431,347430920528987,487,17.0,538.6880305493318,0.14999,16,0.0,0.0,1575420030,,,,0,0.0,6,6.0,17.0,0.0,0.0,11.804841475070047,66.7128,C,27897057000000,
Raw,1732149012999,22767000000,,699687.8508031046,-1416184208232999936,0.0,97.24002113212559,2069.9883926447465,0.0,0,9,0.0,17,841997,396,5.0,853.6426821069215,0.14999,16,0.0,0.0,1600875010,,,,0,9.904445338923114,3,6.0,23.0,0.0,0.0,60.06484531689452,66.7128,C,27897057000000,
Raw,1732149012999,22767000000,,699687.8508031046,-1416184208232999936,0.0,97.24002113212559,2069.9883926447465,0.0,0,8,0.0,17,816444,396,5.0,854.0925741664063,0.14999,16,0.0,0.0,1605374980,,,,0,5.533772058202258,3,6.0,22.0,0.0,0.0,60.06484531689452,66.7128,C,27897057000000,
Raw,1732149012999,22767000000,,699687.8508031046,-1416184208232999936,0.0,97.24002113212559,2069.9883926447465,0.0,0,19,0.0,16431,347430925967547,316,24.816999435424805,14.249539586431466,0.14999,16,0.0,0.0,1575420030,,,,0,9.78215510115724,1,6.0,24.816999435424805,0.0,0.0,0.0,66.7128,C,27897057000000,
Raw,1732149012999,22767000000,,699687.8508031046,-1416184208232999936,0.0,97.24002113212559,2069.9883926447465,0.0,0,21,0.0,16431,347430918995941,396,24.78700065612793,887.9676069627743,0.14999,16,0.0,0.0,1575420030,,,,0,9.736915990359682,1,6.0,24.78700065612793,0.0,0.0,0.0,66.7128,C,27897057000000,
Raw,1732149012999,22767000000,,699687.8508031046,-1416184208232999936,0.0,97.24002113212559,2069.9883926447465,0.0,0,22,0.0,16431,347430930992534,316,24.63800048828125,615.9495846262785,0.14999,16,0.0,0.0,1575420030,,,,0,9.50711714716098,1,6.0,24.63800048828125,0.0,0.0,0.0,66.7128,C,27897057000000,
Raw,1732149012999,22767000000,,699687.8508031046,-1416184208232999936,0.0,97.24002113212559,2069.9883926447465,0.0,0,2,0.0,16431,347430920702326,316,25.597999572753906,654.7393888234404,0.14999,16,0.0,0.0,1575420030,,,,0,10.882569250395665,1,6.0,25.597999572753906,0.0,0.0,0.0,66.7128,C,27897057000000,
Fix,FLP,37.4243864000,-122.1708220000,2.0,0.080547296,2.833,,1732149013210,2.9,,27897057000000,0.9163115,0,,,
Status,1732149013000,28,0,1,22,1575420030,29.40,315.0,69.0,1,0,0,24.4
Status,1732149013000,28,1,1,14,1575420030,31.80,19.0,67.0,1,0,0,26.8
Status,1732149013000,28,2,1,17,1575420030,37.00,166.0,66.0,1,0,0,32.0
Status,1732149013000,28,3,1,13,1575420030,28.30,272.0,56.0,1,0,0,23.3
Status,1732149013000,28,4,1,30,1575420030,34.10,111.0,56.0,1,0,0,29.099998
Status,1732149013000,28,5,2,135,1575420030,0.00,197.0,45.0,0,0,0,0.0
Status,1732149013000,28,6,1,19,1575420030,28.50,194.0,37.0,1,0,0,23.5
Status,1732149013000,28,7,1,15,1575420030,0.00,300.0,28.0,0,0,0,0.0
Status,1732149013000,28,8,1,7,1575420030,34.70,119.0,22.0,1,0,0,29.7
Status,1732149013000,28,9,1,2,1575420030,30.40,68.0,21.0,1,0,0,25.4
Status,1732149013000,28,10,1,21,1575420030,28.60,50.0,13.0,1,0,0,23.6
Status,1732149013000,28,11,3,9,1602000000,28.50,50.0,45.0,1,0,0,23.5
Status,1732149013000,28,12,3,8,1602000000,29.90,273.0,38.0,1,0,0,24.9
Status,1732149013000,28,13,3,19,1602000000,0.00,58.0,35.0,0,0,0,0.0
Status,1732149013000,28,14,3,20,1602000000,0.00,138.0,31.0,0,0,0,0.0
Status,1732149013000,28,15,3,11,1602000000,0.00,290.0,13.0,0,0,0,0.0
Status,1732149013000,28,16,3,18,1602000000,0.00,23.0,9.0,0,0,0,0.0
Status,1732149013000,28,17,3,16,1602000000,0.00,85.0,2.0,0,0,0,0.0
Status,1732149013000,28,18,3,17,1602000000,28.20,0.0,0.0,0,0,0,23.2
Status,1732149013000,28,19,6,21,1575420030,22.70,299.0,64.0,1,0,0,17.7
Status,1732149013000,28,20,6,19,1575420030,21.40,271.0,54.0,1,0,0,16.4
Status,1732149013000,28,21,6,27,1575420030,27.90,49.0,46.0,1,0,0,22.9
Status,1732149013000,28,22,6,29,1575420030,0.00,196.0,44.0,0,0,0,0.0
Status,1732149013000,28,23,6,15,1575420030,0.00,81.0,19.0,0,0,0,0.0
Status,1732149013000,28,24,6,13,1575420030,0.00,133.0,13.0,0,0,0,0.0
Status,1732149013000,28,25,6,4,1575420030,0.00,322.0,12.0,0,0,0,0.0
Status,1732149013000,28,26,6,34,1575420030,0.00,34.0,5.0,0,0,0,0.0
Status,1732149013000,28,27,6,7,1575420030,0.00,162.0,2.0,0,0,0,0.0
Fix,GPS,37.4243883333,-122.1708216667,2.900000000000002,0.0,2.7,55.79,1732149014000,2.8,179.9,27898057000000,35.7,0,,,
Fix,FLP,37.4243874000,-122.1708223000,2.0,0.07758061,2.833,,1732149014210,2.8,,27898057000000,0.92646253,0,,,
Raw,1732149013999,23767000000,,699146.7994168152,-1416184208232999936,0.0,97.77395221575176,2071.7890850482218,0.0,0,30,0.0,16431,347431930032663,235,29.084999084472656,909.5481917103963,0.14999,16,0.0,0.0,1575420030,,,,0,15.422290268168258,1,6.0,29.084999084472656,0.0,0.0,0.0,66.7128,C,27898057000000,
Raw,1732149013999,23767000000,,699146.7994168152,-1416184208232999936,0.0,97.77395221575176,2071.7890850482218,0.0,0,7,0.0,16431,347431922715607,74,29.740999221801758,1127.6515007850596,0.14999,16,0.0,0.0,1575420030,,,,0,16.231910943232673,1,6.0,29.740999221801758,0.0,0.0,0.0,66.7128,C,27898057000000,
Raw,1732149013999,23767000000,,699146.7994168152,-1416184208232999936,0.0,97.77395221575176,2071.7890850482218,0.0,0,14,0.0,16431,347431931984191,316,26.78700065612793,754.1696911972346,0.14999,16,0.0,0.0,1575420030,,,,0,12.476126579106364,1,6.0,26.78700065612793,0.0,0.0,0.0,66.7128,C,27898057000000,
Raw,1732149013999,23767000000,,699146.7994168152,-1416184208232999936,0.0,97.77395221575176,2071.7890850482218,0.0,0,17,0.0,16431,347431932025113,74,32.0359992980957,397.8078079829927,0.14999,16,0.0,0.0,1575420030,,,,0,18.97157143397043,1,6.0,32.0359992980957,0.0,0.0,0.0,66.7128,C,27898057000000,
Raw,1732149013999,23767000000,,699146.7994168152,-1416184208232999936,0.0,97.77395221575176,2071.7890850482218,0.0,0,27,0.0,16431,347431917412645,396,22.899999618530273,916.253256171566,0.14999,16,0.0,0.0,1575420030,,,,0,8.310607730564715,6,6.0,22.899999618530273,0.0,0.0,13.6732573415384,66.7128,C,27898057000000,
Raw,1732149013999,23767000000,,699146.7994168152,-1416184208232999936,0.0,97.77395221575176,2071.7890850482218,0.0,0,19,0.0,16431,347431920516991,487,16.399999618530273,655.9752756114732,0.14999,16,0.0,0.0,1575420030,,,,0,0.0,6,6.0,16.399999618530273,0.0,0.0,13.6732573415384,66.7128,C,27898057000000,
Raw,1732149013999,23767000000,,699146.7994168152,-1416184208232999936,0.0,97.77395221575176,2071.7890850482218,0.0,0,21,0.0,16431,347431920527187,487,17.700000762939453,539.9579248980307,0.14999,16,0.0,0.0,1575420030,,,,0,0.418366424102512,6,6.0,17.700000762939453,0.0,0.0,13.6732573415384,66.7128,C,27898057000000,
Raw,1732149013999,23767000000,,699146.7994168152,-1416184208232999936,0.0,97.77395221575176,2071.7890850482218,0.0,0,9,0.0,17,839144,487,5.0,854.2134467896987,0.14999,16,0.0,0.0,1600875010,,,,0,9.12108964866249,3,6.0,20.0,0.0,0.0,61.78230515790531,66.7128,C,27898057000000,
Raw,1732149013999,23767000000,,699146.7994168152,-1416184208232999936,0.0,97.77395221575176,2071.7890850482218,0.0,0,8,0.0,17,813596,396,5.0,852.3832561594946,0.14999,16,0.0,0.0,1605374980,,,,0,11.020599913279625,3,6.0,21.0,0.0,0.0,61.78230515790531,66.7128,C,27898057000000,
Raw,1732149013999,23767000000,,699146.7994168152,-1416184208232999936,0.0,97.77395221575176,2071.7890850482218,0.0,0,19,0.0,16431,347431925967586,396,23.506000518798828,14.62548109040714,0.14999,16,0.0,0.0,1575420030,,,,0,7.87211009948392,1,6.0,23.506000518798828,0.0,0.0,0.0,66.7128,C,27898057000000,
Raw,1732149013999,23767000000,,699146.7994168152,-1416184208232999936,0.0,97.77395221575176,2071.7890850482218,0.0,0,21,0.0,16431,347431918992939,396,23.576000213623047,888.9238140852196,0.14999,16,0.0,0.0,1575420030,,,,0,7.983827261916197,1,6.0,23.576000213623047,0.0,0.0,0.0,66.7128,C,27898057000000,
Raw,1732149013999,23767000000,,699146.7994168152,-1416184208232999936,0.0,97.77395221575176,2071.7890850482218,0.0,0,22,0.0,16431,347431930990476,316,24.393999099731445,617.1555057358554,0.14999,16,0.0,0.0,1575420030,,,,0,9.174829482553609,1,6.0,24.393999099731445,0.0,0.0,0.0,66.7128,C,27898057000000,
Raw,1732149013999,23767000000,,699146.7994168152,-1416184208232999936,0.0,97.77395221575176,2071.7890850482218,0.0,0,2,0.0,16431,347431920700134,396,25.437000274658203,656.2374404541492,0.14999,16,0.0,0.0,1575420030,,,,0,10.640719111993459,1,6.0,25.437000274658203,0.0,0.0,0.0,66.7128,C,27898057000000,
Raw,1732149013999,23767000000,,699146.7994168152,-1416184208232999936,0.0,97.77395221575176,2071.7890850482218,0.0,0,13,0.0,16431,347431930943524,396,23.297000885009766,637.810964041477,0.14999,16,0.0,0.0,1575420030,,,,0,7.586364277475821,1,6.0,23.297000885009766,0.0,0.0,0.0,66.7128,C,27898057000000,
Status,1732149014000,28,0,1,22,1575420030,38.70,315.0,69.0,1,0,0,33.7
Status,1732149014000,28,1,1,14,1575420030,33.60,19.0,67.0,1,0,0,28.599998
Status,1732149014000,28,2,1,17,1575420030,34.30,166.0,66.0,1,0,0,29.3
Status,1732149014000,28,3,1,13,1575420030,29.90,272.0,56.0,1,0,0,24.9
Status,1732149014000,28,4,1,30,1575420030,37.10,111.0,56.0,1,0,0,32.1
Status,1732149014000,28,5,2,135,1575420030,0.00,197.0,45.0,0,0,0,0.0
Status,1732149014000,28,6,1,19,1575420030,0.00,194.0,37.0,0,0,0,0.0
Status,1732149014000,28,7,1,15,1575420030,0.00,300.0,28.0,0,0,0,0.0
Status,1732149014000,28,8,1,7,1575420030,38.30,119.0,22.0,1,0,0,33.3
Status,1732149014000,28,9,1,2,1575420030,30.50,68.0,21.0,1,0,0,25.5
Status,1732149014000,28,10,1,21,1575420030,0.00,50.0,13.0,0,0,0,0.0
Status,1732149014000,28,11,3,9,1602000000,32.40,50.0,45.0,1,0,0,27.400002
Status,1732149014000,28,12,3,8,1602000000,27.40,273.0,38.0,1,0,0,22.4
Status,1732149014000,28,13,3,19,1602000000,0.00,58.0,35.0,0,0,0,0.0
Status,1732149014000,28,14,3,20,1602000000,0.00,138.0,31.0,0,0,0,0.0
Status,1732149014000,28,15,3,11,1602000000,0.00,290.0,13.0,0,0,0,0.0
Status,1732149014000,28,16,3,18,1602000000,0.00,23.0,9.0,0,0,0,0.0
Status,1732149014000,28,17,3,16,1602000000,0.00,85.0,2.0,0,0,0,0.0
Status,1732149014000,28,18,3,17,1602000000,34.30,0.0,0.0,0,0,0,29.3
Status,1732149014000,28,19,6,21,1575420030,24.50,299.0,64.0,1,0,0,19.5
Status,1732149014000,28,20,6,19,1575420030,21.50,271.0,54.0,1,0,0,16.5
Status,1732149014000,28,21,6,27,1575420030,26.40,49.0,46.0,1,0,0,21.4
Status,1732149014000,28,22,6,29,1575420030,0.00,196.0,44.0,0,0,0,0.0
Status,1732149014000,28,23,6,15,1575420030,0.00,81.0,19.0,0,0,0,0.0
Status,1732149014000,28,24,6,13,1575420030,0.00,133.0,13.0,0,0,0,0.0
Status,1732149014000,28,25,6,4,1575420030,0.00,322.0,12.0,0,0,0,0.0
Status,1732149014000,28,26,6,34,1575420030,0.00,34.0,5.0,0,0,0,0.0
Status,1732149014000,28,27,6,7,1575420030,0.00,162.0,2.0,0,0,0,0.0
Fix,GPS,37.4243966667,-122.1708266667,2.900000000000002,0.0,2.6,55.79,1732149015000,2.7,179.9,27899057000000,34.3,0,,,
Fix,FLP,37.4243921000,-122.1708248000,2.0,0.08223101,2.8,,1732149015209,2.7,,27899057000000,0.9364555,0,,,
Raw,1732149014999,24767000000,,698702.1167824041,-1416184208232999936,0.0,93.35756558034404,2074.4797180617466,0.0,0,30,0.0,16431,347432930029624,74,32.12300109863281,910.4566395809771,0.14999,16,0.0,0.0,1575420030,,,,0,19.080535636216382,1,6.0,32.12300109863281,0.0,0.0,0.0,66.7128,C,27899057000000,
Raw,1732149014999,24767000000,,698702.1167824041,-1416184208232999936,0.0,93.35756558034404,2074.4797180617466,0.0,0,7,0.0,16431,347432922711842,58,33.2869987487793,1126.268898318634,0.14999,16,0.0,0.0,1575420030,,,,0,20.424994344788914,1,6.0,33.2869987487793,0.0,0.0,0.0,66.7128,C,27899057000000,
Raw,1732149014999,24767000000,,698702.1167824041,-1416184208232999936,0.0,93.35756558034404,2074.4797180617466,0.0,0,14,0.0,16431,347432931981673,235,28.63599967956543,755.2699194099325,0.14999,16,0.0,0.0,1575420030,,,,0,14.862501458471195,1,6.0,28.63599967956543,0.0,0.0,0.0,66.7128,C,27899057000000,
Raw,1732149014999,24767000000,,698702.1167824041,-1416184208232999936,0.0,93.35756558034404,2074.4797180617466,0.0,0,17,0.0,16431,347432932023786,235,29.275999069213867,398.23429624380543,0.14999,16,0.0,0.0,1575420030,,,,0,15.654858100988683,1,6.0,29.275999069213867,0.0,0.0,0.0,66.7128,C,27899057000000,
Raw,1732149014999,24767000000,,698702.1167824041,-1416184208232999936,0.0,93.35756558034404,2074.4797180617466,0.0,0,27,0.0,16431,347432917409586,396,21.399999618530273,916.5605321363826,0.14999,16,0.0,0.0,1575420030,,,,0,6.271602977613117,6,6.0,21.399999618530273,0.0,0.0,15.53810051031351,66.7128,C,27899057000000,
Raw,1732149014999,24767000000,,698702.1167824041,-1416184208232999936,0.0,93.35756558034404,2074.4797180617466,0.0,0,19,0.0,16431,347432920514806,487,16.459999084472656,657.1663300278627,0.14999,16,0.0,0.0,1575420030,,,,0,0.14901493010636546,6,6.0,16.459999084472656,0.0,0.0,15.53810051031351,66.7128,C,27899057000000,
Raw,1732149014999,24767000000,,698702.1167824041,-1416184208232999936,0.0,93.35756558034404,2074.4797180617466,0.0,0,21,0.0,16431,347432920525384,316,19.5,540.789251797702,0.14999,16,0.0,0.0,1575420030,,,,0,3.5097726417172064,6,6.0,19.5,0.0,0.0,15.53810051031351,66.7128,C,27899057000000,
Raw,1732149014999,24767000000,,698702.1167824041,-1416184208232999936,0.0,93.35756558034404,2074.4797180617466,0.0,0,9,0.0,17,836289,235,5.0,855.5034737273182,0.14999,16,0.0,0.0,1600875010,,,,0,13.972654338164498,3,6.0,28.0,0.0,0.0,57.78306732811714,66.7128,C,27899057000000,
Raw,1732149014999,24767000000,,698702.1167824041,-1416184208232999936,0.0,93.35756558034404,2074.4797180617466,0.0,0,8,0.0,17,810787,396,5.0,853.5659006996442,0.14999,16,0.0,0.0,1605374980,,,,0,7.743463860506232,3,6.0,23.0,0.0,0.0,57.78306732811714,66.7128,C,27899057000000,
Raw,1732149014999,24767000000,,698702.1167824041,-1416184208232999936,0.0,93.35756558034404,2074.4797180617466,0.0,0,22,0.0,16431,347432930988416,58,33.65299987792969,616.8727598147981,0.14999,16,0.0,0.0,1575420030,,,,0,20.838994474312855,1,6.0,33.65299987792969,0.0,0.0,0.0,66.7128,C,27899057000000,
Raw,1732149014999,24767000000,,698702.1167824041,-1416184208232999936,0.0,93.35756558034404,2074.4797180617466,0.0,0,2,0.0,16431,347432920697939,316,25.489999771118164,656.5007667572306,0.14999,16,0.0,0.0,1575420030,,,,0,10.722086354681712,1,6.0,25.489999771118164,0.0,0.0,0.0,66.7128,C,27899057000000,
Raw,1732149014999,24767000000,,698702.1167824041,-1416184208232999936,0.0,93.35756558034404,2074.4797180617466,0.0,0,13,0.0,16431,347432930941452,316,24.902999877929688,638.0370306947574,0.14999,16,0.0,0.0,1575420030,,,,0,9.916475658904563,1,6.0,24.902999877929688,0.0,0.0,0.0,66.7128,C,27899057000000,
Status,1732149015000,28,0,1,22,1575420030,39.20,315.0,69.0,1,0,0,34.2
Status,1732149015000,28,1,1,14,1575420030,35.10,19.0,67.0,1,0,0,30.099998
Status,1732149015000,28,2,1,17,1575420030,32.10,166.0,66.0,1,0,0,27.099998
Status,1732149015000,28,3,1,13,1575420030,0.00,272.0,56.0,0,0,0,0.0
Status,1732149015000,28,4,1,30,1575420030,33.00,111.0,56.0,1,0,0,28.0
Status,1732149015000,28,5,2,135,1575420030,0.00,197.0,45.0,0,0,0,0.0
Status,1732149015000,28,6,1,19,1575420030,0.00,194.0,37.0,0,0,0,0.0
Status,1732149015000,28,7,1,15,1575420030,32.60,300.0,28.0,1,0,0,27.599998
Status,1732149015000,28,8,1,7,1575420030,42.10,119.0,22.0,1,0,0,37.1
Status,1732149015000,28,9,1,2,1575420030,0.00,68.0,21.0,0,0,0,0.0
Status,1732149015000,28,10,1,21,1575420030,0.00,50.0,13.0,0,0,0,0.0
Status,1732149015000,28,11,3,9,1602000000,26.90,50.0,45.0,1,0,0,21.9
Status,1732149015000,28,12,3,8,1602000000,26.50,273.0,38.0,1,0,0,21.5
Status,1732149015000,28,13,3,19,1602000000,0.00,58.0,35.0,0,0,0,0.0
Status,1732149015000,28,14,3,20,1602000000,0.00,138.0,31.0,0,0,0,0.0
Status,1732149015000,28,15,3,11,1602000000,0.00,290.0,13.0,0,0,0,0.0
Status,1732149015000,28,16,3,18,1602000000,0.00,23.0,9.0,0,0,0,0.0
Status,1732149015000,28,17,3,16,1602000000,0.00,85.0,2.0,0,0,0,0.0
Status,1732149015000,28,18,3,17,1602000000,25.30,0.0,0.0,0,0,0,20.3
Status,1732149015000,28,19,6,21,1575420030,32.40,299.0,64.0,1,0,0,27.400002
Status,1732149015000,28,20,6,19,1575420030,21.50,271.0,54.0,1,0,0,16.5
Status,1732149015000,28,21,6,27,1575420030,25.70,49.0,46.0,1,0,0,20.7
Status,1732149015000,28,22,6,29,1575420030,0.00,196.0,44.0,0,0,0,0.0
Status,1732149015000,28,23,6,15,1575420030,0.00,81.0,19.0,0,0,0,0.0
Status,1732149015000,28,24,6,13,1575420030,0.00,133.0,13.0,0,0,0,0.0
Status,1732149015000,28,25,6,4,1575420030,0.00,322.0,12.0,0,0,0,0.0
Status,1732149015000,28,26,6,34,1575420030,0.00,34.0,5.0,0,0,0,0.0
Status,1732149015000,28,27,6,7,1575420030,0.00,162.0,2.0,0,0,0,0.0
Fix,GPS,37.4244050000,-122.1708400000,3.0,0.0,2.7,55.79,1732149016000,3.0,179.9,27900057000000,34.2,0,,,
Raw,1732149015999,25767000000,,698488.4272839179,-1416184208232999936,0.0,94.3456708296924,2075.6771597103175,0.0,0,30,0.0,16431,347433930026588,235,28.042999267578125,910.845868191989,0.14999,16,0.0,0.0,1575420030,,,,0,14.10101471133433,1,6.0,28.042999267578125,0.0,0.0,0.0,66.7128,C,27900057000000,
Raw,1732149015999,25767000000,,698488.4272839179,-1416184208232999936,0.0,94.3456708296924,2075.6771597103175,0.0,0,7,0.0,16431,347433922708079,51,37.06999969482422,1126.9497928666158,0.14999,16,0.0,0.0,1575420030,,,,0,24.644609505271266,1,6.0,37.06999969482422,0.0,0.0,0.0,66.7128,C,27900057000000,
Raw,1732149015999,25767000000,,698488.4272839179,-1416184208232999936,0.0,94.3456708296924,2075.6771597103175,0.0,0,14,0.0,16431,347433931979156,235,30.13599967956543,755.4019077703866,0.14999,16,0.0,0.0,1575420030,,,,0,16.71226280555068,1,6.0,30.13599967956543,0.0,0.0,0.0,66.7128,C,27900057000000,
Raw,1732149015999,25767000000,,698488.4272839179,-1416184208232999936,0.0,94.3456708296924,2075.6771597103175,0.0,0,17,0.0,16431,347433932022460,316,27.14699935913086,398.17036946309975,0.14999,16,0.0,0.0,1575420030,,,,0,12.958800173440752,1,6.0,27.14699935913086,0.0,0.0,0.0,66.7128,C,27900057000000,
Raw,1732149015999,25767000000,,698488.4272839179,-1416184208232999936,0.0,94.3456708296924,2075.6771597103175,0.0,0,15,0.0,16431,347433924937040,487,27.597000122070312,426.30772340734745,0.14999,16,0.0,0.0,1575420030,,,,0,13.53403437827248,1,6.0,27.597000122070312,0.0,0.0,0.0,66.7128,C,27900057000000,
Raw,1732149015999,25767000000,,698488.4272839179,-1416184208232999936,0.0,94.3456708296924,2075.6771597103175,0.0,0,27,0.0,16431,347433917406526,396,20.700000762939453,916.9745695416508,0.14999,16,0.0,0.0,1575420030,,,,0,5.269650157784986,6,6.0,20.700000762939453,0.0,0.0,16.785797456074388,66.7128,C,27900057000000,
Raw,1732149015999,25767000000,,698488.4272839179,-1416184208232999936,0.0,94.3456708296924,2075.6771597103175,0.0,0,22,0.0,16431,347433930986366,58,34.150001525878906,617.6151653058424,0.14999,16,0.0,0.0,1575420030,,,,0,21.401542787852883,1,6.0,34.150001525878906,0.0,0.0,0.0,66.7128,C,27900057000000,
