# 
# Header Description:
# 
# Version: v3.1.0.3 Platform: 13 Manufacturer: samsung Model: SM-S135DL GNSS Hardware Model Name: MediaTek,MT6631,MTK_MNLD_default,MNL_VER_default
# 
# Raw,utcTimeMillis,TimeNanos,LeapSecond,TimeUncertaintyNanos,FullBiasNanos,BiasNanos,BiasUncertaintyNanos,DriftNanosPerSecond,DriftUncertaintyNanosPerSecond,HardwareClockDiscontinuityCount,Svid,TimeOffsetNanos,State,ReceivedSvTimeNanos,ReceivedSvTimeUncertaintyNanos,Cn0DbHz,PseudorangeRateMetersPerSecond,PseudorangeRateUncertaintyMetersPerSecond,AccumulatedDeltaRangeState,AccumulatedDeltaRangeMeters,AccumulatedDeltaRangeUncertaintyMeters,CarrierFrequencyHz,CarrierCycles,CarrierPhase,CarrierPhaseUncertainty,MultipathIndicator,SnrInDb,ConstellationType,AgcDb,BasebandCn0DbHz,FullInterSignalBiasNanos,FullInterSignalBiasUncertaintyNanos,SatelliteInterSignalBiasNanos,SatelliteInterSignalBiasUncertaintyNanos,CodeType,ChipsetElapsedRealtimeNanos,IsFullTracking
# 
# UncalAccel,utcTimeMillis,elapsedRealtimeNanos,UncalAccelXMps2,UncalAccelYMps2,UncalAccelZMps2,BiasXMps2,BiasYMps2,BiasZMps2
# 
# Accel,utcTimeMillis,elapsedRealtimeNanos,AccelXMps2,AccelYMps2,AccelZMps2
# 
# UncalGyro,utcTimeMillis,elapsedRealtimeNanos,UncalGyroXRadPerSec,UncalGyroYRadPerSec,UncalGyroZRadPerSec,DriftXRadPerSec,DriftYRadPerSec,DriftZRadPerSec
# 
# Gyro,utcTimeMillis,elapsedRealtimeNanos,GyroXRadPerSec,GyroYRadPerSec,GyroZRadPerSec
# 
# UncalMag,utcTimeMillis,elapsedRealtimeNanos,UncalMagXMicroT,UncalMagYMicroT,UncalMagZMicroT,BiasXMicroT,BiasYMicroT,BiasZMicroT
# 
# Mag,utcTimeMillis,elapsedRealtimeNanos,MagXMicroT,MagYMicroT,MagZMicroT
# 
# Pressure,utcTimeMillis,elapsedRealtimeNanos,PressureHpa
# 
# OrientationDeg,utcTimeMillis,elapsedRealtimeNanos,yawDeg,rollDeg,pitchDeg
# 
# Fix,Provider,LatitudeDegrees,LongitudeDegrees,AltitudeMeters,SpeedMps,AccuracyMeters,BearingDegrees,UnixTimeMillis,SpeedAccuracyMps,BearingAccuracyDegrees,elapsedRealtimeNanos,VerticalAccuracyMeters,MockLocation,NumberOfUsedSignals,VerticalSpeedAccuracyMps,SolutionType
# 
# Nav,Svid,Type,Status,MessageId,Sub-messageId,Data(Bytes)
# 
# Status,UnixTimeMillis,SignalCount,SignalIndex,ConstellationType,Svid,CarrierFrequencyHz,Cn0DbHz,AzimuthDegrees,ElevationDegrees,UsedInFix,HasAlmanacData,HasEphemerisData,BasebandCn0DbHz
# 
# Agc,utcTimeMillis,TimeNanos,LeapSecond,TimeUncertaintyNanos,FullBiasNanos,BiasNanos,BiasUncertaintyNanos,DriftNanosPerSecond,DriftUncertaintyNanosPerSecond,HardwareClockDiscontinuityCount,AgcDb,CarrierFrequencyHz,ConstellationType
# 
Fix,FLP,37.4243899000,-122.1708077000,2.0,0.048768554,2.466,,1732148696209,2.8,,27580057000000,0.9110304,0,,,
Status,,29,0,1,14,1575420030,0.00,14.0,68.0,0,0,0,0.0
Status,,29,1,1,22,1575420030,27.90,308.0,68.0,1,0,0,22.9
Status,,29,2,1,17,1575420030,27.10,168.0,64.0,1,0,0,22.1
Status,,29,3,1,30,1575420030,27.30,108.0,58.0,1,0,0,22.3
Status,,29,4,1,13,1575420030,28.90,276.0,56.0,1,0,0,23.9
Status,,29,5,1,19,1575420030,24.20,194.0,35.0,1,0,0,19.2
Status,,29,6,1,15,1575420030,31.60,302.0,27.0,1,0,0,26.6
Status,,29,7,1,7,1575420030,35.80,117.0,24.0,1,0,0,30.8
Status,,29,8,2,131,1575420030,30.00,3.0,23.0,0,0,0,25.0
Status,,29,9,1,2,1575420030,32.80,70.0,21.0,1,0,0,27.8
Status,,29,10,1,21,1575420030,30.60,52.0,13.0,1,0,0,25.6
Status,,29,11,3,9,1602000000,27.10,47.0,46.0,1,0,0,22.1
Status,,29,12,3,8,1602000000,29.00,276.0,39.0,1,0,0,24.0
Status,,29,13,3,19,1602000000,0.00,61.0,36.0,0,0,0,0.0
Status,,29,14,3,20,1602000000,0.00,140.0,28.0,0,0,0,0.0
Status,,29,15,3,11,1602000000,0.00,287.0,12.0,0,0,0,0.0
Status,,29,16,3,18,1602000000,0.00,25.0,11.0,0,0,0,0.0
Status,,29,17,3,16,1602000000,25.80,83.0,4.0,0,0,0,20.8
Status,,29,18,3,17,1602000000,25.90,0.0,0.0,0,0,0,20.9
Status,,29,19,6,21,1575420030,0.00,295.0,64.0,0,0,0,0.0
Status,,29,20,6,19,1575420030,0.00,275.0,54.0,0,0,0,0.0
Status,,29,21,6,27,1575420030,21.90,48.0,48.0,1,0,0,16.9
Status,,29,22,6,29,1575420030,0.00,196.0,46.0,0,0,0,0.0
Status,,29,23,6,15,1575420030,0.00,82.0,18.0,0,0,0,0.0
Status,,29,24,6,13,1575420030,0.00,134.0,12.0,0,0,0,0.0
Status,,29,25,6,4,1575420030,0.00,323.0,11.0,0,0,0,0.0
Status,,29,26,6,34,1575420030,0.00,35.0,5.0,0,0,0,0.0
Status,,29,27,6,7,1575420030,0.00,162.0,4.0,0,0,0,0.0
Status,,29,28,6,30,1575420030,0.00,67.0,1.0,0,0,0,0.0
Fix,GPS,37.4243833333,-122.1708000000,2.900000000000002,0.0,2.6,159.42,1732148697000,3.0,179.9,27581057000000,37.9,0,,,
Raw,1732148697001,13673000000,,695625.3007205405,-1416183901328000000,0.0,98.06692655466053,2138.1635296930535,0.0,0,7,0.0,16431,347114923694787,235,30.757999420166016,1127.1558824009257,0.14999,16,0.0,0.0,1575420030,,,,0,17.463155465597836,1,6.0,30.757999420166016,0.0,0.0,0.0,66.7128,C,27581057000000,
Raw,1732148697001,13673000000,,695625.3007205405,-1416183901328000000,0.0,98.06692655466053,2138.1635296930535,0.0,0,2,0.0,16431,347114921172798,316,27.80299949645996,639.809326356357,0.14999,16,0.0,0.0,1575420030,,,,0,13.807592150235376,1,6.0,27.80299949645996,0.0,0.0,0.0,66.7128,C,27581057000000,
Raw,1732148697001,13673000000,,695625.3007205405,-1416183901328000000,0.0,98.06692655466053,2138.1635296930535,0.0,0,22,0.0,16431,347114931431602,487,22.86400032043457,619.558474397513,0.14999,16,0.0,0.0,1575420030,,,,0,6.891957615153579,1,6.0,22.86400032043457,0.0,0.0,0.0,66.7128,C,27581057000000,
Raw,1732148697001,13673000000,,695625.3007205405,-1416183901328000000,0.0,98.06692655466053,2138.1635296930535,0.0,0,13,0.0,16431,347114931393600,396,23.871999740600586,615.3267630985599,0.14999,16,0.0,0.0,1575420030,,,,0,8.418727357788885,1,6.0,23.871999740600586,0.0,0.0,0.0,66.7128,C,27581057000000,
Raw,1732148697001,13673000000,,695625.3007205405,-1416183901328000000,0.0,98.06692655466053,2138.1635296930535,0.0,0,30,0.0,16431,347114930779143,396,22.323999404907227,903.0349075913437,0.14999,16,0.0,0.0,1575420030,,,,0,6.048634825731085,1,6.0,22.323999404907227,0.0,0.0,0.0,66.7128,C,27581057000000,
Raw,1732148697001,13673000000,,695625.3007205405,-1416183901328000000,0.0,98.06692655466053,2138.1635296930535,0.0,0,17,0.0,16431,347114932224741,487,22.118999481201172,381.11385882764375,0.14999,16,0.0,0.0,1575420030,,,,0,5.7717702822452965,1,6.0,22.118999481201172,0.0,0.0,0.0,66.7128,C,27581057000000,
Raw,1732148697001,13673000000,,695625.3007205405,-1416183901328000000,0.0,98.06692655466053,2138.1635296930535,0.0,0,21,0.0,16431,347114919712516,396,25.642000198364258,873.2380590200555,0.14999,16,0.0,0.0,1575420030,,,,0,10.923981679690712,1,6.0,25.642000198364258,0.0,0.0,0.0,66.7128,C,27581057000000,
Raw,1732148697001,13673000000,,695625.3007205405,-1416183901328000000,0.0,98.06692655466053,2138.1635296930535,0.0,0,27,0.0,16431,347114918177309,487,16.899999618530273,931.3213930516272,0.14999,16,0.0,0.0,1575420030,,,,0,0.0,6,6.0,16.899999618530273,0.0,0.0,18.116495473129042,66.7128,C,27581057000000,
Raw,1732148697001,13673000000,,695625.3007205405,-1416183901328000000,0.0,98.06692655466053,2138.1635296930535,0.0,0,9,0.0,17,533644,487,5.0,860.4999049667149,0.14999,16,0.0,0.0,1600875010,,,,0,7.311398506029859,3,6.0,20.0,0.0,0.0,21.54708613332948,66.7128,C,27581057000000,
Raw,1732148697001,13673000000,,695625.3007205405,-1416183901328000000,0.0,98.06692655466053,2138.1635296930535,0.0,0,8,0.0,17,487617,396,5.0,823.0702668842414,0.14999,16,0.0,0.0,1605374980,,,,0,9.759564998337844,3,6.0,21.0,0.0,0.0,21.54708613332948,66.7128,C,27581057000000,
Raw,1732148697001,13673000000,,695625.3007205405,-1416183901328000000,0.0,98.06692655466053,2138.1635296930535,0.0,0,16,0.0,17,723490,487,5.0,1133.408331337518,0.14999,16,0.0,0.0,1601437440,,,,0,3.2452190063421944,3,6.0,20.0,0.0,0.0,21.54708613332948,66.7128,C,27581057000000,
Raw,1732148697001,13673000000,,695625.3007205405,-1416183901328000000,0.0,98.06692655466053,2138.1635296930535,0.0,0,15,0.0,16431,347114925167167,487,26.575000762939453,405.7910363909468,0.14999,16,0.0,0.0,1575420030,,,,0,12.187642078930832,1,6.0,26.575000762939453,0.0,0.0,0.0,66.7128,C,27581057000000,
Raw,1732148697001,13673000000,,695625.3007205405,-1416183901328000000,0.0,98.06692655466053,2138.1635296930535,0.0,0,19,0.0,16431,347114925772291,487,19.239999771118164,17.648344399562024,0.14999,16,0.0,0.0,1575420030,,,,0,0.9022134701595794,1,6.0,19.239999771118164,0.0,0.0,0.0,66.7128,C,27581057000000,
Fix,FLP,37.4243864000,-122.1708039000,2.0,0.056761537,2.483,,1732148697209,3.0,,27581057000000,0.92102426,0,,,
Status,1732148697000,28,0,1,14,1575420030,26.30,14.0,68.0,1,0,0,21.3
Status,1732148697000,28,1,1,22,1575420030,27.60,308.0,68.0,1,0,0,22.6
Status,1732148697000,28,2,1,17,1575420030,27.90,168.0,64.0,1,0,0,22.9
Status,1732148697000,28,3,1,30,1575420030,33.00,108.0,58.0,1,0,0,28.0
Status,1732148697000,28,4,1,13,1575420030,29.40,276.0,56.0,1,0,0,24.4
Status,1732148697000,28,5,1,19,1575420030,0.00,194.0,35.0,0,0,0,0.0
Status,1732148697000,28,6,1,15,1575420030,0.00,302.0,27.0,0,0,0,0.0
Status,1732148697000,28,7,1,7,1575420030,42.90,117.0,24.0,1,0,0,37.9
Status,1732148697000,28,8,2,131,1575420030,30.00,3.0,23.0,0,0,0,25.0
Status,1732148697000,28,9,1,2,1575420030,31.30,70.0,21.0,1,0,0,26.3
Status,1732148697000,28,10,1,21,1575420030,31.60,52.0,13.0,1,0,0,26.6
Status,1732148697000,28,11,3,9,1602000000,30.90,47.0,46.0,1,0,0,25.9
Status,1732148697000,28,12,3,8,1602000000,27.50,276.0,39.0,1,0,0,22.5
Status,1732148697000,28,13,3,19,1602000000,0.00,61.0,36.0,0,0,0,0.0
Status,1732148697000,28,14,3,20,1602000000,0.00,140.0,28.0,0,0,0,0.0
Status,1732148697000,28,15,3,11,1602000000,0.00,287.0,12.0,0,0,0,0.0
Status,1732148697000,28,16,3,18,1602000000,0.00,25.0,11.0,0,0,0,0.0
Status,1732148697000,28,17,3,16,1602000000,22.00,83.0,4.0,0,0,0,17.0
Status,1732148697000,28,18,6,21,1575420030,0.00,295.0,64.0,0,0,0,0.0
Status,1732148697000,28,19,6,19,1575420030,0.00,275.0,54.0,0,0,0,0.0
Status,1732148697000,28,20,6,27,1575420030,23.10,48.0,48.0,1,0,0,18.1
Status,1732148697000,28,21,6,29,1575420030,0.00,196.0,46.0,0,0,0,0.0
Status,1732148697000,28,22,6,15,1575420030,0.00,82.0,18.0,0,0,0,0.0
Status,1732148697000,28,23,6,13,1575420030,0.00,134.0,12.0,0,0,0,0.0
Status,1732148697000,28,24,6,4,1575420030,0.00,323.0,11.0,0,0,0,0.0
Status,1732148697000,28,25,6,34,1575420030,0.00,35.0,5.0,0,0,0,0.0
Status,1732148697000,28,26,6,7,1575420030,0.00,162.0,4.0,0,0,0,0.0
Status,1732148697000,28,27,6,30,1575420030,0.00,67.0,1.0,0,0,0,0.0
Fix,GPS,37.4243766667,-122.1708000000,2.8000000000000007,0.0,2.6,159.42,1732148698000,3.0,179.9,27582057000000,36.4,0,,,
Fix,FLP,37.4243814000,-122.1708019000,2.0,0.06854674,2.5,,1732148698209,3.0,,27582057000000,0.9251033,0,,,
Raw,1732148698001,14673000000,,695442.4137814702,-1416183901328000000,0.0,95.28121133305137,2138.2016540453174,0.0,0,7,0.0,16431,347115923691030,51,37.895999908447266,1127.2785326197215,0.14999,16,0.0,0.0,1575420030,,,,0,25.540132831248993,1,6.0,37.895999908447266,0.0,0.0,0.0,66.7128,C,27582057000000,
Raw,1732148698001,14673000000,,695442.4137814702,-1416183901328000000,0.0,95.28121133305137,2138.2016540453174,0.0,0,2,0.0,16431,347115921170658,316,26.34000015258789,639.3396782268846,0.14999,16,0.0,0.0,1575420030,,,,0,11.87984212951978,1,6.0,26.34000015258789,0.0,0.0,0.0,66.7128,C,27582057000000,
Raw,1732148698001,14673000000,,695442.4137814702,-1416183901328000000,0.0,95.28121133305137,2138.2016540453174,0.0,0,22,0.0,16431,347115931429537,396,22.558000564575195,619.2315465226395,0.14999,16,0.0,0.0,1575420030,,,,0,6.448056444343486,1,6.0,22.558000564575195,0.0,0.0,0.0,66.7128,C,27582057000000,
Raw,1732148698001,14673000000,,695442.4137814702,-1416183901328000000,0.0,95.28121133305137,2138.2016540453174,0.0,0,13,0.0,16431,347115931391545,316,24.43600082397461,614.9573257728538,0.14999,16,0.0,0.0,1575420030,,,,0,9.25835854023319,1,6.0,24.43600082397461,0.0,0.0,0.0,66.7128,C,27582057000000,
Raw,1732148698001,14673000000,,695442.4137814702,-1416183901328000000,0.0,95.28121133305137,2138.2016540453174,0.0,0,30,0.0,16431,347115930776124,316,27.999000549316406,903.3391173006903,0.14999,16,0.0,0.0,1575420030,,,,0,14.05499180742833,1,6.0,27.999000549316406,0.0,0.0,0.0,66.7128,C,27582057000000,
Raw,1732148698001,14673000000,,695442.4137814702,-1416183901328000000,0.0,95.28121133305137,2138.2016540453174,0.0,0,17,0.0,16431,347115932223462,396,22.86400032043457,381.2817595438287,0.14999,16,0.0,0.0,1575420030,,,,0,6.891957615153579,1,6.0,22.86400032043457,0.0,0.0,0.0,66.7128,C,27582057000000,
Raw,1732148698001,14673000000,,695442.4137814702,-1416183901328000000,0.0,95.28121133305137,2138.2016540453174,0.0,0,21,0.0,16431,347115919709598,316,26.645000457763672,873.6321193063534,0.14999,16,0.0,0.0,1575420030,,,,0,12.287864994397466,1,6.0,26.645000457763672,0.0,0.0,0.0,66.7128,C,27582057000000,
Raw,1732148698001,14673000000,,695442.4137814702,-1416183901328000000,0.0,95.28121133305137,2138.2016540453174,0.0,0,27,0.0,16431,347115918174204,487,18.100000381469727,930.8148104812675,0.14999,16,0.0,0.0,1575420030,,,,0,1.0245519663532177,6,6.0,18.100000381469727,0.0,0.0,19.341049042785492,66.7128,C,27582057000000,
Raw,1732148698001,14673000000,,695442.4137814702,-1416183901328000000,0.0,95.28121133305137,2138.2016540453174,0.0,0,9,0.0,17,530775,316,5.0,860.5826576161724,0.14999,16,0.0,0.0,1600875010,,,,0,12.170622438560343,3,6.0,26.0,0.0,0.0,23.777362097239823,66.7128,C,27582057000000,
Raw,1732148698001,14673000000,,695442.4137814702,-1416183901328000000,0.0,95.28121133305137,2138.2016540453174,0.0,0,8,0.0,17,484869,396,5.0,822.6374208062083,0.14999,16,0.0,0.0,1605374980,,,,0,7.862863642575517,3,6.0,21.0,0.0,0.0,23.777362097239823,66.7128,C,27582057000000,
Raw,1732148698001,14673000000,,695442.4137814702,-1416183901328000000,0.0,95.28121133305137,2138.2016540453174,0.0,0,16,0.0,17,719717,487,5.0,1134.2591502426105,0.14999,16,0.0,0.0,1601437440,,,,0,0.0,3,6.0,20.0,0.0,0.0,23.777362097239823,66.7128,C,27582057000000,
Raw,1732148698001,14673000000,,695442.4137814702,-1416183901328000000,0.0,95.28121133305137,2138.2016540453174,0.0,0,14,0.0,16431,347115932568812,487,21.336999893188477,756.9011208615007,0.14999,16,0.0,0.0,1575420030,,,,0,4.485423285826736,1,6.0,21.336999893188477,0.0,0.0,0.0,66.7128,C,27582057000000,
Status,1732148698000,29,0,1,14,1575420030,29.10,14.0,68.0,1,0,0,24.1
Status,1732148698000,29,1,1,22,1575420030,30.60,308.0,68.0,1,0,0,25.6
Status,1732148698000,29,2,1,17,1575420030,29.30,168.0,64.0,1,0,0,24.3
Status,1732148698000,29,3,1,30,1575420030,31.30,108.0,58.0,1,0,0,26.3
Status,1732148698000,29,4,1,13,1575420030,29.30,276.0,56.0,1,0,0,24.3
Status,1732148698000,29,5,1,19,1575420030,24.50,194.0,35.0,1,0,0,19.5
Status,1732148698000,29,6,1,15,1575420030,0.00,302.0,27.0,0,0,0,0.0
Status,1732148698000,29,7,1,7,1575420030,32.80,117.0,24.0,1,0,0,27.8
Status,1732148698000,29,8,2,131,1575420030,31.00,3.0,23.0,0,0,0,26.0
Status,1732148698000,29,9,1,2,1575420030,32.70,70.0,21.0,1,0,0,27.7
Status,1732148698000,29,10,1,21,1575420030,26.40,52.0,13.0,1,0,0,21.4
Status,1732148698000,29,11,3,9,1602000000,29.30,47.0,46.0,1,0,0,24.3
Status,1732148698000,29,12,3,8,1602000000,23.20,276.0,39.0,1,0,0,18.2
Status,1732148698000,29,13,3,19,1602000000,0.00,61.0,36.0,0,0,0,0.0
Status,1732148698000,29,14,3,20,1602000000,0.00,140.0,28.0,0,0,0,0.0
Status,1732148698000,29,15,3,11,1602000000,0.00,287.0,12.0,0,0,0,0.0
Status,1732148698000,29,16,3,18,1602000000,21.60,25.0,11.0,1,0,0,16.6
Status,1732148698000,29,17,3,16,1602000000,28.10,83.0,4.0,0,0,0,23.1
Status,1732148698000,29,18,3,17,1602000000,24.60,0.0,0.0,0,0,0,19.6
Status,1732148698000,29,19,6,21,1575420030,22.40,295.0,64.0,1,0,0,17.4
Status,1732148698000,29,20,6,19,1575420030,0.00,275.0,54.0,0,0,0,0.0
Status,1732148698000,29,21,6,27,1575420030,22.10,48.0,48.0,1,0,0,17.1
Status,1732148698000,29,22,6,29,1575420030,17.80,196.0,46.0,1,0,0,12.799999
Status,1732148698000,29,23,6,15,1575420030,0.00,82.0,18.0,0,0,0,0.0
Status,1732148698000,29,24,6,13,1575420030,0.00,134.0,12.0,0,0,0,0.0
Status,1732148698000,29,25,6,4,1575420030,0.00,323.0,11.0,0,0,0,0.0
Status,1732148698000,29,26,6,34,1575420030,0.00,35.0,5.0,0,0,0,0.0
Status,1732148698000,29,27,6,7,1575420030,0.00,162.0,4.0,0,0,0,0.0
Status,1732148698000,29,28,6,30,1575420030,0.00,67.0,1.0,0,0,0,0.0
Fix,GPS,37.4243716667,-122.1707950000,2.6999999999999993,0.0,2.7,159.42,1732148699000,2.6,145.0,27583057000000,37.9,0,,,
Fix,FLP,37.4243764000,-122.1707985000,2.0,0.080106154,2.533,,1732148699209,2.6,,27583057000000,0.9351183,0,,,
Raw,1732148699001,15673000000,,695287.671312932,-1416183901328000000,0.0,100.7440066954456,2135.1427731592535,0.0,0,7,0.0,16431,347116923687274,235,27.783000946044922,1124.972058088533,0.14999,16,0.0,0.0,1575420030,,,,0,13.779663220583586,1,6.0,27.783000946044922,0.0,0.0,0.0,66.7128,C,27583057000000,
Raw,1732148699001,15673000000,,695287.671312932,-1416183901328000000,0.0,100.7440066954456,2135.1427731592535,0.0,0,2,0.0,16431,347116921168521,235,27.743000030517578,639.3800041321555,0.14999,16,0.0,0.0,1575420030,,,,0,13.723534497716814,1,6.0,27.743000030517578,0.0,0.0,0.0,66.7128,C,27583057000000,
Raw,1732148699001,15673000000,,695287.671312932,-1416183901328000000,0.0,100.7440066954456,2135.1427731592535,0.0,0,22,0.0,16431,347116931427471,396,25.642000198364258,617.9987724484929,0.14999,16,0.0,0.0,1575420030,,,,0,10.923981679690712,1,6.0,25.642000198364258,0.0,0.0,0.0,66.7128,C,27583057000000,
Raw,1732148699001,15673000000,,695287.671312932,-1416183901328000000,0.0,100.7440066954456,2135.1427731592535,0.0,0,13,0.0,16431,347116931389493,316,24.315000534057617,614.0900400590355,0.14999,16,0.0,0.0,1575420030,,,,0,9.067975255165141,1,6.0,24.315000534057617,0.0,0.0,0.0,66.7128,C,27583057000000,
Raw,1732148699001,15673000000,,695287.671312932,-1416183901328000000,0.0,100.7440066954456,2135.1427731592535,0.0,0,30,0.0,16431,347116930773110,316,26.34000015258789,902.5909509660357,0.14999,16,0.0,0.0,1575420030,,,,0,11.87984212951978,1,6.0,26.34000015258789,0.0,0.0,0.0,66.7128,C,27583057000000,
Raw,1732148699001,15673000000,,695287.671312932,-1416183901328000000,0.0,100.7440066954456,2135.1427731592535,0.0,0,17,0.0,16431,347116932222188,487,24.253000259399414,380.7330856483822,0.14999,16,0.0,0.0,1575420030,,,,0,8.971195539295845,1,6.0,24.253000259399414,0.0,0.0,0.0,66.7128,C,27583057000000,
Raw,1732148699001,15673000000,,695287.671312932,-1416183901328000000,0.0,100.7440066954456,2135.1427731592535,0.0,0,19,0.0,16431,347116925772148,487,19.547000885009766,15.636416227148453,0.14999,16,0.0,0.0,1575420030,,,,0,1.4973701629153706,1,6.0,19.547000885009766,0.0,0.0,0.0,66.7128,C,27583057000000,
Raw,1732148699001,15673000000,,695287.671312932,-1416183901328000000,0.0,100.7440066954456,2135.1427731592535,0.0,0,21,0.0,16431,347116919706684,487,21.427000045776367,872.4067321203842,0.14999,16,0.0,0.0,1575420030,,,,0,4.647025894022573,1,6.0,21.427000045776367,0.0,0.0,0.0,66.7128,C,27583057000000,
Raw,1732148699001,15673000000,,695287.671312932,-1416183901328000000,0.0,100.7440066954456,2135.1427731592535,0.0,0,29,0.0,16431,347116918334380,487,12.800000190734863,1080.0538312922065,0.14999,16,0.0,0.0,1575420030,,,,0,0.0,6,6.0,12.800000190734863,0.0,0.0,22.487321396545575,66.7128,C,27583057000000,
Raw,1732148699001,15673000000,,695287.671312932,-1416183901328000000,0.0,100.7440066954456,2135.1427731592535,0.0,0,27,0.0,16431,347116918171102,487,17.100000381469727,929.3770154163838,0.14999,16,0.0,0.0,1575420030,,,,0,0.0,6,6.0,17.100000381469727,0.0,0.0,22.487321396545575,66.7128,C,27583057000000,
Raw,1732148699001,15673000000,,695287.671312932,-1416183901328000000,0.0,100.7440066954456,2135.1427731592535,0.0,0,21,0.0,16431,347116920887454,487,17.399999618530273,547.9582964615664,0.14999,16,0.0,0.0,1575420030,,,,0,0.0,6,6.0,17.399999618530273,0.0,0.0,22.487321396545575,66.7128,C,27583057000000,
Raw,1732148699001,15673000000,,695287.671312932,-1416183901328000000,0.0,100.7440066954456,2135.1427731592535,0.0,0,9,0.0,17,527897,396,5.0,859.8708933914467,0.14999,16,0.0,0.0,1600875010,,,,0,10.169168151075764,3,6.0,21.0,0.0,0.0,25.143757871544686,66.7128,C,27583057000000,
Raw,1732148699001,15673000000,,695287.671312932,-1416183901328000000,0.0,100.7440066954456,2135.1427731592535,0.0,0,8,0.0,17,482118,487,5.0,821.4834989360777,0.14999,16,0.0,0.0,1605374980,,,,0,1.2674149900882141,3,6.0,19.0,0.0,0.0,25.143757871544686,66.7128,C,27583057000000,
Raw,1732148699001,15673000000,,695287.671312932,-1416183901328000000,0.0,100.7440066954456,2135.1427731592535,0.0,0,18,0.0,17,233633,797,5.0,1217.6126881779292,0.14999,16,0.0,0.0,1600312450,,,,0,0.0,3,6.0,16.0,0.0,0.0,25.143757871544686,66.7128,C,27583057000000,
Raw,1732148699001,15673000000,,695287.671312932,-1416183901328000000,0.0,100.7440066954456,2135.1427731592535,0.0,0,16,0.0,17,715926,396,5.0,1133.0798135952637,0.14999,16,0.0,0.0,1601437440,,,,0,8.592156655570367,3,6.0,23.0,0.0,0.0,25.143757871544686,66.7128,C,27583057000000,
Raw,1732148699001,15673000000,,695287.671312932,-1416183901328000000,0.0,100.7440066954456,2135.1427731592535,0.0,0,14,0.0,16431,347116932566259,396,24.062999725341797,756.4071749803503,0.14999,16,0.0,0.0,1575420030,,,,0,8.724420712869456,1,6.0,24.062999725341797,0.0,0.0,0.0,66.7128,C,27583057000000,
Status,1732148699000,29,0,1,14,1575420030,0.00,14.0,68.0,0,0,0,0.0
Status,1732148699000,29,1,1,22,1575420030,26.00,308.0,68.0,1,0,0,21.0
Status,1732148699000,29,2,1,17,1575420030,27.60,168.0,64.0,1,0,0,22.6
Status,1732148699000,29,3,1,30,1575420030,28.80,108.0,58.0,1,0,0,23.8
Status,1732148699000,29,4,1,13,1575420030,29.30,276.0,56.0,1,0,0,24.3
Status,1732148699000,29,5,1,19,1575420030,24.50,194.0,35.0,1,0,0,19.5
Status,1732148699000,29,6,1,15,1575420030,0.00,302.0,27.0,0,0,0,0.0
Status,1732148699000,29,7,1,7,1575420030,35.90,117.0,24.0,1,0,0,30.900002
Status,1732148699000,29,8,2,131,1575420030,28.00,3.0,23.0,0,0,0,23.0
Status,1732148699000,29,9,1,2,1575420030,30.40,70.0,21.0,1,0,0,25.4
Status,1732148699000,29,10,1,21,1575420030,29.40,52.0,13.0,1,0,0,24.4
Status,1732148699000,29,11,3,9,1602000000,28.20,47.0,46.0,1,0,0,23.2
Status,1732148699000,29,12,3,8,1602000000,23.20,276.0,39.0,1,0,0,18.2
Status,1732148699000,29,13,3,19,1602000000,0.00,61.0,36.0,0,0,0,0.0
Status,1732148699000,29,14,3,20,1602000000,0.00,140.0,28.0,0,0,0,0.0
Status,1732148699000,29,15,3,11,1602000000,0.00,287.0,12.0,0,0,0,0.0
Status,1732148699000,29,16,3,18,1602000000,25.00,25.0,11.0,1,0,0,20.0
Status,1732148699000,29,17,3,16,1602000000,25.10,83.0,4.0,0,0,0,20.1
Status,1732148699000,29,18,3,17,1602000000,26.70,0.0,0.0,0,0,0,21.7
Status,1732148699000,29,19,6,21,1575420030,22.40,295.0,64.0,1,0,0,17.4
Status,1732148699000,29,20,6,19,1575420030,0.00,275.0,54.0,0,0,0,0.0
Status,1732148699000,29,21,6,27,1575420030,23.50,48.0,48.0,1,0,0,18.5
Status,1732148699000,29,22,6,29,1575420030,17.80,196.0,46.0,1,0,0,12.799999
Status,1732148699000,29,23,6,15,1575420030,0.00,82.0,18.0,0,0,0,0.0
Status,1732148699000,29,24,6,13,1575420030,0.00,134.0,12.0,0,0,0,0.0
Status,1732148699000,29,25,6,4,1575420030,0.00,323.0,11.0,0,0,0,0.0
Status,1732148699000,29,26,6,34,1575420030,0.00,35.0,5.0,0,0,0,0.0
Status,1732148699000,29,27,6,7,1575420030,0.00,162.0,4.0,0,0,0,0.0
Status,1732148699000,29,28,6,30,1575420030,0.00,67.0,1.0,0,0,0,0.0
Fix,GPS,37.4243700000,-122.1707966667,2.6999999999999993,0.0,2.6,159.42,1732148700000,2.5,179.9,27584057000000,37.8,0,,,
Raw,1732148700001,16673000000,,695158.2067484834,-1416183901328000000,0.0,101.05022719765016,2130.340011990066,0.0,0,7,0.0,16431,347117923683520,74,30.924999237060547,1126.4983099778817,0.14999,16,0.0,0.0,1575420030,,,,0,17.66221581521208,1,6.0,30.924999237060547,0.0,0.0,0.0,66.7128,C,27584057000000,
Raw,1732148700001,16673000000,,695158.2067484834,-1416183901328000000,0.0,101.05022719765016,2130.340011990066,0.0,0,2,0.0,16431,347117921166390,316,25.40399932861328,639.0185576540374,0.14999,16,0.0,0.0,1575420030,,,,0,10.607376620266614,1,6.0,25.40399932861328,0.0,0.0,0.0,66.7128,C,27584057000000,
Raw,1732148700001,16673000000,,695158.2067484834,-1416183901328000000,0.0,101.05022719765016,2130.340011990066,0.0,0,22,0.0,16431,347117931425410,487,21.003000259399414,616.4999774831247,0.14999,16,0.0,0.0,1575420030,,,,0,3.9817523654617597,1,6.0,21.003000259399414,0.0,0.0,0.0,66.7128,C,27584057000000,
Raw,1732148700001,16673000000,,695158.2067484834,-1416183901328000000,0.0,101.05022719765016,2130.340011990066,0.0,0,13,0.0,16431,347117931387447,316,24.315000534057617,612.6049038680331,0.14999,16,0.0,0.0,1575420030,,,,0,9.067975255165141,1,6.0,24.315000534057617,0.0,0.0,0.0,66.7128,C,27584057000000,
Raw,1732148700001,16673000000,,695158.2067484834,-1416183901328000000,0.0,101.05022719765016,2130.340011990066,0.0,0,30,0.0,16431,347117930770101,396,23.839000701904297,901.4579231114932,0.14999,16,0.0,0.0,1575420030,,,,0,8.36671588717838,1,6.0,23.839000701904297,0.0,0.0,0.0,66.7128,C,27584057000000,
Raw,1732148700001,16673000000,,695158.2067484834,-1416183901328000000,0.0,101.05022719765016,2130.340011990066,0.0,0,17,0.0,16431,347117932220919,487,22.597000122070312,379.83183883231396,0.14999,16,0.0,0.0,1575420030,,,,0,6.512876817100141,1,6.0,22.597000122070312,0.0,0.0,0.0,66.7128,C,27584057000000,
Raw,1732148700001,16673000000,,695158.2067484834,-1416183901328000000,0.0,101.05022719765016,2130.340011990066,0.0,0,19,0.0,16431,347117925772096,487,19.547000885009766,15.23640926357572,0.14999,16,0.0,0.0,1575420030,,,,0,1.4973701629153706,1,6.0,19.547000885009766,0.0,0.0,0.0,66.7128,C,27584057000000,
Raw,1732148700001,16673000000,,695158.2067484834,-1416183901328000000,0.0,101.05022719765016,2130.340011990066,0.0,0,21,0.0,16431,347117919703776,316,24.4060001373291,871.3307552009481,0.14999,16,0.0,0.0,1575420030,,,,0,9.211152502093768,1,6.0,24.4060001373291,0.0,0.0,0.0,66.7128,C,27584057000000,
Raw,1732148700001,16673000000,,695158.2067484834,-1416183901328000000,0.0,101.05022719765016,2130.340011990066,0.0,0,29,0.0,16431,347117918330778,487,12.800000190734863,1078.8380145399767,0.14999,16,0.0,0.0,1575420030,,,,0,0.0,6,6.0,12.800000190734863,0.0,0.0,24.068819884269395,66.7128,C,27584057000000,
Raw,1732148700001,16673000000,,695158.2067484834,-1416183901328000000,0.0,101.05022719765016,2130.340011990066,0.0,0,27,0.0,16431,347117918168005,487,18.5,928.0883518675358,0.14999,16,0.0,0.0,1575420030,,,,0,1.8358242652366559,6,6.0,18.5,0.0,0.0,24.068819884269395,66.7128,C,27584057000000,
Raw,1732148700001,16673000000,,695158.2067484834,-1416183901328000000,0.0,101.05022719765016,2130.340011990066,0.0,0,21,0.0,16431,347117920885628,487,17.399999618530273,547.0030649658615,0.14999,16,0.0,0.0,1575420030,,,,0,0.0,6,6.0,17.399999618530273,0.0,0.0,24.068819884269395,66.7128,C,27584057000000,
Raw,1732148700001,16673000000,,695158.2067484834,-1416183901328000000,0.0,101.05022719765016,2130.340011990066,0.0,0,9,0.0,17,525034,396,5.0,858.0690801786742,0.14999,16,0.0,0.0,1600875010,,,,0,8.728641847878002,3,6.0,23.0,0.0,0.0,20.27481839772141,66.7128,C,27584057000000,
Raw,1732148700001,16673000000,,695158.2067484834,-1416183901328000000,0.0,101.05022719765016,2130.340011990066,0.0,0,8,0.0,17,479387,797,5.0,820.3184527302574,0.14999,16,0.0,0.0,1605374980,,,,0,1.2674149900882141,3,6.0,17.0,0.0,0.0,20.27481839772141,66.7128,C,27584057000000,
Raw,1732148700001,16673000000,,695158.2067484834,-1416183901328000000,0.0,101.05022719765016,2130.340011990066,0.0,0,18,0.0,17,229603,487,5.0,1220.49513909587,0.14999,16,0.0,0.0,1600312450,,,,0,4.177377185062286,3,6.0,20.0,0.0,0.0,20.27481839772141,66.7128,C,27584057000000,
Raw,1732148700001,16673000000,,695158.2067484834,-1416183901328000000,0.0,101.05022719765016,2130.340011990066,0.0,0,16,0.0,17,712138,487,5.0,1134.059151127404,0.14999,16,0.0,0.0,1601437440,,,,0,4.339994797941493,3,6.0,20.0,0.0,0.0,20.27481839772141,66.7128,C,27584057000000,
Fix,FLP,37.4243729000,-122.1707975000,2.0,0.08580106,2.566,,1732148700210,2.5,,27584057000000,0.94510937,0,,,
Status,1732148700000,29,0,1,14,1575420030,0.00,14.0,68.0,0,0,0,0.0
Status,1732148700000,29,1,1,22,1575420030,35.00,308.0,68.0,1,0,0,30.0
Status,1732148700000,29,2,1,17,1575420030,27.60,168.0,64.0,1,0,0,22.6
Status,1732148700000,29,3,1,30,1575420030,29.90,108.0,58.0,1,0,0,24.9
Status,1732148700000,29,4,1,13,1575420030,34.90,276.0,56.0,1,0,0,29.900002
Status,1732148700000,29,5,1,19,1575420030,25.80,194.0,35.0,1,0,0,20.8
Status,1732148700000,29,6,1,15,1575420030,23.80,302.0,27.0,1,0,0,18.8
Status,1732148700000,29,7,1,7,1575420030,33.30,117.0,24.0,1,0,0,28.3
Status,1732148700000,29,8,2,131,1575420030,29.00,3.0,23.0,0,0,0,24.0
Status,1732148700000,29,9,1,2,1575420030,34.80,70.0,21.0,1,0,0,29.8
Status,1732148700000,29,10,1,21,1575420030,30.40,52.0,13.0,1,0,0,25.4
Status,1732148700000,29,11,3,9,1602000000,29.90,47.0,46.0,1,0,0,24.9
Status,1732148700000,29,12,3,8,1602000000,23.30,276.0,39.0,1,0,0,18.3
Status,1732148700000,29,13,3,19,1602000000,0.00,61.0,36.0,0,0,0,0.0
Status,1732148700000,29,14,3,20,1602000000,0.00,140.0,28.0,0,0,0,0.0
Status,1732148700000,29,15,3,11,1602000000,0.00,287.0,12.0,0,0,0,0.0
Status,1732148700000,29,16,3,18,1602000000,20.00,25.0,11.0,1,0,0,15.0
Status,1732148700000,29,17,3,16,1602000000,25.20,83.0,4.0,0,0,0,20.2
Status,1732148700000,29,18,3,17,1602000000,26.40,0.0,0.0,0,0,0,21.4
Status,1732148700000,29,19,6,21,1575420030,23.30,295.0,64.0,1,0,0,18.3
Status,1732148700000,29,20,6,19,1575420030,0.00,275.0,54.0,0,0,0,0.0
Status,1732148700000,29,21,6,27,1575420030,23.50,48.0,48.0,1,0,0,18.5
Status,1732148700000,29,22,6,29,1575420030,20.90,196.0,46.0,1,0,0,15.9
Status,1732148700000,29,23,6,15,1575420030,0.00,82.0,18.0,0,0,0,0.0
Status,1732148700000,29,24,6,13,1575420030,0.00,134.0,12.0,0,0,0,0.0
Status,1732148700000,29,25,6,4,1575420030,0.00,323.0,11.0,0,0,0,0.0
Status,1732148700000,29,26,6,34,1575420030,0.00,35.0,5.0,0,0,0,0.0
Status,1732148700000,29,27,6,7,1575420030,0.00,162.0,4.0,0,0,0,0.0
Status,1732148700000,29,28,6,30,1575420030,0.00,67.0,1.0,0,0,0,0.0
Fix,GPS,37.4243733333,-122.1708050000,2.8000000000000007,0.0,2.6,159.42,1732148701000,2.4,149.6,27585057000000,35.9,0,,,
Fix,FLP,37.4243727000,-122.1708010000,2.0,0.080492504,2.6,,1732148701209,2.4,,27585057000000,0.9551017,0,,,
Raw,1732148701001,17673000000,,694933.4679393435,-1416183901328000000,0.0,94.72494245916032,2129.7696564494913,0.0,0,7,0.0,16431,347118923679760,396,28.288999557495117,1126.4822353658728,0.14999,16,0.0,0.0,1575420030,,,,0,14.426353572408443,1,6.0,28.288999557495117,0.0,0.0,0.0,66.7128,C,27585057000000,
Raw,1732148701001,17673000000,,694933.4679393435,-1416183901328000000,0.0,94.72494245916032,2129.7696564494913,0.0,0,2,0.0,16431,347118921164255,74,29.81999969482422,639.5974295200208,0.14999,16,0.0,0.0,1575420030,,,,0,16.330731245187735,1,6.0,29.81999969482422,0.0,0.0,0.0,66.7128,C,27585057000000,
Raw,1732148701001,17673000000,,694933.4679393435,-1416183901328000000,0.0,94.72494245916032,2129.7696564494913,0.0,0,22,0.0,16431,347118931423353,74,29.959999084472656,616.2652231060129,0.14999,16,0.0,0.0,1575420030,,,,0,16.495985021931034,1,6.0,29.959999084472656,0.0,0.0,0.0,66.7128,C,27585057000000,
Raw,1732148701001,17673000000,,694933.4679393435,-1416183901328000000,0.0,94.72494245916032,2129.7696564494913,0.0,0,13,0.0,16431,347118931385410,235,29.851999282836914,612.8259994707792,0.14999,16,0.0,0.0,1575420030,,,,0,16.372340376917183,1,6.0,29.851999282836914,0.0,0.0,0.0,66.7128,C,27585057000000,
Raw,1732148701001,17673000000,,694933.4679393435,-1416183901328000000,0.0,94.72494245916032,2129.7696564494913,0.0,0,30,0.0,16431,347118930767093,396,24.878000259399414,901.2020301550054,0.14999,16,0.0,0.0,1575420030,,,,0,9.849773129581186,1,6.0,24.878000259399414,0.0,0.0,0.0,66.7128,C,27585057000000,
Raw,1732148701001,17673000000,,694933.4679393435,-1416183901328000000,0.0,94.72494245916032,2129.7696564494913,0.0,0,17,0.0,16431,347118932219654,396,22.590999603271484,379.68414752718064,0.14999,16,0.0,0.0,1575420030,,,,0,6.316946186847138,1,6.0,22.590999603271484,0.0,0.0,0.0,66.7128,C,27585057000000,
Raw,1732148701001,17673000000,,694933.4679393435,-1416183901328000000,0.0,94.72494245916032,2129.7696564494913,0.0,0,19,0.0,16431,347118925772054,487,20.809999465942383,15.527703533215794,0.14999,16,0.0,0.0,1575420030,,,,0,3.628977397207457,1,6.0,20.809999465942383,0.0,0.0,0.0,66.7128,C,27585057000000,
Raw,1732148701001,17673000000,,694933.4679393435,-1416183901328000000,0.0,94.72494245916032,2129.7696564494913,0.0,0,15,0.0,16431,347118925161625,487,18.777000427246094,403.7374814776086,0.14999,16,0.0,0.0,1575420030,,,,0,0.1296254230369609,1,6.0,18.777000427246094,0.0,0.0,0.0,66.7128,C,27585057000000,
Raw,1732148701001,17673000000,,694933.4679393435,-1416183901328000000,0.0,94.72494245916032,2129.7696564494913,0.0,0,21,0.0,16431,347118919700869,316,25.40399932861328,872.3227353038756,0.14999,16,0.0,0.0,1575420030,,,,0,10.607376620266614,1,6.0,25.40399932861328,0.0,0.0,0.0,66.7128,C,27585057000000,
Raw,1732148701001,17673000000,,694933.4679393435,-1416183901328000000,0.0,94.72494245916032,2129.7696564494913,0.0,0,29,0.0,16431,347118918327161,487,15.899999618530273,1079.23458358075,0.14999,16,0.0,0.0,1575420030,,,,0,0.0,6,6.0,15.899999618530273,0.0,0.0,25.58773754258575,66.7128,C,27585057000000,
Raw,1732148701001,17673000000,,694933.4679393435,-1416183901328000000,0.0,94.72494245916032,2129.7696564494913,0.0,0,27,0.0,16431,347118918164908,487,18.5,928.6451095274028,0.14999,16,0.0,0.0,1575420030,,,,0,1.8358242652366559,6,6.0,18.5,0.0,0.0,25.58773754258575,66.7128,C,27585057000000,
Raw,1732148701001,17673000000,,694933.4679393435,-1416183901328000000,0.0,94.72494245916032,2129.7696564494913,0.0,0,21,0.0,16431,347118920883808,487,18.299999237060547,546.695324416883,0.14999,16,0.0,0.0,1575420030,,,,0,1.3815565852974627,6,6.0,18.299999237060547,0.0,0.0,25.58773754258575,66.7128,C,27585057000000,
Raw,1732148701001,17673000000,,694933.4679393435,-1416183901328000000,0.0,94.72494245916032,2129.7696564494913,0.0,0,9,0.0,17,522164,316,5.0,858.4427015330202,0.14999,16,0.0,0.0,1600875010,,,,0,10.994398114713274,3,6.0,25.0,0.0,0.0,24.47606352728618,66.7128,C,27585057000000,
Raw,1732148701001,17673000000,,694933.4679393435,-1416183901328000000,0.0,94.72494245916032,2129.7696564494913,0.0,0,8,0.0,17,476649,487,5.0,818.5988310353706,0.14999,16,0.0,0.0,1605374980,,,,0,1.448377569636155,3,6.0,19.0,0.0,0.0,24.47606352728618,66.7128,C,27585057000000,
Raw,1732148701001,17673000000,,694933.4679393435,-1416183901328000000,0.0,94.72494245916032,2129.7696564494913,0.0,0,18,0.0,17,225539,797,5.0,1221.5377316181691,0.14999,16,0.0,0.0,1600312450,,,,0,0.0,3,6.0,17.0,0.0,0.0,24.47606352728618,66.7128,C,27585057000000,
Raw,1732148701001,17673000000,,694933.4679393435,-1416183901328000000,0.0,94.72494245916032,2129.7696564494913,0.0,0,16,0.0,17,708349,487,5.0,1133.4905978839922,0.14999,16,0.0,0.0,1601437440,,,,0,4.515831287383572,3,6.0,20.0,0.0,0.0,24.47606352728618,66.7128,C,27585057000000,
Status,1732148701000,29,0,1,14,1575420030,31.00,14.0,68.0,1,0,0,26.0
Status,1732148701000,29,1,1,22,1575420030,30.70,309.0,68.0,1,0,0,25.7
Status,1732148701000,29,2,1,17,1575420030,27.70,168.0,64.0,1,0,0,22.7
Status,1732148701000,29,3,1,30,1575420030,30.80,108.0,58.0,1,0,0,25.8
Status,1732148701000,29,4,1,13,1575420030,32.50,276.0,56.0,1,0,0,27.5
Status,1732148701000,29,5,1,19,1575420030,26.50,194.0,35.0,1,0,0,21.5
Status,1732148701000,29,6,1,15,1575420030,25.90,302.0,27.0,1,0,0,20.9
Status,1732148701000,29,7,1,7,1575420030,31.90,117.0,24.0,1,0,0,26.9
Status,1732148701000,29,8,2,131,1575420030,30.00,3.0,23.0,0,0,0,25.0
Status,1732148701000,29,9,1,2,1575420030,35.10,70.0,21.0,1,0,0,30.099998
Status,1732148701000,29,10,1,21,1575420030,32.00,52.0,13.0,1,0,0,27.0
Status,1732148701000,29,11,3,9,1602000000,28.70,47.0,46.0,1,0,0,23.7
Status,1732148701000,29,12,3,8,1602000000,23.80,276.0,39.0,1,0,0,18.8
Status,1732148701000,29,13,3,19,1602000000,0.00,61.0,36.0,0,0,0,0.0
Status,1732148701000,29,14,3,20,1602000000,0.00,140.0,28.0,0,0,0,0.0
Status,1732148701000,29,15,3,11,1602000000,0.00,287.0,12.0,0,0,0,0.0
Status,1732148701000,29,16,3,18,1602000000,20.00,25.0,11.0,1,0,0,15.0
Status,1732148701000,29,17,3,16,1602000000,24.30,83.0,4.0,0,0,0,19.3
Status,1732148701000,29,18,3,17,1602000000,25.60,0.0,0.0,0,0,0,20.6
Status,1732148701000,29,19,6,21,1575420030,30.30,295.0,64.0,1,0,0,25.3
Status,1732148701000,29,20,6,19,1575420030,0.00,275.0,54.0,0,0,0,0.0
Status,1732148701000,29,21,6,27,1575420030,23.40,48.0,48.0,1,0,0,18.4
Status,1732148701000,29,22,6,29,1575420030,20.90,196.0,46.0,1,0,0,15.9
Status,1732148701000,29,23,6,15,1575420030,0.00,82.0,18.0,0,0,0,0.0
Status,1732148701000,29,24,6,13,1575420030,0.00,134.0,12.0,0,0,0,0.0
Status,1732148701000,29,25,6,4,1575420030,0.00,323.0,11.0,0,0,0,0.0
Status,1732148701000,29,26,6,34,1575420030,0.00,35.0,5.0,0,0,0,0.0
Status,1732148701000,29,27,6,7,1575420030,0.00,162.0,4.0,0,0,0,0.0
Status,1732148701000,29,28,6,30,1575420030,0.00,67.0,1.0,0,0,0,0.0
Fix,GPS,37.4243866667,-122.1708150000,2.8000000000000007,0.0,2.6,159.42,1732148702000,2.3,111.6,27586057000000,36.4,0,,,
Fix,FLP,37.4243793000,-122.1708077000,2.0,0.055169493,2.616,,1732148702209,2.3,,27586057000000,0.96510506,0,,,
Raw,1732148702001,18673000000,,694636.1268201084,-1416183901328000000,0.0,93.70330825660888,2127.948157563113,0.0,0,7,0.0,16431,347119923676000,316,26.937999725341797,1125.9602286013312,0.14999,16,0.0,0.0,1575420030,,,,0,12.677577743720597,1,6.0,26.937999725341797,0.0,0.0,0.0,66.7128,C,27586057000000,
Raw,1732148702001,18673000000,,694636.1268201084,-1416183901328000000,0.0,93.70330825660888,2127.948157563113,0.0,0,2,0.0,16431,347119921162124,74,30.06800079345703,639.4980549677464,0.14999,16,0.0,0.0,1575420030,,,,0,16.638047131356174,1,6.0,30.06800079345703,0.0,0.0,0.0,66.7128,C,27586057000000,
Raw,1732148702001,18673000000,,694636.1268201084,-1416183901328000000,0.0,93.70330825660888,2127.948157563113,0.0,0,22,0.0,16431,347119931421297,396,25.694000244140625,616.3795572683069,0.14999,16,0.0,0.0,1575420030,,,,0,11.001362054611192,1,6.0,25.694000244140625,0.0,0.0,0.0,66.7128,C,27586057000000,
Raw,1732148702001,18673000000,,694636.1268201084,-1416183901328000000,0.0,93.70330825660888,2127.948157563113,0.0,0,13,0.0,16431,347119931383361,316,27.516000747680664,612.7204459491488,0.14999,16,0.0,0.0,1575420030,,,,0,13.437317839639364,1,6.0,27.516000747680664,0.0,0.0,0.0,66.7128,C,27586057000000,
Raw,1732148702001,18673000000,,694636.1268201084,-1416183901328000000,0.0,93.70330825660888,2127.948157563113,0.0,0,30,0.0,16431,347119930764077,316,25.77199935913086,901.4069117704939,0.14999,16,0.0,0.0,1575420030,,,,0,11.116155218448986,1,6.0,25.77199935913086,0.0,0.0,0.0,66.7128,C,27586057000000,
Raw,1732148702001,18673000000,,694636.1268201084,-1416183901328000000,0.0,93.70330825660888,2127.948157563113,0.0,0,17,0.0,16431,347119932218391,396,22.66900062561035,378.8594641810274,0.14999,16,0.0,0.0,1575420030,,,,0,8.823973546368464,1,6.0,22.66900062561035,0.0,0.0,0.0,66.7128,C,27586057000000,
Raw,1732148702001,18673000000,,694636.1268201084,-1416183901328000000,0.0,93.70330825660888,2127.948157563113,0.0,0,14,0.0,16431,347119932558814,316,25.972000122070312,754.7366232502517,0.14999,16,0.0,0.0,1575420030,,,,0,11.378249359629905,1,6.0,25.972000122070312,0.0,0.0,0.0,66.7128,C,27586057000000,
Raw,1732148702001,18673000000,,694636.1268201084,-1416183901328000000,0.0,93.70330825660888,2127.948157563113,0.0,0,19,0.0,16431,347119925772067,396,21.47100067138672,15.254853254811303,0.14999,16,0.0,0.0,1575420030,,,,0,4.726713513854348,1,6.0,21.47100067138672,0.0,0.0,0.0,66.7128,C,27586057000000,
Raw,1732148702001,18673000000,,694636.1268201084,-1416183901328000000,0.0,93.70330825660888,2127.948157563113,0.0,0,15,0.0,16431,347119925160330,487,20.860000610351562,402.96353072195717,0.14999,16,0.0,0.0,1575420030,,,,0,3.718523444302342,1,6.0,20.860000610351562,0.0,0.0,0.0,66.7128,C,27586057000000,
Raw,1732148702001,18673000000,,694636.1268201084,-1416183901328000000,0.0,93.70330825660888,2127.948157563113,0.0,0,21,0.0,16431,347119919697960,235,27.04800033569336,872.6482229678466,0.14999,16,0.0,0.0,1575420030,,,,0,12.83493512052656,1,6.0,27.04800033569336,0.0,0.0,0.0,66.7128,C,27586057000000,
Raw,1732148702001,18673000000,,694636.1268201084,-1416183901328000000,0.0,93.70330825660888,2127.948157563113,0.0,0,29,0.0,16431,347119918323563,316,15.899999618530273,1078.386996235405,0.14999,16,0.0,0.0,1575420030,,,,0,0.0,6,6.0,15.899999618530273,0.0,0.0,23.315811117817383,66.7128,C,27586057000000,
Raw,1732148702001,18673000000,,694636.1268201084,-1416183901328000000,0.0,93.70330825660888,2127.948157563113,0.0,0,27,0.0,16431,347119918161809,487,18.44499969482422,928.5456885167123,0.14999,16,0.0,0.0,1575420030,,,,0,0.0,6,6.0,18.44499969482422,0.0,0.0,23.315811117817383,66.7128,C,27586057000000,
Raw,1732148702001,18673000000,,694636.1268201084,-1416183901328000000,0.0,93.70330825660888,2127.948157563113,0.0,0,21,0.0,16431,347119920882009,316,25.299999237060547,546.2580578035094,0.14999,16,0.0,0.0,1575420030,,,,0,11.48819879785426,6,6.0,25.299999237060547,0.0,0.0,23.315811117817383,66.7128,C,27586057000000,
Raw,1732148702001,18673000000,,694636.1268201084,-1416183901328000000,0.0,93.70330825660888,2127.948157563113,0.0,0,9,0.0,17,519298,316,5.0,858.4630925173617,0.14999,16,0.0,0.0,1600875010,,,,0,9.44743362048787,3,6.0,24.0,0.0,0.0,29.835920974048996,66.7128,C,27586057000000,
Raw,1732148702001,18673000000,,694636.1268201084,-1416183901328000000,0.0,93.70330825660888,2127.948157563113,0.0,0,8,0.0,17,473908,797,5.0,821.7632486237553,0.14999,16,0.0,0.0,1605374980,,,,0,2.3006184380154515,3,6.0,17.0,0.0,0.0,29.835920974048996,66.7128,C,27586057000000,
Raw,1732148702001,18673000000,,694636.1268201084,-1416183901328000000,0.0,93.70330825660888,2127.948157563113,0.0,0,18,0.0,17,221478,487,5.0,1216.61784379536,0.14999,16,0.0,0.0,1600312450,,,,0,0.0,3,6.0,19.0,0.0,0.0,29.835920974048996,66.7128,C,27586057000000,
Raw,1732148702001,18673000000,,694636.1268201084,-1416183901328000000,0.0,93.70330825660888,2127.948157563113,0.0,0,16,0.0,17,704573,487,5.0,1133.0536711149396,0.14999,16,0.0,0.0,1601437440,,,,0,3.0748710585406136,3,6.0,20.0,0.0,0.0,29.835920974048996,66.7128,C,27586057000000,
Status,1732148702000,29,0,1,14,1575420030,36.20,14.0,68.0,1,0,0,31.2
Status,1732148702000,29,1,1,22,1575420030,29.40,309.0,68.0,1,0,0,24.4
Status,1732148702000,29,2,1,17,1575420030,31.20,168.0,64.0,1,0,0,26.2
Status,1732148702000,29,3,1,30,1575420030,34.60,108.0,58.0,1,0,0,29.599998
Status,1732148702000,29,4,1,13,1575420030,30.70,276.0,56.0,1,0,0,25.7
Status,1732148702000,29,5,1,19,1575420030,30.70,194.0,35.0,1,0,0,25.7
Status,1732148702000,29,6,1,15,1575420030,0.00,302.0,27.0,0,0,0,0.0
Status,1732148702000,29,7,1,7,1575420030,30.00,117.0,24.0,1,0,0,25.0
Status,1732148702000,29,8,2,131,1575420030,32.00,3.0,23.0,0,0,0,27.0
Status,1732148702000,29,9,1,2,1575420030,34.30,70.0,21.0,1,0,0,29.3
Status,1732148702000,29,10,1,21,1575420030,30.70,52.0,13.0,1,0,0,25.7
Status,1732148702000,29,11,3,9,1602000000,28.30,47.0,46.0,1,0,0,23.3
Status,1732148702000,29,12,3,8,1602000000,20.50,276.0,39.0,1,0,0,15.5
Status,1732148702000,29,13,3,19,1602000000,0.00,61.0,36.0,0,0,0,0.0
Status,1732148702000,29,14,3,20,1602000000,0.00,140.0,28.0,0,0,0,0.0
Status,1732148702000,29,15,3,11,1602000000,0.00,287.0,12.0,0,0,0,0.0
Status,1732148702000,29,16,3,18,1602000000,22.70,25.0,11.0,1,0,0,17.7
Status,1732148702000,29,17,3,16,1602000000,0.00,83.0,4.0,0,0,0,0.0
Status,1732148702000,29,18,3,17,1602000000,27.70,0.0,0.0,0,0,0,22.7
Status,1732148702000,29,19,6,21,1575420030,30.20,295.0,64.0,1,0,0,25.2
Status,1732148702000,29,20,6,19,1575420030,0.00,275.0,54.0,0,0,0,0.0
Status,1732148702000,29,21,6,27,1575420030,23.40,48.0,48.0,1,0,0,18.4
Status,1732148702000,29,22,6,29,1575420030,26.10,196.0,46.0,1,0,0,21.1
Status,1732148702000,29,23,6,15,1575420030,0.00,82.0,18.0,0,0,0,0.0
Status,1732148702000,29,24,6,13,1575420030,0.00,134.0,12.0,0,0,0,0.0
Status,1732148702000,29,25,6,4,1575420030,0.00,323.0,11.0,0,0,0,0.0
Status,1732148702000,29,26,6,34,1575420030,0.00,35.0,5.0,0,0,0,0.0
Status,1732148702000,29,27,6,7,1575420030,0.00,162.0,4.0,0,0,0,0.0
Status,1732148702000,29,28,6,30,1575420030,0.00,67.0,1.0,0,0,0,0.0
Fix,GPS,37.4244016667,-122.1708266667,2.900000000000002,0.0,2.5,159.42,1732148703000,2.4,97.3,27587057000000,36.2,0,,,
Fix,FLP,37.4243901000,-122.1708169000,2.0,0.020008622,2.6,,1732148703209,2.4,,27587057000000,0.9751046,0,,,
Raw,1732148703001,19673000000,,694341.4437897567,-1416183901328000000,0.0,94.06816943465269,2126.5847956495377,0.0,0,7,0.0,16431,347120923672245,316,25.01799964904785,1125.7049860626705,0.14999,16,0.0,0.0,1575420030,,,,0,10.066931681345352,1,6.0,25.01799964904785,0.0,0.0,0.0,66.7128,C,27587057000000,
Raw,1732148703001,19673000000,,694341.4437897567,-1416183901328000000,0.0,94.06816943465269,2126.5847956495377,0.0,0,2,0.0,16431,347120921159992,235,29.333999633789062,637.7656670856717,0.14999,16,0.0,0.0,1575420030,,,,0,15.726251593070266,1,6.0,29.333999633789062,0.0,0.0,0.0,66.7128,C,27587057000000,
Raw,1732148703001,19673000000,,694341.4437897567,-1416183901328000000,0.0,94.06816943465269,2126.5847956495377,0.0,0,22,0.0,16431,347120931419247,396,24.375999450683594,616.4370727875756,0.14999,16,0.0,0.0,1575420030,,,,0,9.163688506181476,1,6.0,24.375999450683594,0.0,0.0,0.0,66.7128,C,27587057000000,
Raw,1732148703001,19673000000,,694341.4437897567,-1416183901328000000,0.0,94.06816943465269,2126.5847956495377,0.0,0,13,0.0,16431,347120931381315,316,25.719999313354492,613.0745055390893,0.14999,16,0.0,0.0,1575420030,,,,0,11.03979525730862,1,6.0,25.719999313354492,0.0,0.0,0.0,66.7128,C,27587057000000,
Raw,1732148703001,19673000000,,694341.4437897567,-1416183901328000000,0.0,94.06816943465269,2126.5847956495377,0.0,0,30,0.0,16431,347120930761072,235,29.628999710083008,901.4242872181567,0.14999,16,0.0,0.0,1575420030,,,,0,16.098248301275103,1,6.0,29.628999710083008,0.0,0.0,0.0,66.7128,C,27587057000000,
Raw,1732148703001,19673000000,,694341.4437897567,-1416183901328000000,0.0,94.06816943465269,2126.5847956495377,0.0,0,17,0.0,16431,347120932217129,316,26.17099952697754,379.12945726683495,0.14999,16,0.0,0.0,1575420030,,,,0,11.668410441344669,1,6.0,26.17099952697754,0.0,0.0,0.0,66.7128,C,27587057000000,
Raw,1732148703001,19673000000,,694341.4437897567,-1416183901328000000,0.0,94.06816943465269,2126.5847956495377,0.0,0,14,0.0,16431,347120932556237,74,31.156999588012695,755.4497134806672,0.14999,16,0.0,0.0,1575420030,,,,0,17.943849877460345,1,6.0,31.156999588012695,0.0,0.0,0.0,66.7128,C,27587057000000,
Raw,1732148703001,19673000000,,694341.4437897567,-1416183901328000000,0.0,94.06816943465269,2126.5847956495377,0.0,0,19,0.0,16431,347120925771985,316,25.667999267578125,14.948645833567646,0.14999,16,0.0,0.0,1575420030,,,,0,10.962758037118444,1,6.0,25.667999267578125,0.0,0.0,0.0,66.7128,C,27587057000000,
Raw,1732148703001,19673000000,,694341.4437897567,-1416183901328000000,0.0,94.06816943465269,2126.5847956495377,0.0,0,21,0.0,16431,347120919695052,316,25.719999313354492,871.460281265343,0.14999,16,0.0,0.0,1575420030,,,,0,11.03979525730862,1,6.0,25.719999313354492,0.0,0.0,0.0,66.7128,C,27587057000000,
Raw,1732148703001,19673000000,,694341.4437897567,-1416183901328000000,0.0,94.06816943465269,2126.5847956495377,0.0,0,29,0.0,16431,347120918319962,396,21.100000381469727,1078.4648605409736,0.14999,16,0.0,0.0,1575420030,,,,0,5.841818158966709,6,6.0,21.100000381469727,0.0,0.0,22.084915066065854,66.7128,C,27587057000000,
Raw,1732148703001,19673000000,,694341.4437897567,-1416183901328000000,0.0,94.06816943465269,2126.5847956495377,0.0,0,27,0.0,16431,347120918158710,396,18.427000045776367,928.7639501560694,0.14999,16,0.0,0.0,1575420030,,,,0,1.0245519663532177,6,6.0,18.427000045776367,0.0,0.0,22.084915066065854,66.7128,C,27587057000000,
Raw,1732148703001,19673000000,,694341.4437897567,-1416183901328000000,0.0,94.06816943465269,2126.5847956495377,0.0,0,21,0.0,16431,347120920880178,316,25.200000762939453,546.5708623198549,0.14999,16,0.0,0.0,1575420030,,,,0,8.922398278153864,6,6.0,25.200000762939453,0.0,0.0,22.084915066065854,66.7128,C,27587057000000,
Raw,1732148703001,19673000000,,694341.4437897567,-1416183901328000000,0.0,94.06816943465269,2126.5847956495377,0.0,0,9,0.0,17,516440,487,5.0,857.4110823162479,0.14999,16,0.0,0.0,1600875010,,,,0,8.867922345283034,3,6.0,20.0,0.0,0.0,31.067555546156505,66.7128,C,27587057000000,
Raw,1732148703001,19673000000,,694341.4437897567,-1416183901328000000,0.0,94.06816943465269,2126.5847956495377,0.0,0,8,0.0,17,471163,797,5.0,823.3474634456951,0.14999,16,0.0,0.0,1605374980,,,,0,0.0,3,6.0,17.0,0.0,0.0,31.067555546156505,66.7128,C,27587057000000,
Raw,1732148703001,19673000000,,694341.4437897567,-1416183901328000000,0.0,94.06816943465269,2126.5847956495377,0.0,0,18,0.0,17,217422,797,5.0,1217.1745395394125,0.14999,16,0.0,0.0,1600312450,,,,0,0.3332729245237962,3,6.0,17.0,0.0,0.0,31.067555546156505,66.7128,C,27587057000000,
Status,1732148703000,29,0,1,14,1575420030,29.60,14.0,68.0,1,0,0,24.6
Status,1732148703000,29,1,1,22,1575420030,30.30,309.0,68.0,1,0,0,25.3
Status,1732148703000,29,2,1,17,1575420030,29.60,168.0,64.0,1,0,0,24.6
Status,1732148703000,29,3,1,30,1575420030,34.00,108.0,58.0,1,0,0,29.0
Status,1732148703000,29,4,1,13,1575420030,31.30,276.0,56.0,1,0,0,26.3
Status,1732148703000,29,5,1,19,1575420030,30.70,194.0,35.0,1,0,0,25.7
Status,1732148703000,29,6,1,15,1575420030,0.00,302.0,27.0,0,0,0,0.0
Status,1732148703000,29,7,1,7,1575420030,37.70,117.0,24.0,1,0,0,32.7
Status,1732148703000,29,8,2,131,1575420030,33.00,3.0,23.0,0,0,0,28.0
Status,1732148703000,29,9,1,2,1575420030,33.30,70.0,21.0,1,0,0,28.3
Status,1732148703000,29,10,1,21,1575420030,28.40,52.0,13.0,1,0,0,23.4
Status,1732148703000,29,11,3,9,1602000000,30.00,47.0,46.0,1,0,0,25.0
Status,1732148703000,29,12,3,8,1602000000,20.50,276.0,39.0,1,0,0,15.5
Status,1732148703000,29,13,3,19,1602000000,0.00,61.0,36.0,0,0,0,0.0
Status,1732148703000,29,14,3,20,1602000000,0.00,140.0,28.0,0,0,0,0.0
Status,1732148703000,29,15,3,11,1602000000,0.00,287.0,12.0,0,0,0,0.0
Status,1732148703000,29,16,3,18,1602000000,22.80,25.0,11.0,1,0,0,17.8
Status,1732148703000,29,17,3,16,1602000000,0.00,83.0,4.0,0,0,0,0.0
Status,1732148703000,29,18,3,17,1602000000,30.50,0.0,0.0,0,0,0,25.5
Status,1732148703000,29,19,6,21,1575420030,25.70,295.0,64.0,1,0,0,20.7
Status,1732148703000,29,20,6,19,1575420030,0.00,275.0,54.0,0,0,0,0.0
Status,1732148703000,29,21,6,27,1575420030,23.50,48.0,48.0,1,0,0,18.5
Status,1732148703000,29,22,6,29,1575420030,26.00,196.0,46.0,1,0,0,21.0
Status,1732148703000,29,23,6,15,1575420030,0.00,82.0,18.0,0,0,0,0.0
Status,1732148703000,29,24,6,13,1575420030,0.00,134.0,12.0,0,0,0,0.0
Status,1732148703000,29,25,6,4,1575420030,0.00,323.0,11.0,0,0,0,0.0
Status,1732148703000,29,26,6,34,1575420030,0.00,35.0,5.0,0,0,0,0.0
Status,1732148703000,29,27,6,7,1575420030,0.00,162.0,4.0,0,0,0,0.0
Status,1732148703000,29,28,6,30,1575420030,0.00,67.0,1.0,0,0,0,0.0
Fix,GPS,37.4244100000,-122.1708350000,2.900000000000002,0.0,2.5,159.42,1732148704000,2.5,90.0,27588057000000,35.5,0,,,
Fix,FLP,37.4243998000,-122.1708257000,2.0,0.019187689,2.583,,1732148704209,2.5,,27588057000000,0.98511237,0,,,
Raw,1732148704001,20673000000,,694101.6424769432,-1416183901328000000,0.0,93.11202802987594,2127.095542982853,0.0,0,7,0.0,16431,347121923668491,58,32.66899871826172,1126.1501506068,0.14999,16,0.0,0.0,1575420030,,,,0,19.70886887478106,1,6.0,32.66899871826172,0.0,0.0,0.0,66.7128,C,27588057000000,
Raw,1732148704001,20673000000,,694101.6424769432,-1416183901328000000,0.0,93.11202802987594,2127.095542982853,0.0,0,2,0.0,16431,347121921157868,235,28.288999557495117,638.9959788637591,0.14999,16,0.0,0.0,1575420030,,,,0,14.426353572408443,1,6.0,28.288999557495117,0.0,0.0,0.0,66.7128,C,27588057000000,
Raw,1732148704001,20673000000,,694101.6424769432,-1416183901328000000,0.0,93.11202802987594,2127.095542982853,0.0,0,22,0.0,16431,347121931417187,396,25.270000457763672,616.5484336112323,0.14999,16,0.0,0.0,1575420030,,,,0,10.403473133765347,1,6.0,25.270000457763672,0.0,0.0,0.0,66.7128,C,27588057000000,
Raw,1732148704001,20673000000,,694101.6424769432,-1416183901328000000,0.0,93.11202802987594,2127.095542982853,0.0,0,13,0.0,16431,347121931379272,316,26.34000015258789,613.0414271467474,0.14999,16,0.0,0.0,1575420030,,,,0,11.87984212951978,1,6.0,26.34000015258789,0.0,0.0,0.0,66.7128,C,27588057000000,
Raw,1732148704001,20673000000,,694101.6424769432,-1416183901328000000,0.0,93.11202802987594,2127.095542982853,0.0,0,30,0.0,16431,347121930758065,235,29.045000076293945,902.1622327012449,0.14999,16,0.0,0.0,1575420030,,,,0,15.384243253359957,1,6.0,29.045000076293945,0.0,0.0,0.0,66.7128,C,27588057000000,
Raw,1732148704001,20673000000,,694101.6424769432,-1416183901328000000,0.0,93.11202802987594,2127.095542982853,0.0,0,17,0.0,16431,347121932215858,396,24.586000442504883,379.6718360468849,0.14999,16,0.0,0.0,1575420030,,,,0,9.444658221167838,1,6.0,24.586000442504883,0.0,0.0,0.0,66.7128,C,27588057000000,
Raw,1732148704001,20673000000,,694101.6424769432,-1416183901328000000,0.0,93.11202802987594,2127.095542982853,0.0,0,14,0.0,16431,347121932553716,316,24.55500030517578,755.1951678182497,0.14999,16,0.0,0.0,1575420030,,,,0,9.39845657160636,1,6.0,24.55500030517578,0.0,0.0,0.0,66.7128,C,27588057000000,
Raw,1732148704001,20673000000,,694101.6424769432,-1416183901328000000,0.0,93.11202802987594,2127.095542982853,0.0,0,19,0.0,16431,347121925771942,316,25.694000244140625,15.646544161882352,0.14999,16,0.0,0.0,1575420030,,,,0,11.001362054611192,1,6.0,25.694000244140625,0.0,0.0,0.0,66.7128,C,27588057000000,
Raw,1732148704001,20673000000,,694101.6424769432,-1416183901328000000,0.0,93.11202802987594,2127.095542982853,0.0,0,21,0.0,16431,347121919692146,316,23.434999465942383,871.7790789173798,0.14999,16,0.0,0.0,1575420030,,,,0,7.773038997588732,1,6.0,23.434999465942383,0.0,0.0,0.0,66.7128,C,27588057000000,
Raw,1732148704001,20673000000,,694101.6424769432,-1416183901328000000,0.0,93.11202802987594,2127.095542982853,0.0,0,29,0.0,16431,347121918316356,316,21.024999618530273,1078.7909057059394,0.14999,16,0.0,0.0,1575420030,,,,0,3.538498562006532,6,6.0,21.024999618530273,0.0,0.0,25.438954556654288,66.7128,C,27588057000000,
Raw,1732148704001,20673000000,,694101.6424769432,-1416183901328000000,0.0,93.11202802987594,2127.095542982853,0.0,0,27,0.0,16431,347121918155609,396,18.514999389648438,929.6825259613842,0.14999,16,0.0,0.0,1575420030,,,,0,4.566600415364088,6,6.0,18.514999389648438,0.0,0.0,25.438954556654288,66.7128,C,27588057000000,
Raw,1732148704001,20673000000,,694101.6424769432,-1416183901328000000,0.0,93.11202802987594,2127.095542982853,0.0,0,21,0.0,16431,347121920878355,396,20.700000762939453,547.0026468401156,0.14999,16,0.0,0.0,1575420030,,,,0,5.339188462486707,6,6.0,20.700000762939453,0.0,0.0,25.438954556654288,66.7128,C,27588057000000,
Raw,1732148704001,20673000000,,694101.6424769432,-1416183901328000000,0.0,93.11202802987594,2127.095542982853,0.0,0,9,0.0,17,513577,316,5.0,858.2603713860389,0.14999,16,0.0,0.0,1600875010,,,,0,11.046722909325297,3,6.0,25.0,0.0,0.0,24.791147264165453,66.7128,C,27588057000000,
Raw,1732148704001,20673000000,,694101.6424769432,-1416183901328000000,0.0,93.11202802987594,2127.095542982853,0.0,0,8,0.0,17,468421,396,5.0,821.6443458881845,0.14999,16,0.0,0.0,1605374980,,,,0,0.0,3,6.0,21.0,0.0,0.0,24.791147264165453,66.7128,C,27588057000000,
Raw,1732148704001,20673000000,,694101.6424769432,-1416183901328000000,0.0,93.11202802987594,2127.095542982853,0.0,0,18,0.0,17,213404,487,5.0,1217.456820687317,0.14999,16,0.0,0.0,1600312450,,,,0,2.395940467986857,3,6.0,19.0,0.0,0.0,24.791147264165453,66.7128,C,27588057000000,
Status,1732148704000,29,0,1,14,1575420030,31.00,14.0,68.0,1,0,0,26.0
Status,1732148704000,29,1,1,22,1575420030,37.80,309.0,68.0,1,0,0,32.8
Status,1732148704000,29,2,1,17,1575420030,29.50,168.0,64.0,1,0,0,24.5
Status,1732148704000,29,3,1,30,1575420030,34.80,108.0,58.0,1,0,0,29.8
Status,1732148704000,29,4,1,13,1575420030,27.60,276.0,56.0,1,0,0,22.6
Status,1732148704000,29,5,1,19,1575420030,30.00,194.0,35.0,1,0,0,25.0
Status,1732148704000,29,6,1,15,1575420030,27.20,302.0,27.0,1,0,0,22.2
Status,1732148704000,29,7,1,7,1575420030,31.70,117.0,24.0,1,0,0,26.7
Status,1732148704000,29,8,2,131,1575420030,30.00,3.0,23.0,0,0,0,25.0
Status,1732148704000,29,9,1,2,1575420030,37.80,70.0,21.0,1,0,0,32.8
Status,1732148704000,29,10,1,21,1575420030,29.90,52.0,13.0,1,0,0,24.9
Status,1732148704000,29,11,3,9,1602000000,28.00,47.0,46.0,1,0,0,23.0
Status,1732148704000,29,12,3,8,1602000000,0.00,276.0,39.0,0,0,0,0.0
Status,1732148704000,29,13,3,19,1602000000,0.00,61.0,36.0,0,0,0,0.0
Status,1732148704000,29,14,3,20,1602000000,0.00,140.0,28.0,0,0,0,0.0
Status,1732148704000,29,15,3,11,1602000000,0.00,287.0,12.0,0,0,0,0.0
Status,1732148704000,29,16,3,18,1602000000,22.80,25.0,11.0,1,0,0,17.8
Status,1732148704000,29,17,3,16,1602000000,0.00,83.0,4.0,0,0,0,0.0
Status,1732148704000,29,18,3,17,1602000000,32.10,0.0,0.0,0,0,0,27.099998
Status,1732148704000,29,19,6,21,1575420030,25.70,295.0,64.0,1,0,0,20.7
Status,1732148704000,29,20,6,19,1575420030,0.00,275.0,54.0,0,0,0,0.0
Status,1732148704000,29,21,6,27,1575420030,28.30,48.0,48.0,1,0,0,23.3
Status,1732148704000,29,22,6,29,1575420030,26.00,196.0,46.0,1,0,0,21.0
Status,1732148704000,29,23,6,15,1575420030,0.00,82.0,18.0,0,0,0,0.0
Status,1732148704000,29,24,6,13,1575420030,0.00,134.0,12.0,0,0,0,0.0
Status,1732148704000,29,25,6,4,1575420030,0.00,323.0,11.0,0,0,0,0.0
Status,1732148704000,29,26,6,34,1575420030,0.00,35.0,5.0,0,0,0,0.0
Status,1732148704000,29,27,6,7,1575420030,0.00,162.0,4.0,0,0,0,0.0
Status,1732148704000,29,28,6,30,1575420030,0.00,67.0,1.0,0,0,0,0.0
Fix,GPS,37.4244166667,-122.1708366667,2.8000000000000007,0.0,2.5,159.42,1732148705000,2.4,97.4,27589057000000,41.1,0,,,
Fix,FLP,37.4244082000,-122.1708311000,2.0,0.04166866,2.55,,1732148705209,2.4,,27589057000000,0.9951049,0,,,
Raw,1732148705001,21673000000,,693584.8266069455,-1416183901328000000,0.0,108.97604546543704,2130.412116504137,0.0,0,7,0.0,16431,347122923664731,316,26.69099998474121,1126.7893254970245,0.14999,16,0.0,0.0,1575420030,,,,0,12.354043521302913,1,6.0,26.69099998474121,0.0,0.0,0.0,66.7128,C,27589057000000,
Raw,1732148705001,21673000000,,693584.8266069455,-1416183901328000000,0.0,108.97604546543704,2130.412116504137,0.0,0,2,0.0,16431,347122921155732,58,32.82600021362305,640.2299608567272,0.14999,16,0.0,0.0,1575420030,,,,0,19.89070573339312,1,6.0,32.82600021362305,0.0,0.0,0.0,66.7128,C,27589057000000,
Raw,1732148705001,21673000000,,693584.8266069455,-1416183901328000000,0.0,108.97604546543704,2130.412116504137,0.0,0,22,0.0,16431,347122931415130,58,32.77000045776367,617.4931655048736,0.14999,16,0.0,0.0,1575420030,,,,0,19.821218245687085,1,6.0,32.77000045776367,0.0,0.0,0.0,66.7128,C,27589057000000,
Raw,1732148705001,21673000000,,693584.8266069455,-1416183901328000000,0.0,108.97604546543704,2130.412116504137,0.0,0,13,0.0,16431,347122931377220,396,22.597000122070312,614.3935528921389,0.14999,16,0.0,0.0,1575420030,,,,0,6.512876817100141,1,6.0,22.597000122070312,0.0,0.0,0.0,66.7128,C,27589057000000,
Raw,1732148705001,21673000000,,693584.8266069455,-1416183901328000000,0.0,108.97604546543704,2130.412116504137,0.0,0,30,0.0,16431,347122930755057,74,29.81999969482422,902.6963186540013,0.14999,16,0.0,0.0,1575420030,,,,0,16.330731245187735,1,6.0,29.81999969482422,0.0,0.0,0.0,66.7128,C,27589057000000,
Raw,1732148705001,21673000000,,693584.8266069455,-1416183901328000000,0.0,108.97604546543704,2130.412116504137,0.0,0,17,0.0,16431,347122932214592,316,24.524999618530273,380.2557951094432,0.14999,16,0.0,0.0,1575420030,,,,0,9.352007853225734,1,6.0,24.524999618530273,0.0,0.0,0.0,66.7128,C,27589057000000,
Raw,1732148705001,21673000000,,693584.8266069455,-1416183901328000000,0.0,108.97604546543704,2130.412116504137,0.0,0,14,0.0,16431,347122932551187,316,25.972000122070312,756.6318478811444,0.14999,16,0.0,0.0,1575420030,,,,0,11.378249359629905,1,6.0,25.972000122070312,0.0,0.0,0.0,66.7128,C,27589057000000,
Raw,1732148705001,21673000000,,693584.8266069455,-1416183901328000000,0.0,108.97604546543704,2130.412116504137,0.0,0,19,0.0,16431,347122925771883,396,24.989999771118164,15.957676175244327,0.14999,16,0.0,0.0,1575420030,,,,0,10.023932139874171,1,6.0,24.989999771118164,0.0,0.0,0.0,66.7128,C,27589057000000,
