# 
# Header Description:
# 
# Version: v3.1.0.3 Platform: 13 Manufacturer: samsung Model: SM-S135DL GNSS Hardware Model Name: MediaTek,MT6631,MTK_MNLD_default,MNL_VER_default
# 
# Raw,utcTimeMillis,TimeNanos,LeapSecond,TimeUncertaintyNanos,FullBiasNanos,BiasNanos,BiasUncertaintyNanos,DriftNanosPerSecond,DriftUncertaintyNanosPerSecond,HardwareClockDiscontinuityCount,Svid,TimeOffsetNanos,State,ReceivedSvTimeNanos,ReceivedSvTimeUncertaintyNanos,Cn0DbHz,PseudorangeRateMetersPerSecond,PseudorangeRateUncertaintyMetersPerSecond,AccumulatedDeltaRangeState,AccumulatedDeltaRangeMeters,AccumulatedDeltaRangeUncertaintyMeters,CarrierFrequencyHz,CarrierCycles,CarrierPhase,CarrierPhaseUncertainty,MultipathIndicator,SnrInDb,ConstellationType,AgcDb,BasebandCn0DbHz,FullInterSignalBiasNanos,FullInterSignalBiasUncertaintyNanos,SatelliteInterSignalBiasNanos,SatelliteInterSignalBiasUncertaintyNanos,CodeType,ChipsetElapsedRealtimeNanos,IsFullTracking
# 
# UncalAccel,utcTimeMillis,elapsedRealtimeNanos,UncalAccelXMps2,UncalAccelYMps2,UncalAccelZMps2,BiasXMps2,BiasYMps2,BiasZMps2
# 
# Accel,utcTimeMillis,elapsedRealtimeNanos,AccelXMps2,AccelYMps2,AccelZMps2
# 
# UncalGyro,utcTimeMillis,elapsedRealtimeNanos,UncalGyroXRadPerSec,UncalGyroYRadPerSec,UncalGyroZRadPerSec,DriftXRadPerSec,DriftYRadPerSec,DriftZRadPerSec
# 
# Gyro,utcTimeMillis,elapsedRealtimeNanos,GyroXRadPerSec,GyroYRadPerSec,GyroZRadPerSec
# 
# UncalMag,utcTimeMillis,elapsedRealtimeNanos,UncalMagXMicroT,UncalMagYMicroT,UncalMagZMicroT,BiasXMicroT,BiasYMicroT,BiasZMicroT
# 
# Mag,utcTimeMillis,elapsedRealtimeNanos,MagXMicroT,MagYMicroT,MagZMicroT
# 
# Pressure,utcTimeMillis,elapsedRealtimeNanos,PressureHpa
# 
# OrientationDeg,utcTimeMillis,elapsedRealtimeNanos,yawDeg,rollDeg,pitchDeg
# 
# Fix,Provider,LatitudeDegrees,LongitudeDegrees,AltitudeMeters,SpeedMps,AccuracyMeters,BearingDegrees,UnixTimeMillis,SpeedAccuracyMps,BearingAccuracyDegrees,elapsedRealtimeNanos,VerticalAccuracyMeters,MockLocation,NumberOfUsedSignals,VerticalSpeedAccuracyMps,SolutionType
# 
# Nav,Svid,Type,Status,MessageId,Sub-messageId,Data(Bytes)
# 
# Status,UnixTimeMillis,SignalCount,SignalIndex,ConstellationType,Svid,CarrierFrequencyHz,Cn0DbHz,AzimuthDegrees,ElevationDegrees,UsedInFix,HasAlmanacData,HasEphemerisData,BasebandCn0DbHz
# 
# Agc,utcTimeMillis,TimeNanos,LeapSecond,TimeUncertaintyNanos,FullBiasNanos,BiasNanos,BiasUncertaintyNanos,DriftNanosPerSecond,DriftUncertaintyNanosPerSecond,HardwareClockDiscontinuityCount,AgcDb,CarrierFrequencyHz,ConstellationType
# 
Fix,FLP,37.4243956000,-122.1707673000,2.0,0.01230011,2.45,,1732148729208,2.9,,27613056000000,1.03761,0,,,
Status,,28,0,1,14,1575420030,28.60,14.0,68.0,1,0,0,23.6
Status,,28,1,1,22,1575420030,30.00,309.0,68.0,1,0,0,25.0
Status,,28,2,1,17,1575420030,32.10,168.0,64.0,1,0,0,27.099998
Status,,28,3,1,30,1575420030,29.80,108.0,58.0,1,0,0,24.8
Status,,28,4,1,13,1575420030,31.40,276.0,56.0,1,0,0,26.4
Status,,28,5,1,19,1575420030,25.70,194.0,35.0,1,0,0,20.7
Status,,28,6,1,15,1575420030,25.30,302.0,27.0,1,0,0,20.3
Status,,28,7,1,7,1575420030,41.40,118.0,24.0,1,0,0,36.4
Status,,28,8,2,131,1575420030,31.00,3.0,23.0,0,0,0,26.0
Status,,28,9,1,2,1575420030,33.80,70.0,21.0,1,0,0,28.8
Status,,28,10,1,21,1575420030,31.40,52.0,13.0,1,0,0,26.4
Status,,28,11,3,9,1602000000,23.70,47.0,46.0,1,0,0,18.7
Status,,28,12,3,8,1602000000,24.10,276.0,38.0,1,0,0,19.1
Status,,28,13,3,19,1602000000,0.00,61.0,36.0,0,0,0,0.0
Status,,28,14,3,20,1602000000,0.00,140.0,29.0,0,0,0,0.0
Status,,28,15,3,11,1602000000,0.00,288.0,12.0,0,0,0,0.0
Status,,28,16,3,18,1602000000,23.90,25.0,11.0,1,0,0,18.9
Status,,28,17,3,16,1602000000,26.90,83.0,3.0,0,0,0,21.9
Status,,28,18,6,21,1575420030,22.10,296.0,64.0,1,0,0,17.1
Status,,28,19,6,19,1575420030,19.30,274.0,54.0,1,0,0,14.299999
Status,,28,20,6,27,1575420030,23.20,48.0,47.0,1,0,0,18.2
Status,,28,21,6,29,1575420030,24.10,196.0,45.0,1,0,0,19.1
Status,,28,22,6,15,1575420030,0.00,82.0,19.0,0,0,0,0.0
Status,,28,23,6,13,1575420030,0.00,134.0,12.0,0,0,0,0.0
Status,,28,24,6,4,1575420030,0.00,323.0,11.0,0,0,0,0.0
Status,,28,25,6,34,1575420030,0.00,35.0,5.0,0,0,0,0.0
Status,,28,26,6,7,1575420030,0.00,162.0,3.0,0,0,0,0.0
Status,,28,27,6,30,1575420030,0.00,67.0,1.0,0,0,0,0.0
Fix,GPS,37.4243833333,-122.1707550000,3.400000000000002,0.0,2.5,268.28,1732148730000,3.0,179.9,27614056000000,36.8,0,,,
Fix,FLP,37.4243897000,-122.1707614000,2.0,0.0069524497,2.433,,1732148730208,3.0,,27614056000000,1.0475924,0,,,
Raw,1732148730000,10600000000,,701094.8137327724,-1416183937400999936,0.0,94.30792371786053,2133.861704124395,0.0,0,13,0.0,16431,347147931406414,316,26.433000564575195,617.8077818994514,0.14999,16,0.0,0.0,1575420030,,,,0,12.000068285653871,1,6.0,26.433000564575195,0.0,0.0,0.0,66.7128,C,27614056000000,
Raw,1732148730000,10600000000,,701094.8137327724,-1416183937400999936,0.0,94.30792371786053,2133.861704124395,0.0,0,15,0.0,16431,347147925203124,487,20.27899932861328,408.35507638160635,0.14999,16,0.0,0.0,1575420030,,,,0,2.732862718830304,1,6.0,20.27899932861328,0.0,0.0,0.0,66.7128,C,27614056000000,
Raw,1732148730000,10600000000,,701094.8137327724,-1416183937400999936,0.0,94.30792371786053,2133.861704124395,0.0,0,30,0.0,16431,347147930760348,316,24.78700065612793,904.9440697470995,0.14999,16,0.0,0.0,1575420030,,,,0,9.736915990359682,1,6.0,24.78700065612793,0.0,0.0,0.0,66.7128,C,27614056000000,
Raw,1732148730000,10600000000,,701094.8137327724,-1416183937400999936,0.0,94.30792371786053,2133.861704124395,0.0,0,19,0.0,16431,347147925851125,487,20.70400047302246,17.891740042089037,0.14999,16,0.0,0.0,1575420030,,,,0,3.416375079047504,1,6.0,20.70400047302246,0.0,0.0,0.0,66.7128,C,27614056000000,
Raw,1732148730000,10600000000,,701094.8137327724,-1416183937400999936,0.0,94.30792371786053,2133.861704124395,0.0,0,2,0.0,16431,347147921182912,235,28.836999893188477,642.0675305931027,0.14999,16,0.0,0.0,1575420030,,,,0,15.110332525582553,1,6.0,28.836999893188477,0.0,0.0,0.0,66.7128,C,27614056000000,
Raw,1732148730000,10600000000,,701094.8137327724,-1416183937400999936,0.0,94.30792371786053,2133.861704124395,0.0,0,7,0.0,16431,347147923651406,51,36.426998138427734,1127.658376630659,0.14999,16,0.0,0.0,1575420030,,,,0,23.940191605216135,1,6.0,36.426998138427734,0.0,0.0,0.0,66.7128,C,27614056000000,
Raw,1732148730000,10600000000,,701094.8137327724,-1416183937400999936,0.0,94.30792371786053,2133.861704124395,0.0,0,21,0.0,16431,347147919696941,396,26.409000396728516,875.8077669374928,0.14999,16,0.0,0.0,1575420030,,,,0,11.965044489658602,1,6.0,26.409000396728516,0.0,0.0,0.0,66.7128,C,27614056000000,
Raw,1732148730000,10600000000,,701094.8137327724,-1416183937400999936,0.0,94.30792371786053,2133.861704124395,0.0,0,29,0.0,16431,347147918303264,487,19.100000381469727,1081.8853149760585,0.14999,16,0.0,0.0,1575420030,,,,0,2.732862718830304,6,6.0,19.100000381469727,0.0,0.0,20.877089004676826,66.7128,C,27614056000000,
Raw,1732148730000,10600000000,,701094.8137327724,-1416183937400999936,0.0,94.30792371786053,2133.861704124395,0.0,0,27,0.0,16431,347147918155553,487,18.200000762939453,929.881739650095,0.14999,16,0.0,0.0,1575420030,,,,0,1.179661260288463,6,6.0,18.200000762939453,0.0,0.0,20.877089004676826,66.7128,C,27614056000000,
Raw,1732148730000,10600000000,,701094.8137327724,-1416183937400999936,0.0,94.30792371786053,2133.861704124395,0.0,0,19,0.0,16431,347147921003041,1797,14.300000190734863,649.0048406769089,0.14999,16,0.0,0.0,1575420030,,,,0,0.0,6,6.0,14.300000190734863,0.0,0.0,20.877089004676826,66.7128,C,27614056000000,
Raw,1732148730000,10600000000,,701094.8137327724,-1416183937400999936,0.0,94.30792371786053,2133.861704124395,0.0,0,21,0.0,16431,347147920911400,487,17.100000381469727,549.2212685062499,0.14999,16,0.0,0.0,1575420030,,,,0,0.0,6,6.0,17.100000381469727,0.0,0.0,20.877089004676826,66.7128,C,27614056000000,
Raw,1732148730000,10600000000,,701094.8137327724,-1416183937400999936,0.0,94.30792371786053,2133.861704124395,0.0,0,17,0.0,16431,347147932263364,235,27.079999923706055,383.47659450086314,0.14999,16,0.0,0.0,1575420030,,,,0,12.864387399989065,1,6.0,27.079999923706055,0.0,0.0,0.0,66.7128,C,27614056000000,
Raw,1732148730000,10600000000,,701094.8137327724,-1416183937400999936,0.0,94.30792371786053,2133.861704124395,0.0,0,16,0.0,17,679261,396,5.0,1133.2437982445692,0.14999,16,0.0,0.0,1601437440,,,,0,7.064389738301273,3,6.0,21.0,0.0,0.0,49.28237442331954,66.7128,C,27614056000000,
Raw,1732148730000,10600000000,,701094.8137327724,-1416183937400999936,0.0,94.30792371786053,2133.861704124395,0.0,0,8,0.0,17,477510,487,5.0,827.2725302826478,0.14999,16,0.0,0.0,1605374980,,,,0,2.732862718830304,3,6.0,19.0,0.0,0.0,49.28237442331954,66.7128,C,27614056000000,
Raw,1732148730000,10600000000,,701094.8137327724,-1416183937400999936,0.0,94.30792371786053,2133.861704124395,0.0,0,9,0.0,17,519595,487,5.0,860.2628026241258,0.14999,16,0.0,0.0,1600875010,,,,0,2.07743928643524,3,6.0,20.0,0.0,0.0,49.28237442331954,66.7128,C,27614056000000,
Raw,1732148730000,10600000000,,701094.8137327724,-1416183937400999936,0.0,94.30792371786053,2133.861704124395,0.0,0,18,0.0,17,187841,487,5.0,1223.43155821772,0.14999,16,0.0,0.0,1600312450,,,,0,2.395940467986857,3,6.0,19.0,0.0,0.0,49.28237442331954,66.7128,C,27614056000000,
Raw,1732148730000,10600000000,,701094.8137327724,-1416183937400999936,0.0,94.30792371786053,2133.861704124395,0.0,0,22,0.0,16431,347147931444037,316,25.017000198364258,619.6887437965675,0.14999,16,0.0,0.0,1575420030,,,,0,10.048750646249527,1,6.0,25.017000198364258,0.0,0.0,0.0,66.7128,C,27614056000000,
Raw,1732148730000,10600000000,,701094.8137327724,-1416183937400999936,0.0,94.30792371786053,2133.861704124395,0.0,0,14,0.0,16431,347147932568630,396,23.576000213623047,757.9343560380231,0.14999,16,0.0,0.0,1575420030,,,,0,7.983827261916197,1,6.0,23.576000213623047,0.0,0.0,0.0,66.7128,C,27614056000000,
Fix,NLP,37.4243398000,-122.1708516000,2.0,,24.99,,1732148730135,,,27613983000000,1.0,0,,,
Status,1732148730000,28,0,1,14,1575420030,27.20,14.0,68.0,1,0,0,22.2
Status,1732148730000,28,1,1,22,1575420030,28.20,309.0,68.0,1,0,0,23.2
Status,1732148730000,28,2,1,17,1575420030,28.70,168.0,64.0,1,0,0,23.7
Status,1732148730000,28,3,1,30,1575420030,27.70,108.0,58.0,1,0,0,22.7
Status,1732148730000,28,4,1,13,1575420030,30.50,276.0,56.0,1,0,0,25.5
Status,1732148730000,28,5,1,19,1575420030,27.10,194.0,35.0,1,0,0,22.1
Status,1732148730000,28,6,1,15,1575420030,26.00,302.0,27.0,1,0,0,21.0
Status,1732148730000,28,7,1,7,1575420030,35.40,118.0,24.0,1,0,0,30.400002
Status,1732148730000,28,8,2,131,1575420030,29.00,3.0,23.0,0,0,0,24.0
Status,1732148730000,28,9,1,2,1575420030,32.20,70.0,21.0,1,0,0,27.2
Status,1732148730000,28,10,1,21,1575420030,31.10,52.0,13.0,1,0,0,26.1
Status,1732148730000,28,11,3,9,1602000000,25.10,47.0,46.0,1,0,0,20.1
Status,1732148730000,28,12,3,8,1602000000,22.90,276.0,38.0,1,0,0,17.9
Status,1732148730000,28,13,3,19,1602000000,0.00,61.0,36.0,0,0,0,0.0
Status,1732148730000,28,14,3,20,1602000000,0.00,140.0,29.0,0,0,0,0.0
Status,1732148730000,28,15,3,11,1602000000,0.00,288.0,12.0,0,0,0,0.0
Status,1732148730000,28,16,3,18,1602000000,21.10,25.0,11.0,1,0,0,16.1
Status,1732148730000,28,17,3,16,1602000000,31.10,83.0,3.0,0,0,0,26.1
Status,1732148730000,28,18,6,21,1575420030,22.10,296.0,64.0,1,0,0,17.1
Status,1732148730000,28,19,6,19,1575420030,19.30,274.0,54.0,1,0,0,14.299999
Status,1732148730000,28,20,6,27,1575420030,23.20,48.0,47.0,1,0,0,18.2
Status,1732148730000,28,21,6,29,1575420030,21.60,196.0,45.0,1,0,0,16.6
Status,1732148730000,28,22,6,15,1575420030,0.00,82.0,19.0,0,0,0,0.0
Status,1732148730000,28,23,6,13,1575420030,0.00,134.0,12.0,0,0,0,0.0
Status,1732148730000,28,24,6,4,1575420030,0.00,323.0,11.0,0,0,0,0.0
Status,1732148730000,28,25,6,34,1575420030,0.00,35.0,5.0,0,0,0,0.0
Status,1732148730000,28,26,6,7,1575420030,0.00,162.0,3.0,0,0,0,0.0
Status,1732148730000,28,27,6,30,1575420030,0.00,67.0,1.0,0,0,0,0.0
Fix,GPS,37.4243766667,-122.1707483333,3.400000000000002,0.0,2.6,268.28,1732148731000,2.8,179.9,27615056000000,37.4,0,,,
Fix,FLP,37.4243835000,-122.1707551000,2.0,0.00039140435,2.45,,1732148731208,2.8,,27615056000000,0.8363121,0,,,
Raw,1732148731000,11600000000,,700817.9555337579,-1416183937400999936,0.0,96.14461050806693,2136.515575767561,0.0,0,13,0.0,16431,347148931404348,396,25.54400062561035,618.8833871515577,0.14999,16,0.0,0.0,1575420030,,,,0,10.802698438054536,1,6.0,25.54400062561035,0.0,0.0,0.0,66.7128,C,27615056000000,
Raw,1732148731000,11600000000,,700817.9555337579,-1416183937400999936,0.0,96.14461050806693,2136.515575767561,0.0,0,15,0.0,16431,347148925201757,487,20.954999923706055,408.6299243719079,0.14999,16,0.0,0.0,1575420030,,,,0,3.873632738237588,1,6.0,20.954999923706055,0.0,0.0,0.0,66.7128,C,27615056000000,
Raw,1732148731000,11600000000,,700817.9555337579,-1416183937400999936,0.0,96.14461050806693,2136.515575767561,0.0,0,30,0.0,16431,347148930757323,396,22.740999221801758,905.0452561776061,0.14999,16,0.0,0.0,1575420030,,,,0,6.732326328475342,1,6.0,22.740999221801758,0.0,0.0,0.0,66.7128,C,27615056000000,
Raw,1732148731000,11600000000,,700817.9555337579,-1416183937400999936,0.0,96.14461050806693,2136.515575767561,0.0,0,19,0.0,16431,347148925851061,487,22.052000045776367,18.34777585561168,0.14999,16,0.0,0.0,1575420030,,,,0,5.640898529949982,1,6.0,22.052000045776367,0.0,0.0,0.0,66.7128,C,27615056000000,
Raw,1732148731000,11600000000,,700817.9555337579,-1416183937400999936,0.0,96.14461050806693,2136.515575767561,0.0,0,2,0.0,16431,347148921180766,316,27.19099998474121,642.8098896257309,0.14999,16,0.0,0.0,1575420030,,,,0,13.021176668715693,1,6.0,27.19099998474121,0.0,0.0,0.0,66.7128,C,27615056000000,
Raw,1732148731000,11600000000,,700817.9555337579,-1416183937400999936,0.0,96.14461050806693,2136.515575767561,0.0,0,7,0.0,16431,347148923647635,74,30.36400032043457,1127.7449751184754,0.14999,16,0.0,0.0,1575420030,,,,0,16.9921545825386,1,6.0,30.36400032043457,0.0,0.0,0.0,66.7128,C,27615056000000,
Raw,1732148731000,11600000000,,700817.9555337579,-1416183937400999936,0.0,96.14461050806693,2136.515575767561,0.0,0,21,0.0,16431,347148919694015,396,26.11400032043457,876.722904820008,0.14999,16,0.0,0.0,1575420030,,,,0,11.57016332574346,1,6.0,26.11400032043457,0.0,0.0,0.0,66.7128,C,27615056000000,
Raw,1732148731000,11600000000,,700817.9555337579,-1416183937400999936,0.0,96.14461050806693,2136.515575767561,0.0,0,29,0.0,16431,347148918299649,487,16.600000381469727,1082.097722854973,0.14999,16,0.0,0.0,1575420030,,,,0,0.0,6,6.0,16.600000381469727,0.0,0.0,24.500410203308228,66.7128,C,27615056000000,
Raw,1732148731000,11600000000,,700817.9555337579,-1416183937400999936,0.0,96.14461050806693,2136.515575767561,0.0,0,27,0.0,16431,347148918152448,487,18.200000762939453,930.9133023236338,0.14999,16,0.0,0.0,1575420030,,,,0,1.179661260288463,6,6.0,18.200000762939453,0.0,0.0,24.500410203308228,66.7128,C,27615056000000,
Raw,1732148731000,11600000000,,700817.9555337579,-1416183937400999936,0.0,96.14461050806693,2136.515575767561,0.0,0,19,0.0,16431,347148921000875,797,14.300000190734863,649.5185313849488,0.14999,16,0.0,0.0,1575420030,,,,0,0.0,6,6.0,14.300000190734863,0.0,0.0,24.500410203308228,66.7128,C,27615056000000,
Raw,1732148731000,11600000000,,700817.9555337579,-1416183937400999936,0.0,96.14461050806693,2136.515575767561,0.0,0,21,0.0,16431,347148920909565,487,17.084999084472656,549.9300381039578,0.14999,16,0.0,0.0,1575420030,,,,0,0.0,6,6.0,17.084999084472656,0.0,0.0,24.500410203308228,66.7128,C,27615056000000,
Raw,1732148731000,11600000000,,700817.9555337579,-1416183937400999936,0.0,96.14461050806693,2136.515575767561,0.0,0,17,0.0,16431,347148932262080,487,23.714000701904297,385.0613143070127,0.14999,16,0.0,0.0,1575420030,,,,0,8.20304115908467,1,6.0,23.714000701904297,0.0,0.0,0.0,66.7128,C,27615056000000,
Raw,1732148731000,11600000000,,700817.9555337579,-1416183937400999936,0.0,96.14461050806693,2136.515575767561,0.0,0,16,0.0,17,675477,316,5.0,1133.9088775691773,0.14999,16,0.0,0.0,1601437440,,,,0,12.441373387116233,3,6.0,26.0,0.0,0.0,48.921305221004715,66.7128,C,27615056000000,
Raw,1732148731000,11600000000,,700817.9555337579,-1416183937400999936,0.0,96.14461050806693,2136.515575767561,0.0,0,8,0.0,17,474752,396,5.0,824.9643218100691,0.14999,16,0.0,0.0,1605374980,,,,0,0.6796158808873498,3,6.0,21.0,0.0,0.0,48.921305221004715,66.7128,C,27615056000000,
Raw,1732148731000,11600000000,,700817.9555337579,-1416183937400999936,0.0,96.14461050806693,2136.515575767561,0.0,0,9,0.0,17,516719,487,5.0,862.7473023350743,0.14999,16,0.0,0.0,1600875010,,,,0,4.356306332571975,3,6.0,20.0,0.0,0.0,48.921305221004715,66.7128,C,27615056000000,
Raw,1732148731000,11600000000,,700817.9555337579,-1416183937400999936,0.0,96.14461050806693,2136.515575767561,0.0,0,18,0.0,17,183780,797,5.0,1221.9092889813537,0.14999,16,0.0,0.0,1600312450,,,,0,0.0,3,6.0,17.0,0.0,0.0,48.921305221004715,66.7128,C,27615056000000,
Raw,1732148731000,11600000000,,700817.9555337579,-1416183937400999936,0.0,96.14461050806693,2136.515575767561,0.0,0,22,0.0,16431,347148931441958,487,23.152000427246094,619.5848163195044,0.14999,16,0.0,0.0,1575420030,,,,0,7.350800290705372,1,6.0,23.152000427246094,0.0,0.0,0.0,66.7128,C,27615056000000,
Raw,1732148731000,11600000000,,700817.9555337579,-1416183937400999936,0.0,96.14461050806693,2136.515575767561,0.0,0,14,0.0,16431,347148932566087,487,22.18000030517578,758.6725338131923,0.14999,16,0.0,0.0,1575420030,,,,0,5.856262198277877,1,6.0,22.18000030517578,0.0,0.0,0.0,66.7128,C,27615056000000,
Status,1732148731000,28,0,1,14,1575420030,26.20,14.0,68.0,1,0,0,21.2
Status,1732148731000,28,1,1,22,1575420030,27.10,309.0,68.0,1,0,0,22.1
Status,1732148731000,28,2,1,17,1575420030,0.00,168.0,64.0,0,0,0,0.0
Status,1732148731000,28,3,1,30,1575420030,29.90,108.0,58.0,1,0,0,24.9
Status,1732148731000,28,4,1,13,1575420030,32.40,276.0,56.0,1,0,0,27.400002
Status,1732148731000,28,5,1,19,1575420030,24.10,194.0,35.0,1,0,0,19.1
Status,1732148731000,28,6,1,15,1575420030,25.30,302.0,27.0,1,0,0,20.3
Status,1732148731000,28,7,1,7,1575420030,32.00,118.0,24.0,1,0,0,27.0
Status,1732148731000,28,8,2,131,1575420030,32.00,3.0,23.0,0,0,0,27.0
Status,1732148731000,28,9,1,2,1575420030,32.70,70.0,21.0,1,0,0,27.7
Status,1732148731000,28,10,1,21,1575420030,29.90,52.0,13.0,1,0,0,24.9
Status,1732148731000,28,11,3,9,1602000000,27.70,47.0,46.0,1,0,0,22.7
Status,1732148731000,28,12,3,8,1602000000,24.50,276.0,38.0,1,0,0,19.5
Status,1732148731000,28,13,3,19,1602000000,0.00,61.0,36.0,0,0,0,0.0
Status,1732148731000,28,14,3,20,1602000000,0.00,140.0,29.0,0,0,0,0.0
Status,1732148731000,28,15,3,11,1602000000,0.00,288.0,12.0,0,0,0,0.0
Status,1732148731000,28,16,3,18,1602000000,21.10,25.0,11.0,1,0,0,16.1
Status,1732148731000,28,17,3,16,1602000000,24.70,83.0,3.0,0,0,0,19.7
Status,1732148731000,28,18,6,21,1575420030,22.20,296.0,64.0,1,0,0,17.2
Status,1732148731000,28,19,6,19,1575420030,18.00,274.0,54.0,1,0,0,13.0
Status,1732148731000,28,20,6,27,1575420030,22.80,48.0,47.0,1,0,0,17.8
Status,1732148731000,28,21,6,29,1575420030,21.30,196.0,45.0,1,0,0,16.3
Status,1732148731000,28,22,6,15,1575420030,0.00,82.0,19.0,0,0,0,0.0
Status,1732148731000,28,23,6,13,1575420030,0.00,134.0,12.0,0,0,0,0.0
Status,1732148731000,28,24,6,4,1575420030,0.00,323.0,11.0,0,0,0,0.0
Status,1732148731000,28,25,6,34,1575420030,0.00,35.0,5.0,0,0,0,0.0
Status,1732148731000,28,26,6,7,1575420030,0.00,162.0,3.0,0,0,0,0.0
Status,1732148731000,28,27,6,30,1575420030,0.00,67.0,1.0,0,0,0,0.0
Fix,GPS,37.4243833333,-122.1707533333,3.400000000000002,0.0,2.7,268.28,1732148732000,2.5,139.8,27616056000000,36.2,0,,,
Raw,1732148732000,12600000000,,700743.2684480675,-1416183937400999936,0.0,95.1427882903873,2130.5703338522103,0.0,0,13,0.0,16431,347149931402288,235,27.406999588012695,616.4616957481672,0.14999,16,0.0,0.0,1575420030,,,,0,13.296456774101856,1,6.0,27.406999588012695,0.0,0.0,0.0,66.7128,C,27616056000000,
Raw,1732148732000,12600000000,,700743.2684480675,-1416183937400999936,0.0,95.1427882903873,2130.5703338522103,0.0,0,15,0.0,16431,347149925200394,487,20.27899932861328,407.1479938116242,0.14999,16,0.0,0.0,1575420030,,,,0,2.732862718830304,1,6.0,20.27899932861328,0.0,0.0,0.0,66.7128,C,27616056000000,
Raw,1732148732000,12600000000,,700743.2684480675,-1416183937400999936,0.0,95.1427882903873,2130.5703338522103,0.0,0,30,0.0,16431,347149930754302,396,24.93199920654297,904.0664702648825,0.14999,16,0.0,0.0,1575420030,,,,0,9.96079151849576,1,6.0,24.93199920654297,0.0,0.0,0.0,66.7128,C,27616056000000,
Raw,1732148732000,12600000000,,700743.2684480675,-1416183937400999936,0.0,95.1427882903873,2130.5703338522103,0.0,0,19,0.0,16431,347149925851002,487,19.06800079345703,16.69162623453841,0.14999,16,0.0,0.0,1575420030,,,,0,0.6796158808873498,1,6.0,19.06800079345703,0.0,0.0,0.0,66.7128,C,27616056000000,
Raw,1732148732000,12600000000,,700743.2684480675,-1416183937400999936,0.0,95.1427882903873,2130.5703338522103,0.0,0,2,0.0,16431,347149921178621,316,27.680999755859375,641.1419395669401,0.14999,16,0.0,0.0,1575420030,,,,0,13.650429951042018,1,6.0,27.680999755859375,0.0,0.0,0.0,66.7128,C,27616056000000,
Raw,1732148732000,12600000000,,700743.2684480675,-1416183937400999936,0.0,95.1427882903873,2130.5703338522103,0.0,0,7,0.0,16431,347149923643872,396,26.989999771118164,1126.2116615498626,0.14999,16,0.0,0.0,1575420030,,,,0,12.736885813118617,1,6.0,26.989999771118164,0.0,0.0,0.0,66.7128,C,27616056000000,
Raw,1732148732000,12600000000,,700743.2684480675,-1416183937400999936,0.0,95.1427882903873,2130.5703338522103,0.0,0,21,0.0,16431,347149919691090,316,24.93199920654297,875.6048365754853,0.14999,16,0.0,0.0,1575420030,,,,0,9.96079151849576,1,6.0,24.93199920654297,0.0,0.0,0.0,66.7128,C,27616056000000,
Raw,1732148732000,12600000000,,700743.2684480675,-1416183937400999936,0.0,95.1427882903873,2130.5703338522103,0.0,0,29,0.0,16431,347149918296040,797,16.299999237060547,1081.6673320871985,0.14999,16,0.0,0.0,1575420030,,,,0,0.0,6,6.0,16.299999237060547,0.0,0.0,27.254689230381153,66.7128,C,27616056000000,
Raw,1732148732000,12600000000,,700743.2684480675,-1416183937400999936,0.0,95.1427882903873,2130.5703338522103,0.0,0,27,0.0,16431,347149918149346,487,17.799999237060547,929.5717690971383,0.14999,16,0.0,0.0,1575420030,,,,0,0.5499733303289425,6,6.0,17.799999237060547,0.0,0.0,27.254689230381153,66.7128,C,27616056000000,
Raw,1732148732000,12600000000,,700743.2684480675,-1416183937400999936,0.0,95.1427882903873,2130.5703338522103,0.0,0,19,0.0,16431,347149920998760,797,13.0,648.4179315049212,0.14999,16,0.0,0.0,1575420030,,,,0,0.0,6,6.0,13.0,0.0,0.0,27.254689230381153,66.7128,C,27616056000000,
Raw,1732148732000,12600000000,,700743.2684480675,-1416183937400999936,0.0,95.1427882903873,2130.5703338522103,0.0,0,21,0.0,16431,347149920907733,396,17.174999237060547,547.01375040159,0.14999,16,0.0,0.0,1575420030,,,,0,2.527269933938893,6,6.0,17.174999237060547,0.0,0.0,27.254689230381153,66.7128,C,27616056000000,
Raw,1732148732000,12600000000,,700743.2684480675,-1416183937400999936,0.0,95.1427882903873,2130.5703338522103,0.0,0,16,0.0,17,671694,487,5.0,1133.340232918492,0.14999,16,0.0,0.0,1601437440,,,,0,3.825198283898396,3,6.0,20.0,0.0,0.0,49.73754063359762,66.7128,C,27616056000000,
Raw,1732148732000,12600000000,,700743.2684480675,-1416183937400999936,0.0,95.1427882903873,2130.5703338522103,0.0,0,8,0.0,17,472007,487,5.0,824.7837793128066,0.14999,16,0.0,0.0,1605374980,,,,0,3.3686502906402596,3,6.0,20.0,0.0,0.0,49.73754063359762,66.7128,C,27616056000000,
Raw,1732148732000,12600000000,,700743.2684480675,-1416183937400999936,0.0,95.1427882903873,2130.5703338522103,0.0,0,9,0.0,17,513848,316,5.0,857.7345948839611,0.14999,16,0.0,0.0,1600875010,,,,0,8.170121685091368,3,6.0,26.0,0.0,0.0,49.73754063359762,66.7128,C,27616056000000,
Raw,1732148732000,12600000000,,700743.2684480675,-1416183937400999936,0.0,95.1427882903873,2130.5703338522103,0.0,0,18,0.0,17,179705,797,5.0,1219.3052774069713,0.14999,16,0.0,0.0,1600312450,,,,0,0.0,3,6.0,16.0,0.0,0.0,49.73754063359762,66.7128,C,27616056000000,
Raw,1732148732000,12600000000,,700743.2684480675,-1416183937400999936,0.0,95.1427882903873,2130.5703338522103,0.0,0,22,0.0,16431,347149931439928,396,22.052000045776367,618.4155509003176,0.14999,16,0.0,0.0,1575420030,,,,0,5.640898529949982,1,6.0,22.052000045776367,0.0,0.0,0.0,66.7128,C,27616056000000,
Raw,1732148732000,12600000000,,700743.2684480675,-1416183937400999936,0.0,95.1427882903873,2130.5703338522103,0.0,0,14,0.0,16431,347149932563562,487,21.249000549316406,756.6676673200427,0.14999,16,0.0,0.0,1575420030,,,,0,4.392347420125583,1,6.0,21.249000549316406,0.0,0.0,0.0,66.7128,C,27616056000000,
Fix,FLP,37.4243834000,-122.1707542000,2.0,0.00070912176,2.5,,1732148732208,2.5,,27616056000000,0.8463254,0,,,
Status,1732148732000,28,0,1,14,1575420030,26.50,14.0,68.0,1,0,0,21.5
Status,1732148732000,28,1,1,22,1575420030,0.00,309.0,68.0,0,0,0,0.0
Status,1732148732000,28,2,1,17,1575420030,27.70,167.0,64.0,1,0,0,22.7
Status,1732148732000,28,3,1,30,1575420030,29.60,108.0,58.0,1,0,0,24.6
Status,1732148732000,28,4,1,13,1575420030,33.20,276.0,56.0,1,0,0,28.2
Status,1732148732000,28,5,1,19,1575420030,27.90,194.0,35.0,1,0,0,22.9
Status,1732148732000,28,6,1,15,1575420030,25.20,302.0,27.0,1,0,0,20.2
Status,1732148732000,28,7,1,7,1575420030,30.40,118.0,24.0,1,0,0,25.4
Status,1732148732000,28,8,2,131,1575420030,28.00,3.0,23.0,0,0,0,23.0
Status,1732148732000,28,9,1,2,1575420030,32.40,70.0,21.0,1,0,0,27.400002
Status,1732148732000,28,10,1,21,1575420030,33.70,52.0,13.0,1,0,0,28.7
Status,1732148732000,28,11,3,9,1602000000,24.70,47.0,46.0,1,0,0,19.7
Status,1732148732000,28,12,3,8,1602000000,22.70,276.0,38.0,1,0,0,17.7
Status,1732148732000,28,13,3,19,1602000000,0.00,61.0,36.0,0,0,0,0.0
Status,1732148732000,28,14,3,20,1602000000,0.00,140.0,29.0,0,0,0,0.0
Status,1732148732000,28,15,3,11,1602000000,0.00,288.0,12.0,0,0,0,0.0
Status,1732148732000,28,16,3,18,1602000000,21.80,25.0,11.0,1,0,0,16.8
Status,1732148732000,28,17,3,16,1602000000,0.00,83.0,3.0,0,0,0,0.0
Status,1732148732000,28,18,6,21,1575420030,28.50,296.0,64.0,1,0,0,23.5
Status,1732148732000,28,19,6,19,1575420030,18.00,274.0,54.0,1,0,0,13.0
Status,1732148732000,28,20,6,27,1575420030,21.60,48.0,47.0,1,0,0,16.6
Status,1732148732000,28,21,6,29,1575420030,18.90,196.0,45.0,1,0,0,13.9
Status,1732148732000,28,22,6,15,1575420030,0.00,82.0,19.0,0,0,0,0.0
Status,1732148732000,28,23,6,13,1575420030,0.00,134.0,12.0,0,0,0,0.0
Status,1732148732000,28,24,6,4,1575420030,0.00,323.0,11.0,0,0,0,0.0
Status,1732148732000,28,25,6,34,1575420030,0.00,35.0,5.0,0,0,0,0.0
Status,1732148732000,28,26,6,7,1575420030,0.00,162.0,3.0,0,0,0,0.0
Status,1732148732000,28,27,6,30,1575420030,0.00,67.0,1.0,0,0,0,0.0
Fix,GPS,37.4243866667,-122.1707566667,3.5,0.0,2.7,268.28,1732148733000,2.6,164.6,27617056000000,34.4,0,,,
Fix,FLP,37.4243850000,-122.1707554000,2.0,0.000867002,2.55,,1732148733208,2.6,,27617056000000,0.8563389,0,,,
Raw,1732148733000,13600000000,,700498.7763901652,-1416183937400999936,0.0,90.77201884558039,2124.789869456355,0.0,0,13,0.0,16431,347150931400234,316,28.16200065612793,615.0537269864907,0.14999,16,0.0,0.0,1575420030,,,,0,14.264134803692581,1,6.0,28.16200065612793,0.0,0.0,0.0,66.7128,C,27617056000000,
Raw,1732148733000,13600000000,,700498.7763901652,-1416183937400999936,0.0,90.77201884558039,2124.789869456355,0.0,0,15,0.0,16431,347150925199038,487,20.224000930786133,405.7308262835379,0.14999,16,0.0,0.0,1575420030,,,,0,2.6306746032606982,1,6.0,20.224000930786133,0.0,0.0,0.0,66.7128,C,27617056000000,
Raw,1732148733000,13600000000,,700498.7763901652,-1416183937400999936,0.0,90.77201884558039,2124.789869456355,0.0,0,30,0.0,16431,347150930751284,396,24.576000213623047,902.3179613123826,0.14999,16,0.0,0.0,1575420030,,,,0,9.460418703288145,1,6.0,24.576000213623047,0.0,0.0,0.0,66.7128,C,27617056000000,
Raw,1732148733000,13600000000,,700498.7763901652,-1416183937400999936,0.0,90.77201884558039,2124.789869456355,0.0,0,19,0.0,16431,347150925850956,396,22.93000030517578,14.497999196325424,0.14999,16,0.0,0.0,1575420030,,,,0,6.985024576459178,1,6.0,22.93000030517578,0.0,0.0,0.0,66.7128,C,27617056000000,
Raw,1732148733000,13600000000,,700498.7763901652,-1416183937400999936,0.0,90.77201884558039,2124.789869456355,0.0,0,7,0.0,16431,347150923640109,316,25.382999420166016,1124.7867819246856,0.14999,16,0.0,0.0,1575420030,,,,0,10.558582427700593,1,6.0,25.382999420166016,0.0,0.0,0.0,66.7128,C,27617056000000,
Raw,1732148733000,13600000000,,700498.7763901652,-1416183937400999936,0.0,90.77201884558039,2124.789869456355,0.0,0,21,0.0,16431,347150919688178,235,28.691999435424805,873.8338417495395,0.14999,16,0.0,0.0,1575420030,,,,0,14.937596072947416,1,6.0,28.691999435424805,0.0,0.0,0.0,66.7128,C,27617056000000,
Raw,1732148733000,13600000000,,700498.7763901652,-1416183937400999936,0.0,90.77201884558039,2124.789869456355,0.0,0,29,0.0,16431,347150918292435,487,13.899999618530273,1079.4375139427575,0.14999,16,0.0,0.0,1575420030,,,,0,0.0,6,6.0,13.899999618530273,0.0,0.0,24.86818823356068,66.7128,C,27617056000000,
Raw,1732148733000,13600000000,,700498.7763901652,-1416183937400999936,0.0,90.77201884558039,2124.789869456355,0.0,0,27,0.0,16431,347150918146250,396,16.600000381469727,927.3557026438956,0.14999,16,0.0,0.0,1575420030,,,,0,0.0,6,6.0,16.600000381469727,0.0,0.0,24.86818823356068,66.7128,C,27617056000000,
Raw,1732148733000,13600000000,,700498.7763901652,-1416183937400999936,0.0,90.77201884558039,2124.789869456355,0.0,0,19,0.0,16431,347150920996601,797,13.0,646.0836283824226,0.14999,16,0.0,0.0,1575420030,,,,0,0.0,6,6.0,13.0,0.0,0.0,24.86818823356068,66.7128,C,27617056000000,
Raw,1732148733000,13600000000,,700498.7763901652,-1416183937400999936,0.0,90.77201884558039,2124.789869456355,0.0,0,21,0.0,16431,347150920905913,316,23.5,545.2216634546846,0.14999,16,0.0,0.0,1575420030,,,,0,9.126304833231092,6,6.0,23.5,0.0,0.0,24.86818823356068,66.7128,C,27617056000000,
Raw,1732148733000,13600000000,,700498.7763901652,-1416183937400999936,0.0,90.77201884558039,2124.789869456355,0.0,0,8,0.0,17,469253,797,5.0,822.8879007253903,0.14999,16,0.0,0.0,1605374980,,,,0,0.3013213985971124,3,6.0,17.0,0.0,0.0,46.85440756797446,66.7128,C,27617056000000,
Raw,1732148733000,13600000000,,700498.7763901652,-1416183937400999936,0.0,90.77201884558039,2124.789869456355,0.0,0,9,0.0,17,511025,487,5.0,857.6287080684123,0.14999,16,0.0,0.0,1600875010,,,,0,3.780871481171485,3,6.0,20.0,0.0,0.0,46.85440756797446,66.7128,C,27617056000000,
Raw,1732148733000,13600000000,,700498.7763901652,-1416183937400999936,0.0,90.77201884558039,2124.789869456355,0.0,0,18,0.0,17,175650,797,5.0,1220.1847761876263,0.14999,16,0.0,0.0,1600312450,,,,0,0.0,3,6.0,16.0,0.0,0.0,46.85440756797446,66.7128,C,27617056000000,
Raw,1732148733000,13600000000,,700498.7763901652,-1416183937400999936,0.0,90.77201884558039,2124.789869456355,0.0,0,14,0.0,16431,347150932561039,487,21.479000091552734,754.7386209621487,0.14999,16,0.0,0.0,1575420030,,,,0,4.721709709299334,1,6.0,21.479000091552734,0.0,0.0,0.0,66.7128,C,27617056000000,
Raw,1732148733000,13600000000,,700498.7763901652,-1416183937400999936,0.0,90.77201884558039,2124.789869456355,0.0,0,17,0.0,16431,347150932259556,487,22.70199966430664,380.5100155629473,0.14999,16,0.0,0.0,1575420030,,,,0,6.667986111035388,1,6.0,22.70199966430664,0.0,0.0,0.0,66.7128,C,27617056000000,
Raw,1732148733000,13600000000,,700498.7763901652,-1416183937400999936,0.0,90.77201884558039,2124.789869456355,0.0,0,2,0.0,16431,347150921176454,235,27.38599967956543,640.0191325639638,0.14999,16,0.0,0.0,1575420030,,,,0,13.266297404779836,1,6.0,27.38599967956543,0.0,0.0,0.0,66.7128,C,27617056000000,
Status,1732148733000,28,0,1,14,1575420030,28.40,14.0,68.0,1,0,0,23.4
Status,1732148733000,28,1,1,22,1575420030,0.00,309.0,68.0,0,0,0,0.0
Status,1732148733000,28,2,1,17,1575420030,0.00,167.0,64.0,0,0,0,0.0
Status,1732148733000,28,3,1,30,1575420030,27.80,108.0,58.0,1,0,0,22.8
Status,1732148733000,28,4,1,13,1575420030,33.30,276.0,56.0,1,0,0,28.3
Status,1732148733000,28,5,1,19,1575420030,27.90,194.0,35.0,1,0,0,22.9
Status,1732148733000,28,6,1,15,1575420030,25.00,302.0,27.0,1,0,0,20.0
Status,1732148733000,28,7,1,7,1575420030,28.80,118.0,24.0,1,0,0,23.8
Status,1732148733000,28,8,2,131,1575420030,31.00,3.0,23.0,0,0,0,26.0
Status,1732148733000,28,9,1,2,1575420030,34.20,70.0,21.0,1,0,0,29.2
Status,1732148733000,28,10,1,21,1575420030,35.10,52.0,13.0,1,0,0,30.099998
Status,1732148733000,28,11,3,9,1602000000,30.70,47.0,46.0,1,0,0,25.7
Status,1732148733000,28,12,3,8,1602000000,20.80,276.0,38.0,1,0,0,15.799999
Status,1732148733000,28,13,3,19,1602000000,0.00,61.0,36.0,0,0,0,0.0
Status,1732148733000,28,14,3,20,1602000000,0.00,140.0,29.0,0,0,0,0.0
Status,1732148733000,28,15,3,11,1602000000,0.00,288.0,12.0,0,0,0,0.0
Status,1732148733000,28,16,3,18,1602000000,19.20,25.0,11.0,1,0,0,14.200001
Status,1732148733000,28,17,3,16,1602000000,21.60,83.0,3.0,0,0,0,16.6
Status,1732148733000,28,18,6,21,1575420030,25.80,296.0,64.0,1,0,0,20.8
Status,1732148733000,28,19,6,19,1575420030,18.00,274.0,54.0,1,0,0,13.0
Status,1732148733000,28,20,6,27,1575420030,29.10,48.0,47.0,1,0,0,24.1
Status,1732148733000,28,21,6,29,1575420030,18.90,196.0,45.0,1,0,0,13.9
Status,1732148733000,28,22,6,15,1575420030,0.00,82.0,19.0,0,0,0,0.0
Status,1732148733000,28,23,6,13,1575420030,0.00,134.0,12.0,0,0,0,0.0
Status,1732148733000,28,24,6,4,1575420030,0.00,323.0,11.0,0,0,0,0.0
Status,1732148733000,28,25,6,34,1575420030,0.00,35.0,5.0,0,0,0,0.0
Status,1732148733000,28,26,6,7,1575420030,0.00,162.0,3.0,0,0,0,0.0
Status,1732148733000,28,27,6,30,1575420030,0.00,67.0,1.0,0,0,0,0.0
Fix,GPS,37.4243933333,-122.1707650000,3.5,0.0,2.7,268.28,1732148734000,2.5,179.9,27618056000000,35.6,0,,,
Fix,FLP,37.4243890000,-122.1707601000,2.0,0.007507374,2.6,,1732148734208,2.5,,27618056000000,0.86655414,0,,,
Raw,1732148734000,14600000000,,700227.4949658674,-1416183937400999936,0.0,94.7672831012033,2119.6586806937576,0.0,0,13,0.0,16431,347151931398184,316,28.29800033569336,615.2458325375212,0.14999,16,0.0,0.0,1575420030,,,,0,14.424247902182843,1,6.0,28.29800033569336,0.0,0.0,0.0,66.7128,C,27618056000000,
Raw,1732148734000,14600000000,,700227.4949658674,-1416183937400999936,0.0,94.7672831012033,2119.6586806937576,0.0,0,15,0.0,16431,347151925197683,487,19.993999481201172,405.09843432208004,0.14999,16,0.0,0.0,1575420030,,,,0,2.209458031624222,1,6.0,19.993999481201172,0.0,0.0,0.0,66.7128,C,27618056000000,
Raw,1732148734000,14600000000,,700227.4949658674,-1416183937400999936,0.0,94.7672831012033,2119.6586806937576,0.0,0,30,0.0,16431,347151930748275,396,22.77899932861328,901.2646561000573,0.14999,16,0.0,0.0,1575420030,,,,0,6.796193451802349,1,6.0,22.77899932861328,0.0,0.0,0.0,66.7128,C,27618056000000,
Raw,1732148734000,14600000000,,700227.4949658674,-1416183937400999936,0.0,94.7672831012033,2119.6586806937576,0.0,0,19,0.0,16431,347151925850910,487,22.895999908447266,13.809299634420404,0.14999,16,0.0,0.0,1575420030,,,,0,5.996927452901955,1,6.0,22.895999908447266,0.0,0.0,0.0,66.7128,C,27618056000000,
Raw,1732148734000,14600000000,,700227.4949658674,-1416183937400999936,0.0,94.7672831012033,2119.6586806937576,0.0,0,14,0.0,16431,347151932558539,396,23.437000274658203,754.8182506875337,0.14999,16,0.0,0.0,1575420030,,,,0,7.758937297922944,1,6.0,23.437000274658203,0.0,0.0,0.0,66.7128,C,27618056000000,
Raw,1732148734000,14600000000,,700227.4949658674,-1416183937400999936,0.0,94.7672831012033,2119.6586806937576,0.0,0,21,0.0,16431,347151919685261,396,30.05699920654297,873.1894635166993,0.14999,16,0.0,0.0,1575420030,,,,0,16.610074689981076,1,6.0,30.05699920654297,0.0,0.0,0.0,66.7128,C,27618056000000,
Raw,1732148734000,14600000000,,700227.4949658674,-1416183937400999936,0.0,94.7672831012033,2119.6586806937576,0.0,0,29,0.0,16431,347151918288838,316,13.899999618530273,1078.064388993239,0.14999,16,0.0,0.0,1575420030,,,,0,0.0,6,6.0,13.899999618530273,0.0,0.0,25.225508712321705,66.7128,C,27618056000000,
Raw,1732148734000,14600000000,,700227.4949658674,-1416183937400999936,0.0,94.7672831012033,2119.6586806937576,0.0,0,27,0.0,16431,347151918143157,316,24.100000381469727,926.4806119161539,0.14999,16,0.0,0.0,1575420030,,,,0,10.004882423516433,6,6.0,24.100000381469727,0.0,0.0,25.225508712321705,66.7128,C,27618056000000,
Raw,1732148734000,14600000000,,700227.4949658674,-1416183937400999936,0.0,94.7672831012033,2119.6586806937576,0.0,0,19,0.0,16431,347151920994449,797,13.0,644.2841545473399,0.14999,16,0.0,0.0,1575420030,,,,0,0.0,6,6.0,13.0,0.0,0.0,25.225508712321705,66.7128,C,27618056000000,
Raw,1732148734000,14600000000,,700227.4949658674,-1416183937400999936,0.0,94.7672831012033,2119.6586806937576,0.0,0,21,0.0,16431,347151920904094,396,20.799999237060547,545.5721457465769,0.14999,16,0.0,0.0,1575420030,,,,0,5.494297756421953,6,6.0,20.799999237060547,0.0,0.0,25.225508712321705,66.7128,C,27618056000000,
Raw,1732148734000,14600000000,,700227.4949658674,-1416183937400999936,0.0,94.7672831012033,2119.6586806937576,0.0,0,16,0.0,17,664165,487,5.0,1126.8724370346777,0.14999,16,0.0,0.0,1601437440,,,,0,0.0,3,6.0,19.0,0.0,0.0,39.759924788950215,66.7128,C,27618056000000,
Raw,1732148734000,14600000000,,700227.4949658674,-1416183937400999936,0.0,94.7672831012033,2119.6586806937576,0.0,0,8,0.0,17,466519,487,5.0,821.4012517984359,0.14999,16,0.0,0.0,1605374980,,,,0,0.0,3,6.0,18.0,0.0,0.0,39.759924788950215,66.7128,C,27618056000000,
Raw,1732148734000,14600000000,,700227.4949658674,-1416183937400999936,0.0,94.7672831012033,2119.6586806937576,0.0,0,9,0.0,17,508160,316,5.0,856.8584226330205,0.14999,16,0.0,0.0,1600875010,,,,0,11.997571264035965,3,6.0,26.0,0.0,0.0,39.759924788950215,66.7128,C,27618056000000,
Raw,1732148734000,14600000000,,700227.4949658674,-1416183937400999936,0.0,94.7672831012033,2119.6586806937576,0.0,0,18,0.0,17,171577,797,5.0,1218.7811455283284,0.14999,16,0.0,0.0,1600312450,,,,0,0.0,3,6.0,17.0,0.0,0.0,39.759924788950215,66.7128,C,27618056000000,
Raw,1732148734000,14600000000,,700227.4949658674,-1416183937400999936,0.0,94.7672831012033,2119.6586806937576,0.0,0,2,0.0,16431,347151921174353,235,29.155000686645508,639.5646298781761,0.14999,16,0.0,0.0,1575420030,,,,0,15.516065965953086,1,6.0,29.155000686645508,0.0,0.0,0.0,66.7128,C,27618056000000,
Raw,1732148734000,14600000000,,700227.4949658674,-1416183937400999936,0.0,94.7672831012033,2119.6586806937576,0.0,0,7,0.0,16431,347151923636287,396,23.781999588012695,1124.482572215339,0.14999,16,0.0,0.0,1575420030,,,,0,8.310607730564715,1,6.0,23.781999588012695,0.0,0.0,0.0,66.7128,C,27618056000000,
Status,1732148734000,28,0,1,14,1575420030,32.80,14.0,68.0,1,0,0,27.8
Status,1732148734000,28,1,1,22,1575420030,0.00,309.0,68.0,0,0,0,0.0
Status,1732148734000,28,2,1,17,1575420030,29.30,167.0,64.0,1,0,0,24.3
Status,1732148734000,28,3,1,30,1575420030,33.80,108.0,58.0,1,0,0,28.8
Status,1732148734000,28,4,1,13,1575420030,32.70,276.0,56.0,1,0,0,27.7
Status,1732148734000,28,5,1,19,1575420030,28.00,194.0,35.0,1,0,0,23.0
Status,1732148734000,28,6,1,15,1575420030,26.00,302.0,27.0,1,0,0,21.0
Status,1732148734000,28,7,1,7,1575420030,32.30,118.0,24.0,1,0,0,27.3
Status,1732148734000,28,8,2,131,1575420030,32.00,3.0,23.0,0,0,0,27.0
Status,1732148734000,28,9,1,2,1575420030,33.80,70.0,21.0,1,0,0,28.8
Status,1732148734000,28,10,1,21,1575420030,29.40,52.0,13.0,1,0,0,24.4
Status,1732148734000,28,11,3,9,1602000000,26.90,47.0,46.0,1,0,0,21.9
Status,1732148734000,28,12,3,8,1602000000,20.90,276.0,38.0,1,0,0,15.9
Status,1732148734000,28,13,3,19,1602000000,0.00,61.0,36.0,0,0,0,0.0
Status,1732148734000,28,14,3,20,1602000000,0.00,140.0,29.0,0,0,0,0.0
Status,1732148734000,28,15,3,11,1602000000,0.00,288.0,12.0,0,0,0,0.0
Status,1732148734000,28,16,3,18,1602000000,22.20,25.0,11.0,1,0,0,17.2
Status,1732148734000,28,17,3,16,1602000000,21.60,83.0,3.0,0,0,0,16.6
Status,1732148734000,28,18,6,21,1575420030,24.20,296.0,64.0,1,0,0,19.2
Status,1732148734000,28,19,6,19,1575420030,18.00,274.0,54.0,1,0,0,13.0
Status,1732148734000,28,20,6,27,1575420030,27.80,48.0,47.0,1,0,0,22.8
Status,1732148734000,28,21,6,29,1575420030,26.80,196.0,45.0,1,0,0,21.8
Status,1732148734000,28,22,6,15,1575420030,0.00,82.0,19.0,0,0,0,0.0
Status,1732148734000,28,23,6,13,1575420030,0.00,134.0,12.0,0,0,0,0.0
Status,1732148734000,28,24,6,4,1575420030,0.00,323.0,11.0,0,0,0,0.0
Status,1732148734000,28,25,6,34,1575420030,0.00,35.0,5.0,0,0,0,0.0
Status,1732148734000,28,26,6,7,1575420030,0.00,162.0,3.0,0,0,0,0.0
Status,1732148734000,28,27,6,30,1575420030,0.00,67.0,1.0,0,0,0,0.0
Fix,GPS,37.4244000000,-122.1707716667,3.6000000000000014,0.0,2.7,268.28,1732148735000,2.7,179.9,27619056000000,35.6,0,,,
Raw,1732148735000,15600000000,,699870.5292646155,-1416183937400999936,0.0,95.0227075574167,2118.9888402579054,0.0,0,13,0.0,16431,347152931396131,316,27.701000213623047,615.0216706793053,0.14999,16,0.0,0.0,1575420030,,,,0,13.679286753790254,1,6.0,27.701000213623047,0.0,0.0,0.0,66.7128,C,27619056000000,
Raw,1732148735000,15600000000,,699870.5292646155,-1416183937400999936,0.0,95.0227075574167,2118.9888402579054,0.0,0,15,0.0,16431,347152925196328,487,20.954999923706055,404.952554895179,0.14999,16,0.0,0.0,1575420030,,,,0,3.873632738237588,1,6.0,20.954999923706055,0.0,0.0,0.0,66.7128,C,27619056000000,
Raw,1732148735000,15600000000,,699870.5292646155,-1416183937400999936,0.0,95.0227075574167,2118.9888402579054,0.0,0,30,0.0,16431,347152930745268,235,28.801000595092773,900.9933389493877,0.14999,16,0.0,0.0,1575420030,,,,0,15.061328786925216,1,6.0,28.801000595092773,0.0,0.0,0.0,66.7128,C,27619056000000,
Raw,1732148735000,15600000000,,699870.5292646155,-1416183937400999936,0.0,95.0227075574167,2118.9888402579054,0.0,0,19,0.0,16431,347152925850861,396,22.972999572753906,13.704350072200798,0.14999,16,0.0,0.0,1575420030,,,,0,9.271073011709477,1,6.0,22.972999572753906,0.0,0.0,0.0,66.7128,C,27619056000000,
Raw,1732148735000,15600000000,,699870.5292646155,-1416183937400999936,0.0,95.0227075574167,2118.9888402579054,0.0,0,14,0.0,16431,347152932556057,316,27.823999404907227,754.1794939230549,0.14999,16,0.0,0.0,1575420030,,,,0,13.822150001355528,1,6.0,27.823999404907227,0.0,0.0,0.0,66.7128,C,27619056000000,
Raw,1732148735000,15600000000,,699870.5292646155,-1416183937400999936,0.0,95.0227075574167,2118.9888402579054,0.0,0,21,0.0,16431,347152919682348,316,24.423999786376953,872.7395602141165,0.14999,16,0.0,0.0,1575420030,,,,0,9.223084549100385,1,6.0,24.423999786376953,0.0,0.0,0.0,66.7128,C,27619056000000,
Raw,1732148735000,15600000000,,699870.5292646155,-1416183937400999936,0.0,95.0227075574167,2118.9888402579054,0.0,0,29,0.0,16431,347152918285244,396,21.799999237060547,1078.0609510704394,0.14999,16,0.0,0.0,1575420030,,,,0,6.85959438759248,6,6.0,21.799999237060547,0.0,0.0,23.469108686900604,66.7128,C,27619056000000,
Raw,1732148735000,15600000000,,699870.5292646155,-1416183937400999936,0.0,95.0227075574167,2118.9888402579054,0.0,0,27,0.0,16431,347152918140064,396,22.799999237060547,926.8463325685633,0.14999,16,0.0,0.0,1575420030,,,,0,8.256990957609286,6,6.0,22.799999237060547,0.0,0.0,23.469108686900604,66.7128,C,27619056000000,
Raw,1732148735000,15600000000,,699870.5292646155,-1416183937400999936,0.0,95.0227075574167,2118.9888402579054,0.0,0,17,0.0,16431,347152932257017,396,24.301000595092773,380.3265048189157,0.14999,16,0.0,0.0,1575420030,,,,0,9.028434618743677,1,6.0,24.301000595092773,0.0,0.0,0.0,66.7128,C,27619056000000,
Raw,1732148735000,15600000000,,699870.5292646155,-1416183937400999936,0.0,95.0227075574167,2118.9888402579054,0.0,0,19,0.0,16431,347152920992299,797,13.0,643.8794552837298,0.14999,16,0.0,0.0,1575420030,,,,0,0.0,6,6.0,13.0,0.0,0.0,23.469108686900604,66.7128,C,27619056000000,
Raw,1732148735000,15600000000,,699870.5292646155,-1416183937400999936,0.0,95.0227075574167,2118.9888402579054,0.0,0,21,0.0,16431,347152920902275,487,19.200000762939453,545.7637867134454,0.14999,16,0.0,0.0,1575420030,,,,0,2.933701484713117,6,6.0,19.200000762939453,0.0,0.0,23.469108686900604,66.7128,C,27619056000000,
Raw,1732148735000,15600000000,,699870.5292646155,-1416183937400999936,0.0,95.0227075574167,2118.9888402579054,0.0,0,16,0.0,17,660397,797,5.0,1129.5770868609332,0.14999,16,0.0,0.0,1601437440,,,,0,0.0,3,6.0,17.0,0.0,0.0,36.23123300573353,66.7128,C,27619056000000,
Raw,1732148735000,15600000000,,699870.5292646155,-1416183937400999936,0.0,95.0227075574167,2118.9888402579054,0.0,0,8,0.0,17,463775,487,5.0,824.778308328041,0.14999,16,0.0,0.0,1605374980,,,,0,1.2674149900882141,3,6.0,18.0,0.0,0.0,36.23123300573353,66.7128,C,27619056000000,
Raw,1732148735000,15600000000,,699870.5292646155,-1416183937400999936,0.0,95.0227075574167,2118.9888402579054,0.0,0,9,0.0,17,505302,487,5.0,856.3921731749172,0.14999,16,0.0,0.0,1600875010,,,,0,7.020531584057771,3,6.0,20.0,0.0,0.0,36.23123300573353,66.7128,C,27619056000000,
Raw,1732148735000,15600000000,,699870.5292646155,-1416183937400999936,0.0,95.0227075574167,2118.9888402579054,0.0,0,18,0.0,17,167568,487,5.0,1215.9596146507324,0.14999,16,0.0,0.0,1600312450,,,,0,0.0,3,6.0,18.0,0.0,0.0,36.23123300573353,66.7128,C,27619056000000,
Raw,1732148735000,15600000000,,699870.5292646155,-1416183937400999936,0.0,95.0227075574167,2118.9888402579054,0.0,0,2,0.0,16431,347152921172213,235,28.801000595092773,640.2866865829203,0.14999,16,0.0,0.0,1575420030,,,,0,15.061328786925216,1,6.0,28.801000595092773,0.0,0.0,0.0,66.7128,C,27619056000000,
Raw,1732148735000,15600000000,,699870.5292646155,-1416183937400999936,0.0,95.0227075574167,2118.9888402579054,0.0,0,7,0.0,16431,347152923632574,316,27.32200050354004,1124.8170728120547,0.14999,16,0.0,0.0,1575420030,,,,0,13.17518583888865,1,6.0,27.32200050354004,0.0,0.0,0.0,66.7128,C,27619056000000,
Fix,FLP,37.4243942000,-122.1707658000,2.0,0.016116751,2.65,,1732148735208,2.7,,27619056000000,0.8765509,0,,,
Status,1732148735000,28,0,1,14,1575420030,33.20,14.0,68.0,1,0,0,28.2
Status,1732148735000,28,1,1,22,1575420030,0.00,309.0,68.0,0,0,0,0.0
Status,1732148735000,28,2,1,17,1575420030,32.10,167.0,64.0,1,0,0,27.099998
Status,1732148735000,28,3,1,30,1575420030,37.50,108.0,58.0,1,0,0,32.5
Status,1732148735000,28,4,1,13,1575420030,30.80,276.0,56.0,1,0,0,25.8
Status,1732148735000,28,5,1,19,1575420030,27.90,194.0,35.0,1,0,0,22.9
Status,1732148735000,28,6,1,15,1575420030,26.00,302.0,27.0,1,0,0,21.0
Status,1732148735000,28,7,1,7,1575420030,31.10,118.0,24.0,1,0,0,26.1
Status,1732148735000,28,8,2,131,1575420030,30.00,3.0,23.0,0,0,0,25.0
Status,1732148735000,28,9,1,2,1575420030,26.20,70.0,21.0,1,0,0,21.2
Status,1732148735000,28,10,1,21,1575420030,31.60,52.0,13.0,1,0,0,26.6
Status,1732148735000,28,11,3,9,1602000000,29.00,47.0,46.0,1,0,0,24.0
Status,1732148735000,28,12,3,8,1602000000,21.00,276.0,38.0,1,0,0,16.0
Status,1732148735000,28,13,3,19,1602000000,0.00,61.0,36.0,0,0,0,0.0
Status,1732148735000,28,14,3,20,1602000000,0.00,140.0,29.0,0,0,0,0.0
Status,1732148735000,28,15,3,11,1602000000,0.00,288.0,12.0,0,0,0,0.0
Status,1732148735000,28,16,3,18,1602000000,22.20,25.0,11.0,1,0,0,17.2
Status,1732148735000,28,17,3,16,1602000000,21.60,83.0,3.0,0,0,0,16.6
Status,1732148735000,28,18,6,21,1575420030,23.20,296.0,64.0,1,0,0,18.2
Status,1732148735000,28,19,6,19,1575420030,21.30,274.0,54.0,1,0,0,16.3
Status,1732148735000,28,20,6,27,1575420030,28.20,48.0,47.0,1,0,0,23.2
Status,1732148735000,28,21,6,29,1575420030,23.60,196.0,45.0,1,0,0,18.6
Status,1732148735000,28,22,6,15,1575420030,0.00,82.0,19.0,0,0,0,0.0
Status,1732148735000,28,23,6,13,1575420030,0.00,134.0,12.0,0,0,0,0.0
Status,1732148735000,28,24,6,4,1575420030,0.00,323.0,11.0,0,0,0,0.0
Status,1732148735000,28,25,6,34,1575420030,0.00,35.0,5.0,0,0,0,0.0
Status,1732148735000,28,26,6,7,1575420030,0.00,162.0,3.0,0,0,0,0.0
Status,1732148735000,28,27,6,30,1575420030,0.00,67.0,1.0,0,0,0,0.0
Fix,GPS,37.4244066667,-122.1707850000,3.5,0.0,2.7,268.28,1732148736000,2.4,168.8,27620056000000,38.4,0,,,
Fix,FLP,37.4244002000,-122.1707752000,2.0,0.031206543,2.683,,1732148736208,2.4,,27620056000000,0.88654983,0,,,
Raw,1732148736000,16600000000,,699598.6745270289,-1416183937400999936,0.0,102.58241128780853,2119.861339830496,0.0,0,13,0.0,16431,347153931394080,316,25.809999465942383,615.8784103326439,0.14999,16,0.0,0.0,1575420030,,,,0,11.156471348546438,1,6.0,25.809999465942383,0.0,0.0,0.0,66.7128,C,27620056000000,
Raw,1732148736000,16600000000,,699598.6745270289,-1416183937400999936,0.0,102.58241128780853,2119.861339830496,0.0,0,15,0.0,16431,347153925194973,487,21.016000747680664,405.2979267612881,0.14999,16,0.0,0.0,1575420030,,,,0,5.856262198277877,1,6.0,21.016000747680664,0.0,0.0,0.0,66.7128,C,27620056000000,
Raw,1732148736000,16600000000,,699598.6745270289,-1416183937400999936,0.0,102.58241128780853,2119.861339830496,0.0,0,30,0.0,16431,347153930742266,74,32.505001068115234,902.2153811293898,0.14999,16,0.0,0.0,1575420030,,,,0,19.517938463257522,1,6.0,32.505001068115234,0.0,0.0,0.0,66.7128,C,27620056000000,
Raw,1732148736000,16600000000,,699598.6745270289,-1416183937400999936,0.0,102.58241128780853,2119.861339830496,0.0,0,19,0.0,16431,347153925850813,487,22.867000579833984,14.456047246487307,0.14999,16,0.0,0.0,1575420030,,,,0,3.693607855941778,1,6.0,22.867000579833984,0.0,0.0,0.0,66.7128,C,27620056000000,
Raw,1732148736000,16600000000,,699598.6745270289,-1416183937400999936,0.0,102.58241128780853,2119.861339830496,0.0,0,7,0.0,16431,347153923628760,235,26.139999389648438,1125.568491235844,0.14999,16,0.0,0.0,1575420030,,,,0,11.60681270348456,1,6.0,26.139999389648438,0.0,0.0,0.0,66.7128,C,27620056000000,
Raw,1732148736000,16600000000,,699598.6745270289,-1416183937400999936,0.0,102.58241128780853,2119.861339830496,0.0,0,14,0.0,16431,347153932553545,235,28.18199920654297,754.2369629839073,0.14999,16,0.0,0.0,1575420030,,,,0,14.291026124361236,1,6.0,28.18199920654297,0.0,0.0,0.0,66.7128,C,27620056000000,
Raw,1732148736000,16600000000,,699598.6745270289,-1416183937400999936,0.0,102.58241128780853,2119.861339830496,0.0,0,21,0.0,16431,347153919679436,316,26.62299919128418,873.154526787709,0.14999,16,0.0,0.0,1575420030,,,,0,12.275287813223553,1,6.0,26.62299919128418,0.0,0.0,0.0,66.7128,C,27620056000000,
Raw,1732148736000,16600000000,,699598.6745270289,-1416183937400999936,0.0,102.58241128780853,2119.861339830496,0.0,0,29,0.0,16431,347153918281646,487,18.600000381469727,1077.8668478075117,0.14999,16,0.0,0.0,1575420030,,,,0,1.9909335591719017,6,6.0,18.600000381469727,0.0,0.0,25.301362702077775,66.7128,C,27620056000000,
Raw,1732148736000,16600000000,,699598.6745270289,-1416183937400999936,0.0,102.58241128780853,2119.861339830496,0.0,0,27,0.0,16431,347153918136968,316,23.200000762939453,927.5604913425517,0.14999,16,0.0,0.0,1575420030,,,,0,8.82932241245271,6,6.0,23.200000762939453,0.0,0.0,25.301362702077775,66.7128,C,27620056000000,
Raw,1732148736000,16600000000,,699598.6745270289,-1416183937400999936,0.0,102.58241128780853,2119.861339830496,0.0,0,17,0.0,16431,347153932255720,235,27.125,381.3996245457548,0.14999,16,0.0,0.0,1575420030,,,,0,12.927443137081193,1,6.0,27.125,0.0,0.0,0.0,66.7128,C,27620056000000,
Raw,1732148736000,16600000000,,699598.6745270289,-1416183937400999936,0.0,102.58241128780853,2119.861339830496,0.0,0,19,0.0,16431,347153920990087,487,16.299999237060547,644.7578445590225,0.14999,16,0.0,0.0,1575420030,,,,0,0.0,6,6.0,16.299999237060547,0.0,0.0,25.301362702077775,66.7128,C,27620056000000,
Raw,1732148736000,16600000000,,699598.6745270289,-1416183937400999936,0.0,102.58241128780853,2119.861339830496,0.0,0,21,0.0,16431,347153920900455,487,18.200000762939453,546.2829595145981,0.14999,16,0.0,0.0,1575420030,,,,0,1.300300555686725,6,6.0,18.200000762939453,0.0,0.0,25.301362702077775,66.7128,C,27620056000000,
Raw,1732148736000,16600000000,,699598.6745270289,-1416183937400999936,0.0,102.58241128780853,2119.861339830496,0.0,0,16,0.0,17,656619,487,5.0,1133.5145465897435,0.14999,16,0.0,0.0,1601437440,,,,0,0.0,3,6.0,18.0,0.0,0.0,26.146071855092128,66.7128,C,27620056000000,
Raw,1732148736000,16600000000,,699598.6745270289,-1416183937400999936,0.0,102.58241128780853,2119.861339830496,0.0,0,8,0.0,17,461021,487,5.0,824.562751528279,0.14999,16,0.0,0.0,1605374980,,,,0,1.2674149900882141,3,6.0,18.0,0.0,0.0,26.146071855092128,66.7128,C,27620056000000,
Raw,1732148736000,16600000000,,699598.6745270289,-1416183937400999936,0.0,102.58241128780853,2119.861339830496,0.0,0,9,0.0,17,502445,396,5.0,856.9685156605859,0.14999,16,0.0,0.0,1600875010,,,,0,9.80147139445111,3,6.0,21.0,0.0,0.0,26.146071855092128,66.7128,C,27620056000000,
Raw,1732148736000,16600000000,,699598.6745270289,-1416183937400999936,0.0,102.58241128780853,2119.861339830496,0.0,0,18,0.0,17,163512,487,5.0,1219.889963439831,0.14999,16,0.0,0.0,1600312450,,,,0,0.0,3,6.0,18.0,0.0,0.0,26.146071855092128,66.7128,C,27620056000000,
Raw,1732148736000,16600000000,,699598.6745270289,-1416183937400999936,0.0,102.58241128780853,2119.861339830496,0.0,0,2,0.0,16431,347153921170003,487,21.152000427246094,639.5846534555628,0.14999,16,0.0,0.0,1575420030,,,,0,4.222861269251486,1,6.0,21.152000427246094,0.0,0.0,0.0,66.7128,C,27620056000000,
Status,1732148736000,28,0,1,14,1575420030,30.80,14.0,68.0,1,0,0,25.8
Status,1732148736000,28,1,1,22,1575420030,0.00,309.0,68.0,0,0,0,0.0
Status,1732148736000,28,2,1,17,1575420030,31.40,167.0,64.0,1,0,0,26.4
Status,1732148736000,28,3,1,30,1575420030,33.90,108.0,58.0,1,0,0,28.900002
Status,1732148736000,28,4,1,13,1575420030,30.00,276.0,56.0,1,0,0,25.0
Status,1732148736000,28,5,1,19,1575420030,28.60,194.0,35.0,1,0,0,23.6
Status,1732148736000,28,6,1,15,1575420030,29.40,302.0,27.0,1,0,0,24.4
Status,1732148736000,28,7,1,7,1575420030,32.60,118.0,24.0,1,0,0,27.599998
Status,1732148736000,28,8,2,131,1575420030,32.00,3.0,23.0,0,0,0,27.0
Status,1732148736000,28,9,1,2,1575420030,25.60,70.0,21.0,1,0,0,20.6
Status,1732148736000,28,10,1,21,1575420030,26.20,52.0,13.0,1,0,0,21.2
Status,1732148736000,28,11,3,9,1602000000,27.00,47.0,46.0,1,0,0,22.0
Status,1732148736000,28,12,3,8,1602000000,21.10,276.0,38.0,1,0,0,16.1
Status,1732148736000,28,13,3,19,1602000000,0.00,61.0,36.0,0,0,0,0.0
Status,1732148736000,28,14,3,20,1602000000,0.00,140.0,29.0,0,0,0,0.0
Status,1732148736000,28,15,3,11,1602000000,0.00,288.0,12.0,0,0,0,0.0
Status,1732148736000,28,16,3,18,1602000000,22.20,25.0,11.0,1,0,0,17.2
Status,1732148736000,28,17,3,16,1602000000,21.80,83.0,3.0,0,0,0,16.8
Status,1732148736000,28,18,6,21,1575420030,33.50,296.0,64.0,1,0,0,28.5
Status,1732148736000,28,19,6,19,1575420030,21.30,274.0,54.0,1,0,0,16.3
Status,1732148736000,28,20,6,27,1575420030,23.80,48.0,47.0,1,0,0,18.8
Status,1732148736000,28,21,6,29,1575420030,23.50,196.0,45.0,1,0,0,18.5
Status,1732148736000,28,22,6,15,1575420030,0.00,82.0,19.0,0,0,0,0.0
Status,1732148736000,28,23,6,13,1575420030,0.00,134.0,12.0,0,0,0,0.0
Status,1732148736000,28,24,6,4,1575420030,0.00,323.0,11.0,0,0,0,0.0
Status,1732148736000,28,25,6,34,1575420030,0.00,35.0,5.0,0,0,0,0.0
Status,1732148736000,28,26,6,7,1575420030,0.00,162.0,3.0,0,0,0,0.0
Status,1732148736000,28,27,6,30,1575420030,0.00,67.0,1.0,0,0,0,0.0
Fix,GPS,37.4244116667,-122.1707983333,3.6000000000000014,0.0,2.7,268.28,1732148737000,2.6,141.9,27621056000000,41.8,0,,,
Raw,1732148737000,17600000000,,699429.338629326,-1416183937400999936,0.0,113.04956515263454,2120.809147995782,0.0,0,13,0.0,16431,347154931392021,396,25.017000198364258,616.7274378888915,0.14999,16,0.0,0.0,1575420030,,,,0,10.048750646249527,1,6.0,25.017000198364258,0.0,0.0,0.0,66.7128,C,27621056000000,
Raw,1732148737000,17600000000,,699429.338629326,-1416183937400999936,0.0,113.04956515263454,2120.809147995782,0.0,0,15,0.0,16431,347154925193619,396,24.423999786376953,406.44772610408273,0.14999,16,0.0,0.0,1575420030,,,,0,9.223084549100385,1,6.0,24.423999786376953,0.0,0.0,0.0,66.7128,C,27621056000000,
Raw,1732148737000,17600000000,,699429.338629326,-1416183937400999936,0.0,113.04956515263454,2120.809147995782,0.0,0,30,0.0,16431,347154930739255,316,28.87299919128418,903.7546413752773,0.14999,16,0.0,0.0,1575420030,,,,0,15.15906134700884,1,6.0,28.87299919128418,0.0,0.0,0.0,66.7128,C,27621056000000,
Raw,1732148737000,17600000000,,699429.338629326,-1416183937400999936,0.0,113.04956515263454,2120.809147995782,0.0,0,19,0.0,16431,347154925850759,396,23.645999908447266,15.291183736287945,0.14999,16,0.0,0.0,1575420030,,,,0,8.094125755342258,1,6.0,23.645999908447266,0.0,0.0,0.0,66.7128,C,27621056000000,
Raw,1732148737000,17600000000,,699429.338629326,-1416183937400999936,0.0,113.04956515263454,2120.809147995782,0.0,0,7,0.0,16431,347154923625047,235,27.638999938964844,1125.6478422107316,0.14999,16,0.0,0.0,1575420030,,,,0,13.592427133574608,1,6.0,27.638999938964844,0.0,0.0,0.0,66.7128,C,27621056000000,
Raw,1732148737000,17600000000,,699429.338629326,-1416183937400999936,0.0,113.04956515263454,2120.809147995782,0.0,0,2,0.0,16431,347154921167955,487,20.599000930786133,640.24868359846,0.14999,16,0.0,0.0,1575420030,,,,0,3.321962305595817,1,6.0,20.599000930786133,0.0,0.0,0.0,66.7128,C,27621056000000,
Raw,1732148737000,17600000000,,699429.338629326,-1416183937400999936,0.0,113.04956515263454,2120.809147995782,0.0,0,14,0.0,16431,347154932551024,316,25.784000396728516,755.1638548457238,0.14999,16,0.0,0.0,1575420030,,,,0,11.117867331053692,1,6.0,25.784000396728516,0.0,0.0,0.0,66.7128,C,27621056000000,
Raw,1732148737000,17600000000,,699429.338629326,-1416183937400999936,0.0,113.04956515263454,2120.809147995782,0.0,0,21,0.0,16431,347154919676521,487,21.152000427246094,873.5245216144098,0.14999,16,0.0,0.0,1575420030,,,,0,4.222861269251486,1,6.0,21.152000427246094,0.0,0.0,0.0,66.7128,C,27621056000000,
Raw,1732148737000,17600000000,,699429.338629326,-1416183937400999936,0.0,113.04956515263454,2120.809147995782,0.0,0,29,0.0,16431,347154918278056,487,18.549999237060547,1078.6802417585259,0.14999,16,0.0,0.0,1575420030,,,,0,0.14901493010636546,6,6.0,18.549999237060547,0.0,0.0,22.98279425373267,66.7128,C,27621056000000,
Raw,1732148737000,17600000000,,699429.338629326,-1416183937400999936,0.0,113.04956515263454,2120.809147995782,0.0,0,27,0.0,16431,347154918133874,396,18.799999237060547,928.068095998068,0.14999,16,0.0,0.0,1575420030,,,,0,2.316692599066384,6,6.0,18.799999237060547,0.0,0.0,22.98279425373267,66.7128,C,27621056000000,
Raw,1732148737000,17600000000,,699429.338629326,-1416183937400999936,0.0,113.04956515263454,2120.809147995782,0.0,0,17,0.0,16431,347154932254433,316,26.433000564575195,381.8638602697386,0.14999,16,0.0,0.0,1575420030,,,,0,12.000068285653871,1,6.0,26.433000564575195,0.0,0.0,0.0,66.7128,C,27621056000000,
Raw,1732148737000,17600000000,,699429.338629326,-1416183937400999936,0.0,113.04956515263454,2120.809147995782,0.0,0,19,0.0,16431,347154920987937,487,16.299999237060547,645.1802909376249,0.14999,16,0.0,0.0,1575420030,,,,0,0.0,6,6.0,16.299999237060547,0.0,0.0,22.98279425373267,66.7128,C,27621056000000,
Raw,1732148737000,17600000000,,699429.338629326,-1416183937400999936,0.0,113.04956515263454,2120.809147995782,0.0,0,21,0.0,16431,347154920898633,235,28.5,546.5699331515307,0.14999,16,0.0,0.0,1575420030,,,,0,15.231645805375809,6,6.0,28.5,0.0,0.0,22.98279425373267,66.7128,C,27621056000000,
Raw,1732148737000,17600000000,,699429.338629326,-1416183937400999936,0.0,113.04956515263454,2120.809147995782,0.0,0,16,0.0,17,652837,487,5.0,1136.2114267977208,0.14999,16,0.0,0.0,1601437440,,,,0,0.0,3,6.0,18.0,0.0,0.0,20.921441349085494,66.7128,C,27621056000000,
Raw,1732148737000,17600000000,,699429.338629326,-1416183937400999936,0.0,113.04956515263454,2120.809147995782,0.0,0,8,0.0,17,458307,797,5.0,825.782781130993,0.14999,16,0.0,0.0,1605374980,,,,0,0.0,3,6.0,17.0,0.0,0.0,20.921441349085494,66.7128,C,27621056000000,
Raw,1732148737000,17600000000,,699429.338629326,-1416183937400999936,0.0,113.04956515263454,2120.809147995782,0.0,0,9,0.0,17,499584,396,5.0,857.8146043516685,0.14999,16,0.0,0.0,1600875010,,,,0,7.182889388501362,3,6.0,22.0,0.0,0.0,20.921441349085494,66.7128,C,27621056000000,
Raw,1732148737000,17600000000,,699429.338629326,-1416183937400999936,0.0,113.04956515263454,2120.809147995782,0.0,0,18,0.0,17,159476,487,5.0,1220.7369898266086,0.14999,16,0.0,0.0,1600312450,,,,0,1.0216242205976593,3,6.0,20.0,0.0,0.0,20.921441349085494,66.7128,C,27621056000000,
Fix,FLP,37.4244057000,-122.1707867000,2.0,0.05020194,2.7,,1732148737208,2.6,,27621056000000,0.89656013,0,,,
Status,1732148737000,28,0,1,14,1575420030,31.00,14.0,68.0,1,0,0,26.0
Status,1732148737000,28,1,1,22,1575420030,40.70,309.0,68.0,1,0,0,35.7
