# 
# Header Description:
# 
# Version: v3.1.0.3 Platform: 13 Manufacturer: samsung Model: SM-S135DL GNSS Hardware Model Name: MediaTek,MT6631,MTK_MNLD_default,MNL_VER_default
# 
# Raw,utcTimeMillis,TimeNanos,LeapSecond,TimeUncertaintyNanos,FullBiasNanos,BiasNanos,BiasUncertaintyNanos,DriftNanosPerSecond,DriftUncertaintyNanosPerSecond,HardwareClockDiscontinuityCount,Svid,TimeOffsetNanos,State,ReceivedSvTimeNanos,ReceivedSvTimeUncertaintyNanos,Cn0DbHz,PseudorangeRateMetersPerSecond,PseudorangeRateUncertaintyMetersPerSecond,AccumulatedDeltaRangeState,AccumulatedDeltaRangeMeters,AccumulatedDeltaRangeUncertaintyMeters,CarrierFrequencyHz,CarrierCycles,CarrierPhase,CarrierPhaseUncertainty,MultipathIndicator,SnrInDb,ConstellationType,AgcDb,BasebandCn0DbHz,FullInterSignalBiasNanos,FullInterSignalBiasUncertaintyNanos,SatelliteInterSignalBiasNanos,SatelliteInterSignalBiasUncertaintyNanos,CodeType,ChipsetElapsedRealtimeNanos,IsFullTracking
# 
# UncalAccel,utcTimeMillis,elapsedRealtimeNanos,UncalAccelXMps2,UncalAccelYMps2,UncalAccelZMps2,BiasXMps2,BiasYMps2,BiasZMps2
# 
# Accel,utcTimeMillis,elapsedRealtimeNanos,AccelXMps2,AccelYMps2,AccelZMps2
# 
# UncalGyro,utcTimeMillis,elapsedRealtimeNanos,UncalGyroXRadPerSec,UncalGyroYRadPerSec,UncalGyroZRadPerSec,DriftXRadPerSec,DriftYRadPerSec,DriftZRadPerSec
# 
# Gyro,utcTimeMillis,elapsedRealtimeNanos,GyroXRadPerSec,GyroYRadPerSec,GyroZRadPerSec
# 
# UncalMag,utcTimeMillis,elapsedRealtimeNanos,UncalMagXMicroT,UncalMagYMicroT,UncalMagZMicroT,BiasXMicroT,BiasYMicroT,BiasZMicroT
# 
# Mag,utcTimeMillis,elapsedRealtimeNanos,MagXMicroT,MagYMicroT,MagZMicroT
# 
# Pressure,utcTimeMillis,elapsedRealtimeNanos,PressureHpa
# 
# OrientationDeg,utcTimeMillis,elapsedRealtimeNanos,yawDeg,rollDeg,pitchDeg
# 
# Fix,Provider,LatitudeDegrees,LongitudeDegrees,AltitudeMeters,SpeedMps,AccuracyMeters,BearingDegrees,UnixTimeMillis,SpeedAccuracyMps,BearingAccuracyDegrees,elapsedRealtimeNanos,VerticalAccuracyMeters,MockLocation,NumberOfUsedSignals,VerticalSpeedAccuracyMps,SolutionType
# 
# Nav,Svid,Type,Status,MessageId,Sub-messageId,Data(Bytes)
# 
# Status,UnixTimeMillis,SignalCount,SignalIndex,ConstellationType,Svid,CarrierFrequencyHz,Cn0DbHz,AzimuthDegrees,ElevationDegrees,UsedInFix,HasAlmanacData,HasEphemerisData,BasebandCn0DbHz
# 
# Agc,utcTimeMillis,TimeNanos,LeapSecond,TimeUncertaintyNanos,FullBiasNanos,BiasNanos,BiasUncertaintyNanos,DriftNanosPerSecond,DriftUncertaintyNanosPerSecond,HardwareClockDiscontinuityCount,AgcDb,CarrierFrequencyHz,ConstellationType
# 
Fix,FLP,37.4243911000,-122.1707954000,2.0,0.036049843,2.433,,1732148506208,2.4,,27390056000000,0.9030701,0,,,
Status,,29,0,1,14,1575420030,26.60,10.0,69.0,1,0,0,21.6
Status,,29,1,1,22,1575420030,26.00,304.0,68.0,1,0,0,21.0
Status,,29,2,1,17,1575420030,32.90,169.0,62.0,1,0,0,27.900002
Status,,29,3,1,30,1575420030,32.60,106.0,59.0,1,0,0,27.599998
Status,,29,4,1,13,1575420030,27.90,279.0,56.0,1,0,0,22.9
Status,,29,5,1,19,1575420030,27.20,194.0,33.0,1,0,0,22.2
Status,,29,6,1,15,1575420030,30.50,303.0,26.0,1,0,0,25.5
Status,,29,7,1,7,1575420030,39.50,116.0,25.0,1,0,0,34.5
Status,,29,8,2,131,1575420030,30.00,3.0,23.0,0,0,0,25.0
Status,,29,9,1,2,1575420030,32.40,72.0,20.0,1,0,0,27.400002
Status,,29,10,1,21,1575420030,31.40,53.0,14.0,1,0,0,26.4
Status,,29,11,3,9,1602000000,26.50,45.0,47.0,1,0,0,21.5
Status,,29,12,3,8,1602000000,24.10,278.0,39.0,1,0,0,19.1
Status,,29,13,3,19,1602000000,0.00,63.0,36.0,0,0,0,0.0
Status,,29,14,3,20,1602000000,0.00,141.0,27.0,0,0,0,0.0
Status,,29,15,3,18,1602000000,21.90,26.0,12.0,1,0,0,16.9
Status,,29,16,3,11,1602000000,0.00,286.0,11.0,0,0,0,0.0
Status,,29,17,3,16,1602000000,32.20,82.0,4.0,0,0,0,27.2
Status,,29,18,3,17,1602000000,35.60,0.0,0.0,0,0,0,30.599998
Status,,29,19,6,21,1575420030,22.00,293.0,63.0,1,0,0,17.0
Status,,29,20,6,19,1575420030,0.00,277.0,54.0,0,0,0,0.0
Status,,29,21,6,27,1575420030,0.00,47.0,48.0,0,0,0,0.0
Status,,29,22,6,29,1575420030,23.00,197.0,47.0,1,0,0,18.0
Status,,29,23,6,15,1575420030,30.90,83.0,18.0,1,0,0,25.9
Status,,29,24,6,13,1575420030,0.00,134.0,11.0,0,0,0,0.0
Status,,29,25,6,4,1575420030,0.00,323.0,10.0,0,0,0,0.0
Status,,29,26,6,34,1575420030,0.00,36.0,6.0,0,0,0,0.0
Status,,29,27,6,7,1575420030,0.00,162.0,5.0,0,0,0,0.0
Status,,29,28,6,30,1575420030,0.00,66.0,2.0,0,0,0,0.0
Fix,GPS,37.4243933333,-122.1707700000,1.0,0.0,2.5,231.52,1732148507000,2.3,168.3,27391056000000,37.4,0,,,
Raw,1732148507000,17983000000,,684105.1956183634,-1416183707017999872,0.0,96.12741976204137,2114.484938207645,0.0,0,30,0.0,16431,346924931079306,235,27.597999572753906,880.4336314395762,0.14999,16,0.0,0.0,1575420030,,,,0,13.529063313084961,1,6.0,27.597999572753906,0.0,0.0,0.0,66.7128,C,27391056000000,
Raw,1732148507000,17983000000,,684105.1956183634,-1416183707017999872,0.0,96.12741976204137,2114.484938207645,0.0,0,7,0.0,16431,346924924138295,58,34.53099822998047,1109.1112477110878,0.14999,16,0.0,0.0,1575420030,,,,0,21.824059922614655,1,6.0,34.53099822998047,0.0,0.0,0.0,66.7128,C,27391056000000,
Raw,1732148507000,17983000000,,684105.1956183634,-1416183707017999872,0.0,96.12741976204137,2114.484938207645,0.0,0,22,0.0,16431,346924931552947,487,20.954999923706055,601.4211551673351,0.14999,16,0.0,0.0,1575420030,,,,0,3.840161060446265,1,6.0,20.954999923706055,0.0,0.0,0.0,66.7128,C,27391056000000,
Raw,1732148507000,17983000000,,684105.1956183634,-1416183707017999872,0.0,96.12741976204137,2114.484938207645,0.0,0,2,0.0,16431,346924921304714,235,27.368000030517578,613.2102105728403,0.14999,16,0.0,0.0,1575420030,,,,0,13.233596401727324,1,6.0,27.368000030517578,0.0,0.0,0.0,66.7128,C,27391056000000,
Raw,1732148507000,17983000000,,684105.1956183634,-1416183707017999872,0.0,96.12741976204137,2114.484938207645,0.0,0,17,0.0,16431,346924932192040,235,27.882999420166016,352.6110397522759,0.14999,16,0.0,0.0,1575420030,,,,0,13.898731426965224,1,6.0,27.882999420166016,0.0,0.0,0.0,66.7128,C,27391056000000,
Raw,1732148507000,17983000000,,684105.1956183634,-1416183707017999872,0.0,96.12741976204137,2114.484938207645,0.0,0,15,0.0,16431,346924925149140,316,25.51300048828125,374.0635618756135,0.14999,16,0.0,0.0,1575420030,,,,0,10.744834223566958,1,6.0,25.51300048828125,0.0,0.0,0.0,66.7128,C,27391056000000,
Raw,1732148507000,17983000000,,684105.1956183634,-1416183707017999872,0.0,96.12741976204137,2114.484938207645,0.0,0,13,0.0,16431,346924931508023,316,22.915000915527344,583.1502679905519,0.14999,16,0.0,0.0,1575420030,,,,0,6.938200260161128,1,6.0,22.915000915527344,0.0,0.0,0.0,66.7128,C,27391056000000,
Raw,1732148507000,17983000000,,684105.1956183634,-1416183707017999872,0.0,96.12741976204137,2114.484938207645,0.0,0,19,0.0,16431,346924925512686,487,22.211999893188477,0.1672967567741484,0.14999,16,0.0,0.0,1575420030,,,,0,5.8840732498410695,1,6.0,22.211999893188477,0.0,0.0,0.0,66.7128,C,27391056000000,
Raw,1732148507000,17983000000,,684105.1956183634,-1416183707017999872,0.0,96.12741976204137,2114.484938207645,0.0,0,15,0.0,16431,346924910628245,235,25.899999618530273,344.5669043606698,0.14999,16,0.0,0.0,1575420030,,,,0,12.214302013222259,6,6.0,25.899999618530273,0.0,0.0,20.280253697806003,66.7128,C,27391056000000,
Raw,1732148507000,17983000000,,684105.1956183634,-1416183707017999872,0.0,96.12741976204137,2114.484938207645,0.0,0,29,0.0,16431,346924918755596,487,18.007999420166016,1063.0400159412482,0.14999,16,0.0,0.0,1575420030,,,,0,0.0,6,6.0,18.007999420166016,0.0,0.0,20.280253697806003,66.7128,C,27391056000000,
Raw,1732148507000,17983000000,,684105.1956183634,-1416183707017999872,0.0,96.12741976204137,2114.484938207645,0.0,0,21,0.0,16431,346924920969621,487,17.0,535.9395041879002,0.14999,16,0.0,0.0,1575420030,,,,0,0.0,6,6.0,17.0,0.0,0.0,20.280253697806003,66.7128,C,27391056000000,
Raw,1732148507000,17983000000,,684105.1956183634,-1416183707017999872,0.0,96.12741976204137,2114.484938207645,0.0,0,9,0.0,17,809137,487,5.0,845.5181092786415,0.14999,16,0.0,0.0,1600875010,,,,0,6.459157637650563,3,6.0,20.0,0.0,0.0,33.141817106630654,66.7128,C,27391056000000,
Raw,1732148507000,17983000000,,684105.1956183634,-1416183707017999872,0.0,96.12741976204137,2114.484938207645,0.0,0,8,0.0,17,731738,396,5.0,784.2340256107029,0.14999,16,0.0,0.0,1605374980,,,,0,4.697325137418856,3,6.0,21.0,0.0,0.0,33.141817106630654,66.7128,C,27391056000000,
Raw,1732148507000,17983000000,,684105.1956183634,-1416183707017999872,0.0,96.12741976204137,2114.484938207645,0.0,0,18,0.0,17,741461,487,5.0,1192.3667282753577,0.14999,16,0.0,0.0,1600312450,,,,0,0.0,3,6.0,19.0,0.0,0.0,33.141817106630654,66.7128,C,27391056000000,
Raw,1732148507000,17983000000,,684105.1956183634,-1416183707017999872,0.0,96.12741976204137,2114.484938207645,0.0,0,16,0.0,17,175423,316,5.0,1126.8721628128562,0.14999,16,0.0,0.0,1601437440,,,,0,11.666208248330978,3,6.0,26.0,0.0,0.0,33.141817106630654,66.7128,C,27391056000000,
Raw,1732148507000,17983000000,,684105.1956183634,-1416183707017999872,0.0,96.12741976204137,2114.484938207645,0.0,0,14,0.0,16431,346924932780715,487,21.61199951171875,739.8437275161367,0.14999,16,0.0,0.0,1575420030,,,,0,4.9220991223295165,1,6.0,21.61199951171875,0.0,0.0,0.0,66.7128,C,27391056000000,
Raw,1732148507000,17983000000,,684105.1956183634,-1416183707017999872,0.0,96.12741976204137,2114.484938207645,0.0,0,21,0.0,16431,346924919992000,396,26.35099983215332,845.1638885218542,0.14999,16,0.0,0.0,1575420030,,,,0,11.86957861178968,1,6.0,26.35099983215332,0.0,0.0,0.0,66.7128,C,27391056000000,
Fix,FLP,37.4243923000,-122.1707832000,2.0,0.017283184,2.466,,1732148507208,2.3,,27391056000000,0.91306686,0,,,
Status,1732148507000,29,0,1,14,1575420030,28.50,10.0,69.0,1,0,0,23.5
Status,1732148507000,29,1,1,22,1575420030,31.00,305.0,68.0,1,0,0,26.0
Status,1732148507000,29,2,1,17,1575420030,28.10,169.0,62.0,1,0,0,23.1
Status,1732148507000,29,3,1,30,1575420030,30.80,106.0,59.0,1,0,0,25.8
Status,1732148507000,29,4,1,13,1575420030,29.00,279.0,56.0,1,0,0,24.0
Status,1732148507000,29,5,1,19,1575420030,28.20,194.0,33.0,1,0,0,23.2
Status,1732148507000,29,6,1,15,1575420030,31.00,303.0,26.0,1,0,0,26.0
Status,1732148507000,29,7,1,7,1575420030,30.30,116.0,25.0,1,0,0,25.3
Status,1732148507000,29,8,2,131,1575420030,30.00,3.0,23.0,0,0,0,25.0
Status,1732148507000,29,9,1,2,1575420030,30.90,72.0,20.0,1,0,0,25.9
Status,1732148507000,29,10,1,21,1575420030,37.30,53.0,14.0,1,0,0,32.3
Status,1732148507000,29,11,3,9,1602000000,23.90,45.0,47.0,1,0,0,18.9
Status,1732148507000,29,12,3,8,1602000000,24.20,278.0,39.0,1,0,0,19.2
Status,1732148507000,29,13,3,19,1602000000,0.00,63.0,36.0,0,0,0,0.0
Status,1732148507000,29,14,3,20,1602000000,0.00,141.0,27.0,0,0,0,0.0
Status,1732148507000,29,15,3,18,1602000000,21.90,26.0,12.0,1,0,0,16.9
Status,1732148507000,29,16,3,11,1602000000,0.00,286.0,11.0,0,0,0,0.0
Status,1732148507000,29,17,3,16,1602000000,29.50,82.0,4.0,0,0,0,24.5
Status,1732148507000,29,18,3,17,1602000000,28.50,0.0,0.0,0,0,0,23.5
Status,1732148507000,29,19,6,21,1575420030,22.10,293.0,63.0,1,0,0,17.1
Status,1732148507000,29,20,6,19,1575420030,0.00,277.0,54.0,0,0,0,0.0
Status,1732148507000,29,21,6,27,1575420030,0.00,47.0,48.0,0,0,0,0.0
Status,1732148507000,29,22,6,29,1575420030,22.90,197.0,47.0,1,0,0,17.9
Status,1732148507000,29,23,6,15,1575420030,36.30,83.0,18.0,1,0,0,31.3
Status,1732148507000,29,24,6,13,1575420030,0.00,134.0,11.0,0,0,0,0.0
Status,1732148507000,29,25,6,4,1575420030,0.00,323.0,10.0,0,0,0,0.0
Status,1732148507000,29,26,6,34,1575420030,0.00,36.0,6.0,0,0,0,0.0
Status,1732148507000,29,27,6,7,1575420030,0.00,162.0,5.0,0,0,0,0.0
Status,1732148507000,29,28,6,30,1575420030,0.00,66.0,2.0,0,0,0,0.0
Fix,GPS,37.4243866667,-122.1707566667,1.0,0.0,2.5,231.52,1732148508000,2.6,179.9,27392056000000,34.1,0,,,
Fix,FLP,37.4243896000,-122.1707703000,2.0,0.017260699,2.5,,1732148508209,2.6,,27392056000000,0.9230639,0,,,
Raw,1732148508000,18983000000,,683653.2162693699,-1416183707017999872,0.0,88.21182559820085,2114.6376325800466,0.0,0,30,0.0,16431,346925931076366,316,25.75200080871582,879.9930198202354,0.14999,16,0.0,0.0,1575420030,,,,0,11.059289908823619,1,6.0,25.75200080871582,0.0,0.0,0.0,66.7128,C,27392056000000,
Raw,1732148508000,18983000000,,683653.2162693699,-1416183707017999872,0.0,88.21182559820085,2114.6376325800466,0.0,0,7,0.0,16431,346925924134595,316,25.326000213623047,1109.0363567441564,0.14999,16,0.0,0.0,1575420030,,,,0,10.460025441274752,1,6.0,25.326000213623047,0.0,0.0,0.0,66.7128,C,27392056000000,
Raw,1732148508000,18983000000,,683653.2162693699,-1416183707017999872,0.0,88.21182559820085,2114.6376325800466,0.0,0,22,0.0,16431,346925931550932,396,26.0049991607666,600.6374481442796,0.14999,16,0.0,0.0,1575420030,,,,0,11.399956694799226,1,6.0,26.0049991607666,0.0,0.0,0.0,66.7128,C,27392056000000,
Raw,1732148508000,18983000000,,683653.2162693699,-1416183707017999872,0.0,88.21182559820085,2114.6376325800466,0.0,0,2,0.0,16431,346925921302664,316,25.8799991607666,612.71761198576,0.14999,16,0.0,0.0,1575420030,,,,0,11.250196266948224,1,6.0,25.8799991607666,0.0,0.0,0.0,66.7128,C,27392056000000,
Raw,1732148508000,18983000000,,683653.2162693699,-1416183707017999872,0.0,88.21182559820085,2114.6376325800466,0.0,0,17,0.0,16431,346925932190859,487,23.097999572753906,352.60801995522223,0.14999,16,0.0,0.0,1575420030,,,,0,7.242999591295867,1,6.0,23.097999572753906,0.0,0.0,0.0,66.7128,C,27392056000000,
Raw,1732148508000,18983000000,,683653.2162693699,-1416183707017999872,0.0,88.21182559820085,2114.6376325800466,0.0,0,15,0.0,16431,346925925147881,487,25.954999923706055,373.73482212250775,0.14999,16,0.0,0.0,1575420030,,,,0,11.362757967116746,1,6.0,25.954999923706055,0.0,0.0,0.0,66.7128,C,27392056000000,
Raw,1732148508000,18983000000,,683653.2162693699,-1416183707017999872,0.0,88.21182559820085,2114.6376325800466,0.0,0,13,0.0,16431,346925931506065,396,23.957000732421875,583.0081981537801,0.14999,16,0.0,0.0,1575420030,,,,0,8.521825181113625,1,6.0,23.957000732421875,0.0,0.0,0.0,66.7128,C,27392056000000,
Raw,1732148508000,18983000000,,683653.2162693699,-1416183707017999872,0.0,88.21182559820085,2114.6376325800466,0.0,0,19,0.0,16431,346925925512692,487,23.20800018310547,0.2975661558284978,0.14999,16,0.0,0.0,1575420030,,,,0,7.420873854495515,1,6.0,23.20800018310547,0.0,0.0,0.0,66.7128,C,27392056000000,
Raw,1732148508000,18983000000,,683653.2162693699,-1416183707017999872,0.0,88.21182559820085,2114.6376325800466,0.0,0,15,0.0,16431,346925910627096,74,31.299999237060547,345.02607611728666,0.14999,16,0.0,0.0,1575420030,,,,0,18.4022652862709,6,6.0,31.299999237060547,0.0,0.0,19.014728790715694,66.7128,C,27392056000000,
Raw,1732148508000,18983000000,,683653.2162693699,-1416183707017999872,0.0,88.21182559820085,2114.6376325800466,0.0,0,29,0.0,16431,346925918752051,797,17.886999130249023,1062.520796681679,0.14999,16,0.0,0.0,1575420030,,,,0,0.0,6,6.0,17.886999130249023,0.0,0.0,19.014728790715694,66.7128,C,27392056000000,
Raw,1732148508000,18983000000,,683653.2162693699,-1416183707017999872,0.0,88.21182559820085,2114.6376325800466,0.0,0,21,0.0,16431,346925920967834,396,17.1200008392334,536.3299871761498,0.14999,16,0.0,0.0,1575420030,,,,0,3.2913960935074726,6,6.0,17.1200008392334,0.0,0.0,19.014728790715694,66.7128,C,27392056000000,
Raw,1732148508000,18983000000,,683653.2162693699,-1416183707017999872,0.0,88.21182559820085,2114.6376325800466,0.0,0,9,0.0,17,806317,487,5.0,845.3233433743936,0.14999,16,0.0,0.0,1600875010,,,,0,2.465407115476382,3,6.0,20.0,0.0,0.0,31.742377875466175,66.7128,C,27392056000000,
Raw,1732148508000,18983000000,,683653.2162693699,-1416183707017999872,0.0,88.21182559820085,2114.6376325800466,0.0,0,8,0.0,17,729115,487,5.0,784.4009818291311,0.14999,16,0.0,0.0,1605374980,,,,0,5.119807273783748,3,6.0,20.0,0.0,0.0,31.742377875466175,66.7128,C,27392056000000,
Raw,1732148508000,18983000000,,683653.2162693699,-1416183707017999872,0.0,88.21182559820085,2114.6376325800466,0.0,0,18,0.0,17,737483,487,5.0,1190.7946985255567,0.14999,16,0.0,0.0,1600312450,,,,0,0.0,3,6.0,20.0,0.0,0.0,31.742377875466175,66.7128,C,27392056000000,
Raw,1732148508000,18983000000,,683653.2162693699,-1416183707017999872,0.0,88.21182559820085,2114.6376325800466,0.0,0,16,0.0,17,171658,316,5.0,1127.2581757303685,0.14999,16,0.0,0.0,1601437440,,,,0,10.495696496083099,3,6.0,25.0,0.0,0.0,31.742377875466175,66.7128,C,27392056000000,
Raw,1732148508000,18983000000,,683653.2162693699,-1416183707017999872,0.0,88.21182559820085,2114.6376325800466,0.0,0,14,0.0,16431,346925932778258,396,23.520999908447266,739.588252685395,0.14999,16,0.0,0.0,1575420030,,,,0,7.8781315136856,1,6.0,23.520999908447266,0.0,0.0,0.0,66.7128,C,27392056000000,
Raw,1732148508000,18983000000,,683653.2162693699,-1416183707017999872,0.0,88.21182559820085,2114.6376325800466,0.0,0,21,0.0,16431,346925919989192,74,32.27299880981445,845.7466628947992,0.14999,16,0.0,0.0,1575420030,,,,0,19.239155809710997,1,6.0,32.27299880981445,0.0,0.0,0.0,66.7128,C,27392056000000,
Status,1732148508000,29,0,1,14,1575420030,26.60,10.0,69.0,1,0,0,21.6
Status,1732148508000,29,1,1,22,1575420030,30.20,305.0,68.0,1,0,0,25.2
Status,1732148508000,29,2,1,17,1575420030,27.90,169.0,62.0,1,0,0,22.9
Status,1732148508000,29,3,1,30,1575420030,30.30,106.0,59.0,1,0,0,25.3
Status,1732148508000,29,4,1,13,1575420030,30.40,279.0,56.0,1,0,0,25.4
Status,1732148508000,29,5,1,19,1575420030,24.70,194.0,33.0,1,0,0,19.7
Status,1732148508000,29,6,1,15,1575420030,0.00,303.0,26.0,0,0,0,0.0
Status,1732148508000,29,7,1,7,1575420030,31.10,116.0,25.0,1,0,0,26.1
Status,1732148508000,29,8,2,131,1575420030,32.00,3.0,23.0,0,0,0,27.0
Status,1732148508000,29,9,1,2,1575420030,34.50,72.0,20.0,1,0,0,29.5
Status,1732148508000,29,10,1,21,1575420030,36.30,53.0,14.0,1,0,0,31.3
Status,1732148508000,29,11,3,9,1602000000,27.60,45.0,47.0,1,0,0,22.6
Status,1732148508000,29,12,3,8,1602000000,24.20,278.0,39.0,1,0,0,19.2
Status,1732148508000,29,13,3,19,1602000000,0.00,63.0,36.0,0,0,0,0.0
Status,1732148508000,29,14,3,20,1602000000,0.00,141.0,27.0,0,0,0,0.0
Status,1732148508000,29,15,3,18,1602000000,21.90,26.0,12.0,1,0,0,16.9
Status,1732148508000,29,16,3,11,1602000000,0.00,286.0,11.0,0,0,0,0.0
Status,1732148508000,29,17,3,16,1602000000,27.50,82.0,4.0,0,0,0,22.5
Status,1732148508000,29,18,3,17,1602000000,28.30,0.0,0.0,0,0,0,23.3
Status,1732148508000,29,19,6,21,1575420030,24.80,293.0,63.0,1,0,0,19.8
Status,1732148508000,29,20,6,19,1575420030,0.00,277.0,54.0,0,0,0,0.0
Status,1732148508000,29,21,6,27,1575420030,25.80,47.0,48.0,1,0,0,20.8
Status,1732148508000,29,22,6,29,1575420030,22.80,197.0,47.0,1,0,0,17.8
Status,1732148508000,29,23,6,15,1575420030,28.40,83.0,18.0,1,0,0,23.4
Status,1732148508000,29,24,6,13,1575420030,0.00,134.0,11.0,0,0,0,0.0
Status,1732148508000,29,25,6,4,1575420030,0.00,323.0,10.0,0,0,0,0.0
Status,1732148508000,29,26,6,34,1575420030,0.00,36.0,6.0,0,0,0,0.0
Status,1732148508000,29,27,6,7,1575420030,0.00,162.0,5.0,0,0,0,0.0
Status,1732148508000,29,28,6,30,1575420030,0.00,66.0,2.0,0,0,0,0.0
Fix,GPS,37.4243833333,-122.1707550000,1.0,0.0,2.5,231.52,1732148509000,2.4,179.9,27393056000000,34.5,0,,,
Raw,1732148509000,19983000000,,683201.9144724448,-1416183707017999872,0.0,89.01655864845631,2110.845228532371,0.0,0,30,0.0,16431,346926931073434,316,25.27199935913086,878.7124400358081,0.14999,16,0.0,0.0,1575420030,,,,0,10.418565268817447,1,6.0,25.27199935913086,0.0,0.0,0.0,66.7128,C,27393056000000,
Raw,1732148509000,19983000000,,683201.9144724448,-1416183707017999872,0.0,89.01655864845631,2110.845228532371,0.0,0,7,0.0,16431,346926924130897,316,26.079999923706055,1107.8637463190023,0.14999,16,0.0,0.0,1575420030,,,,0,11.510606466798444,1,6.0,26.079999923706055,0.0,0.0,0.0,66.7128,C,27393056000000,
Raw,1732148509000,19983000000,,683201.9144724448,-1416183707017999872,0.0,89.01655864845631,2110.845228532371,0.0,0,22,0.0,16431,346926931548927,316,25.15999984741211,599.4760806558485,0.14999,16,0.0,0.0,1575420030,,,,0,10.250716767711452,1,6.0,25.15999984741211,0.0,0.0,0.0,66.7128,C,27393056000000,
Raw,1732148509000,19983000000,,683201.9144724448,-1416183707017999872,0.0,89.01655864845631,2110.845228532371,0.0,0,2,0.0,16431,346926921300615,316,29.46299934387207,612.4609292361968,0.14999,16,0.0,0.0,1575420030,,,,0,15.881360887005513,1,6.0,29.46299934387207,0.0,0.0,0.0,66.7128,C,27393056000000,
Raw,1732148509000,19983000000,,683201.9144724448,-1416183707017999872,0.0,89.01655864845631,2110.845228532371,0.0,0,17,0.0,16431,346926932189684,396,22.878000259399414,351.54567858094396,0.14999,16,0.0,0.0,1575420030,,,,0,6.875935551678269,1,6.0,22.878000259399414,0.0,0.0,0.0,66.7128,C,27393056000000,
Raw,1732148509000,19983000000,,683201.9144724448,-1416183707017999872,0.0,89.01655864845631,2110.845228532371,0.0,0,13,0.0,16431,346926931504128,396,25.35300064086914,581.9036957667907,0.14999,16,0.0,0.0,1575420030,,,,0,10.501288652550222,1,6.0,25.35300064086914,0.0,0.0,0.0,66.7128,C,27393056000000,
Raw,1732148509000,19983000000,,683201.9144724448,-1416183707017999872,0.0,89.01655864845631,2110.845228532371,0.0,0,19,0.0,16431,346926925512689,487,19.716999053955078,-0.4461401708697993,0.14999,16,0.0,0.0,1575420030,,,,0,1.7454540500460052,1,6.0,19.716999053955078,0.0,0.0,0.0,66.7128,C,27393056000000,
Raw,1732148509000,19983000000,,683201.9144724448,-1416183707017999872,0.0,89.01655864845631,2110.845228532371,0.0,0,15,0.0,16431,346926910625948,316,23.399999618530273,343.53450543563923,0.14999,16,0.0,0.0,1575420030,,,,0,8.9751048738325,6,6.0,23.399999618530273,0.0,0.0,18.565402325791567,66.7128,C,27393056000000,
Raw,1732148509000,19983000000,,683201.9144724448,-1416183707017999872,0.0,89.01655864845631,2110.845228532371,0.0,0,29,0.0,16431,346926918748507,797,17.79199981689453,1061.7398307051799,0.14999,16,0.0,0.0,1575420030,,,,0,0.0,6,6.0,17.79199981689453,0.0,0.0,18.565402325791567,66.7128,C,27393056000000,
Raw,1732148509000,19983000000,,683201.9144724448,-1416183707017999872,0.0,89.01655864845631,2110.845228532371,0.0,0,27,0.0,16431,346926918493044,487,20.799999237060547,920.4579286722845,0.14999,16,0.0,0.0,1575420030,,,,0,5.453279692718875,6,6.0,20.799999237060547,0.0,0.0,18.565402325791567,66.7128,C,27393056000000,
Raw,1732148509000,19983000000,,683201.9144724448,-1416183707017999872,0.0,89.01655864845631,2110.845228532371,0.0,0,21,0.0,16431,346926920966050,487,19.799999237060547,534.5774827998558,0.14999,16,0.0,0.0,1575420030,,,,0,3.840161060446265,6,6.0,19.799999237060547,0.0,0.0,18.565402325791567,66.7128,C,27393056000000,
Raw,1732148509000,19983000000,,683201.9144724448,-1416183707017999872,0.0,89.01655864845631,2110.845228532371,0.0,0,9,0.0,17,803494,396,5.0,844.5901823320181,0.14999,16,0.0,0.0,1600875010,,,,0,7.937679759397899,3,6.0,21.0,0.0,0.0,31.13776912351328,66.7128,C,27393056000000,
Raw,1732148509000,19983000000,,683201.9144724448,-1416183707017999872,0.0,89.01655864845631,2110.845228532371,0.0,0,8,0.0,17,726496,487,5.0,783.4428300305273,0.14999,16,0.0,0.0,1605374980,,,,0,3.270390304217514,3,6.0,20.0,0.0,0.0,31.13776912351328,66.7128,C,27393056000000,
Raw,1732148509000,19983000000,,683201.9144724448,-1416183707017999872,0.0,89.01655864845631,2110.845228532371,0.0,0,18,0.0,17,733508,797,5.0,1191.4208211624348,0.14999,16,0.0,0.0,1600312450,,,,0,0.3641718149243376,3,6.0,17.0,0.0,0.0,31.13776912351328,66.7128,C,27393056000000,
Raw,1732148509000,19983000000,,683201.9144724448,-1416183707017999872,0.0,89.01655864845631,2110.845228532371,0.0,0,16,0.0,17,167896,396,5.0,1127.0901691610131,0.14999,16,0.0,0.0,1601437440,,,,0,7.8533500713746305,3,6.0,23.0,0.0,0.0,31.13776912351328,66.7128,C,27393056000000,
Raw,1732148509000,19983000000,,683201.9144724448,-1416183707017999872,0.0,89.01655864845631,2110.845228532371,0.0,0,14,0.0,16431,346926932775810,487,21.61199951171875,738.8296796655093,0.14999,16,0.0,0.0,1575420030,,,,0,4.9220991223295165,1,6.0,21.61199951171875,0.0,0.0,0.0,66.7128,C,27393056000000,
Raw,1732148509000,19983000000,,683201.9144724448,-1416183707017999872,0.0,89.01655864845631,2110.845228532371,0.0,0,21,0.0,16431,346926919986364,74,31.26300048828125,844.3703787729783,0.14999,16,0.0,0.0,1575420030,,,,0,18.064250275506875,1,6.0,31.26300048828125,0.0,0.0,0.0,66.7128,C,27393056000000,
Fix,FLP,37.4243865000,-122.1707627000,2.0,0.02956439,2.516,,1732148509208,2.4,,27393056000000,0.9330673,0,,,
Status,1732148509000,29,0,1,14,1575420030,31.80,10.0,69.0,1,0,0,26.8
Status,1732148509000,29,1,1,22,1575420030,30.50,305.0,68.0,1,0,0,25.5
Status,1732148509000,29,2,1,17,1575420030,29.40,169.0,62.0,1,0,0,24.4
Status,1732148509000,29,3,1,30,1575420030,30.30,106.0,59.0,1,0,0,25.3
Status,1732148509000,29,4,1,13,1575420030,31.40,279.0,56.0,1,0,0,26.4
Status,1732148509000,29,5,1,19,1575420030,24.80,194.0,33.0,1,0,0,19.8
Status,1732148509000,29,6,1,15,1575420030,0.00,303.0,26.0,0,0,0,0.0
Status,1732148509000,29,7,1,7,1575420030,30.80,116.0,25.0,1,0,0,25.8
Status,1732148509000,29,8,2,131,1575420030,30.00,3.0,23.0,0,0,0,25.0
Status,1732148509000,29,9,1,2,1575420030,32.80,72.0,20.0,1,0,0,27.8
Status,1732148509000,29,10,1,21,1575420030,37.80,53.0,14.0,1,0,0,32.8
Status,1732148509000,29,11,3,9,1602000000,28.20,45.0,47.0,1,0,0,23.2
Status,1732148509000,29,12,3,8,1602000000,24.10,278.0,39.0,1,0,0,19.1
Status,1732148509000,29,13,3,19,1602000000,0.00,63.0,36.0,0,0,0,0.0
Status,1732148509000,29,14,3,20,1602000000,0.00,141.0,27.0,0,0,0,0.0
Status,1732148509000,29,15,3,18,1602000000,25.20,26.0,12.0,1,0,0,20.2
Status,1732148509000,29,16,3,11,1602000000,0.00,286.0,11.0,0,0,0,0.0
Status,1732148509000,29,17,3,16,1602000000,28.10,82.0,4.0,0,0,0,23.1
Status,1732148509000,29,18,3,17,1602000000,28.00,0.0,0.0,0,0,0,23.0
Status,1732148509000,29,19,6,21,1575420030,24.70,293.0,63.0,1,0,0,19.7
Status,1732148509000,29,20,6,19,1575420030,0.00,277.0,54.0,0,0,0,0.0
Status,1732148509000,29,21,6,27,1575420030,21.60,47.0,48.0,1,0,0,16.6
Status,1732148509000,29,22,6,29,1575420030,0.00,197.0,47.0,0,0,0,0.0
Status,1732148509000,29,23,6,15,1575420030,34.90,83.0,18.0,1,0,0,29.900002
Status,1732148509000,29,24,6,13,1575420030,0.00,134.0,11.0,0,0,0,0.0
Status,1732148509000,29,25,6,4,1575420030,0.00,323.0,10.0,0,0,0,0.0
Status,1732148509000,29,26,6,34,1575420030,0.00,36.0,6.0,0,0,0,0.0
Status,1732148509000,29,27,6,7,1575420030,0.00,162.0,5.0,0,0,0,0.0
Status,1732148509000,29,28,6,30,1575420030,0.00,66.0,2.0,0,0,0,0.0
Fix,GPS,37.4243816667,-122.1707550000,1.0,0.0,2.5,231.52,1732148510000,2.3,179.9,27394056000000,34.2,0,,,
Raw,1732148510000,20983000000,,682749.7787652817,-1416183707017999872,0.0,88.64114253049524,2108.240370768228,0.0,0,30,0.0,16431,346927931070499,316,25.27199935913086,879.1571399957754,0.14999,16,0.0,0.0,1575420030,,,,0,10.418565268817447,1,6.0,25.27199935913086,0.0,0.0,0.0,66.7128,C,27394056000000,
Raw,1732148510000,20983000000,,682749.7787652817,-1416183707017999872,0.0,88.64114253049524,2108.240370768228,0.0,0,7,0.0,16431,346927924127196,396,25.804000854492188,1107.9074172302403,0.14999,16,0.0,0.0,1575420030,,,,0,11.136156690458822,1,6.0,25.804000854492188,0.0,0.0,0.0,66.7128,C,27394056000000,
Raw,1732148510000,20983000000,,682749.7787652817,-1416183707017999872,0.0,88.64114253049524,2108.240370768228,0.0,0,22,0.0,16431,346927931546939,316,25.540000915527344,599.0665497169526,0.14999,16,0.0,0.0,1575420030,,,,0,10.784769418688464,1,6.0,25.540000915527344,0.0,0.0,0.0,66.7128,C,27394056000000,
Raw,1732148510000,20983000000,,682749.7787652817,-1416183707017999872,0.0,88.64114253049524,2108.240370768228,0.0,0,2,0.0,16431,346927921298570,316,27.783000946044922,611.2414422690863,0.14999,16,0.0,0.0,1575420030,,,,0,13.758407056140097,1,6.0,27.783000946044922,0.0,0.0,0.0,66.7128,C,27394056000000,
Raw,1732148510000,20983000000,,682749.7787652817,-1416183707017999872,0.0,88.64114253049524,2108.240370768228,0.0,0,17,0.0,16431,346927932188515,316,24.368999481201172,350.9005337842363,0.14999,16,0.0,0.0,1575420030,,,,0,9.12108964866249,1,6.0,24.368999481201172,0.0,0.0,0.0,66.7128,C,27394056000000,
Raw,1732148510000,20983000000,,682749.7787652817,-1416183707017999872,0.0,88.64114253049524,2108.240370768228,0.0,0,13,0.0,16431,346927931502196,316,26.35099983215332,581.966646920756,0.14999,16,0.0,0.0,1575420030,,,,0,11.86957861178968,1,6.0,26.35099983215332,0.0,0.0,0.0,66.7128,C,27394056000000,
Raw,1732148510000,20983000000,,682749.7787652817,-1416183707017999872,0.0,88.64114253049524,2108.240370768228,0.0,0,19,0.0,16431,346927925512689,487,19.785999298095703,-0.9051493230299177,0.14999,16,0.0,0.0,1575420030,,,,0,4.102067022249219,1,6.0,19.785999298095703,0.0,0.0,0.0,66.7128,C,27394056000000,
Raw,1732148510000,20983000000,,682749.7787652817,-1416183707017999872,0.0,88.64114253049524,2108.240370768228,0.0,0,15,0.0,16431,346927910624801,74,29.899999618530273,343.47492251684923,0.14999,16,0.0,0.0,1575420030,,,,0,16.924084933578207,6,6.0,29.899999618530273,0.0,0.0,15.29884774340978,66.7128,C,27394056000000,
Raw,1732148510000,20983000000,,682749.7787652817,-1416183707017999872,0.0,88.64114253049524,2108.240370768228,0.0,0,27,0.0,16431,346927918489980,487,16.600000381469727,920.0850534237787,0.14999,16,0.0,0.0,1575420030,,,,0,0.0,6,6.0,16.600000381469727,0.0,0.0,15.29884774340978,66.7128,C,27394056000000,
Raw,1732148510000,20983000000,,682749.7787652817,-1416183707017999872,0.0,88.64114253049524,2108.240370768228,0.0,0,21,0.0,16431,346927920964273,487,19.729999542236328,533.5618553630771,0.14999,16,0.0,0.0,1575420030,,,,0,1.516864814430368,6,6.0,19.729999542236328,0.0,0.0,15.29884774340978,66.7128,C,27394056000000,
Raw,1732148510000,20983000000,,682749.7787652817,-1416183707017999872,0.0,88.64114253049524,2108.240370768228,0.0,0,9,0.0,17,800669,396,5.0,844.2205843109053,0.14999,16,0.0,0.0,1600875010,,,,0,8.799797371444804,3,6.0,22.0,0.0,0.0,29.39495145555314,66.7128,C,27394056000000,
Raw,1732148510000,20983000000,,682749.7787652817,-1416183707017999872,0.0,88.64114253049524,2108.240370768228,0.0,0,8,0.0,17,723896,487,5.0,783.41383381127,0.14999,16,0.0,0.0,1605374980,,,,0,1.6572716719449043,3,6.0,19.0,0.0,0.0,29.39495145555314,66.7128,C,27394056000000,
Raw,1732148510000,20983000000,,682749.7787652817,-1416183707017999872,0.0,88.64114253049524,2108.240370768228,0.0,0,18,0.0,17,729532,487,5.0,1190.9800198494886,0.14999,16,0.0,0.0,1600312450,,,,0,4.5035283254993566,3,6.0,20.0,0.0,0.0,29.39495145555314,66.7128,C,27394056000000,
Raw,1732148510000,20983000000,,682749.7787652817,-1416183707017999872,0.0,88.64114253049524,2108.240370768228,0.0,0,16,0.0,17,164135,396,5.0,1126.4241757636664,0.14999,16,0.0,0.0,1601437440,,,,0,8.593021396438031,3,6.0,21.0,0.0,0.0,29.39495145555314,66.7128,C,27394056000000,
Raw,1732148510000,20983000000,,682749.7787652817,-1416183707017999872,0.0,88.64114253049524,2108.240370768228,0.0,0,14,0.0,16431,346927932773316,316,26.773000717163086,738.5726252486164,0.14999,16,0.0,0.0,1575420030,,,,0,12.447718083992989,1,6.0,26.773000717163086,0.0,0.0,0.0,66.7128,C,27394056000000,
Raw,1732148510000,20983000000,,682749.7787652817,-1416183707017999872,0.0,88.64114253049524,2108.240370768228,0.0,0,21,0.0,16431,346927919983548,58,32.847999572753906,844.4766756292679,0.14999,16,0.0,0.0,1575420030,,,,0,19.90540047977976,1,6.0,32.847999572753906,0.0,0.0,0.0,66.7128,C,27394056000000,
Fix,FLP,37.4243842000,-122.1707588000,2.0,0.036139168,2.516,,1732148510209,2.3,,27394056000000,0.9430757,0,,,
Status,1732148510000,29,0,1,14,1575420030,30.00,10.0,69.0,1,0,0,25.0
Status,1732148510000,29,1,1,22,1575420030,31.00,305.0,68.0,1,0,0,26.0
Status,1732148510000,29,2,1,17,1575420030,0.00,169.0,62.0,0,0,0,0.0
Status,1732148510000,29,3,1,30,1575420030,32.50,106.0,59.0,1,0,0,27.5
Status,1732148510000,29,4,1,13,1575420030,31.20,279.0,56.0,1,0,0,26.2
Status,1732148510000,29,5,1,19,1575420030,30.80,194.0,33.0,1,0,0,25.8
Status,1732148510000,29,6,1,15,1575420030,24.20,303.0,26.0,1,0,0,19.2
Status,1732148510000,29,7,1,7,1575420030,27.60,116.0,25.0,1,0,0,22.6
Status,1732148510000,29,8,2,131,1575420030,30.00,3.0,23.0,0,0,0,25.0
Status,1732148510000,29,9,1,2,1575420030,32.30,72.0,20.0,1,0,0,27.3
Status,1732148510000,29,10,1,21,1575420030,33.30,53.0,14.0,1,0,0,28.3
Status,1732148510000,29,11,3,9,1602000000,31.40,45.0,47.0,1,0,0,26.4
Status,1732148510000,29,12,3,8,1602000000,26.70,278.0,39.0,1,0,0,21.7
Status,1732148510000,29,13,3,19,1602000000,0.00,63.0,36.0,0,0,0,0.0
Status,1732148510000,29,14,3,20,1602000000,0.00,141.0,27.0,0,0,0,0.0
Status,1732148510000,29,15,3,18,1602000000,24.00,26.0,12.0,1,0,0,19.0
Status,1732148510000,29,16,3,11,1602000000,0.00,286.0,11.0,0,0,0,0.0
Status,1732148510000,29,17,3,16,1602000000,26.70,82.0,4.0,0,0,0,21.7
Status,1732148510000,29,18,3,17,1602000000,28.90,0.0,0.0,0,0,0,23.9
Status,1732148510000,29,19,6,21,1575420030,24.70,293.0,63.0,1,0,0,19.7
Status,1732148510000,29,20,6,19,1575420030,19.50,277.0,54.0,1,0,0,14.5
Status,1732148510000,29,21,6,27,1575420030,24.20,47.0,48.0,1,0,0,19.2
Status,1732148510000,29,22,6,29,1575420030,0.00,197.0,47.0,0,0,0,0.0
Status,1732148510000,29,23,6,15,1575420030,33.20,83.0,18.0,1,0,0,28.2
Status,1732148510000,29,24,6,13,1575420030,0.00,134.0,11.0,0,0,0,0.0
Status,1732148510000,29,25,6,4,1575420030,0.00,323.0,10.0,0,0,0,0.0
Status,1732148510000,29,26,6,34,1575420030,0.00,36.0,6.0,0,0,0,0.0
Status,1732148510000,29,27,6,7,1575420030,0.00,162.0,5.0,0,0,0,0.0
Status,1732148510000,29,28,6,30,1575420030,0.00,66.0,2.0,0,0,0,0.0
Fix,GPS,37.4243800000,-122.1707533333,1.1000000000000014,0.0,2.5,231.52,1732148511000,2.4,179.9,27395056000000,34.0,0,,,
Fix,FLP,37.4243821000,-122.1707559000,2.0,0.040767558,2.5,,1732148511208,2.4,,27395056000000,0.9530684,0,,,
Raw,1732148511000,21983000000,,682251.9864725883,-1416183707017999872,0.0,87.71112444295794,2106.5515087152876,0.0,0,30,0.0,16431,346928931067570,316,27.472999572753906,879.028171432375,0.14999,16,0.0,0.0,1575420030,,,,0,13.352991953678556,1,6.0,27.472999572753906,0.0,0.0,0.0,66.7128,C,27395056000000,
Raw,1732148511000,21983000000,,682251.9864725883,-1416183707017999872,0.0,87.71112444295794,2106.5515087152876,0.0,0,7,0.0,16431,346928924123502,396,22.56999969482422,1107.4894773180104,0.14999,16,0.0,0.0,1575420030,,,,0,6.427118170713365,1,6.0,22.56999969482422,0.0,0.0,0.0,66.7128,C,27395056000000,
Raw,1732148511000,21983000000,,682251.9864725883,-1416183707017999872,0.0,87.71112444295794,2106.5515087152876,0.0,0,22,0.0,16431,346928931544946,316,26.0049991607666,598.6203166292504,0.14999,16,0.0,0.0,1575420030,,,,0,11.399956694799226,1,6.0,26.0049991607666,0.0,0.0,0.0,66.7128,C,27395056000000,
Raw,1732148511000,21983000000,,682251.9864725883,-1416183707017999872,0.0,87.71112444295794,2106.5515087152876,0.0,0,2,0.0,16431,346928921296531,316,27.283000946044922,611.525814234711,0.14999,16,0.0,0.0,1575420030,,,,0,13.112536746766573,1,6.0,27.283000946044922,0.0,0.0,0.0,66.7128,C,27395056000000,
Raw,1732148511000,21983000000,,682251.9864725883,-1416183707017999872,0.0,87.71112444295794,2106.5515087152876,0.0,0,13,0.0,16431,346928931500260,316,26.18000030517578,581.6694524322572,0.14999,16,0.0,0.0,1575420030,,,,0,11.655980398093735,1,6.0,26.18000030517578,0.0,0.0,0.0,66.7128,C,27395056000000,
Raw,1732148511000,21983000000,,682251.9864725883,-1416183707017999872,0.0,87.71112444295794,2106.5515087152876,0.0,0,19,0.0,16431,346928925512704,316,25.777999877929688,-1.6004459800368338,0.14999,16,0.0,0.0,1575420030,,,,0,11.097808329544385,1,6.0,25.777999877929688,0.0,0.0,0.0,66.7128,C,27395056000000,
Raw,1732148511000,21983000000,,682251.9864725883,-1416183707017999872,0.0,87.71112444295794,2106.5515087152876,0.0,0,15,0.0,16431,346928910623653,235,28.200000762939453,343.23312968968145,0.14999,16,0.0,0.0,1575420030,,,,0,14.946492816158989,6,6.0,28.200000762939453,0.0,0.0,14.871364722206124,66.7128,C,27395056000000,
Raw,1732148511000,21983000000,,682251.9864725883,-1416183707017999872,0.0,87.71112444295794,2106.5515087152876,0.0,0,27,0.0,16431,346928918486909,487,19.200000762939453,920.2319549358365,0.14999,16,0.0,0.0,1575420030,,,,0,3.003439679494623,6,6.0,19.200000762939453,0.0,0.0,14.871364722206124,66.7128,C,27395056000000,
Raw,1732148511000,21983000000,,682251.9864725883,-1416183707017999872,0.0,87.71112444295794,2106.5515087152876,0.0,0,19,0.0,16431,346928921122063,797,14.5,620.0508406925123,0.14999,16,0.0,0.0,1575420030,,,,0,0.0,6,6.0,14.5,0.0,0.0,14.871364722206124,66.7128,C,27395056000000,
Raw,1732148511000,21983000000,,682251.9864725883,-1416183707017999872,0.0,87.71112444295794,2106.5515087152876,0.0,0,21,0.0,16431,346928920962496,797,19.683000564575195,533.107677886203,0.14999,16,0.0,0.0,1575420030,,,,0,2.2919165942707007,6,6.0,19.683000564575195,0.0,0.0,14.871364722206124,66.7128,C,27395056000000,
Raw,1732148511000,21983000000,,682251.9864725883,-1416183707017999872,0.0,87.71112444295794,2106.5515087152876,0.0,0,9,0.0,17,797852,316,5.0,844.1984559781223,0.14999,16,0.0,0.0,1600875010,,,,0,12.746938703492269,3,6.0,25.0,0.0,0.0,32.36046506800493,66.7128,C,27395056000000,
Raw,1732148511000,21983000000,,682251.9864725883,-1416183707017999872,0.0,87.71112444295794,2106.5515087152876,0.0,0,8,0.0,17,721246,487,5.0,783.3532882465314,0.14999,16,0.0,0.0,1605374980,,,,0,6.743003514378004,3,6.0,20.0,0.0,0.0,32.36046506800493,66.7128,C,27395056000000,
Raw,1732148511000,21983000000,,682251.9864725883,-1416183707017999872,0.0,87.71112444295794,2106.5515087152876,0.0,0,18,0.0,17,725556,487,5.0,1190.336609093053,0.14999,16,0.0,0.0,1600312450,,,,0,2.6078019379353403,3,6.0,19.0,0.0,0.0,32.36046506800493,66.7128,C,27395056000000,
Raw,1732148511000,21983000000,,682251.9864725883,-1416183707017999872,0.0,87.71112444295794,2106.5515087152876,0.0,0,16,0.0,17,160375,487,5.0,1126.133592040064,0.14999,16,0.0,0.0,1601437440,,,,0,6.786761237341514,3,6.0,20.0,0.0,0.0,32.36046506800493,66.7128,C,27395056000000,
Raw,1732148511000,21983000000,,682251.9864725883,-1416183707017999872,0.0,87.71112444295794,2106.5515087152876,0.0,0,15,0.0,16431,346928925144108,487,19.1560001373291,373.27221244309135,0.14999,16,0.0,0.0,1575420030,,,,0,0.6658178007210935,1,6.0,19.1560001373291,0.0,0.0,0.0,66.7128,C,27395056000000,
Raw,1732148511000,21983000000,,682251.9864725883,-1416183707017999872,0.0,87.71112444295794,2106.5515087152876,0.0,0,14,0.0,16431,346928932770871,316,25.017000198364258,737.9803733587645,0.14999,16,0.0,0.0,1575420030,,,,0,10.036239459875992,1,6.0,25.017000198364258,0.0,0.0,0.0,66.7128,C,27395056000000,
Raw,1732148511000,21983000000,,682251.9864725883,-1416183707017999872,0.0,87.71112444295794,2106.5515087152876,0.0,0,21,0.0,16431,346928919980725,396,28.2549991607666,844.1565771415773,0.14999,16,0.0,0.0,1575420030,,,,0,14.359557505595854,1,6.0,28.2549991607666,0.0,0.0,0.0,66.7128,C,27395056000000,
Status,1732148511000,29,0,1,14,1575420030,32.40,10.0,69.0,1,0,0,27.400002
Status,1732148511000,29,1,1,22,1575420030,29.60,305.0,68.0,1,0,0,24.6
Status,1732148511000,29,2,1,17,1575420030,26.60,169.0,62.0,1,0,0,21.6
Status,1732148511000,29,3,1,30,1575420030,32.80,106.0,59.0,1,0,0,27.8
Status,1732148511000,29,4,1,13,1575420030,29.20,279.0,56.0,1,0,0,24.2
Status,1732148511000,29,5,1,19,1575420030,29.70,194.0,33.0,1,0,0,24.7
Status,1732148511000,29,6,1,15,1575420030,0.00,303.0,26.0,0,0,0,0.0
Status,1732148511000,29,7,1,7,1575420030,30.50,116.0,25.0,1,0,0,25.5
Status,1732148511000,29,8,2,131,1575420030,31.00,3.0,23.0,0,0,0,26.0
Status,1732148511000,29,9,1,2,1575420030,31.00,72.0,20.0,1,0,0,26.0
Status,1732148511000,29,10,1,21,1575420030,31.20,53.0,14.0,1,0,0,26.2
Status,1732148511000,29,11,3,9,1602000000,28.50,45.0,47.0,1,0,0,23.5
Status,1732148511000,29,12,3,8,1602000000,23.10,278.0,39.0,1,0,0,18.1
Status,1732148511000,29,13,3,19,1602000000,0.00,63.0,36.0,0,0,0,0.0
Status,1732148511000,29,14,3,20,1602000000,0.00,141.0,27.0,0,0,0,0.0
Status,1732148511000,29,15,3,18,1602000000,23.70,26.0,12.0,1,0,0,18.7
Status,1732148511000,29,16,3,11,1602000000,0.00,286.0,11.0,0,0,0,0.0
Status,1732148511000,29,17,3,16,1602000000,27.40,82.0,4.0,0,0,0,22.4
Status,1732148511000,29,18,3,17,1602000000,33.10,0.0,0.0,0,0,0,28.099998
Status,1732148511000,29,19,6,21,1575420030,0.00,293.0,63.0,0,0,0,0.0
Status,1732148511000,29,20,6,19,1575420030,19.50,277.0,54.0,1,0,0,14.5
Status,1732148511000,29,21,6,27,1575420030,24.30,47.0,48.0,1,0,0,19.3
Status,1732148511000,29,22,6,29,1575420030,23.80,197.0,47.0,1,0,0,18.8
Status,1732148511000,29,23,6,15,1575420030,41.10,83.0,18.0,1,0,0,36.1
Status,1732148511000,29,24,6,13,1575420030,0.00,134.0,11.0,0,0,0,0.0
Status,1732148511000,29,25,6,4,1575420030,0.00,323.0,10.0,0,0,0,0.0
Status,1732148511000,29,26,6,34,1575420030,0.00,36.0,6.0,0,0,0,0.0
Status,1732148511000,29,27,6,7,1575420030,0.00,162.0,5.0,0,0,0,0.0
Status,1732148511000,29,28,6,30,1575420030,0.00,66.0,2.0,0,0,0,0.0
Fix,GPS,37.4243816667,-122.1707550000,1.1999999999999993,0.0,2.5,231.52,1732148512000,2.4,179.9,27396056000000,34.4,0,,,
Raw,1732148512000,22983000000,,681527.8917890589,-1416183707017999872,0.0,89.3593365254436,2100.984307974801,0.0,0,30,0.0,16431,346929931064644,316,27.80299949645996,877.7630158421296,0.14999,16,0.0,0.0,1575420030,,,,0,13.786653876605254,1,6.0,27.80299949645996,0.0,0.0,0.0,66.7128,C,27396056000000,
Raw,1732148512000,22983000000,,681527.8917890589,-1416183707017999872,0.0,89.3593365254436,2100.984307974801,0.0,0,7,0.0,16431,346929924119811,316,25.459999084472656,1106.3688074021798,0.14999,16,0.0,0.0,1575420030,,,,0,10.664408744908474,1,6.0,25.459999084472656,0.0,0.0,0.0,66.7128,C,27396056000000,
Raw,1732148512000,22983000000,,681527.8917890589,-1416183707017999872,0.0,89.3593365254436,2100.984307974801,0.0,0,22,0.0,16431,346929931542948,396,24.611000061035156,597.5239909235141,0.14999,16,0.0,0.0,1575420030,,,,0,9.452471677326347,1,6.0,24.611000061035156,0.0,0.0,0.0,66.7128,C,27396056000000,
Raw,1732148512000,22983000000,,681527.8917890589,-1416183707017999872,0.0,89.3593365254436,2100.984307974801,0.0,0,2,0.0,16431,346929921294496,316,25.954999923706055,609.8556341719421,0.14999,16,0.0,0.0,1575420030,,,,0,11.362757967116746,1,6.0,25.954999923706055,0.0,0.0,0.0,66.7128,C,27396056000000,
Raw,1732148512000,22983000000,,681527.8917890589,-1416183707017999872,0.0,89.3593365254436,2100.984307974801,0.0,0,13,0.0,16431,346929931498322,316,24.246000289916992,580.4487575463253,0.14999,16,0.0,0.0,1575420030,,,,0,8.925892902879363,1,6.0,24.246000289916992,0.0,0.0,0.0,66.7128,C,27396056000000,
Raw,1732148512000,22983000000,,681527.8917890589,-1416183707017999872,0.0,89.3593365254436,2100.984307974801,0.0,0,19,0.0,16431,346929925512710,316,24.731000900268555,-2.602414642449513,0.14999,16,0.0,0.0,1575420030,,,,0,9.636306891550918,1,6.0,24.731000900268555,0.0,0.0,0.0,66.7128,C,27396056000000,
Raw,1732148512000,22983000000,,681527.8917890589,-1416183707017999872,0.0,89.3593365254436,2100.984307974801,0.0,0,15,0.0,16431,346929910622511,51,36.099998474121094,342.1719730050166,0.14999,16,0.0,0.0,1575420030,,,,0,23.588378514285854,6,6.0,36.099998474121094,0.0,0.0,12.043647550678713,66.7128,C,27396056000000,
Raw,1732148512000,22983000000,,681527.8917890589,-1416183707017999872,0.0,89.3593365254436,2100.984307974801,0.0,0,29,0.0,16431,346929918737896,487,18.799999237060547,1059.9130857797816,0.14999,16,0.0,0.0,1575420030,,,,0,2.2919165942707007,6,6.0,18.799999237060547,0.0,0.0,12.043647550678713,66.7128,C,27396056000000,
Raw,1732148512000,22983000000,,681527.8917890589,-1416183707017999872,0.0,89.3593365254436,2100.984307974801,0.0,0,27,0.0,16431,346929918483842,396,19.30500030517578,918.1478303846318,0.14999,16,0.0,0.0,1575420030,,,,0,6.159838939553735,6,6.0,19.30500030517578,0.0,0.0,12.043647550678713,66.7128,C,27396056000000,
Raw,1732148512000,22983000000,,681527.8917890589,-1416183707017999872,0.0,89.3593365254436,2100.984307974801,0.0,0,19,0.0,16431,346929921119998,797,14.5,617.8677597147791,0.14999,16,0.0,0.0,1575420030,,,,0,0.0,6,6.0,14.5,0.0,0.0,12.043647550678713,66.7128,C,27396056000000,
Raw,1732148512000,22983000000,,681527.8917890589,-1416183707017999872,0.0,89.3593365254436,2100.984307974801,0.0,0,9,0.0,17,795041,316,5.0,841.7203570245904,0.14999,16,0.0,0.0,1600875010,,,,0,9.192883839247058,3,6.0,24.0,0.0,0.0,33.936661907719255,66.7128,C,27396056000000,
Raw,1732148512000,22983000000,,681527.8917890589,-1416183707017999872,0.0,89.3593365254436,2100.984307974801,0.0,0,8,0.0,17,718631,487,5.0,782.2277243141023,0.14999,16,0.0,0.0,1605374980,,,,0,1.1085067050061115,3,6.0,20.0,0.0,0.0,33.936661907719255,66.7128,C,27396056000000,
Raw,1732148512000,22983000000,,681527.8917890589,-1416183707017999872,0.0,89.3593365254436,2100.984307974801,0.0,0,18,0.0,17,721585,487,5.0,1190.2379113099719,0.14999,16,0.0,0.0,1600312450,,,,0,2.1734169440706137,3,6.0,19.0,0.0,0.0,33.936661907719255,66.7128,C,27396056000000,
Raw,1732148512000,22983000000,,681527.8917890589,-1416183707017999872,0.0,89.3593365254436,2100.984307974801,0.0,0,16,0.0,17,156616,396,5.0,1124.3646784763177,0.14999,16,0.0,0.0,1601437440,,,,0,7.708083405729299,3,6.0,21.0,0.0,0.0,33.936661907719255,66.7128,C,27396056000000,
Raw,1732148512000,22983000000,,681527.8917890589,-1416183707017999872,0.0,89.3593365254436,2100.984307974801,0.0,0,14,0.0,16431,346929932768410,235,27.430999755859375,736.3158147643571,0.14999,16,0.0,0.0,1575420030,,,,0,13.323296575564733,1,6.0,27.430999755859375,0.0,0.0,0.0,66.7128,C,27396056000000,
Raw,1732148512000,22983000000,,681527.8917890589,-1416183707017999872,0.0,89.3593365254436,2100.984307974801,0.0,0,21,0.0,16431,346929919977914,316,26.204999923706055,843.0052446710478,0.14999,16,0.0,0.0,1575420030,,,,0,11.691946866204994,1,6.0,26.204999923706055,0.0,0.0,0.0,66.7128,C,27396056000000,
Raw,1732148512000,22983000000,,681527.8917890589,-1416183707017999872,0.0,89.3593365254436,2100.984307974801,0.0,0,17,0.0,16431,346929932186133,487,21.61199951171875,349.6431599787062,0.14999,16,0.0,0.0,1575420030,,,,0,4.9220991223295165,1,6.0,21.61199951171875,0.0,0.0,0.0,66.7128,C,27396056000000,
Fix,FLP,37.4243819000,-122.1707553000,2.0,0.039706588,2.5,,1732148512208,2.4,,27396056000000,0.963078,0,,,
Status,1732148512000,29,0,1,14,1575420030,27.60,10.0,69.0,1,0,0,22.6
Status,1732148512000,29,1,1,22,1575420030,32.30,305.0,68.0,1,0,0,27.3
Status,1732148512000,29,2,1,17,1575420030,29.60,169.0,62.0,1,0,0,24.6
Status,1732148512000,29,3,1,30,1575420030,38.20,106.0,59.0,1,0,0,33.2
Status,1732148512000,29,4,1,13,1575420030,31.10,279.0,56.0,1,0,0,26.1
Status,1732148512000,29,5,1,19,1575420030,29.90,194.0,33.0,1,0,0,24.9
Status,1732148512000,29,6,1,15,1575420030,0.00,303.0,26.0,0,0,0,0.0
Status,1732148512000,29,7,1,7,1575420030,31.00,116.0,25.0,1,0,0,26.0
Status,1732148512000,29,8,2,131,1575420030,29.00,3.0,23.0,0,0,0,24.0
Status,1732148512000,29,9,1,2,1575420030,35.00,72.0,20.0,1,0,0,30.0
Status,1732148512000,29,10,1,21,1575420030,29.00,53.0,14.0,1,0,0,24.0
Status,1732148512000,29,11,3,9,1602000000,31.90,45.0,47.0,1,0,0,26.9
Status,1732148512000,29,12,3,8,1602000000,23.20,278.0,39.0,1,0,0,18.2
Status,1732148512000,29,13,3,19,1602000000,0.00,63.0,36.0,0,0,0,0.0
Status,1732148512000,29,14,3,20,1602000000,0.00,141.0,27.0,0,0,0,0.0
Status,1732148512000,29,15,3,18,1602000000,23.00,26.0,12.0,1,0,0,18.0
Status,1732148512000,29,16,3,11,1602000000,0.00,286.0,11.0,0,0,0,0.0
Status,1732148512000,29,17,3,16,1602000000,25.70,82.0,4.0,0,0,0,20.7
Status,1732148512000,29,18,3,17,1602000000,28.30,0.0,0.0,0,0,0,23.3
Status,1732148512000,29,19,6,21,1575420030,0.00,293.0,63.0,0,0,0,0.0
Status,1732148512000,29,20,6,19,1575420030,19.50,277.0,54.0,1,0,0,14.5
Status,1732148512000,29,21,6,27,1575420030,29.30,47.0,48.0,1,0,0,24.3
Status,1732148512000,29,22,6,29,1575420030,23.50,197.0,47.0,1,0,0,18.5
Status,1732148512000,29,23,6,15,1575420030,35.50,83.0,18.0,1,0,0,30.5
Status,1732148512000,29,24,6,13,1575420030,0.00,134.0,11.0,0,0,0,0.0
Status,1732148512000,29,25,6,4,1575420030,0.00,323.0,10.0,0,0,0,0.0
Status,1732148512000,29,26,6,34,1575420030,0.00,36.0,6.0,0,0,0,0.0
Status,1732148512000,29,27,6,7,1575420030,0.00,162.0,5.0,0,0,0,0.0
Status,1732148512000,29,28,6,30,1575420030,0.00,66.0,2.0,0,0,0,0.0
Fix,GPS,37.4243866667,-122.1707633333,1.5,0.42516056,2.5,297.75,1732148513000,2.4,152.2,27397056000000,33.4,0,,,
Raw,1732148513000,23983000000,,680710.7639946032,-1416183707017999872,0.0,87.42711448641411,2099.1228925738847,0.0,0,30,0.0,16431,346930931061721,58,33.1870002746582,877.8172792722635,0.14999,16,0.0,0.0,1575420030,,,,0,20.300591461234774,1,6.0,33.1870002746582,0.0,0.0,0.0,66.7128,C,27397056000000,
Raw,1732148513000,23983000000,,680710.7639946032,-1416183707017999872,0.0,87.42711448641411,2099.1228925738847,0.0,0,7,0.0,16431,346930924116110,316,26.0049991607666,1106.6496949865887,0.14999,16,0.0,0.0,1575420030,,,,0,11.399956694799226,1,6.0,26.0049991607666,0.0,0.0,0.0,66.7128,C,27397056000000,
Raw,1732148513000,23983000000,,680710.7639946032,-1416183707017999872,0.0,87.42711448641411,2099.1228925738847,0.0,0,22,0.0,16431,346930931540957,235,27.347000122070312,597.2399441668028,0.14999,16,0.0,0.0,1575420030,,,,0,13.203489301780985,1,6.0,27.347000122070312,0.0,0.0,0.0,66.7128,C,27397056000000,
Raw,1732148513000,23983000000,,680710.7639946032,-1416183707017999872,0.0,87.42711448641411,2099.1228925738847,0.0,0,2,0.0,16431,346930921292459,74,29.961999893188477,609.6981401409885,0.14999,16,0.0,0.0,1575420030,,,,0,16.501281463309734,1,6.0,29.961999893188477,0.0,0.0,0.0,66.7128,C,27397056000000,
Raw,1732148513000,23983000000,,680710.7639946032,-1416183707017999872,0.0,87.42711448641411,2099.1228925738847,0.0,0,14,0.0,16431,346930932766005,396,22.56999969482422,736.3280797862367,0.14999,16,0.0,0.0,1575420030,,,,0,6.427118170713365,1,6.0,22.56999969482422,0.0,0.0,0.0,66.7128,C,27397056000000,
Raw,1732148513000,23983000000,,680710.7639946032,-1416183707017999872,0.0,87.42711448641411,2099.1228925738847,0.0,0,13,0.0,16431,346930931496393,316,26.05500030517578,579.7745530102779,0.14999,16,0.0,0.0,1575420030,,,,0,11.4738796059985,1,6.0,26.05500030517578,0.0,0.0,0.0,66.7128,C,27397056000000,
Raw,1732148513000,23983000000,,680710.7639946032,-1416183707017999872,0.0,87.42711448641411,2099.1228925738847,0.0,0,19,0.0,16431,346930925512722,396,24.905000686645508,-3.4180850558579343,0.14999,16,0.0,0.0,1575420030,,,,0,9.904964069828226,1,6.0,24.905000686645508,0.0,0.0,0.0,66.7128,C,27397056000000,
Raw,1732148513000,23983000000,,680710.7639946032,-1416183707017999872,0.0,87.42711448641411,2099.1228925738847,0.0,0,15,0.0,16431,346930910621368,74,30.5,341.8102477764013,0.14999,16,0.0,0.0,1575420030,,,,0,17.5495117390937,6,6.0,30.5,0.0,0.0,12.704886836227445,66.7128,C,27397056000000,
Raw,1732148513000,23983000000,,680710.7639946032,-1416183707017999872,0.0,87.42711448641411,2099.1228925738847,0.0,0,29,0.0,16431,346930918734356,487,18.5,1060.6056878486484,0.14999,16,0.0,0.0,1575420030,,,,0,1.7454540500460052,6,6.0,18.5,0.0,0.0,12.704886836227445,66.7128,C,27397056000000,
Raw,1732148513000,23983000000,,680710.7639946032,-1416183707017999872,0.0,87.42711448641411,2099.1228925738847,0.0,0,27,0.0,16431,346930918480798,316,24.299999237060547,917.6592736797618,0.14999,16,0.0,0.0,1575420030,,,,0,10.250716767711452,6,6.0,24.299999237060547,0.0,0.0,12.704886836227445,66.7128,C,27397056000000,
Raw,1732148513000,23983000000,,680710.7639946032,-1416183707017999872,0.0,87.42711448641411,2099.1228925738847,0.0,0,19,0.0,16431,346930921117937,797,14.5,617.4218518359904,0.14999,16,0.0,0.0,1575420030,,,,0,0.0,6,6.0,14.5,0.0,0.0,12.704886836227445,66.7128,C,27397056000000,
Raw,1732148513000,23983000000,,680710.7639946032,-1416183707017999872,0.0,87.42711448641411,2099.1228925738847,0.0,0,9,0.0,17,792233,235,5.0,841.8096018708561,0.14999,16,0.0,0.0,1600875010,,,,0,13.367623378291645,3,6.0,27.0,0.0,0.0,37.278774494398746,66.7128,C,27397056000000,
Raw,1732148513000,23983000000,,680710.7639946032,-1416183707017999872,0.0,87.42711448641411,2099.1228925738847,0.0,0,8,0.0,17,716026,396,5.0,781.4138241471497,0.14999,16,0.0,0.0,1605374980,,,,0,4.16602731832385,3,6.0,22.0,0.0,0.0,37.278774494398746,66.7128,C,27397056000000,
Raw,1732148513000,23983000000,,680710.7639946032,-1416183707017999872,0.0,87.42711448641411,2099.1228925738847,0.0,0,18,0.0,17,717616,487,5.0,1191.121251894973,0.14999,16,0.0,0.0,1600312450,,,,0,0.8961271848002319,3,6.0,20.0,0.0,0.0,37.278774494398746,66.7128,C,27397056000000,
Raw,1732148513000,23983000000,,680710.7639946032,-1416183707017999872,0.0,87.42711448641411,2099.1228925738847,0.0,0,16,0.0,17,152864,396,5.0,1123.9100186961361,0.14999,16,0.0,0.0,1601437440,,,,0,5.312101466611521,3,6.0,22.0,0.0,0.0,37.278774494398746,66.7128,C,27397056000000,
Raw,1732148513000,23983000000,,680710.7639946032,-1416183707017999872,0.0,87.42711448641411,2099.1228925738847,0.0,0,21,0.0,16431,346930919975102,396,23.98900032043457,842.3925510780632,0.14999,16,0.0,0.0,1575420030,,,,0,8.573373638869839,1,6.0,23.98900032043457,0.0,0.0,0.0,66.7128,C,27397056000000,
Raw,1732148513000,23983000000,,680710.7639946032,-1416183707017999872,0.0,87.42711448641411,2099.1228925738847,0.0,0,17,0.0,16431,346930932185018,316,24.642000198364258,350.3222658776637,0.14999,16,0.0,0.0,1575420030,,,,0,9.498796531869965,1,6.0,24.642000198364258,0.0,0.0,0.0,66.7128,C,27397056000000,
Fix,FLP,37.4243843000,-122.1707591000,2.0,0.01890391,2.5,,1732148513208,2.4,,27397056000000,0.97306985,0,,,
Status,1732148513000,29,0,1,14,1575420030,33.90,10.0,69.0,1,0,0,28.900002
Status,1732148513000,29,1,1,22,1575420030,30.00,305.0,68.0,1,0,0,25.0
Status,1732148513000,29,2,1,17,1575420030,30.20,169.0,62.0,1,0,0,25.2
Status,1732148513000,29,3,1,30,1575420030,38.30,106.0,59.0,1,0,0,33.3
Status,1732148513000,29,4,1,13,1575420030,29.70,279.0,56.0,1,0,0,24.7
Status,1732148513000,29,5,1,19,1575420030,29.10,194.0,33.0,1,0,0,24.1
Status,1732148513000,29,6,1,15,1575420030,0.00,303.0,26.0,0,0,0,0.0
Status,1732148513000,29,7,1,7,1575420030,35.10,116.0,25.0,1,0,0,30.099998
Status,1732148513000,29,8,2,131,1575420030,30.00,3.0,23.0,0,0,0,25.0
Status,1732148513000,29,9,1,2,1575420030,36.90,72.0,20.0,1,0,0,31.900002
Status,1732148513000,29,10,1,21,1575420030,26.10,53.0,14.0,1,0,0,21.1
Status,1732148513000,29,11,3,9,1602000000,29.30,45.0,47.0,1,0,0,24.3
Status,1732148513000,29,12,3,8,1602000000,23.30,278.0,39.0,1,0,0,18.3
Status,1732148513000,29,13,3,19,1602000000,0.00,63.0,36.0,0,0,0,0.0
Status,1732148513000,29,14,3,20,1602000000,0.00,141.0,27.0,0,0,0,0.0
Status,1732148513000,29,15,3,18,1602000000,0.00,26.0,12.0,0,0,0,0.0
Status,1732148513000,29,16,3,11,1602000000,0.00,286.0,11.0,0,0,0,0.0
Status,1732148513000,29,17,3,16,1602000000,28.20,82.0,4.0,0,0,0,23.2
Status,1732148513000,29,18,3,17,1602000000,35.40,0.0,0.0,0,0,0,30.400002
Status,1732148513000,29,19,6,21,1575420030,26.30,293.0,63.0,1,0,0,21.3
Status,1732148513000,29,20,6,19,1575420030,19.50,277.0,54.0,1,0,0,14.5
Status,1732148513000,29,21,6,27,1575420030,23.60,47.0,48.0,1,0,0,18.6
Status,1732148513000,29,22,6,29,1575420030,23.40,197.0,47.0,1,0,0,18.4
Status,1732148513000,29,23,6,15,1575420030,27.80,83.0,18.0,1,0,0,22.8
Status,1732148513000,29,24,6,13,1575420030,0.00,134.0,11.0,0,0,0,0.0
Status,1732148513000,29,25,6,4,1575420030,0.00,323.0,10.0,0,0,0,0.0
Status,1732148513000,29,26,6,34,1575420030,0.00,36.0,6.0,0,0,0,0.0
Status,1732148513000,29,27,6,7,1575420030,0.00,162.0,5.0,0,0,0,0.0
Status,1732148513000,29,28,6,30,1575420030,0.00,66.0,2.0,0,0,0,0.0
Fix,GPS,37.4243916667,-122.1707683333,1.6999999999999993,0.0,2.5,297.75,1732148514000,2.5,128.7,27398056000000,32.9,0,,,
Raw,1732148514000,24983000000,,679875.6550106407,-1416183707017999872,0.0,86.98248366600589,2100.6237464997694,0.0,0,30,0.0,16431,346931931058791,74,33.334999084472656,879.5995170349321,0.14999,16,0.0,0.0,1575420030,,,,0,20.47207245265846,1,6.0,33.334999084472656,0.0,0.0,0.0,66.7128,C,27398056000000,
Raw,1732148514000,24983000000,,679875.6550106407,-1416183707017999872,0.0,86.98248366600589,2100.6237464997694,0.0,0,7,0.0,16431,346931924112415,74,30.086000442504883,1107.1748609234326,0.14999,16,0.0,0.0,1575420030,,,,0,16.644514926859806,1,6.0,30.086000442504883,0.0,0.0,0.0,66.7128,C,27398056000000,
Raw,1732148514000,24983000000,,679875.6550106407,-1416183707017999872,0.0,86.98248366600589,2100.6237464997694,0.0,0,22,0.0,16431,346931931538956,396,24.98900032043457,598.4826138836023,0.14999,16,0.0,0.0,1575420030,,,,0,9.9927010747905,1,6.0,24.98900032043457,0.0,0.0,0.0,66.7128,C,27398056000000,
Raw,1732148514000,24983000000,,679875.6550106407,-1416183707017999872,0.0,86.98248366600589,2100.6237464997694,0.0,0,2,0.0,16431,346931921290424,74,31.857999801635742,610.7334659462402,0.14999,16,0.0,0.0,1575420030,,,,0,18.759492400691116,1,6.0,31.857999801635742,0.0,0.0,0.0,66.7128,C,27398056000000,
Raw,1732148514000,24983000000,,679875.6550106407,-1416183707017999872,0.0,86.98248366600589,2100.6237464997694,0.0,0,14,0.0,16431,346931932763484,316,28.881000518798828,738.3256987664574,0.14999,16,0.0,0.0,1575420030,,,,0,15.165783584709526,1,6.0,28.881000518798828,0.0,0.0,0.0,66.7128,C,27398056000000,
Raw,1732148514000,24983000000,,679875.6550106407,-1416183707017999872,0.0,86.98248366600589,2100.6237464997694,0.0,0,13,0.0,16431,346931931494463,396,24.731000900268555,580.8795199814294,0.14999,16,0.0,0.0,1575420030,,,,0,9.636306891550918,1,6.0,24.731000900268555,0.0,0.0,0.0,66.7128,C,27398056000000,
Raw,1732148514000,24983000000,,679875.6550106407,-1416183707017999872,0.0,86.98248366600589,2100.6237464997694,0.0,0,19,0.0,16431,346931925512733,396,24.05299949645996,-2.45625646505116,0.14999,16,0.0,0.0,1575420030,,,,0,8.675561754439444,1,6.0,24.05299949645996,0.0,0.0,0.0,66.7128,C,27398056000000,
Raw,1732148514000,24983000000,,679875.6550106407,-1416183707017999872,0.0,86.98248366600589,2100.6237464997694,0.0,0,15,0.0,16431,346931910620228,316,22.799999237060547,342.9899198808193,0.14999,16,0.0,0.0,1575420030,,,,0,8.259391634675524,6,6.0,22.799999237060547,0.0,0.0,11.262826920303723,66.7128,C,27398056000000,
Raw,1732148514000,24983000000,,679875.6550106407,-1416183707017999872,0.0,86.98248366600589,2100.6237464997694,0.0,0,29,0.0,16431,346931918730815,487,18.399999618530273,1060.4058237421107,0.14999,16,0.0,0.0,1575420030,,,,0,1.6319113922121953,6,6.0,18.399999618530273,0.0,0.0,11.262826920303723,66.7128,C,27398056000000,
Raw,1732148514000,24983000000,,679875.6550106407,-1416183707017999872,0.0,86.98248366600589,2100.6237464997694,0.0,0,27,0.0,16431,346931918477736,396,18.600000381469727,918.6952963612567,0.14999,16,0.0,0.0,1575420030,,,,0,1.9681813724051969,6,6.0,18.600000381469727,0.0,0.0,11.262826920303723,66.7128,C,27398056000000,
Raw,1732148514000,24983000000,,679875.6550106407,-1416183707017999872,0.0,86.98248366600589,2100.6237464997694,0.0,0,19,0.0,16431,346931921115878,797,14.5,617.4481472995656,0.14999,16,0.0,0.0,1575420030,,,,0,0.0,6,6.0,14.5,0.0,0.0,11.262826920303723,66.7128,C,27398056000000,
Raw,1732148514000,24983000000,,679875.6550106407,-1416183707017999872,0.0,86.98248366600589,2100.6237464997694,0.0,0,21,0.0,16431,346931920957179,396,21.299999237060547,533.3278443206248,0.14999,16,0.0,0.0,1575420030,,,,0,6.091713965715504,6,6.0,21.299999237060547,0.0,0.0,11.262826920303723,66.7128,C,27398056000000,
Raw,1732148514000,24983000000,,679875.6550106407,-1416183707017999872,0.0,86.98248366600589,2100.6237464997694,0.0,0,9,0.0,17,789427,316,5.0,842.5603192764314,0.14999,16,0.0,0.0,1600875010,,,,0,10.226690809244998,3,6.0,24.0,0.0,0.0,37.604372959255215,66.7128,C,27398056000000,
Raw,1732148514000,24983000000,,679875.6550106407,-1416183707017999872,0.0,86.98248366600589,2100.6237464997694,0.0,0,8,0.0,17,713417,487,5.0,782.8189554010976,0.14999,16,0.0,0.0,1605374980,,,,0,4.030307531458008,3,6.0,19.0,0.0,0.0,37.604372959255215,66.7128,C,27398056000000,
Raw,1732148514000,24983000000,,679875.6550106407,-1416183707017999872,0.0,86.98248366600589,2100.6237464997694,0.0,0,16,0.0,17,149108,487,5.0,1123.9875320643696,0.14999,16,0.0,0.0,1601437440,,,,0,8.799797371444804,3,6.0,20.0,0.0,0.0,37.604372959255215,66.7128,C,27398056000000,
Raw,1732148514000,24983000000,,679875.6550106407,-1416183707017999872,0.0,86.98248366600589,2100.6237464997694,0.0,0,21,0.0,16431,346931919972294,487,21.101999282836914,843.5464852199005,0.14999,16,0.0,0.0,1575420030,,,,0,4.102067022249219,1,6.0,21.101999282836914,0.0,0.0,0.0,66.7128,C,27398056000000,
