# 
# Header Description:
# 
# Version: v3.1.0.3 Platform: 13 Manufacturer: samsung Model: SM-S135DL GNSS Hardware Model Name: MediaTek,MT6631,MTK_MNLD_default,MNL_VER_default
# 
# Raw,utcTimeMillis,TimeNanos,LeapSecond,TimeUncertaintyNanos,FullBiasNanos,BiasNanos,BiasUncertaintyNanos,DriftNanosPerSecond,DriftUncertaintyNanosPerSecond,HardwareClockDiscontinuityCount,Svid,TimeOffsetNanos,State,ReceivedSvTimeNanos,ReceivedSvTimeUncertaintyNanos,Cn0DbHz,PseudorangeRateMetersPerSecond,PseudorangeRateUncertaintyMetersPerSecond,AccumulatedDeltaRangeState,AccumulatedDeltaRangeMeters,AccumulatedDeltaRangeUncertaintyMeters,CarrierFrequencyHz,CarrierCycles,CarrierPhase,CarrierPhaseUncertainty,MultipathIndicator,SnrInDb,ConstellationType,AgcDb,BasebandCn0DbHz,FullInterSignalBiasNanos,FullInterSignalBiasUncertaintyNanos,SatelliteInterSignalBiasNanos,SatelliteInterSignalBiasUncertaintyNanos,CodeType,ChipsetElapsedRealtimeNanos,IsFullTracking
# 
# UncalAccel,utcTimeMillis,elapsedRealtimeNanos,UncalAccelXMps2,UncalAccelYMps2,UncalAccelZMps2,BiasXMps2,BiasYMps2,BiasZMps2
# 
# Accel,utcTimeMillis,elapsedRealtimeNanos,AccelXMps2,AccelYMps2,AccelZMps2
# 
# UncalGyro,utcTimeMillis,elapsedRealtimeNanos,UncalGyroXRadPerSec,UncalGyroYRadPerSec,UncalGyroZRadPerSec,DriftXRadPerSec,DriftYRadPerSec,DriftZRadPerSec
# 
# Gyro,utcTimeMillis,elapsedRealtimeNanos,GyroXRadPerSec,GyroYRadPerSec,GyroZRadPerSec
# 
# UncalMag,utcTimeMillis,elapsedRealtimeNanos,UncalMagXMicroT,UncalMagYMicroT,UncalMagZMicroT,BiasXMicroT,BiasYMicroT,BiasZMicroT
# 
# Mag,utcTimeMillis,elapsedRealtimeNanos,MagXMicroT,MagYMicroT,MagZMicroT
# 
# Pressure,utcTimeMillis,elapsedRealtimeNanos,PressureHpa
# 
# OrientationDeg,utcTimeMillis,elapsedRealtimeNanos,yawDeg,rollDeg,pitchDeg
# 
# Fix,Provider,LatitudeDegrees,LongitudeDegrees,AltitudeMeters,SpeedMps,AccuracyMeters,BearingDegrees,UnixTimeMillis,SpeedAccuracyMps,BearingAccuracyDegrees,elapsedRealtimeNanos,VerticalAccuracyMeters,MockLocation,NumberOfUsedSignals,VerticalSpeedAccuracyMps,SolutionType
# 
# Nav,Svid,Type,Status,MessageId,Sub-messageId,Data(Bytes)
# 
# Status,UnixTimeMillis,SignalCount,SignalIndex,ConstellationType,Svid,CarrierFrequencyHz,Cn0DbHz,AzimuthDegrees,ElevationDegrees,UsedInFix,HasAlmanacData,HasEphemerisData,BasebandCn0DbHz
# 
# Agc,utcTimeMillis,TimeNanos,LeapSecond,TimeUncertaintyNanos,FullBiasNanos,BiasNanos,BiasUncertaintyNanos,DriftNanosPerSecond,DriftUncertaintyNanosPerSecond,HardwareClockDiscontinuityCount,AgcDb,CarrierFrequencyHz,ConstellationType
# 
Status,,29,0,1,14,1575420030,31.40,10.0,69.0,1,0,0,26.4
Status,,29,1,1,22,1575420030,35.70,304.0,68.0,1,0,0,30.7
Status,,29,2,1,17,1575420030,24.30,169.0,62.0,1,0,0,19.3
Status,,29,3,1,30,1575420030,31.30,106.0,59.0,1,0,0,26.3
Status,,29,4,1,13,1575420030,32.40,280.0,56.0,1,0,0,27.400002
Status,,29,5,1,19,1575420030,0.00,194.0,33.0,0,0,0,0.0
Status,,29,6,1,15,1575420030,26.60,304.0,26.0,1,0,0,21.6
Status,,29,7,1,7,1575420030,32.50,116.0,25.0,1,0,0,27.5
Status,,29,8,2,131,1575420030,31.00,3.0,23.0,0,0,0,26.0
Status,,29,9,1,2,1575420030,34.00,72.0,20.0,1,0,0,29.0
Status,,29,10,1,21,1575420030,0.00,54.0,14.0,0,0,0,0.0
Status,,29,11,3,9,1602000000,24.50,44.0,47.0,1,0,0,19.5
Status,,29,12,3,8,1602000000,28.30,279.0,39.0,1,0,0,23.3
Status,,29,13,3,19,1602000000,0.00,64.0,36.0,0,0,0,0.0
Status,,29,14,3,20,1602000000,0.00,141.0,26.0,0,0,0,0.0
Status,,29,15,3,18,1602000000,21.30,26.0,12.0,1,0,0,16.3
Status,,29,16,3,11,1602000000,0.00,286.0,11.0,0,0,0,0.0
Status,,29,17,3,16,1602000000,31.60,82.0,5.0,1,0,0,26.6
Status,,29,18,3,17,1602000000,31.50,0.0,0.0,0,0,0,26.5
Status,,29,19,6,21,1575420030,24.60,292.0,63.0,1,0,0,19.6
Status,,29,20,6,19,1575420030,0.00,277.0,54.0,0,0,0,0.0
Status,,29,21,6,27,1575420030,23.80,47.0,49.0,1,0,0,18.8
Status,,29,22,6,29,1575420030,0.00,197.0,47.0,0,0,0,0.0
Status,,29,23,6,15,1575420030,34.20,84.0,18.0,1,0,0,29.2
Status,,29,24,6,13,1575420030,0.00,135.0,11.0,0,0,0,0.0
Status,,29,25,6,4,1575420030,0.00,323.0,10.0,0,0,0,0.0
Status,,29,26,6,34,1575420030,0.00,36.0,6.0,0,0,0,0.0
Status,,29,27,6,7,1575420030,0.00,162.0,5.0,0,0,0,0.0
Status,,29,28,6,30,1575420030,0.00,66.0,2.0,0,0,0,0.0
Fix,GPS,37.4243933333,-122.1707916667,0.8000000000000007,0.7715686,2.7,14.49,1732148471000,2.6,108.9,27355058000000,36.9,0,,,
Fix,FLP,37.4243847000,-122.1707928000,2.0,0.031724647,2.76,,1732148471210,2.6,,27355058000000,0.984527,0,,,
Raw,1732148471000,19159000000,,703787.8747269886,-1416183669841999872,0.0,96.06211146894275,2124.6835439444717,0.0,0,2,0.0,16431,346888921363508,235,29.010000228881836,611.7039358024622,0.14999,16,0.0,0.0,1575420030,,,,0,15.337607492263487,1,6.0,29.010000228881836,0.0,0.0,0.0,66.7128,C,27355058000000,
Raw,1732148471000,19159000000,,703787.8747269886,-1416183669841999872,0.0,96.06211146894275,2124.6835439444717,0.0,0,13,0.0,16431,346888931563236,316,27.43400001525879,581.181081561052,0.14999,16,0.0,0.0,1575420030,,,,0,13.320137112794015,1,6.0,27.43400001525879,0.0,0.0,0.0,66.7128,C,27355058000000,
Raw,1732148471000,19159000000,,703787.8747269886,-1416183669841999872,0.0,96.06211146894275,2124.6835439444717,0.0,0,15,0.0,16431,346888925179264,396,21.606000900268555,373.25551064246366,0.14999,16,0.0,0.0,1575420030,,,,0,4.961481579279231,1,6.0,21.606000900268555,0.0,0.0,0.0,66.7128,C,27355058000000,
Raw,1732148471000,19159000000,,703787.8747269886,-1416183669841999872,0.0,96.06211146894275,2124.6835439444717,0.0,0,14,0.0,16431,346888932854957,316,26.43400001525879,741.2930907266568,0.14999,16,0.0,0.0,1575420030,,,,0,12.0179904037187,1,6.0,26.43400001525879,0.0,0.0,0.0,66.7128,C,27355058000000,
Raw,1732148471000,19159000000,,703787.8747269886,-1416183669841999872,0.0,96.06211146894275,2124.6835439444717,0.0,0,17,0.0,16431,346888932219467,487,19.30299949645996,352.1940986959944,0.14999,16,0.0,0.0,1575420030,,,,0,1.0245519663532177,1,6.0,19.30299949645996,0.0,0.0,0.0,66.7128,C,27355058000000,
Raw,1732148471000,19159000000,,703787.8747269886,-1416183669841999872,0.0,96.06211146894275,2124.6835439444717,0.0,0,21,0.0,16431,346888921019311,396,19.600000381469727,536.6348473033232,0.14999,16,0.0,0.0,1575420030,,,,0,3.628977397207457,6,6.0,19.600000381469727,0.0,0.0,19.929691118840296,66.7128,C,27355058000000,
Raw,1732148471000,19159000000,,703787.8747269886,-1416183669841999872,0.0,96.06211146894275,2124.6835439444717,0.0,0,22,0.0,16431,346888931610433,74,30.715999603271484,601.7771660107564,0.14999,16,0.0,0.0,1575420030,,,,0,17.408065071798546,1,6.0,30.715999603271484,0.0,0.0,0.0,66.7128,C,27355058000000,
Raw,1732148471000,19159000000,,703787.8747269886,-1416183669841999872,0.0,96.06211146894275,2124.6835439444717,0.0,0,15,0.0,16431,346888910654906,74,29.200000762939453,345.2722360355782,0.14999,16,0.0,0.0,1575420030,,,,0,16.098248301275103,6,6.0,29.200000762939453,0.0,0.0,19.929691118840296,66.7128,C,27355058000000,
Raw,1732148471000,19159000000,,703787.8747269886,-1416183669841999872,0.0,96.06211146894275,2124.6835439444717,0.0,0,7,0.0,16431,346888924256800,235,27.45400047302246,1110.6742946660752,0.14999,16,0.0,0.0,1575420030,,,,0,13.349580834677088,1,6.0,27.45400047302246,0.0,0.0,0.0,66.7128,C,27355058000000,
Raw,1732148471000,19159000000,,703787.8747269886,-1416183669841999872,0.0,96.06211146894275,2124.6835439444717,0.0,0,27,0.0,16431,346888918595227,487,18.81100082397461,923.6534314560778,0.14999,16,0.0,0.0,1575420030,,,,0,0.39486403639369794,6,6.0,18.81100082397461,0.0,0.0,19.929691118840296,66.7128,C,27355058000000,
Raw,1732148471000,19159000000,,703787.8747269886,-1416183669841999872,0.0,96.06211146894275,2124.6835439444717,0.0,0,9,0.0,17,896032,487,5.0,847.0080227264423,0.14999,16,0.0,0.0,1600875010,,,,0,3.416375079047504,3,6.0,20.0,0.0,0.0,53.43450101834078,66.7128,C,27355058000000,
Raw,1732148471000,19159000000,,703787.8747269886,-1416183669841999872,0.0,96.06211146894275,2124.6835439444717,0.0,0,16,0.0,17,296194,235,5.0,1130.3020379499198,0.14999,16,0.0,0.0,1601437440,,,,0,13.084989651580898,3,6.0,27.0,0.0,0.0,53.43450101834078,66.7128,C,27355058000000,
Raw,1732148471000,19159000000,,703787.8747269886,-1416183669841999872,0.0,96.06211146894275,2124.6835439444717,0.0,0,8,0.0,17,811067,487,5.0,782.2687566998437,0.14999,16,0.0,0.0,1605374980,,,,0,5.740885370720287,3,6.0,20.0,0.0,0.0,53.43450101834078,66.7128,C,27355058000000,
Raw,1732148471000,19159000000,,703787.8747269886,-1416183669841999872,0.0,96.06211146894275,2124.6835439444717,0.0,0,18,0.0,17,869854,487,5.0,1190.1117720672758,0.14999,16,0.0,0.0,1600312450,,,,0,0.0,3,6.0,18.0,0.0,0.0,53.43450101834078,66.7128,C,27355058000000,
Raw,1732148471000,19159000000,,703787.8747269886,-1416183669841999872,0.0,96.06211146894275,2124.6835439444717,0.0,0,30,0.0,16431,346888931170310,316,26.292999267578125,880.0989450091954,0.14999,16,0.0,0.0,1575420030,,,,0,11.809935195723357,1,6.0,26.292999267578125,0.0,0.0,0.0,66.7128,C,27355058000000,
Status,1732148471000,29,0,1,14,1575420030,29.90,10.0,69.0,1,0,0,24.9
Status,1732148471000,29,1,1,22,1575420030,31.70,304.0,68.0,1,0,0,26.7
Status,1732148471000,29,2,1,17,1575420030,26.70,169.0,62.0,1,0,0,21.7
Status,1732148471000,29,3,1,30,1575420030,34.00,106.0,59.0,1,0,0,29.0
Status,1732148471000,29,4,1,13,1575420030,28.80,280.0,56.0,1,0,0,23.8
Status,1732148471000,29,5,1,19,1575420030,0.00,194.0,33.0,0,0,0,0.0
Status,1732148471000,29,6,1,15,1575420030,28.90,304.0,26.0,1,0,0,23.9
Status,1732148471000,29,7,1,7,1575420030,35.80,116.0,25.0,1,0,0,30.8
Status,1732148471000,29,8,2,131,1575420030,32.00,3.0,23.0,0,0,0,27.0
Status,1732148471000,29,9,1,2,1575420030,31.90,72.0,20.0,1,0,0,26.9
Status,1732148471000,29,10,1,21,1575420030,0.00,54.0,14.0,0,0,0,0.0
Status,1732148471000,29,11,3,9,1602000000,24.50,44.0,47.0,1,0,0,19.5
Status,1732148471000,29,12,3,8,1602000000,28.20,279.0,39.0,1,0,0,23.2
Status,1732148471000,29,13,3,19,1602000000,0.00,64.0,36.0,0,0,0,0.0
Status,1732148471000,29,14,3,20,1602000000,0.00,141.0,26.0,0,0,0,0.0
Status,1732148471000,29,15,3,18,1602000000,21.30,26.0,12.0,1,0,0,16.3
Status,1732148471000,29,16,3,11,1602000000,0.00,286.0,11.0,0,0,0,0.0
Status,1732148471000,29,17,3,16,1602000000,29.20,82.0,5.0,1,0,0,24.2
Status,1732148471000,29,18,3,17,1602000000,31.80,0.0,0.0,0,0,0,26.8
Status,1732148471000,29,19,6,21,1575420030,23.70,292.0,63.0,1,0,0,18.7
Status,1732148471000,29,20,6,19,1575420030,0.00,277.0,54.0,0,0,0,0.0
Status,1732148471000,29,21,6,27,1575420030,23.80,47.0,49.0,1,0,0,18.8
Status,1732148471000,29,22,6,29,1575420030,17.80,197.0,47.0,1,0,0,12.799999
Status,1732148471000,29,23,6,15,1575420030,31.10,84.0,18.0,1,0,0,26.1
Status,1732148471000,29,24,6,13,1575420030,0.00,135.0,11.0,0,0,0,0.0
Status,1732148471000,29,25,6,4,1575420030,0.00,323.0,10.0,0,0,0,0.0
Status,1732148471000,29,26,6,34,1575420030,0.00,36.0,6.0,0,0,0,0.0
Status,1732148471000,29,27,6,7,1575420030,0.00,162.0,5.0,0,0,0,0.0
Status,1732148471000,29,28,6,30,1575420030,0.00,66.0,2.0,0,0,0,0.0
Fix,GPS,37.4243916667,-122.1707950000,0.8000000000000007,0.8503211,2.7,16.07,1732148472000,2.5,99.1,27356058000000,37.9,0,,,
Fix,FLP,37.4243881000,-122.1707936000,2.0,0.03809739,2.74,,1732148472210,2.5,,27356058000000,0.9945513,0,,,
Raw,1732148472000,20159000000,,703260.7392177958,-1416183669841999872,0.0,102.26889966978409,2128.449437179025,0.0,0,2,0.0,16431,346889921361462,316,26.893999099731445,613.2427779226039,0.14999,16,0.0,0.0,1575420030,,,,0,12.61382780882892,1,6.0,26.893999099731445,0.0,0.0,0.0,66.7128,C,27356058000000,
Raw,1732148472000,20159000000,,703260.7392177958,-1416183669841999872,0.0,102.26889966978409,2128.449437179025,0.0,0,13,0.0,16431,346889931561293,396,23.839000701904297,582.76545292908,0.14999,16,0.0,0.0,1575420030,,,,0,8.36671588717838,1,6.0,23.839000701904297,0.0,0.0,0.0,66.7128,C,27356058000000,
Raw,1732148472000,20159000000,,703260.7392177958,-1416183669841999872,0.0,102.26889966978409,2128.449437179025,0.0,0,15,0.0,16431,346889925178019,487,23.871999740600586,374.4828955403299,0.14999,16,0.0,0.0,1575420030,,,,0,8.418727357788885,1,6.0,23.871999740600586,0.0,0.0,0.0,66.7128,C,27356058000000,
Raw,1732148472000,20159000000,,703260.7392177958,-1416183669841999872,0.0,102.26889966978409,2128.449437179025,0.0,0,14,0.0,16431,346889932852484,316,24.906999588012695,742.7335803796808,0.14999,16,0.0,0.0,1575420030,,,,0,9.893641352314283,1,6.0,24.906999588012695,0.0,0.0,0.0,66.7128,C,27356058000000,
Raw,1732148472000,20159000000,,703260.7392177958,-1416183669841999872,0.0,102.26889966978409,2128.449437179025,0.0,0,17,0.0,16431,346889932218391,396,21.650999069213867,352.8068387473952,0.14999,16,0.0,0.0,1575420030,,,,0,5.038348360914435,1,6.0,21.650999069213867,0.0,0.0,0.0,66.7128,C,27356058000000,
Raw,1732148472000,20159000000,,703260.7392177958,-1416183669841999872,0.0,102.26889966978409,2128.449437179025,0.0,0,21,0.0,16431,346889921017518,487,18.700000762939453,538.2460251775047,0.14999,16,0.0,0.0,1575420030,,,,0,2.0543487376889757,6,6.0,18.700000762939453,0.0,0.0,18.003967538242236,66.7128,C,27356058000000,
Raw,1732148472000,20159000000,,703260.7392177958,-1416183669841999872,0.0,102.26889966978409,2128.449437179025,0.0,0,30,0.0,16431,346889931167407,235,28.993000030517578,881.5149046184603,0.14999,16,0.0,0.0,1575420030,,,,0,15.314195376638544,1,6.0,28.993000030517578,0.0,0.0,0.0,66.7128,C,27356058000000,
Raw,1732148472000,20159000000,,703260.7392177958,-1416183669841999872,0.0,102.26889966978409,2128.449437179025,0.0,0,22,0.0,16431,346889931608423,316,26.714000701904297,603.3177735507142,0.14999,16,0.0,0.0,1575420030,,,,0,12.386944657755699,1,6.0,26.714000701904297,0.0,0.0,0.0,66.7128,C,27356058000000,
Raw,1732148472000,20159000000,,703260.7392177958,-1416183669841999872,0.0,102.26889966978409,2128.449437179025,0.0,0,15,0.0,16431,346889910653752,235,26.100000381469727,346.2079782256828,0.14999,16,0.0,0.0,1575420030,,,,0,12.48490685747655,6,6.0,26.100000381469727,0.0,0.0,18.003967538242236,66.7128,C,27356058000000,
Raw,1732148472000,20159000000,,703260.7392177958,-1416183669841999872,0.0,102.26889966978409,2128.449437179025,0.0,0,7,0.0,16431,346889924253092,74,30.81399917602539,1110.540308593724,0.14999,16,0.0,0.0,1575420030,,,,0,17.53606997258885,1,6.0,30.81399917602539,0.0,0.0,0.0,66.7128,C,27356058000000,
Raw,1732148472000,20159000000,,703260.7392177958,-1416183669841999872,0.0,102.26889966978409,2128.449437179025,0.0,0,27,0.0,16431,346889918592144,316,18.799999237060547,924.6555394937391,0.14999,16,0.0,0.0,1575420030,,,,0,1.9457737034610112,6,6.0,18.799999237060547,0.0,0.0,18.003967538242236,66.7128,C,27356058000000,
Raw,1732148472000,20159000000,,703260.7392177958,-1416183669841999872,0.0,102.26889966978409,2128.449437179025,0.0,0,29,0.0,16431,346889918865011,1797,12.800000190734863,1064.8904546589138,0.14999,16,0.0,0.0,1575420030,,,,0,0.0,6,6.0,12.800000190734863,0.0,0.0,18.003967538242236,66.7128,C,27356058000000,
Raw,1732148472000,20159000000,,703260.7392177958,-1416183669841999872,0.0,102.26889966978409,2128.449437179025,0.0,0,9,0.0,17,893203,487,5.0,848.506714355843,0.14999,16,0.0,0.0,1600875010,,,,0,3.416375079047504,3,6.0,19.0,0.0,0.0,52.1717139212292,66.7128,C,27356058000000,
Raw,1732148472000,20159000000,,703260.7392177958,-1416183669841999872,0.0,102.26889966978409,2128.449437179025,0.0,0,16,0.0,17,292420,316,5.0,1131.4076089272614,0.14999,16,0.0,0.0,1601437440,,,,0,10.070069647289188,3,6.0,24.0,0.0,0.0,52.1717139212292,66.7128,C,27356058000000,
Raw,1732148472000,20159000000,,703260.7392177958,-1416183669841999872,0.0,102.26889966978409,2128.449437179025,0.0,0,8,0.0,17,808435,487,5.0,783.2617404347882,0.14999,16,0.0,0.0,1605374980,,,,0,6.372865092154335,3,6.0,19.0,0.0,0.0,52.1717139212292,66.7128,C,27356058000000,
Raw,1732148472000,20159000000,,703260.7392177958,-1416183669841999872,0.0,102.26889966978409,2128.449437179025,0.0,0,18,0.0,17,865879,797,5.0,1192.0242588593646,0.14999,16,0.0,0.0,1600312450,,,,0,0.0,3,6.0,15.0,0.0,0.0,52.1717139212292,66.7128,C,27356058000000,
Status,1732148472000,29,0,1,14,1575420030,28.60,10.0,69.0,1,0,0,23.6
Status,1732148472000,29,1,1,22,1575420030,28.40,304.0,68.0,1,0,0,23.4
Status,1732148472000,29,2,1,17,1575420030,26.30,169.0,62.0,1,0,0,21.3
Status,1732148472000,29,3,1,30,1575420030,33.00,106.0,59.0,1,0,0,28.0
Status,1732148472000,29,4,1,13,1575420030,31.10,280.0,56.0,1,0,0,26.1
Status,1732148472000,29,5,1,19,1575420030,24.40,194.0,33.0,1,0,0,19.4
Status,1732148472000,29,6,1,15,1575420030,27.30,304.0,26.0,1,0,0,22.3
Status,1732148472000,29,7,1,7,1575420030,36.10,116.0,25.0,1,0,0,31.099998
Status,1732148472000,29,8,2,131,1575420030,33.00,3.0,23.0,0,0,0,28.0
Status,1732148472000,29,9,1,2,1575420030,25.90,72.0,20.0,1,0,0,20.9
Status,1732148472000,29,10,1,21,1575420030,0.00,54.0,14.0,0,0,0,0.0
Status,1732148472000,29,11,3,9,1602000000,30.00,44.0,47.0,1,0,0,25.0
Status,1732148472000,29,12,3,8,1602000000,24.30,279.0,39.0,1,0,0,19.3
Status,1732148472000,29,13,3,19,1602000000,0.00,64.0,36.0,0,0,0,0.0
Status,1732148472000,29,14,3,20,1602000000,0.00,141.0,26.0,0,0,0,0.0
Status,1732148472000,29,15,3,18,1602000000,0.00,26.0,12.0,0,0,0,0.0
Status,1732148472000,29,16,3,11,1602000000,0.00,286.0,11.0,0,0,0,0.0
Status,1732148472000,29,17,3,16,1602000000,26.20,82.0,5.0,1,0,0,21.2
Status,1732148472000,29,18,3,17,1602000000,26.50,0.0,0.0,0,0,0,21.5
Status,1732148472000,29,19,6,21,1575420030,26.20,292.0,63.0,1,0,0,21.2
Status,1732148472000,29,20,6,19,1575420030,0.00,277.0,54.0,0,0,0,0.0
Status,1732148472000,29,21,6,27,1575420030,23.80,47.0,49.0,1,0,0,18.8
Status,1732148472000,29,22,6,29,1575420030,17.80,197.0,47.0,1,0,0,12.799999
Status,1732148472000,29,23,6,15,1575420030,31.30,84.0,18.0,1,0,0,26.3
Status,1732148472000,29,24,6,13,1575420030,0.00,135.0,11.0,0,0,0,0.0
Status,1732148472000,29,25,6,4,1575420030,0.00,323.0,10.0,0,0,0,0.0
Status,1732148472000,29,26,6,34,1575420030,0.00,36.0,6.0,0,0,0,0.0
Status,1732148472000,29,27,6,7,1575420030,0.00,162.0,5.0,0,0,0,0.0
Status,1732148472000,29,28,6,30,1575420030,0.00,66.0,2.0,0,0,0,0.0
Fix,GPS,37.4243850000,-122.1708000000,0.8000000000000007,0.0,2.7,16.07,1732148473000,2.7,110.0,27357058000000,39.7,0,,,
Raw,1732148473000,21159000000,,703052.8870909754,-1416183669841999872,0.0,110.20255620518886,2127.351135648703,0.0,0,2,0.0,16431,346890921359416,487,20.908000946044922,613.2606179544287,0.14999,16,0.0,0.0,1575420030,,,,0,3.8071557402838403,1,6.0,20.908000946044922,0.0,0.0,0.0,66.7128,C,27357058000000,
Raw,1732148473000,21159000000,,703052.8870909754,-1416183669841999872,0.0,110.20255620518886,2127.351135648703,0.0,0,13,0.0,16431,346890931559348,396,26.14699935913086,582.6256130962863,0.14999,16,0.0,0.0,1575420030,,,,0,11.632665989097255,1,6.0,26.14699935913086,0.0,0.0,0.0,66.7128,C,27357058000000,
Raw,1732148473000,21159000000,,703052.8870909754,-1416183669841999872,0.0,110.20255620518886,2127.351135648703,0.0,0,15,0.0,16431,346890925176772,396,22.284000396728516,373.81900477268124,0.14999,16,0.0,0.0,1575420030,,,,0,5.980241640568341,1,6.0,22.284000396728516,0.0,0.0,0.0,66.7128,C,27357058000000,
Raw,1732148473000,21159000000,,703052.8870909754,-1416183669841999872,0.0,110.20255620518886,2127.351135648703,0.0,0,14,0.0,16431,346890932849999,396,23.639999389648438,741.8307075190452,0.14999,16,0.0,0.0,1575420030,,,,0,8.101881663674039,1,6.0,23.639999389648438,0.0,0.0,0.0,66.7128,C,27357058000000,
Raw,1732148473000,21159000000,,703052.8870909754,-1416183669841999872,0.0,110.20255620518886,2127.351135648703,0.0,0,17,0.0,16431,346890932217185,487,21.291000366210938,352.17017261164597,0.14999,16,0.0,0.0,1575420030,,,,0,4.4034803230058355,1,6.0,21.291000366210938,0.0,0.0,0.0,66.7128,C,27357058000000,
Raw,1732148473000,21159000000,,703052.8870909754,-1416183669841999872,0.0,110.20255620518886,2127.351135648703,0.0,0,21,0.0,16431,346890921015725,396,21.200000762939453,537.4035947163591,0.14999,16,0.0,0.0,1575420030,,,,0,5.980241640568341,6,6.0,21.200000762939453,0.0,0.0,16.46142388987265,66.7128,C,27357058000000,
Raw,1732148473000,21159000000,,703052.8870909754,-1416183669841999872,0.0,110.20255620518886,2127.351135648703,0.0,0,30,0.0,16431,346890931164483,235,28.01799964904785,880.4129109859463,0.14999,16,0.0,0.0,1575420030,,,,0,14.082050675536422,1,6.0,28.01799964904785,0.0,0.0,0.0,66.7128,C,27357058000000,
Raw,1732148473000,21159000000,,703052.8870909754,-1416183669841999872,0.0,110.20255620518886,2127.351135648703,0.0,0,22,0.0,16431,346890931606409,487,23.434999465942383,603.4010270325634,0.14999,16,0.0,0.0,1575420030,,,,0,7.773038997588732,1,6.0,23.434999465942383,0.0,0.0,0.0,66.7128,C,27357058000000,
Raw,1732148473000,21159000000,,703052.8870909754,-1416183669841999872,0.0,110.20255620518886,2127.351135648703,0.0,0,15,0.0,16431,346890910652596,235,26.299999237060547,345.52903493118197,0.14999,16,0.0,0.0,1575420030,,,,0,12.70927810605382,6,6.0,26.299999237060547,0.0,0.0,16.46142388987265,66.7128,C,27357058000000,
Raw,1732148473000,21159000000,,703052.8870909754,-1416183669841999872,0.0,110.20255620518886,2127.351135648703,0.0,0,7,0.0,16431,346890924249387,235,31.10300064086914,1110.7858877818128,0.14999,16,0.0,0.0,1575420030,,,,0,17.874292831966493,1,6.0,31.10300064086914,0.0,0.0,0.0,66.7128,C,27357058000000,
Raw,1732148473000,21159000000,,703052.8870909754,-1416183669841999872,0.0,110.20255620518886,2127.351135648703,0.0,0,27,0.0,16431,346890918589060,487,18.80500030517578,923.9790120368813,0.14999,16,0.0,0.0,1575420030,,,,0,2.3721606400036475,6,6.0,18.80500030517578,0.0,0.0,16.46142388987265,66.7128,C,27357058000000,
Raw,1732148473000,21159000000,,703052.8870909754,-1416183669841999872,0.0,110.20255620518886,2127.351135648703,0.0,0,29,0.0,16431,346890918861460,797,12.800000190734863,1064.9029055144583,0.14999,16,0.0,0.0,1575420030,,,,0,0.0,6,6.0,12.800000190734863,0.0,0.0,16.46142388987265,66.7128,C,27357058000000,
Raw,1732148473000,21159000000,,703052.8870909754,-1416183669841999872,0.0,110.20255620518886,2127.351135648703,0.0,0,9,0.0,17,890361,316,5.0,847.9234224764075,0.14999,16,0.0,0.0,1600875010,,,,0,11.123392706327845,3,6.0,25.0,0.0,0.0,55.220290645625155,66.7128,C,27357058000000,
Raw,1732148473000,21159000000,,703052.8870909754,-1416183669841999872,0.0,110.20255620518886,2127.351135648703,0.0,0,16,0.0,17,288648,396,5.0,1130.784576948629,0.14999,16,0.0,0.0,1601437440,,,,0,5.97697135075634,3,6.0,22.0,0.0,0.0,55.220290645625155,66.7128,C,27357058000000,
Raw,1732148473000,21159000000,,703052.8870909754,-1416183669841999872,0.0,110.20255620518886,2127.351135648703,0.0,0,8,0.0,17,805809,487,5.0,783.5111261570171,0.14999,16,0.0,0.0,1605374980,,,,0,3.1219099426333767,3,6.0,19.0,0.0,0.0,55.220290645625155,66.7128,C,27357058000000,
Raw,1732148473000,21159000000,,703052.8870909754,-1416183669841999872,0.0,110.20255620518886,2127.351135648703,0.0,0,19,0.0,16431,346890925498016,487,19.365999221801758,2.7330092504173367,0.14999,16,0.0,0.0,1575420030,,,,0,1.1451912617514792,1,6.0,19.365999221801758,0.0,0.0,0.0,66.7128,C,27357058000000,
Fix,FLP,37.4243867000,-122.1707965000,2.0,0.029489951,2.733,,1732148473210,2.7,,27357058000000,1.0055367,0,,,
Status,1732148473000,29,0,1,14,1575420030,34.50,10.0,69.0,1,0,0,29.5
Status,1732148473000,29,1,1,22,1575420030,26.80,304.0,68.0,1,0,0,21.8
Status,1732148473000,29,2,1,17,1575420030,28.40,169.0,62.0,1,0,0,23.4
Status,1732148473000,29,3,1,30,1575420030,32.70,106.0,59.0,1,0,0,27.7
Status,1732148473000,29,4,1,13,1575420030,33.90,280.0,56.0,1,0,0,28.900002
Status,1732148473000,29,5,1,19,1575420030,26.10,194.0,33.0,1,0,0,21.1
Status,1732148473000,29,6,1,15,1575420030,28.40,304.0,26.0,1,0,0,23.4
Status,1732148473000,29,7,1,7,1575420030,32.20,116.0,25.0,1,0,0,27.2
Status,1732148473000,29,8,2,131,1575420030,33.00,3.0,23.0,0,0,0,28.0
Status,1732148473000,29,9,1,2,1575420030,32.20,72.0,20.0,1,0,0,27.2
Status,1732148473000,29,10,1,21,1575420030,0.00,54.0,14.0,0,0,0,0.0
Status,1732148473000,29,11,3,9,1602000000,31.80,44.0,47.0,1,0,0,26.8
Status,1732148473000,29,12,3,8,1602000000,24.30,279.0,39.0,1,0,0,19.3
Status,1732148473000,29,13,3,19,1602000000,0.00,64.0,36.0,0,0,0,0.0
Status,1732148473000,29,14,3,20,1602000000,0.00,141.0,26.0,0,0,0,0.0
Status,1732148473000,29,15,3,18,1602000000,21.00,26.0,12.0,1,0,0,16.0
Status,1732148473000,29,16,3,11,1602000000,0.00,286.0,11.0,0,0,0,0.0
Status,1732148473000,29,17,3,16,1602000000,27.70,82.0,5.0,1,0,0,22.7
Status,1732148473000,29,18,3,17,1602000000,26.00,0.0,0.0,0,0,0,21.0
Status,1732148473000,29,19,6,21,1575420030,23.10,292.0,63.0,1,0,0,18.1
Status,1732148473000,29,20,6,19,1575420030,0.00,277.0,54.0,0,0,0,0.0
Status,1732148473000,29,21,6,27,1575420030,23.80,47.0,49.0,1,0,0,18.8
Status,1732148473000,29,22,6,29,1575420030,17.80,197.0,47.0,1,0,0,12.799999
Status,1732148473000,29,23,6,15,1575420030,29.00,84.0,18.0,1,0,0,24.0
Status,1732148473000,29,24,6,13,1575420030,0.00,135.0,11.0,0,0,0,0.0
Status,1732148473000,29,25,6,4,1575420030,0.00,323.0,10.0,0,0,0,0.0
Status,1732148473000,29,26,6,34,1575420030,0.00,36.0,6.0,0,0,0,0.0
Status,1732148473000,29,27,6,7,1575420030,0.00,162.0,5.0,0,0,0,0.0
Status,1732148473000,29,28,6,30,1575420030,0.00,66.0,2.0,0,0,0,0.0
Fix,GPS,37.4243750000,-122.1707916667,0.8000000000000007,0.37677667,2.7,35.05,1732148474000,2.5,179.9,27358058000000,40.0,0,,,
Fix,FLP,37.4243811000,-122.1707940000,2.0,0.036882,2.716,,1732148474210,2.5,,27358058000000,1.0155377,0,,,
Raw,1732148474000,22159000000,,702494.6884254173,-1416183669841999872,0.0,108.50825612706693,2127.963513635822,0.0,0,2,0.0,16431,346891921357368,316,27.201000213623047,613.3358805886897,0.14999,16,0.0,0.0,1575420030,,,,0,13.020076544953405,1,6.0,27.201000213623047,0.0,0.0,0.0,66.7128,C,27358058000000,
Raw,1732148474000,22159000000,,702494.6884254173,-1416183669841999872,0.0,108.50825612706693,2127.963513635822,0.0,0,13,0.0,16431,346891931557400,235,28.923999786376953,582.5669825750285,0.14999,16,0.0,0.0,1575420030,,,,0,15.21991070987454,1,6.0,28.923999786376953,0.0,0.0,0.0,66.7128,C,27358058000000,
Raw,1732148474000,22159000000,,702494.6884254173,-1416183669841999872,0.0,108.50825612706693,2127.963513635822,0.0,0,15,0.0,16431,346891925175522,487,23.367000579833984,374.4905379497965,0.14999,16,0.0,0.0,1575420030,,,,0,7.660598726595712,1,6.0,23.367000579833984,0.0,0.0,0.0,66.7128,C,27358058000000,
Raw,1732148474000,22159000000,,702494.6884254173,-1416183669841999872,0.0,108.50825612706693,2127.963513635822,0.0,0,14,0.0,16431,346891932847527,235,29.48200035095215,741.9916859312148,0.14999,16,0.0,0.0,1575420030,,,,0,15.925173790181388,1,6.0,29.48200035095215,0.0,0.0,0.0,66.7128,C,27358058000000,
Raw,1732148474000,22159000000,,702494.6884254173,-1416183669841999872,0.0,108.50825612706693,2127.963513635822,0.0,0,17,0.0,16431,346891932216018,396,23.434999465942383,352.9075605937397,0.14999,16,0.0,0.0,1575420030,,,,0,7.773038997588732,1,6.0,23.434999465942383,0.0,0.0,0.0,66.7128,C,27358058000000,
Raw,1732148474000,22159000000,,702494.6884254173,-1416183669841999872,0.0,108.50825612706693,2127.963513635822,0.0,0,21,0.0,16431,346891921013935,487,18.100000381469727,537.2119537494906,0.14999,16,0.0,0.0,1575420030,,,,0,1.1451912617514792,6,6.0,18.100000381469727,0.0,0.0,20.551137790740412,66.7128,C,27358058000000,
Raw,1732148474000,22159000000,,702494.6884254173,-1416183669841999872,0.0,108.50825612706693,2127.963513635822,0.0,0,30,0.0,16431,346891931161541,235,27.68199920654297,881.5765084783554,0.14999,16,0.0,0.0,1575420030,,,,0,13.638655421903067,1,6.0,27.68199920654297,0.0,0.0,0.0,66.7128,C,27358058000000,
Raw,1732148474000,22159000000,,702494.6884254173,-1416183669841999872,0.0,108.50825612706693,2127.963513635822,0.0,0,22,0.0,16431,346891931604400,396,21.826000213623047,602.8723302560875,0.14999,16,0.0,0.0,1575420030,,,,0,5.264949637572361,1,6.0,21.826000213623047,0.0,0.0,0.0,66.7128,C,27358058000000,
Raw,1732148474000,22159000000,,702494.6884254173,-1416183669841999872,0.0,108.50825612706693,2127.963513635822,0.0,0,15,0.0,16431,346891910651442,235,24.0,346.07071683498873,0.14999,16,0.0,0.0,1575420030,,,,0,9.761366364969318,6,6.0,24.0,0.0,0.0,20.551137790740412,66.7128,C,27358058000000,
Raw,1732148474000,22159000000,,702494.6884254173,-1416183669841999872,0.0,108.50825612706693,2127.963513635822,0.0,0,7,0.0,16431,346891924245679,235,27.201000213623047,1111.1214104636854,0.14999,16,0.0,0.0,1575420030,,,,0,13.020076544953405,1,6.0,27.201000213623047,0.0,0.0,0.0,66.7128,C,27358058000000,
Raw,1732148474000,22159000000,,702494.6884254173,-1416183669841999872,0.0,108.50825612706693,2127.963513635822,0.0,0,27,0.0,16431,346891918585977,316,18.823999404907227,924.845275665543,0.14999,16,0.0,0.0,1575420030,,,,0,2.974891836649845,6,6.0,18.823999404907227,0.0,0.0,20.551137790740412,66.7128,C,27358058000000,
Raw,1732148474000,22159000000,,702494.6884254173,-1416183669841999872,0.0,108.50825612706693,2127.963513635822,0.0,0,29,0.0,16431,346891918857908,487,12.800000190734863,1064.826713711873,0.14999,16,0.0,0.0,1575420030,,,,0,0.0,6,6.0,12.800000190734863,0.0,0.0,20.551137790740412,66.7128,C,27358058000000,
Raw,1732148474000,22159000000,,702494.6884254173,-1416183669841999872,0.0,108.50825612706693,2127.963513635822,0.0,0,9,0.0,17,887532,235,5.0,847.7751992225175,0.14999,16,0.0,0.0,1600875010,,,,0,13.243608955732958,3,6.0,27.0,0.0,0.0,53.31529470685224,66.7128,C,27358058000000,
Raw,1732148474000,22159000000,,702494.6884254173,-1416183669841999872,0.0,108.50825612706693,2127.963513635822,0.0,0,16,0.0,17,284870,316,5.0,1131.494994281072,0.14999,16,0.0,0.0,1601437440,,,,0,8.170121685091368,3,6.0,24.0,0.0,0.0,53.31529470685224,66.7128,C,27358058000000,
Raw,1732148474000,22159000000,,702494.6884254173,-1416183669841999872,0.0,108.50825612706693,2127.963513635822,0.0,0,8,0.0,17,803187,487,5.0,783.5613680337806,0.14999,16,0.0,0.0,1605374980,,,,0,3.270390304217514,3,6.0,20.0,0.0,0.0,53.31529470685224,66.7128,C,27358058000000,
Raw,1732148474000,22159000000,,702494.6884254173,-1416183669841999872,0.0,108.50825612706693,2127.963513635822,0.0,0,18,0.0,17,857932,797,5.0,1190.28291530374,0.14999,16,0.0,0.0,1600312450,,,,0,0.0,3,6.0,16.0,0.0,0.0,53.31529470685224,66.7128,C,27358058000000,
Raw,1732148474000,22159000000,,702494.6884254173,-1416183669841999872,0.0,108.50825612706693,2127.963513635822,0.0,0,19,0.0,16431,346891925498116,487,21.10099983215332,2.7790495408819798,0.14999,16,0.0,0.0,1575420030,,,,0,4.152908438167067,1,6.0,21.10099983215332,0.0,0.0,0.0,66.7128,C,27358058000000,
Status,1732148474000,29,0,1,14,1575420030,30.60,10.0,69.0,1,0,0,25.6
Status,1732148474000,29,1,1,22,1575420030,31.30,304.0,68.0,1,0,0,26.3
Status,1732148474000,29,2,1,17,1575420030,25.60,169.0,62.0,1,0,0,20.6
Status,1732148474000,29,3,1,30,1575420030,30.70,106.0,59.0,1,0,0,25.7
Status,1732148474000,29,4,1,13,1575420030,35.20,280.0,56.0,1,0,0,30.2
Status,1732148474000,29,5,1,19,1575420030,32.50,194.0,33.0,1,0,0,27.5
Status,1732148474000,29,6,1,15,1575420030,28.30,304.0,26.0,1,0,0,23.3
Status,1732148474000,29,7,1,7,1575420030,28.30,116.0,25.0,1,0,0,23.3
Status,1732148474000,29,8,2,131,1575420030,33.00,3.0,23.0,0,0,0,28.0
Status,1732148474000,29,9,1,2,1575420030,32.80,72.0,20.0,1,0,0,27.8
Status,1732148474000,29,10,1,21,1575420030,29.20,54.0,14.0,1,0,0,24.2
Status,1732148474000,29,11,3,9,1602000000,30.10,44.0,47.0,1,0,0,25.1
Status,1732148474000,29,12,3,8,1602000000,24.30,279.0,39.0,1,0,0,19.3
Status,1732148474000,29,13,3,19,1602000000,0.00,64.0,36.0,0,0,0,0.0
Status,1732148474000,29,14,3,20,1602000000,0.00,141.0,26.0,0,0,0,0.0
Status,1732148474000,29,15,3,18,1602000000,29.40,26.0,12.0,1,0,0,24.4
Status,1732148474000,29,16,3,11,1602000000,0.00,286.0,11.0,0,0,0,0.0
Status,1732148474000,29,17,3,16,1602000000,27.00,82.0,5.0,1,0,0,22.0
Status,1732148474000,29,18,3,17,1602000000,28.00,0.0,0.0,0,0,0,23.0
Status,1732148474000,29,19,6,21,1575420030,27.90,292.0,63.0,1,0,0,22.9
Status,1732148474000,29,20,6,19,1575420030,0.00,277.0,54.0,0,0,0,0.0
Status,1732148474000,29,21,6,27,1575420030,25.60,47.0,49.0,1,0,0,20.6
Status,1732148474000,29,22,6,29,1575420030,17.80,197.0,47.0,1,0,0,12.799999
Status,1732148474000,29,23,6,15,1575420030,25.50,84.0,18.0,1,0,0,20.5
Status,1732148474000,29,24,6,13,1575420030,0.00,135.0,11.0,0,0,0,0.0
Status,1732148474000,29,25,6,4,1575420030,0.00,323.0,10.0,0,0,0,0.0
Status,1732148474000,29,26,6,34,1575420030,0.00,36.0,6.0,0,0,0,0.0
Status,1732148474000,29,27,6,7,1575420030,0.00,162.0,5.0,0,0,0,0.0
Status,1732148474000,29,28,6,30,1575420030,0.00,66.0,2.0,0,0,0,0.0
Fix,GPS,37.4243766667,-122.1707850000,0.9000000000000021,0.0,2.7,35.05,1732148475000,2.5,179.9,27359058000000,34.9,0,,,
Fix,FLP,37.4243790000,-122.1707894000,2.0,0.04013572,2.7,,1732148475210,2.5,,27359058000000,1.0245489,0,,,
Raw,1732148475000,23159000000,,701895.8887551468,-1416183669841999872,0.0,91.6899550579502,2128.027959655154,0.0,0,2,0.0,16431,346892921355318,235,27.783000946044922,613.7646453118969,0.14999,16,0.0,0.0,1575420030,,,,0,13.779663220583586,1,6.0,27.783000946044922,0.0,0.0,0.0,66.7128,C,27359058000000,
Raw,1732148475000,23159000000,,701895.8887551468,-1416183669841999872,0.0,91.6899550579502,2128.027959655154,0.0,0,13,0.0,16431,346892931555461,74,30.159000396728516,582.4359233828986,0.14999,16,0.0,0.0,1575420030,,,,0,16.738116091163377,1,6.0,30.159000396728516,0.0,0.0,0.0,66.7128,C,27359058000000,
Raw,1732148475000,23159000000,,701895.8887551468,-1416183669841999872,0.0,91.6899550579502,2128.027959655154,0.0,0,15,0.0,16431,346892925174273,487,23.270000457763672,374.80877810083865,0.14999,16,0.0,0.0,1575420030,,,,0,4.647025894022573,1,6.0,23.270000457763672,0.0,0.0,0.0,66.7128,C,27359058000000,
Raw,1732148475000,23159000000,,701895.8887551468,-1416183669841999872,0.0,91.6899550579502,2128.027959655154,0.0,0,14,0.0,16431,346892932845056,316,25.589000701904297,742.5437048326284,0.14999,16,0.0,0.0,1575420030,,,,0,10.845905741513373,1,6.0,25.589000701904297,0.0,0.0,0.0,66.7128,C,27359058000000,
Raw,1732148475000,23159000000,,701895.8887551468,-1416183669841999872,0.0,91.6899550579502,2128.027959655154,0.0,0,21,0.0,16431,346892921012142,396,22.899999618530273,537.6545166223121,0.14999,16,0.0,0.0,1575420030,,,,0,8.418727357788885,6,6.0,22.899999618530273,0.0,0.0,17.37113552922459,66.7128,C,27359058000000,
Raw,1732148475000,23159000000,,701895.8887551468,-1416183669841999872,0.0,91.6899550579502,2128.027959655154,0.0,0,15,0.0,16431,346892910650286,235,20.5,346.54907591750055,0.14999,16,0.0,0.0,1575420030,,,,0,4.961481579279231,6,6.0,20.5,0.0,0.0,17.37113552922459,66.7128,C,27359058000000,
Raw,1732148475000,23159000000,,701895.8887551468,-1416183669841999872,0.0,91.6899550579502,2128.027959655154,0.0,0,27,0.0,16431,346892918582894,487,20.600000381469727,924.1746019691276,0.14999,16,0.0,0.0,1575420030,,,,0,5.1900708148948675,6,6.0,20.600000381469727,0.0,0.0,17.37113552922459,66.7128,C,27359058000000,
Raw,1732148475000,23159000000,,701895.8887551468,-1416183669841999872,0.0,91.6899550579502,2128.027959655154,0.0,0,29,0.0,16431,346892918854359,487,12.800000190734863,1064.2767389807725,0.14999,16,0.0,0.0,1575420030,,,,0,0.0,6,6.0,12.800000190734863,0.0,0.0,17.37113552922459,66.7128,C,27359058000000,
Raw,1732148475000,23159000000,,701895.8887551468,-1416183669841999872,0.0,91.6899550579502,2128.027959655154,0.0,0,9,0.0,17,884698,316,5.0,848.069085427331,0.14999,16,0.0,0.0,1600875010,,,,0,11.147403473900004,3,6.0,25.0,0.0,0.0,51.89461901865043,66.7128,C,27359058000000,
Raw,1732148475000,23159000000,,701895.8887551468,-1416183669841999872,0.0,91.6899550579502,2128.027959655154,0.0,0,16,0.0,17,281096,487,5.0,1131.4880473282585,0.14999,16,0.0,0.0,1601437440,,,,0,7.102089832466559,3,6.0,20.0,0.0,0.0,51.89461901865043,66.7128,C,27359058000000,
Raw,1732148475000,23159000000,,701895.8887551468,-1416183669841999872,0.0,91.6899550579502,2128.027959655154,0.0,0,8,0.0,17,800578,487,5.0,784.1475840514074,0.14999,16,0.0,0.0,1605374980,,,,0,3.840161060446265,3,6.0,19.0,0.0,0.0,51.89461901865043,66.7128,C,27359058000000,
Raw,1732148475000,23159000000,,701895.8887551468,-1416183669841999872,0.0,91.6899550579502,2128.027959655154,0.0,0,18,0.0,17,853927,316,5.0,1192.9360470908332,0.14999,16,0.0,0.0,1600312450,,,,0,10.303261898189056,3,6.0,24.0,0.0,0.0,51.89461901865043,66.7128,C,27359058000000,
Raw,1732148475000,23159000000,,701895.8887551468,-1416183669841999872,0.0,91.6899550579502,2128.027959655154,0.0,0,19,0.0,16431,346892925498052,396,27.4950008392334,2.620347591106781,0.14999,16,0.0,0.0,1575420030,,,,0,13.408170531622973,1,6.0,27.4950008392334,0.0,0.0,0.0,66.7128,C,27359058000000,
Raw,1732148475000,23159000000,,701895.8887551468,-1416183669841999872,0.0,91.6899550579502,2128.027959655154,0.0,0,17,0.0,16431,346892932214875,487,20.55299949645996,352.6260225915038,0.14999,16,0.0,0.0,1575420030,,,,0,3.1668530116605713,1,6.0,20.55299949645996,0.0,0.0,0.0,66.7128,C,27359058000000,
Raw,1732148475000,23159000000,,701895.8887551468,-1416183669841999872,0.0,91.6899550579502,2128.027959655154,0.0,0,22,0.0,16431,346892931602387,316,26.292999267578125,603.1033679599025,0.14999,16,0.0,0.0,1575420030,,,,0,11.809935195723357,1,6.0,26.292999267578125,0.0,0.0,0.0,66.7128,C,27359058000000,
Raw,1732148475000,23159000000,,701895.8887551468,-1416183669841999872,0.0,91.6899550579502,2128.027959655154,0.0,0,30,0.0,16431,346892931158605,316,25.719999313354492,881.5179708739302,0.14999,16,0.0,0.0,1575420030,,,,0,11.03979525730862,1,6.0,25.719999313354492,0.0,0.0,0.0,66.7128,C,27359058000000,
Raw,1732148475000,23159000000,,701895.8887551468,-1416183669841999872,0.0,91.6899550579502,2128.027959655154,0.0,0,7,0.0,16431,346892924241889,396,23.33300018310547,1110.9972735755707,0.14999,16,0.0,0.0,1575420030,,,,0,7.603828003987698,1,6.0,23.33300018310547,0.0,0.0,0.0,66.7128,C,27359058000000,
Raw,1732148475000,23159000000,,701895.8887551468,-1416183669841999872,0.0,91.6899550579502,2128.027959655154,0.0,0,21,0.0,16431,346892920067455,316,24.222000122070312,846.6938570844997,0.14999,16,0.0,0.0,1575420030,,,,0,8.922398278153864,1,6.0,24.222000122070312,0.0,0.0,0.0,66.7128,C,27359058000000,
Status,1732148475000,29,0,1,14,1575420030,31.30,10.0,69.0,1,0,0,26.3
Status,1732148475000,29,1,1,22,1575420030,27.70,304.0,68.0,1,0,0,22.7
Status,1732148475000,29,2,1,17,1575420030,30.00,169.0,62.0,1,0,0,25.0
Status,1732148475000,29,3,1,30,1575420030,36.60,106.0,59.0,1,0,0,31.599998
Status,1732148475000,29,4,1,13,1575420030,30.50,280.0,56.0,1,0,0,25.5
Status,1732148475000,29,5,1,19,1575420030,30.70,194.0,33.0,1,0,0,25.7
Status,1732148475000,29,6,1,15,1575420030,28.30,304.0,26.0,1,0,0,23.3
Status,1732148475000,29,7,1,7,1575420030,29.40,116.0,25.0,1,0,0,24.4
Status,1732148475000,29,8,2,131,1575420030,32.00,3.0,23.0,0,0,0,27.0
Status,1732148475000,29,9,1,2,1575420030,34.60,72.0,20.0,1,0,0,29.599998
Status,1732148475000,29,10,1,21,1575420030,31.30,54.0,14.0,1,0,0,26.3
Status,1732148475000,29,11,3,9,1602000000,31.80,44.0,47.0,1,0,0,26.8
Status,1732148475000,29,12,3,8,1602000000,24.30,279.0,39.0,1,0,0,19.3
Status,1732148475000,29,13,3,19,1602000000,0.00,64.0,36.0,0,0,0,0.0
Status,1732148475000,29,14,3,20,1602000000,0.00,141.0,26.0,0,0,0,0.0
Status,1732148475000,29,15,3,18,1602000000,22.60,26.0,12.0,1,0,0,17.6
Status,1732148475000,29,16,3,11,1602000000,0.00,286.0,11.0,0,0,0,0.0
Status,1732148475000,29,17,3,16,1602000000,30.90,82.0,5.0,1,0,0,25.9
Status,1732148475000,29,18,3,17,1602000000,26.40,0.0,0.0,0,0,0,21.4
Status,1732148475000,29,19,6,21,1575420030,27.50,292.0,63.0,1,0,0,22.5
Status,1732148475000,29,20,6,19,1575420030,0.00,277.0,54.0,0,0,0,0.0
Status,1732148475000,29,21,6,27,1575420030,27.20,47.0,49.0,1,0,0,22.2
Status,1732148475000,29,22,6,29,1575420030,24.80,197.0,47.0,1,0,0,19.8
Status,1732148475000,29,23,6,15,1575420030,33.70,84.0,18.0,1,0,0,28.7
Status,1732148475000,29,24,6,13,1575420030,0.00,135.0,11.0,0,0,0,0.0
Status,1732148475000,29,25,6,4,1575420030,0.00,323.0,10.0,0,0,0,0.0
Status,1732148475000,29,26,6,34,1575420030,0.00,36.0,6.0,0,0,0,0.0
Status,1732148475000,29,27,6,7,1575420030,0.00,162.0,5.0,0,0,0,0.0
Status,1732148475000,29,28,6,30,1575420030,0.00,66.0,2.0,0,0,0,0.0
Fix,GPS,37.4243750000,-122.1707833333,1.0,0.45655861,2.6,11.62,1732148476000,2.3,155.3,27360058000000,32.0,0,,,
Raw,1732148476000,24159000000,,700864.1854325768,-1416183669841999872,0.0,84.65061177414806,2129.541457709727,0.0,0,2,0.0,16431,346893921353272,74,29.628999710083008,614.2709955901755,0.14999,16,0.0,0.0,1575420030,,,,0,16.098248301275103,1,6.0,29.628999710083008,0.0,0.0,0.0,66.7128,C,27360058000000,
Raw,1732148476000,24159000000,,700864.1854325768,-1416183669841999872,0.0,84.65061177414806,2129.541457709727,0.0,0,13,0.0,16431,346893931553521,396,25.482999801635742,583.2536379666203,0.14999,16,0.0,0.0,1575420030,,,,0,10.727459956460418,1,6.0,25.482999801635742,0.0,0.0,0.0,66.7128,C,27360058000000,
Raw,1732148476000,24159000000,,700864.1854325768,-1416183669841999872,0.0,84.65061177414806,2129.541457709727,0.0,0,15,0.0,16431,346893925173011,396,23.305999755859375,375.55994100333874,0.14999,16,0.0,0.0,1575420030,,,,0,8.623713617907391,1,6.0,23.305999755859375,0.0,0.0,0.0,66.7128,C,27360058000000,
Raw,1732148476000,24159000000,,700864.1854325768,-1416183669841999872,0.0,84.65061177414806,2129.541457709727,0.0,0,14,0.0,16431,346893932842579,316,26.292999267578125,743.192589531841,0.14999,16,0.0,0.0,1575420030,,,,0,11.809935195723357,1,6.0,26.292999267578125,0.0,0.0,0.0,66.7128,C,27360058000000,
Raw,1732148476000,24159000000,,700864.1854325768,-1416183669841999872,0.0,84.65061177414806,2129.541457709727,0.0,0,21,0.0,16431,346893921010348,396,22.5,538.7865223916981,0.14999,16,0.0,0.0,1575420030,,,,0,7.773038997588732,6,6.0,22.5,0.0,0.0,21.05320639965008,66.7128,C,27360058000000,
Raw,1732148476000,24159000000,,700864.1854325768,-1416183669841999872,0.0,84.65061177414806,2129.541457709727,0.0,0,15,0.0,16431,346893910649125,74,28.700000762939453,347.52869808171596,0.14999,16,0.0,0.0,1575420030,,,,0,15.545524352463438,6,6.0,28.700000762939453,0.0,0.0,21.05320639965008,66.7128,C,27360058000000,
Raw,1732148476000,24159000000,,700864.1854325768,-1416183669841999872,0.0,84.65061177414806,2129.541457709727,0.0,0,27,0.0,16431,346893918579811,235,22.200000762939453,925.2754805996525,0.14999,16,0.0,0.0,1575420030,,,,0,7.372960203396229,6,6.0,22.200000762939453,0.0,0.0,21.05320639965008,66.7128,C,27360058000000,
Raw,1732148476000,24159000000,,700864.1854325768,-1416183669841999872,0.0,84.65061177414806,2129.541457709727,0.0,0,29,0.0,16431,346893918850681,487,19.799999237060547,1065.0689478939946,0.14999,16,0.0,0.0,1575420030,,,,0,3.894892745246115,6,6.0,19.799999237060547,0.0,0.0,21.05320639965008,66.7128,C,27360058000000,
Raw,1732148476000,24159000000,,700864.1854325768,-1416183669841999872,0.0,84.65061177414806,2129.541457709727,0.0,0,9,0.0,17,881869,235,5.0,848.754515107257,0.14999,16,0.0,0.0,1600875010,,,,0,13.24031197727695,3,6.0,28.0,0.0,0.0,51.892828999887875,66.7128,C,27360058000000,
Raw,1732148476000,24159000000,,700864.1854325768,-1416183669841999872,0.0,84.65061177414806,2129.541457709727,0.0,0,16,0.0,17,277317,316,5.0,1131.942889922988,0.14999,16,0.0,0.0,1601437440,,,,0,12.135081623716918,3,6.0,26.0,0.0,0.0,51.892828999887875,66.7128,C,27360058000000,
Raw,1732148476000,24159000000,,700864.1854325768,-1416183669841999872,0.0,84.65061177414806,2129.541457709727,0.0,0,8,0.0,17,797948,487,5.0,784.6682394349274,0.14999,16,0.0,0.0,1605374980,,,,0,2.660603861259507,3,6.0,19.0,0.0,0.0,51.892828999887875,66.7128,C,27360058000000,
Raw,1732148476000,24159000000,,700864.1854325768,-1416183669841999872,0.0,84.65061177414806,2129.541457709727,0.0,0,18,0.0,17,849942,487,5.0,1195.203809313402,0.14999,16,0.0,0.0,1600312450,,,,0,0.16568011104001457,3,6.0,19.0,0.0,0.0,51.892828999887875,66.7128,C,27360058000000,
Raw,1732148476000,24159000000,,700864.1854325768,-1416183669841999872,0.0,84.65061177414806,2129.541457709727,0.0,0,19,0.0,16431,346893925498038,316,25.694000244140625,3.212738856207355,0.14999,16,0.0,0.0,1575420030,,,,0,11.001362054611192,1,6.0,25.694000244140625,0.0,0.0,0.0,66.7128,C,27360058000000,
Raw,1732148476000,24159000000,,700864.1854325768,-1416183669841999872,0.0,84.65061177414806,2129.541457709727,0.0,0,17,0.0,16431,346893932213720,316,24.961999893188477,353.7186316239432,0.14999,16,0.0,0.0,1575420030,,,,0,9.980718669455626,1,6.0,24.961999893188477,0.0,0.0,0.0,66.7128,C,27360058000000,
Raw,1732148476000,24159000000,,700864.1854325768,-1416183669841999872,0.0,84.65061177414806,2129.541457709727,0.0,0,22,0.0,16431,346893931600411,487,22.714000701904297,604.0573450783697,0.14999,16,0.0,0.0,1575420030,,,,0,6.704485093657235,1,6.0,22.714000701904297,0.0,0.0,0.0,66.7128,C,27360058000000,
Raw,1732148476000,24159000000,,700864.1854325768,-1416183669841999872,0.0,84.65061177414806,2129.541457709727,0.0,0,30,0.0,16431,346893931155670,74,31.601999282836914,882.9223158791423,0.14999,16,0.0,0.0,1575420030,,,,0,18.464823372547112,1,6.0,31.601999282836914,0.0,0.0,0.0,66.7128,C,27360058000000,
Raw,1732148476000,24159000000,,700864.1854325768,-1416183669841999872,0.0,84.65061177414806,2129.541457709727,0.0,0,7,0.0,16431,346893924238234,396,24.43600082397461,1111.5428812155474,0.14999,16,0.0,0.0,1575420030,,,,0,9.25835854023319,1,6.0,24.43600082397461,0.0,0.0,0.0,66.7128,C,27360058000000,
Raw,1732148476000,24159000000,,700864.1854325768,-1416183669841999872,0.0,84.65061177414806,2129.541457709727,0.0,0,21,0.0,16431,346893920064596,316,26.34000015258789,846.8516298659506,0.14999,16,0.0,0.0,1575420030,,,,0,11.87984212951978,1,6.0,26.34000015258789,0.0,0.0,0.0,66.7128,C,27360058000000,
Fix,FLP,37.4243772000,-122.1707862000,2.0,0.047064904,2.683,,1732148476211,2.3,,27360058000000,1.0356445,0,,,
Status,1732148476000,29,0,1,14,1575420030,34.60,10.0,69.0,1,0,0,29.599998
Status,1732148476000,29,1,1,22,1575420030,27.60,304.0,68.0,1,0,0,22.6
Status,1732148476000,29,2,1,17,1575420030,29.20,169.0,62.0,1,0,0,24.2
Status,1732148476000,29,3,1,30,1575420030,34.80,106.0,59.0,1,0,0,29.8
Status,1732148476000,29,4,1,13,1575420030,34.00,280.0,56.0,1,0,0,29.0
Status,1732148476000,29,5,1,19,1575420030,0.00,194.0,33.0,0,0,0,0.0
Status,1732148476000,29,6,1,15,1575420030,28.30,304.0,26.0,1,0,0,23.3
Status,1732148476000,29,7,1,7,1575420030,33.70,116.0,25.0,1,0,0,28.7
Status,1732148476000,29,8,2,131,1575420030,33.00,3.0,23.0,0,0,0,28.0
Status,1732148476000,29,9,1,2,1575420030,35.00,72.0,20.0,1,0,0,30.0
Status,1732148476000,29,10,1,21,1575420030,33.60,54.0,14.0,1,0,0,28.599998
Status,1732148476000,29,11,3,9,1602000000,29.90,44.0,47.0,1,0,0,24.9
Status,1732148476000,29,12,3,8,1602000000,24.40,279.0,39.0,1,0,0,19.4
Status,1732148476000,29,13,3,19,1602000000,0.00,64.0,36.0,0,0,0,0.0
Status,1732148476000,29,14,3,20,1602000000,0.00,141.0,26.0,0,0,0,0.0
Status,1732148476000,29,15,3,18,1602000000,22.60,26.0,12.0,1,0,0,17.6
Status,1732148476000,29,16,3,11,1602000000,0.00,286.0,11.0,0,0,0,0.0
Status,1732148476000,29,17,3,16,1602000000,30.00,82.0,5.0,1,0,0,25.0
Status,1732148476000,29,18,3,17,1602000000,30.50,0.0,0.0,0,0,0,25.5
Status,1732148476000,29,19,6,21,1575420030,23.10,292.0,63.0,1,0,0,18.1
Status,1732148476000,29,20,6,19,1575420030,0.00,277.0,54.0,0,0,0,0.0
Status,1732148476000,29,21,6,27,1575420030,31.90,47.0,49.0,1,0,0,26.9
Status,1732148476000,29,22,6,29,1575420030,24.80,197.0,47.0,1,0,0,19.8
Status,1732148476000,29,23,6,15,1575420030,44.10,84.0,18.0,1,0,0,39.1
Status,1732148476000,29,24,6,13,1575420030,0.00,135.0,11.0,0,0,0,0.0
Status,1732148476000,29,25,6,4,1575420030,0.00,323.0,10.0,0,0,0,0.0
Status,1732148476000,29,26,6,34,1575420030,0.00,36.0,6.0,0,0,0,0.0
Status,1732148476000,29,27,6,7,1575420030,0.00,162.0,5.0,0,0,0,0.0
Status,1732148476000,29,28,6,30,1575420030,0.00,66.0,2.0,0,0,0,0.0
Fix,GPS,37.4243683333,-122.1707816667,1.1999999999999993,0.5342817,2.5,19.19,1732148477000,2.2,179.9,27361058000000,31.0,0,,,
Fix,FLP,37.4243730000,-122.1707837000,2.0,0.054372348,2.65,,1732148477210,2.2,,27361058000000,1.0455362,0,,,
Raw,1732148477000,25159000000,,699849.9942250048,-1416183669841999872,0.0,81.07139283860289,2130.5051814674016,0.0,0,2,0.0,16431,346894921351217,74,29.990999221801758,615.1110102136782,0.14999,16,0.0,0.0,1575420030,,,,0,16.536811840402443,1,6.0,29.990999221801758,0.0,0.0,0.0,66.7128,C,27361058000000,
Raw,1732148477000,25159000000,,699849.9942250048,-1416183669841999872,0.0,81.07139283860289,2130.5051814674016,0.0,0,13,0.0,16431,346894931551571,235,29.027000427246094,583.7962722679595,0.14999,16,0.0,0.0,1575420030,,,,0,15.360956672017839,1,6.0,29.027000427246094,0.0,0.0,0.0,66.7128,C,27361058000000,
Raw,1732148477000,25159000000,,699849.9942250048,-1416183669841999872,0.0,81.07139283860289,2130.5051814674016,0.0,0,15,0.0,16431,346894925171758,487,23.34000015258789,375.97959987696856,0.14999,16,0.0,0.0,1575420030,,,,0,8.623713617907391,1,6.0,23.34000015258789,0.0,0.0,0.0,66.7128,C,27361058000000,
Raw,1732148477000,25159000000,,699849.9942250048,-1416183669841999872,0.0,81.07139283860289,2130.5051814674016,0.0,0,14,0.0,16431,346894932840102,74,29.628999710083008,743.0672447249049,0.14999,16,0.0,0.0,1575420030,,,,0,16.098248301275103,1,6.0,29.628999710083008,0.0,0.0,0.0,66.7128,C,27361058000000,
Raw,1732148477000,25159000000,,699849.9942250048,-1416183669841999872,0.0,81.07139283860289,2130.5051814674016,0.0,0,21,0.0,16431,346894921008550,487,18.100000381469727,539.4782882090731,0.14999,16,0.0,0.0,1575420030,,,,0,1.1451912617514792,6,6.0,18.100000381469727,0.0,0.0,23.197502917775168,66.7128,C,27361058000000,
Raw,1732148477000,25159000000,,699849.9942250048,-1416183669841999872,0.0,81.07139283860289,2130.5051814674016,0.0,0,15,0.0,16431,346894910647967,42,39.099998474121094,347.82264048108004,0.14999,16,0.0,0.0,1575420030,,,,0,26.751733929866322,6,6.0,39.099998474121094,0.0,0.0,23.197502917775168,66.7128,C,27361058000000,
Raw,1732148477000,25159000000,,699849.9942250048,-1416183669841999872,0.0,81.07139283860289,2130.5051814674016,0.0,0,27,0.0,16431,346894918576723,235,26.899999618530273,925.5417802413714,0.14999,16,0.0,0.0,1575420030,,,,0,13.437317839639364,6,6.0,26.899999618530273,0.0,0.0,23.197502917775168,66.7128,C,27361058000000,
Raw,1732148477000,25159000000,,699849.9942250048,-1416183669841999872,0.0,81.07139283860289,2130.5051814674016,0.0,0,29,0.0,16431,346894918847127,396,19.799999237060547,1065.719551554607,0.14999,16,0.0,0.0,1575420030,,,,0,3.894892745246115,6,6.0,19.799999237060547,0.0,0.0,23.197502917775168,66.7128,C,27361058000000,
Raw,1732148477000,25159000000,,699849.9942250048,-1416183669841999872,0.0,81.07139283860289,2130.5051814674016,0.0,0,9,0.0,17,879041,316,5.0,848.7476571528821,0.14999,16,0.0,0.0,1600875010,,,,0,10.943619589861294,3,6.0,26.0,0.0,0.0,50.354817170882505,66.7128,C,27361058000000,
Raw,1732148477000,25159000000,,699849.9942250048,-1416183669841999872,0.0,81.07139283860289,2130.5051814674016,0.0,0,16,0.0,17,273532,316,5.0,1132.7326487691419,0.14999,16,0.0,0.0,1601437440,,,,0,11.123392706327845,3,6.0,26.0,0.0,0.0,50.354817170882505,66.7128,C,27361058000000,
Raw,1732148477000,25159000000,,699849.9942250048,-1416183669841999872,0.0,81.07139283860289,2130.5051814674016,0.0,0,8,0.0,17,795337,797,5.0,785.0752807014832,0.14999,16,0.0,0.0,1605374980,,,,0,4.630331886119738,3,6.0,17.0,0.0,0.0,50.354817170882505,66.7128,C,27361058000000,
Raw,1732148477000,25159000000,,699849.9942250048,-1416183669841999872,0.0,81.07139283860289,2130.5051814674016,0.0,0,18,0.0,17,845961,797,5.0,1193.2629663463777,0.14999,16,0.0,0.0,1600312450,,,,0,0.16568011104001457,3,6.0,16.0,0.0,0.0,50.354817170882505,66.7128,C,27361058000000,
Raw,1732148477000,25159000000,,699849.9942250048,-1416183669841999872,0.0,81.07139283860289,2130.5051814674016,0.0,0,17,0.0,16431,346894932212539,396,24.159000396728516,354.4459613589273,0.14999,16,0.0,0.0,1575420030,,,,0,8.823973546368464,1,6.0,24.159000396728516,0.0,0.0,0.0,66.7128,C,27361058000000,
Raw,1732148477000,25159000000,,699849.9942250048,-1416183669841999872,0.0,81.07139283860289,2130.5051814674016,0.0,0,22,0.0,16431,346894931598376,487,22.63599967956543,604.6401194513147,0.14999,16,0.0,0.0,1575420030,,,,0,6.577217034540096,1,6.0,22.63599967956543,0.0,0.0,0.0,66.7128,C,27361058000000,
Raw,1732148477000,25159000000,,699849.9942250048,-1416183669841999872,0.0,81.07139283860289,2130.5051814674016,0.0,0,30,0.0,16431,346894931152716,74,29.836000442504883,883.749089854025,0.14999,16,0.0,0.0,1575420030,,,,0,16.351560726724024,1,6.0,29.836000442504883,0.0,0.0,0.0,66.7128,C,27361058000000,
Raw,1732148477000,25159000000,,699849.9942250048,-1416183669841999872,0.0,81.07139283860289,2130.5051814674016,0.0,0,7,0.0,16431,346894924234553,235,28.729999542236328,1112.2559249875467,0.14999,16,0.0,0.0,1575420030,,,,0,14.979621814089294,1,6.0,28.729999542236328,0.0,0.0,0.0,66.7128,C,27361058000000,
Raw,1732148477000,25159000000,,699849.9942250048,-1416183669841999872,0.0,81.07139283860289,2130.5051814674016,0.0,0,21,0.0,16431,346894920061777,235,28.638999938964844,846.7460763443203,0.14999,16,0.0,0.0,1575420030,,,,0,14.85693771744846,1,6.0,28.638999938964844,0.0,0.0,0.0,66.7128,C,27361058000000,
Status,1732148477000,29,0,1,14,1575420030,36.80,10.0,69.0,1,0,0,31.8
Status,1732148477000,29,1,1,22,1575420030,27.60,304.0,68.0,1,0,0,22.6
Status,1732148477000,29,2,1,17,1575420030,29.30,169.0,62.0,1,0,0,24.3
Status,1732148477000,29,3,1,30,1575420030,37.90,106.0,59.0,1,0,0,32.9
Status,1732148477000,29,4,1,13,1575420030,28.30,280.0,56.0,1,0,0,23.3
Status,1732148477000,29,5,1,19,1575420030,28.50,194.0,33.0,1,0,0,23.5
Status,1732148477000,29,6,1,15,1575420030,28.30,304.0,26.0,1,0,0,23.3
Status,1732148477000,29,7,1,7,1575420030,31.20,116.0,25.0,1,0,0,26.2
Status,1732148477000,29,8,2,131,1575420030,29.00,3.0,23.0,0,0,0,24.0
Status,1732148477000,29,9,1,2,1575420030,32.20,72.0,20.0,1,0,0,27.2
Status,1732148477000,29,10,1,21,1575420030,28.40,54.0,14.0,1,0,0,23.4
Status,1732148477000,29,11,3,9,1602000000,32.50,44.0,47.0,1,0,0,27.5
Status,1732148477000,29,12,3,8,1602000000,27.80,279.0,39.0,1,0,0,22.8
Status,1732148477000,29,13,3,19,1602000000,0.00,64.0,36.0,0,0,0,0.0
Status,1732148477000,29,14,3,20,1602000000,0.00,141.0,26.0,0,0,0,0.0
Status,1732148477000,29,15,3,18,1602000000,21.60,26.0,12.0,1,0,0,16.6
Status,1732148477000,29,16,3,11,1602000000,0.00,286.0,11.0,0,0,0,0.0
Status,1732148477000,29,17,3,16,1602000000,27.30,82.0,5.0,1,0,0,22.3
Status,1732148477000,29,18,3,17,1602000000,30.90,0.0,0.0,0,0,0,25.9
Status,1732148477000,29,19,6,21,1575420030,23.30,292.0,63.0,1,0,0,18.3
Status,1732148477000,29,20,6,19,1575420030,0.00,277.0,54.0,0,0,0,0.0
Status,1732148477000,29,21,6,27,1575420030,30.60,47.0,49.0,1,0,0,25.6
Status,1732148477000,29,22,6,29,1575420030,24.80,197.0,47.0,1,0,0,19.8
Status,1732148477000,29,23,6,15,1575420030,36.20,84.0,18.0,1,0,0,31.2
Status,1732148477000,29,24,6,13,1575420030,0.00,135.0,11.0,0,0,0,0.0
Status,1732148477000,29,25,6,4,1575420030,0.00,323.0,10.0,0,0,0,0.0
Status,1732148477000,29,26,6,34,1575420030,0.00,36.0,6.0,0,0,0,0.0
Status,1732148477000,29,27,6,7,1575420030,0.00,162.0,5.0,0,0,0,0.0
Status,1732148477000,29,28,6,30,1575420030,0.00,66.0,2.0,0,0,0,0.0
Fix,GPS,37.4243666667,-122.1707800000,1.3000000000000007,0.5301639,2.5,49.21,1732148478000,2.3,179.9,27362058000000,33.1,0,,,
Raw,1732148478000,26159000000,,699266.1007002385,-1416183669841999872,0.0,88.49694894503132,2133.12797065588,0.0,0,2,0.0,16431,346895921349169,235,27.222999572753906,615.4607027124949,0.14999,16,0.0,0.0,1575420030,,,,0,13.050553381968943,1,6.0,27.222999572753906,0.0,0.0,0.0,66.7128,C,27362058000000,
Raw,1732148478000,26159000000,,699266.1007002385,-1416183669841999872,0.0,88.49694894503132,2133.12797065588,0.0,0,13,0.0,16431,346895931549614,396,23.261999130249023,585.5245253509914,0.14999,16,0.0,0.0,1575420030,,,,0,7.489161128928848,1,6.0,23.261999130249023,0.0,0.0,0.0,66.7128,C,27362058000000,
Raw,1732148478000,26159000000,,699266.1007002385,-1416183669841999872,0.0,88.49694894503132,2133.12797065588,0.0,0,15,0.0,16431,346895925170504,396,23.33300018310547,376.92298447653974,0.14999,16,0.0,0.0,1575420030,,,,0,7.603828003987698,1,6.0,23.33300018310547,0.0,0.0,0.0,66.7128,C,27362058000000,
Raw,1732148478000,26159000000,,699266.1007002385,-1416183669841999872,0.0,88.49694894503132,2133.12797065588,0.0,0,14,0.0,16431,346895932837620,74,31.780000686645508,743.1086856321647,0.14999,16,0.0,0.0,1575420030,,,,0,18.67432622881882,1,6.0,31.780000686645508,0.0,0.0,0.0,66.7128,C,27362058000000,
Raw,1732148478000,26159000000,,699266.1007002385,-1416183669841999872,0.0,88.49694894503132,2133.12797065588,0.0,0,21,0.0,16431,346895921006749,487,18.299999237060547,540.2625991915394,0.14999,16,0.0,0.0,1575420030,,,,0,1.4973701629153706,6,6.0,18.299999237060547,0.0,0.0,25.329364493935245,66.7128,C,27362058000000,
Raw,1732148478000,26159000000,,699266.1007002385,-1416183669841999872,0.0,88.49694894503132,2133.12797065588,0.0,0,15,0.0,16431,346895910646806,74,31.200000762939453,348.10833651156673,0.14999,16,0.0,0.0,1575420030,,,,0,18.33334098092314,6,6.0,31.200000762939453,0.0,0.0,25.329364493935245,66.7128,C,27362058000000,
Raw,1732148478000,26159000000,,699266.1007002385,-1416183669841999872,0.0,88.49694894503132,2133.12797065588,0.0,0,27,0.0,16431,346895918573636,316,25.600000381469727,926.2808407264486,0.14999,16,0.0,0.0,1575420030,,,,0,11.87984212951978,6,6.0,25.600000381469727,0.0,0.0,25.329364493935245,66.7128,C,27362058000000,
Raw,1732148478000,26159000000,,699266.1007002385,-1416183669841999872,0.0,88.49694894503132,2133.12797065588,0.0,0,29,0.0,16431,346895918843579,396,19.774999618530273,1066.603283547764,0.14999,16,0.0,0.0,1575420030,,,,0,3.071402714435672,6,6.0,19.774999618530273,0.0,0.0,25.329364493935245,66.7128,C,27362058000000,
Raw,1732148478000,26159000000,,699266.1007002385,-1416183669841999872,0.0,88.49694894503132,2133.12797065588,0.0,0,9,0.0,17,876210,316,5.0,849.6727494783638,0.14999,16,0.0,0.0,1600875010,,,,0,14.08237229772512,3,6.0,24.0,0.0,0.0,50.20330148199823,66.7128,C,27362058000000,
Raw,1732148478000,26159000000,,699266.1007002385,-1416183669841999872,0.0,88.49694894503132,2133.12797065588,0.0,0,16,0.0,17,269751,487,5.0,1133.2633594011752,0.14999,16,0.0,0.0,1601437440,,,,0,7.575983148430762,3,6.0,20.0,0.0,0.0,50.20330148199823,66.7128,C,27362058000000,
Raw,1732148478000,26159000000,,699266.1007002385,-1416183669841999872,0.0,88.49694894503132,2133.12797065588,0.0,0,8,0.0,17,792739,396,5.0,786.1757692870702,0.14999,16,0.0,0.0,1605374980,,,,0,8.194016857350238,3,6.0,23.0,0.0,0.0,50.20330148199823,66.7128,C,27362058000000,
Raw,1732148478000,26159000000,,699266.1007002385,-1416183669841999872,0.0,88.49694894503132,2133.12797065588,0.0,0,18,0.0,17,841989,487,5.0,1190.528516367293,0.14999,16,0.0,0.0,1600312450,,,,0,0.0,3,6.0,19.0,0.0,0.0,50.20330148199823,66.7128,C,27362058000000,
Raw,1732148478000,26159000000,,699266.1007002385,-1416183669841999872,0.0,88.49694894503132,2133.12797065588,0.0,0,19,0.0,16431,346895925498133,396,23.4689998626709,4.769792675503546,0.14999,16,0.0,0.0,1575420030,,,,0,7.8287179679809515,1,6.0,23.4689998626709,0.0,0.0,0.0,66.7128,C,27362058000000,
Raw,1732148478000,26159000000,,699266.1007002385,-1416183669841999872,0.0,88.49694894503132,2133.12797065588,0.0,0,17,0.0,16431,346895932211342,396,24.315000534057617,355.44370230546485,0.14999,16,0.0,0.0,1575420030,,,,0,9.067975255165141,1,6.0,24.315000534057617,0.0,0.0,0.0,66.7128,C,27362058000000,
Raw,1732148478000,26159000000,,699266.1007002385,-1416183669841999872,0.0,88.49694894503132,2133.12797065588,0.0,0,22,0.0,16431,346895931596358,487,22.63599967956543,605.1720683169253,0.14999,16,0.0,0.0,1575420030,,,,0,6.577217034540096,1,6.0,22.63599967956543,0.0,0.0,0.0,66.7128,C,27362058000000,
Raw,1732148478000,26159000000,,699266.1007002385,-1416183669841999872,0.0,88.49694894503132,2133.12797065588,0.0,0,30,0.0,16431,346895931149765,58,32.92399978637695,884.0429857949729,0.14999,16,0.0,0.0,1575420030,,,,0,20.000742228132147,1,6.0,32.92399978637695,0.0,0.0,0.0,66.7128,C,27362058000000,
Raw,1732148478000,26159000000,,699266.1007002385,-1416183669841999872,0.0,88.49694894503132,2133.12797065588,0.0,0,7,0.0,16431,346895924230838,316,26.219999313354492,1113.8140473504156,0.14999,16,0.0,0.0,1575420030,,,,0,11.704008399524387,1,6.0,26.219999313354492,0.0,0.0,0.0,66.7128,C,27362058000000,
