# 
# Header Description:
# 
# Version: v3.1.0.3 Platform: 13 Manufacturer: samsung Model: SM-S135DL GNSS Hardware Model Name: MediaTek,MT6631,MTK_MNLD_default,MNL_VER_default
# 
# Raw,utcTimeMillis,TimeNanos,LeapSecond,TimeUncertaintyNanos,FullBiasNanos,BiasNanos,BiasUncertaintyNanos,DriftNanosPerSecond,DriftUncertaintyNanosPerSecond,HardwareClockDiscontinuityCount,Svid,TimeOffsetNanos,State,ReceivedSvTimeNanos,ReceivedSvTimeUncertaintyNanos,Cn0DbHz,PseudorangeRateMetersPerSecond,PseudorangeRateUncertaintyMetersPerSecond,AccumulatedDeltaRangeState,AccumulatedDeltaRangeMeters,AccumulatedDeltaRangeUncertaintyMeters,CarrierFrequencyHz,CarrierCycles,CarrierPhase,CarrierPhaseUncertainty,MultipathIndicator,SnrInDb,ConstellationType,AgcDb,BasebandCn0DbHz,FullInterSignalBiasNanos,FullInterSignalBiasUncertaintyNanos,SatelliteInterSignalBiasNanos,SatelliteInterSignalBiasUncertaintyNanos,CodeType,ChipsetElapsedRealtimeNanos,IsFullTracking
# 
# UncalAccel,utcTimeMillis,elapsedRealtimeNanos,UncalAccelXMps2,UncalAccelYMps2,UncalAccelZMps2,BiasXMps2,BiasYMps2,BiasZMps2
# 
# Accel,utcTimeMillis,elapsedRealtimeNanos,AccelXMps2,AccelYMps2,AccelZMps2
# 
# UncalGyro,utcTimeMillis,elapsedRealtimeNanos,UncalGyroXRadPerSec,UncalGyroYRadPerSec,UncalGyroZRadPerSec,DriftXRadPerSec,DriftYRadPerSec,DriftZRadPerSec
# 
# Gyro,utcTimeMillis,elapsedRealtimeNanos,GyroXRadPerSec,GyroYRadPerSec,GyroZRadPerSec
# 
# UncalMag,utcTimeMillis,elapsedRealtimeNanos,UncalMagXMicroT,UncalMagYMicroT,UncalMagZMicroT,BiasXMicroT,BiasYMicroT,BiasZMicroT
# 
# Mag,utcTimeMillis,elapsedRealtimeNanos,MagXMicroT,MagYMicroT,MagZMicroT
# 
# Pressure,utcTimeMillis,elapsedRealtimeNanos,PressureHpa
# 
# OrientationDeg,utcTimeMillis,elapsedRealtimeNanos,yawDeg,rollDeg,pitchDeg
# 
# Fix,Provider,LatitudeDegrees,LongitudeDegrees,AltitudeMeters,SpeedMps,AccuracyMeters,BearingDegrees,UnixTimeMillis,SpeedAccuracyMps,BearingAccuracyDegrees,elapsedRealtimeNanos,VerticalAccuracyMeters,MockLocation,NumberOfUsedSignals,VerticalSpeedAccuracyMps,SolutionType
# 
# Nav,Svid,Type,Status,MessageId,Sub-messageId,Data(Bytes)
# 
# Status,UnixTimeMillis,SignalCount,SignalIndex,ConstellationType,Svid,CarrierFrequencyHz,Cn0DbHz,AzimuthDegrees,ElevationDegrees,UsedInFix,HasAlmanacData,HasEphemerisData,BasebandCn0DbHz
# 
# Agc,utcTimeMillis,TimeNanos,LeapSecond,TimeUncertaintyNanos,FullBiasNanos,BiasNanos,BiasUncertaintyNanos,DriftNanosPerSecond,DriftUncertaintyNanosPerSecond,HardwareClockDiscontinuityCount,AgcDb,CarrierFrequencyHz,ConstellationType
# 
Fix,FLP,37.4244194000,-122.1707186000,2.0,0.08625418,2.583,,1732148009207,2.9,,26893055000000,0.9991781,0,,,
Status,,27,0,1,14,1575420030,27.70,1.0,71.0,1,0,0,22.7
Status,,27,1,1,22,1575420030,33.30,295.0,66.0,1,0,0,28.3
Status,,27,2,1,30,1575420030,32.00,100.0,62.0,1,0,0,27.0
Status,,27,3,1,17,1575420030,0.00,171.0,58.0,0,0,0,0.0
Status,,27,4,1,13,1575420030,31.00,286.0,55.0,1,0,0,26.0
Status,,27,5,1,19,1575420030,0.00,193.0,29.0,0,0,0,0.0
Status,,27,6,1,7,1575420030,33.20,114.0,28.0,1,0,0,28.2
Status,,27,7,1,15,1575420030,0.00,307.0,25.0,0,0,0,0.0
Status,,27,8,2,131,1575420030,30.00,3.0,23.0,0,0,0,25.0
Status,,27,9,1,2,1575420030,32.40,75.0,20.0,1,0,0,27.400002
Status,,27,10,1,21,1575420030,27.30,57.0,14.0,1,0,0,22.3
Status,,27,11,3,9,1602000000,22.20,38.0,49.0,1,0,0,17.2
Status,,27,12,3,8,1602000000,25.20,284.0,40.0,1,0,0,20.2
Status,,27,13,3,20,1602000000,0.00,143.0,23.0,0,0,0,0.0
Status,,27,14,3,11,1602000000,0.00,283.0,9.0,0,0,0,0.0
Status,,27,15,3,16,1602000000,26.00,78.0,7.0,1,0,0,21.0
Status,,27,16,3,17,1602000000,34.20,0.0,0.0,0,0,0,29.2
Status,,27,17,6,21,1575420030,24.60,286.0,62.0,1,0,0,19.6
Status,,27,18,6,19,1575420030,19.90,282.0,54.0,1,0,0,14.9
Status,,27,19,6,27,1575420030,23.50,44.0,51.0,1,0,0,18.5
Status,,27,20,6,29,1575420030,21.40,198.0,50.0,1,0,0,16.4
Status,,27,21,6,15,1575420030,0.00,86.0,16.0,0,0,0,0.0
Status,,27,22,6,4,1575420030,0.00,324.0,8.0,0,0,0,0.0
Status,,27,23,6,13,1575420030,0.00,136.0,8.0,0,0,0,0.0
Status,,27,24,6,7,1575420030,0.00,162.0,7.0,0,0,0,0.0
Status,,27,25,6,34,1575420030,0.00,39.0,6.0,0,0,0,0.0
Status,,27,26,6,30,1575420030,0.00,64.0,4.0,0,0,0,0.0
Fix,GPS,37.4244183333,-122.1707200000,-7.199999999999999,0.0,2.8,101.18,1732148010000,2.8,179.9,26894055000000,39.9,0,,,
Raw,1732148010000,14550000000,,699455.6589212128,-1416183213450999808,0.0,102.44937069190154,2259.5553530670772,0.0,0,2,0.0,16431,346427921036769,316,27.354000091552734,604.7160789618189,0.14999,16,0.0,0.0,1575420030,,,,0,13.199255380352739,1,6.0,27.354000091552734,0.0,0.0,0.0,66.7128,C,26894055000000,
Raw,1732148010000,14550000000,,699455.6589212128,-1416183213450999808,0.0,102.44937069190154,2259.5553530670772,0.0,0,7,0.0,16431,346427924712118,235,28.17099952697754,1123.5654830793428,0.14999,16,0.0,0.0,1575420030,,,,0,14.258462848784923,1,6.0,28.17099952697754,0.0,0.0,0.0,66.7128,C,26894055000000,
Raw,1732148010000,14550000000,,699455.6589212128,-1416183213450999808,0.0,102.44937069190154,2259.5553530670772,0.0,0,30,0.0,16431,346427931265335,396,26.98900032043457,883.7927607652629,0.14999,16,0.0,0.0,1575420030,,,,0,12.742798891632074,1,6.0,26.98900032043457,0.0,0.0,0.0,66.7128,C,26894055000000,
Raw,1732148010000,14550000000,,699455.6589212128,-1416183213450999808,0.0,102.44937069190154,2259.5553530670772,0.0,0,21,0.0,16431,346427920106831,396,22.273000717163086,832.6335890857099,0.14999,16,0.0,0.0,1575420030,,,,0,5.937977392389685,1,6.0,22.273000717163086,0.0,0.0,0.0,66.7128,C,26894055000000,
Raw,1732148010000,14550000000,,699455.6589212128,-1416183213450999808,0.0,102.44937069190154,2259.5553530670772,0.0,0,22,0.0,16431,346427931284675,235,28.34000015258789,615.7749938981592,0.14999,16,0.0,0.0,1575420030,,,,0,14.465896937332193,1,6.0,28.34000015258789,0.0,0.0,0.0,66.7128,C,26894055000000,
Raw,1732148010000,14550000000,,699455.6589212128,-1416183213450999808,0.0,102.44937069190154,2259.5553530670772,0.0,0,29,0.0,16431,346427919250651,487,16.375,1074.8511390944532,0.14999,16,0.0,0.0,1575420030,,,,0,0.0,6,6.0,16.375,0.0,0.0,13.35881214943174,66.7128,C,26894055000000,
Raw,1732148010000,14550000000,,699455.6589212128,-1416183213450999808,0.0,102.44937069190154,2259.5553530670772,0.0,0,27,0.0,16431,346427918779367,487,18.5,956.2574833684715,0.14999,16,0.0,0.0,1575420030,,,,0,1.8144447990793773,6,6.0,18.5,0.0,0.0,13.35881214943174,66.7128,C,26894055000000,
Raw,1732148010000,14550000000,,699455.6589212128,-1416183213450999808,0.0,102.44937069190154,2259.5553530670772,0.0,0,19,0.0,16431,346427920883236,487,14.899999618530273,620.5359130161665,0.14999,16,0.0,0.0,1575420030,,,,0,0.0,6,6.0,14.899999618530273,0.0,0.0,13.35881214943174,66.7128,C,26894055000000,
Raw,1732148010000,14550000000,,699455.6589212128,-1416183213450999808,0.0,102.44937069190154,2259.5553530670772,0.0,0,14,0.0,16431,346427932744843,487,22.66200065612793,756.9289029943945,0.14999,16,0.0,0.0,1575420030,,,,0,6.596314316398683,1,6.0,22.66200065612793,0.0,0.0,0.0,66.7128,C,26894055000000,
Raw,1732148010000,14550000000,,699455.6589212128,-1416183213450999808,0.0,102.44937069190154,2259.5553530670772,0.0,0,13,0.0,16431,346427931180329,316,26.038999557495117,562.1794499556933,0.14999,16,0.0,0.0,1575420030,,,,0,11.46612780750267,1,6.0,26.038999557495117,0.0,0.0,0.0,66.7128,C,26894055000000,
Raw,1732148010000,14550000000,,699455.6589212128,-1416183213450999808,0.0,102.44937069190154,2259.5553530670772,0.0,0,21,0.0,16431,346427920601973,487,19.600000381469727,561.7849715436495,0.14999,16,0.0,0.0,1575420030,,,,0,3.5973376585954453,6,6.0,19.600000381469727,0.0,0.0,13.35881214943174,66.7128,C,26894055000000,
Raw,1732148010000,14550000000,,699455.6589212128,-1416183213450999808,0.0,102.44937069190154,2259.5553530670772,0.0,0,16,0.0,17,801230,396,5.0,1168.5903511954684,0.14999,16,0.0,0.0,1601437440,,,,0,5.6952421251842384,3,6.0,22.0,0.0,0.0,82.02720874412937,66.7128,C,26894055000000,
Raw,1732148010000,14550000000,,699455.6589212128,-1416183213450999808,0.0,102.44937069190154,2259.5553530670772,0.0,0,9,0.0,17,953535,487,5.0,866.8534796572138,0.14999,16,0.0,0.0,1600875010,,,,0,0.0,3,6.0,18.0,0.0,0.0,82.02720874412937,66.7128,C,26894055000000,
Raw,1732148010000,14550000000,,699455.6589212128,-1416183213450999808,0.0,102.44937069190154,2259.5553530670772,0.0,0,8,0.0,17,724551,396,5.0,746.5927385930364,0.14999,16,0.0,0.0,1605374980,,,,0,6.891122152291581,3,6.0,21.0,0.0,0.0,82.02720874412937,66.7128,C,26894055000000,
Fix,FLP,37.4244190000,-122.1707190000,2.0,0.06969909,2.633,,1732148010208,2.8,,26894055000000,1.0091647,0,,,
Status,1732148010000,27,0,1,14,1575420030,0.00,1.0,71.0,0,0,0,0.0
Status,1732148010000,27,1,1,22,1575420030,32.40,295.0,66.0,1,0,0,27.400002
Status,1732148010000,27,2,1,30,1575420030,34.10,100.0,62.0,1,0,0,29.099998
Status,1732148010000,27,3,1,17,1575420030,27.30,171.0,58.0,1,0,0,22.3
Status,1732148010000,27,4,1,13,1575420030,30.40,286.0,55.0,1,0,0,25.4
Status,1732148010000,27,5,1,19,1575420030,24.70,193.0,30.0,1,0,0,19.7
Status,1732148010000,27,6,1,7,1575420030,40.20,114.0,28.0,1,0,0,35.2
Status,1732148010000,27,7,1,15,1575420030,0.00,307.0,25.0,0,0,0,0.0
Status,1732148010000,27,8,2,131,1575420030,31.00,3.0,23.0,0,0,0,26.0
Status,1732148010000,27,9,1,2,1575420030,39.10,75.0,20.0,1,0,0,34.1
Status,1732148010000,27,10,1,21,1575420030,28.70,57.0,14.0,1,0,0,23.7
Status,1732148010000,27,11,3,9,1602000000,24.10,38.0,49.0,1,0,0,19.1
Status,1732148010000,27,12,3,8,1602000000,28.70,284.0,40.0,1,0,0,23.7
Status,1732148010000,27,13,3,20,1602000000,0.00,143.0,23.0,0,0,0,0.0
Status,1732148010000,27,14,3,11,1602000000,0.00,283.0,9.0,0,0,0,0.0
Status,1732148010000,27,15,3,16,1602000000,34.10,78.0,7.0,1,0,0,29.099998
Status,1732148010000,27,16,3,17,1602000000,29.00,0.0,0.0,0,0,0,24.0
Status,1732148010000,27,17,6,21,1575420030,23.90,286.0,62.0,1,0,0,18.9
Status,1732148010000,27,18,6,19,1575420030,20.00,282.0,54.0,1,0,0,15.0
Status,1732148010000,27,19,6,27,1575420030,22.80,44.0,51.0,1,0,0,17.8
Status,1732148010000,27,20,6,29,1575420030,21.50,198.0,50.0,1,0,0,16.5
Status,1732148010000,27,21,6,15,1575420030,0.00,86.0,16.0,0,0,0,0.0
Status,1732148010000,27,22,6,4,1575420030,0.00,324.0,8.0,0,0,0,0.0
Status,1732148010000,27,23,6,13,1575420030,0.00,136.0,8.0,0,0,0,0.0
Status,1732148010000,27,24,6,7,1575420030,0.00,162.0,7.0,0,0,0,0.0
Status,1732148010000,27,25,6,34,1575420030,0.00,39.0,6.0,0,0,0,0.0
Status,1732148010000,27,26,6,30,1575420030,0.00,64.0,4.0,0,0,0,0.0
Fix,GPS,37.4244150000,-122.1707316667,-7.300000000000001,0.064855,2.7,197.27,1732148011000,2.5,179.9,26895055000000,46.6,0,,,
Fix,FLP,37.4244173000,-122.1707250000,2.0,0.05339097,2.666,,1732148011208,2.5,,26895055000000,1.0191884,0,,,
Raw,1732148011000,15550000000,,699113.9642011941,-1416183213450999808,0.0,117.51586348403433,2261.6165447093103,0.0,0,2,0.0,16431,346428921034746,58,34.09700012207031,605.4734905212994,0.14999,16,0.0,0.0,1575420030,,,,0,21.339934930559778,1,6.0,34.09700012207031,0.0,0.0,0.0,66.7128,C,26895055000000,
Raw,1732148011000,15550000000,,699113.9642011941,-1416183213450999808,0.0,117.51586348403433,2261.6165447093103,0.0,0,7,0.0,16431,346428924708371,58,35.24599838256836,1123.6284806917242,0.14999,16,0.0,0.0,1575420030,,,,0,22.632297476800385,1,6.0,35.24599838256836,0.0,0.0,0.0,66.7128,C,26895055000000,
Raw,1732148011000,15550000000,,699113.9642011941,-1416183213450999808,0.0,117.51586348403433,2261.6165447093103,0.0,0,30,0.0,16431,346428931262376,235,29.10300064086914,884.7342870281857,0.14999,16,0.0,0.0,1575420030,,,,0,15.434687172631996,1,6.0,29.10300064086914,0.0,0.0,0.0,66.7128,C,26895055000000,
Raw,1732148011000,15550000000,,699113.9642011941,-1416183213450999808,0.0,117.51586348403433,2261.6165447093103,0.0,0,21,0.0,16431,346428920104049,316,23.687000274658203,833.9904535895549,0.14999,16,0.0,0.0,1575420030,,,,0,8.105655061349704,1,6.0,23.687000274658203,0.0,0.0,0.0,66.7128,C,26895055000000,
Raw,1732148011000,15550000000,,699113.9642011941,-1416183213450999808,0.0,117.51586348403433,2261.6165447093103,0.0,0,22,0.0,16431,346428931282627,316,27.416000366210938,616.6551485932679,0.14999,16,0.0,0.0,1575420030,,,,0,13.28773719444932,1,6.0,27.416000366210938,0.0,0.0,0.0,66.7128,C,26895055000000,
Raw,1732148011000,15550000000,,699113.9642011941,-1416183213450999808,0.0,117.51586348403433,2261.6165447093103,0.0,0,17,0.0,16431,346428931489277,487,22.273000717163086,342.26967505430736,0.14999,16,0.0,0.0,1575420030,,,,0,5.937977392389685,1,6.0,22.273000717163086,0.0,0.0,0.0,66.7128,C,26895055000000,
Raw,1732148011000,15550000000,,699113.9642011941,-1416183213450999808,0.0,117.51586348403433,2261.6165447093103,0.0,0,29,0.0,16431,346428919247061,487,16.461000442504883,1075.8144078961625,0.14999,16,0.0,0.0,1575420030,,,,0,1.1283601756796657,6,6.0,16.461000442504883,0.0,0.0,14.593564671881607,66.7128,C,26895055000000,
Raw,1732148011000,15550000000,,699113.9642011941,-1416183213450999808,0.0,117.51586348403433,2261.6165447093103,0.0,0,27,0.0,16431,346428918776172,487,17.799999237060547,957.7439668535438,0.14999,16,0.0,0.0,1575420030,,,,0,0.5120812273952744,6,6.0,17.799999237060547,0.0,0.0,14.593564671881607,66.7128,C,26895055000000,
Raw,1732148011000,15550000000,,699113.9642011941,-1416183213450999808,0.0,117.51586348403433,2261.6165447093103,0.0,0,19,0.0,16431,346428920881156,487,15.020000457763672,621.0688375085176,0.14999,16,0.0,0.0,1575420030,,,,0,0.0,6,6.0,15.020000457763672,0.0,0.0,14.593564671881607,66.7128,C,26895055000000,
Raw,1732148011000,15550000000,,699113.9642011941,-1416183213450999808,0.0,117.51586348403433,2261.6165447093103,0.0,0,13,0.0,16431,346428931178451,316,25.375,561.6102414402817,0.14999,16,0.0,0.0,1575420030,,,,0,10.550977996289166,1,6.0,25.375,0.0,0.0,0.0,66.7128,C,26895055000000,
Raw,1732148011000,15550000000,,699113.9642011941,-1416183213450999808,0.0,117.51586348403433,2261.6165447093103,0.0,0,19,0.0,16431,346428924253442,396,19.683000564575195,21.835641452617843,0.14999,16,0.0,0.0,1575420030,,,,0,1.7037950270801567,1,6.0,19.683000564575195,0.0,0.0,0.0,66.7128,C,26895055000000,
Raw,1732148011000,15550000000,,699113.9642011941,-1416183213450999808,0.0,117.51586348403433,2261.6165447093103,0.0,0,21,0.0,16431,346428920600088,487,18.899999618530273,562.2516927929006,0.14999,16,0.0,0.0,1575420030,,,,0,2.4502814875564027,6,6.0,18.899999618530273,0.0,0.0,14.593564671881607,66.7128,C,26895055000000,
Raw,1732148011000,15550000000,,699113.9642011941,-1416183213450999808,0.0,117.51586348403433,2261.6165447093103,0.0,0,16,0.0,17,797381,235,5.0,1169.1999463048433,0.14999,16,0.0,0.0,1601437440,,,,0,15.969543265106614,3,6.0,29.0,0.0,0.0,68.09460789332154,66.7128,C,26895055000000,
Raw,1732148011000,15550000000,,699113.9642011941,-1416183213450999808,0.0,117.51586348403433,2261.6165447093103,0.0,0,9,0.0,17,950670,487,5.0,869.5176577727854,0.14999,16,0.0,0.0,1600875010,,,,0,2.809632445183877,3,6.0,20.0,0.0,0.0,68.09460789332154,66.7128,C,26895055000000,
Raw,1732148011000,15550000000,,699113.9642011941,-1416183213450999808,0.0,117.51586348403433,2261.6165447093103,0.0,0,8,0.0,17,722054,396,5.0,747.2962616423443,0.14999,16,0.0,0.0,1605374980,,,,0,9.413467834168435,3,6.0,23.0,0.0,0.0,68.09460789332154,66.7128,C,26895055000000,
Status,1732148011000,27,0,1,14,1575420030,0.00,1.0,71.0,0,0,0,0.0
Status,1732148011000,27,1,1,22,1575420030,30.00,295.0,66.0,1,0,0,25.0
Status,1732148011000,27,2,1,30,1575420030,32.10,100.0,62.0,1,0,0,27.099998
Status,1732148011000,27,3,1,17,1575420030,27.30,171.0,58.0,1,0,0,22.3
Status,1732148011000,27,4,1,13,1575420030,30.10,286.0,55.0,1,0,0,25.1
Status,1732148011000,27,5,1,19,1575420030,27.40,193.0,30.0,1,0,0,22.4
Status,1732148011000,27,6,1,7,1575420030,33.00,114.0,28.0,1,0,0,28.0
Status,1732148011000,27,7,1,15,1575420030,0.00,307.0,25.0,0,0,0,0.0
Status,1732148011000,27,8,2,131,1575420030,28.00,3.0,23.0,0,0,0,23.0
Status,1732148011000,27,9,1,2,1575420030,39.20,75.0,20.0,1,0,0,34.2
Status,1732148011000,27,10,1,21,1575420030,31.30,57.0,14.0,1,0,0,26.3
Status,1732148011000,27,11,3,9,1602000000,28.50,38.0,49.0,1,0,0,23.5
Status,1732148011000,27,12,3,8,1602000000,24.80,284.0,40.0,1,0,0,19.8
Status,1732148011000,27,13,3,20,1602000000,0.00,143.0,23.0,0,0,0,0.0
Status,1732148011000,27,14,3,11,1602000000,0.00,283.0,9.0,0,0,0,0.0
Status,1732148011000,27,15,3,16,1602000000,29.40,78.0,7.0,1,0,0,24.4
Status,1732148011000,27,16,3,17,1602000000,28.20,0.0,0.0,0,0,0,23.2
Status,1732148011000,27,17,6,21,1575420030,28.20,286.0,62.0,1,0,0,23.2
Status,1732148011000,27,18,6,19,1575420030,23.10,282.0,54.0,1,0,0,18.1
Status,1732148011000,27,19,6,27,1575420030,23.50,44.0,51.0,1,0,0,18.5
Status,1732148011000,27,20,6,29,1575420030,21.10,198.0,50.0,1,0,0,16.1
Status,1732148011000,27,21,6,15,1575420030,0.00,86.0,16.0,0,0,0,0.0
Status,1732148011000,27,22,6,4,1575420030,0.00,324.0,8.0,0,0,0,0.0
Status,1732148011000,27,23,6,13,1575420030,0.00,136.0,8.0,0,0,0,0.0
Status,1732148011000,27,24,6,7,1575420030,0.00,162.0,7.0,0,0,0,0.0
Status,1732148011000,27,25,6,34,1575420030,0.00,39.0,6.0,0,0,0,0.0
Status,1732148011000,27,26,6,30,1575420030,0.00,64.0,4.0,0,0,0,0.0
Fix,GPS,37.4244100000,-122.1707366667,-7.300000000000001,0.14206333,2.7,238.33,1732148012000,2.5,179.9,26896055000000,45.5,0,,,
Raw,1732148012000,16550000000,,698873.9022914312,-1416183213450999808,0.0,115.57050980185281,2260.1898277022524,0.0,0,2,0.0,16431,346429921032725,58,34.24700164794922,604.9786154718247,0.14999,16,0.0,0.0,1575420030,,,,0,21.512393732368157,1,6.0,34.24700164794922,0.0,0.0,0.0,66.7128,C,26896055000000,
Raw,1732148012000,16550000000,,698873.9022914312,-1416183213450999808,0.0,115.57050980185281,2260.1898277022524,0.0,0,7,0.0,16431,346429924704618,235,27.95800018310547,1123.178484472309,0.14999,16,0.0,0.0,1575420030,,,,0,13.99200362136799,1,6.0,27.95800018310547,0.0,0.0,0.0,66.7128,C,26896055000000,
Raw,1732148012000,16550000000,,698873.9022914312,-1416183213450999808,0.0,115.57050980185281,2260.1898277022524,0.0,0,30,0.0,16431,346429931259420,235,27.1200008392334,884.2196206934053,0.14999,16,0.0,0.0,1575420030,,,,0,12.897631683756353,1,6.0,27.1200008392334,0.0,0.0,0.0,66.7128,C,26896055000000,
Raw,1732148012000,16550000000,,698873.9022914312,-1416183213450999808,0.0,115.57050980185281,2260.1898277022524,0.0,0,21,0.0,16431,346429920101264,316,26.283000946044922,834.0679462277941,0.14999,16,0.0,0.0,1575420030,,,,0,11.785889915185274,1,6.0,26.283000946044922,0.0,0.0,0.0,66.7128,C,26896055000000,
Raw,1732148012000,16550000000,,698873.9022914312,-1416183213450999808,0.0,115.57050980185281,2260.1898277022524,0.0,0,22,0.0,16431,346429931280565,316,24.96299934387207,616.6168203998942,0.14999,16,0.0,0.0,1575420030,,,,0,9.968930362203023,1,6.0,24.96299934387207,0.0,0.0,0.0,66.7128,C,26896055000000,
Raw,1732148012000,16550000000,,698873.9022914312,-1416183213450999808,0.0,115.57050980185281,2260.1898277022524,0.0,0,17,0.0,16431,346429931488136,396,22.273000717163086,341.73642535304276,0.14999,16,0.0,0.0,1575420030,,,,0,5.937977392389685,1,6.0,22.273000717163086,0.0,0.0,0.0,66.7128,C,26896055000000,
Raw,1732148012000,16550000000,,698873.9022914312,-1416183213450999808,0.0,115.57050980185281,2260.1898277022524,0.0,0,29,0.0,16431,346429919243473,487,16.100000381469727,1075.6269946451691,0.14999,16,0.0,0.0,1575420030,,,,0,0.0,6,6.0,16.100000381469727,0.0,0.0,16.598215561612502,66.7128,C,26896055000000,
Raw,1732148012000,16550000000,,698873.9022914312,-1416183213450999808,0.0,115.57050980185281,2260.1898277022524,0.0,0,27,0.0,16431,346429918772979,487,18.5,956.5022263050686,0.14999,16,0.0,0.0,1575420030,,,,0,1.8144447990793773,6,6.0,18.5,0.0,0.0,16.598215561612502,66.7128,C,26896055000000,
Raw,1732148012000,16550000000,,698873.9022914312,-1416183213450999808,0.0,115.57050980185281,2260.1898277022524,0.0,0,19,0.0,16431,346429920879079,487,18.100000381469727,620.3883146278657,0.14999,16,0.0,0.0,1575420030,,,,0,1.0085529018959165,6,6.0,18.100000381469727,0.0,0.0,16.598215561612502,66.7128,C,26896055000000,
Raw,1732148012000,16550000000,,698873.9022914312,-1416183213450999808,0.0,115.57050980185281,2260.1898277022524,0.0,0,13,0.0,16431,346429931176577,316,25.131000518798828,562.2510888334899,0.14999,16,0.0,0.0,1575420030,,,,0,10.223169672525778,1,6.0,25.131000518798828,0.0,0.0,0.0,66.7128,C,26896055000000,
Raw,1732148012000,16550000000,,698873.9022914312,-1416183213450999808,0.0,115.57050980185281,2260.1898277022524,0.0,0,19,0.0,16431,346429924253382,487,22.43000030517578,21.720982081410234,0.14999,16,0.0,0.0,1575420030,,,,0,6.207328886385834,1,6.0,22.43000030517578,0.0,0.0,0.0,66.7128,C,26896055000000,
Raw,1732148012000,16550000000,,698873.9022914312,-1416183213450999808,0.0,115.57050980185281,2260.1898277022524,0.0,0,21,0.0,16431,346429920598217,316,23.200000762939453,560.7017935697008,0.14999,16,0.0,0.0,1575420030,,,,0,8.722663946996438,6,6.0,23.200000762939453,0.0,0.0,16.598215561612502,66.7128,C,26896055000000,
Raw,1732148012000,16550000000,,698873.9022914312,-1416183213450999808,0.0,115.57050980185281,2260.1898277022524,0.0,0,16,0.0,17,793477,396,5.0,1169.2937301678242,0.14999,16,0.0,0.0,1601437440,,,,0,10.321048242168196,3,6.0,23.0,0.0,0.0,54.74701730496866,66.7128,C,26896055000000,
Raw,1732148012000,16550000000,,698873.9022914312,-1416183213450999808,0.0,115.57050980185281,2260.1898277022524,0.0,0,9,0.0,17,947762,316,5.0,869.6882836776335,0.14999,16,0.0,0.0,1600875010,,,,0,9.192883839247058,3,6.0,24.0,0.0,0.0,54.74701730496866,66.7128,C,26896055000000,
Raw,1732148012000,16550000000,,698873.9022914312,-1416183213450999808,0.0,115.57050980185281,2260.1898277022524,0.0,0,8,0.0,17,719561,487,5.0,747.0957044591478,0.14999,16,0.0,0.0,1605374980,,,,0,3.873632738237588,3,6.0,18.0,0.0,0.0,54.74701730496866,66.7128,C,26896055000000,
Fix,FLP,37.4244139000,-122.1707305000,2.0,0.03726761,2.683,,1732148012207,2.5,,26896055000000,1.029165,0,,,
Status,1732148012000,27,0,1,14,1575420030,0.00,1.0,71.0,0,0,0,0.0
Status,1732148012000,27,1,1,22,1575420030,26.00,295.0,66.0,1,0,0,21.0
Status,1732148012000,27,2,1,30,1575420030,35.50,100.0,62.0,1,0,0,30.5
Status,1732148012000,27,3,1,17,1575420030,29.50,171.0,58.0,1,0,0,24.5
Status,1732148012000,27,4,1,13,1575420030,29.90,286.0,55.0,1,0,0,24.9
Status,1732148012000,27,5,1,19,1575420030,25.50,193.0,30.0,1,0,0,20.5
Status,1732148012000,27,6,1,7,1575420030,35.50,114.0,28.0,1,0,0,30.5
Status,1732148012000,27,7,1,15,1575420030,0.00,307.0,25.0,0,0,0,0.0
Status,1732148012000,27,8,2,131,1575420030,30.00,3.0,23.0,0,0,0,25.0
Status,1732148012000,27,9,1,2,1575420030,33.30,75.0,20.0,1,0,0,28.3
Status,1732148012000,27,10,1,21,1575420030,32.50,57.0,14.0,1,0,0,27.5
Status,1732148012000,27,11,3,9,1602000000,29.60,38.0,49.0,1,0,0,24.6
Status,1732148012000,27,12,3,8,1602000000,24.80,284.0,40.0,1,0,0,19.8
Status,1732148012000,27,13,3,20,1602000000,0.00,143.0,23.0,0,0,0,0.0
Status,1732148012000,27,14,3,11,1602000000,0.00,283.0,9.0,0,0,0,0.0
Status,1732148012000,27,15,3,16,1602000000,27.50,78.0,7.0,1,0,0,22.5
Status,1732148012000,27,16,3,17,1602000000,29.40,0.0,0.0,0,0,0,24.4
Status,1732148012000,27,17,6,21,1575420030,22.90,286.0,62.0,1,0,0,17.9
Status,1732148012000,27,18,6,19,1575420030,23.10,282.0,54.0,1,0,0,18.1
Status,1732148012000,27,19,6,27,1575420030,26.30,44.0,51.0,1,0,0,21.3
Status,1732148012000,27,20,6,29,1575420030,19.40,198.0,50.0,1,0,0,14.4
Status,1732148012000,27,21,6,15,1575420030,0.00,86.0,16.0,0,0,0,0.0
Status,1732148012000,27,22,6,4,1575420030,0.00,324.0,8.0,0,0,0,0.0
Status,1732148012000,27,23,6,13,1575420030,0.00,136.0,8.0,0,0,0,0.0
Status,1732148012000,27,24,6,7,1575420030,0.00,162.0,7.0,0,0,0,0.0
Status,1732148012000,27,25,6,34,1575420030,0.00,39.0,6.0,0,0,0,0.0
Status,1732148012000,27,26,6,30,1575420030,0.00,64.0,4.0,0,0,0,0.0
Fix,GPS,37.4244083333,-122.1707450000,-7.300000000000001,0.0,2.7,238.33,1732148013000,2.6,179.9,26897055000000,43.8,0,,,
Fix,FLP,37.4244113000,-122.1707375000,2.0,0.02666847,2.7,,1732148013207,2.6,,26897055000000,1.0391822,0,,,
Raw,1732148013000,17550000000,,698646.036318899,-1416183213450999808,0.0,113.12367241011265,2257.706765289691,0.0,0,2,0.0,16431,346430921030705,235,28.284000396728516,604.3582097817491,0.14999,16,0.0,0.0,1575420030,,,,0,14.41450099069732,1,6.0,28.284000396728516,0.0,0.0,0.0,66.7128,C,26897055000000,
Raw,1732148013000,17550000000,,698646.036318899,-1416183213450999808,0.0,113.12367241011265,2257.706765289691,0.0,0,7,0.0,16431,346430924700870,74,30.450000762939453,1122.6938302744006,0.14999,16,0.0,0.0,1575420030,,,,0,17.07921253334793,1,6.0,30.450000762939453,0.0,0.0,0.0,66.7128,C,26897055000000,
Raw,1732148013000,17550000000,,698646.036318899,-1416183213450999808,0.0,113.12367241011265,2257.706765289691,0.0,0,30,0.0,16431,346430931256471,74,30.506999969482422,883.0719119793401,0.14999,16,0.0,0.0,1575420030,,,,0,17.154742484393058,1,6.0,30.506999969482422,0.0,0.0,0.0,66.7128,C,26897055000000,
Raw,1732148013000,17550000000,,698646.036318899,-1416183213450999808,0.0,113.12367241011265,2257.706765289691,0.0,0,21,0.0,16431,346430920098485,235,27.457000732421875,833.9813477399777,0.14999,16,0.0,0.0,1575420030,,,,0,13.346228254795653,1,6.0,27.457000732421875,0.0,0.0,0.0,66.7128,C,26897055000000,
Raw,1732148013000,17550000000,,698646.036318899,-1416183213450999808,0.0,113.12367241011265,2257.706765289691,0.0,0,22,0.0,16431,346430931278507,487,21.003000259399414,614.858741013655,0.14999,16,0.0,0.0,1575420030,,,,0,3.9483304489233992,1,6.0,21.003000259399414,0.0,0.0,0.0,66.7128,C,26897055000000,
Raw,1732148013000,17550000000,,698646.036318899,-1416183213450999808,0.0,113.12367241011265,2257.706765289691,0.0,0,17,0.0,16431,346430931487015,316,24.47100067138672,341.47107810885626,0.14999,16,0.0,0.0,1575420030,,,,0,9.252161857628874,1,6.0,24.47100067138672,0.0,0.0,0.0,66.7128,C,26897055000000,
Raw,1732148013000,17550000000,,698646.036318899,-1416183213450999808,0.0,113.12367241011265,2257.706765289691,0.0,0,29,0.0,16431,346430919239884,487,14.399999618530273,1074.6376162135496,0.14999,16,0.0,0.0,1575420030,,,,0,0.0,6,6.0,14.399999618530273,0.0,0.0,15.428629133905245,66.7128,C,26897055000000,
Raw,1732148013000,17550000000,,698646.036318899,-1416183213450999808,0.0,113.12367241011265,2257.706765289691,0.0,0,27,0.0,16431,346430918769787,487,21.299999237060547,956.7828351389802,0.14999,16,0.0,0.0,1575420030,,,,0,6.207328886385834,6,6.0,21.299999237060547,0.0,0.0,15.428629133905245,66.7128,C,26897055000000,
Raw,1732148013000,17550000000,,698646.036318899,-1416183213450999808,0.0,113.12367241011265,2257.706765289691,0.0,0,19,0.0,16431,346430920877012,797,18.100000381469727,619.0098469604828,0.14999,16,0.0,0.0,1575420030,,,,0,1.0085529018959165,6,6.0,18.100000381469727,0.0,0.0,15.428629133905245,66.7128,C,26897055000000,
Raw,1732148013000,17550000000,,698646.036318899,-1416183213450999808,0.0,113.12367241011265,2257.706765289691,0.0,0,13,0.0,16431,346430931174711,316,24.8799991607666,561.7103128687992,0.14999,16,0.0,0.0,1575420030,,,,0,9.83896450146468,1,6.0,24.8799991607666,0.0,0.0,0.0,66.7128,C,26897055000000,
Raw,1732148013000,17550000000,,698646.036318899,-1416183213450999808,0.0,113.12367241011265,2257.706765289691,0.0,0,19,0.0,16431,346430924253328,487,20.5049991607666,21.71280540015718,0.14999,16,0.0,0.0,1575420030,,,,0,3.0427308196924203,1,6.0,20.5049991607666,0.0,0.0,0.0,66.7128,C,26897055000000,
Raw,1732148013000,17550000000,,698646.036318899,-1416183213450999808,0.0,113.12367241011265,2257.706765289691,0.0,0,21,0.0,16431,346430920596354,487,17.899999618530273,561.2941848348014,0.14999,16,0.0,0.0,1575420030,,,,0,0.6388847880156545,6,6.0,17.899999618530273,0.0,0.0,15.428629133905245,66.7128,C,26897055000000,
Raw,1732148013000,17550000000,,698646.036318899,-1416183213450999808,0.0,113.12367241011265,2257.706765289691,0.0,0,16,0.0,17,789573,396,5.0,1168.8260905547543,0.14999,16,0.0,0.0,1601437440,,,,0,7.8859884926365975,3,6.0,22.0,0.0,0.0,50.39670208579826,66.7128,C,26897055000000,
Raw,1732148013000,17550000000,,698646.036318899,-1416183213450999808,0.0,113.12367241011265,2257.706765289691,0.0,0,9,0.0,17,944859,396,5.0,868.8666093041256,0.14999,16,0.0,0.0,1600875010,,,,0,10.619023483553928,3,6.0,22.0,0.0,0.0,50.39670208579826,66.7128,C,26897055000000,
Raw,1732148013000,17550000000,,698646.036318899,-1416183213450999808,0.0,113.12367241011265,2257.706765289691,0.0,0,8,0.0,17,717070,797,5.0,746.4054941394361,0.14999,16,0.0,0.0,1605374980,,,,0,3.873632738237588,3,6.0,16.0,0.0,0.0,50.39670208579826,66.7128,C,26897055000000,
Status,1732148013000,27,0,1,14,1575420030,0.00,1.0,71.0,0,0,0,0.0
Status,1732148013000,27,1,1,22,1575420030,35.30,296.0,66.0,1,0,0,30.3
Status,1732148013000,27,2,1,30,1575420030,32.60,100.0,62.0,1,0,0,27.599998
Status,1732148013000,27,3,1,17,1575420030,30.90,171.0,58.0,1,0,0,25.9
Status,1732148013000,27,4,1,13,1575420030,29.90,286.0,55.0,1,0,0,24.9
Status,1732148013000,27,5,1,19,1575420030,29.10,193.0,30.0,1,0,0,24.1
Status,1732148013000,27,6,1,7,1575420030,35.40,114.0,28.0,1,0,0,30.400002
Status,1732148013000,27,7,1,15,1575420030,0.00,307.0,25.0,0,0,0,0.0
Status,1732148013000,27,8,2,131,1575420030,32.00,3.0,23.0,0,0,0,27.0
Status,1732148013000,27,9,1,2,1575420030,35.60,75.0,20.0,1,0,0,30.599998
Status,1732148013000,27,10,1,21,1575420030,36.80,57.0,14.0,1,0,0,31.8
Status,1732148013000,27,11,3,9,1602000000,29.60,38.0,49.0,1,0,0,24.6
Status,1732148013000,27,12,3,8,1602000000,24.70,284.0,40.0,1,0,0,19.7
Status,1732148013000,27,13,3,20,1602000000,0.00,143.0,23.0,0,0,0,0.0
Status,1732148013000,27,14,3,11,1602000000,0.00,283.0,9.0,0,0,0,0.0
Status,1732148013000,27,15,3,16,1602000000,29.70,78.0,7.0,1,0,0,24.7
Status,1732148013000,27,16,3,17,1602000000,28.40,0.0,0.0,0,0,0,23.4
Status,1732148013000,27,17,6,21,1575420030,33.50,286.0,62.0,1,0,0,28.5
Status,1732148013000,27,18,6,19,1575420030,0.00,282.0,54.0,0,0,0,0.0
Status,1732148013000,27,19,6,27,1575420030,27.10,44.0,51.0,1,0,0,22.1
Status,1732148013000,27,20,6,29,1575420030,22.60,198.0,50.0,1,0,0,17.6
Status,1732148013000,27,21,6,15,1575420030,0.00,86.0,16.0,0,0,0,0.0
Status,1732148013000,27,22,6,4,1575420030,0.00,324.0,8.0,0,0,0,0.0
Status,1732148013000,27,23,6,13,1575420030,0.00,136.0,8.0,0,0,0,0.0
Status,1732148013000,27,24,6,7,1575420030,0.00,162.0,7.0,0,0,0,0.0
Status,1732148013000,27,25,6,34,1575420030,0.00,39.0,6.0,0,0,0,0.0
Status,1732148013000,27,26,6,30,1575420030,0.00,64.0,4.0,0,0,0,0.0
Fix,GPS,37.4244050000,-122.1707516667,-7.300000000000001,0.5116339,2.6,258.8,1732148014000,2.4,179.9,26898055000000,43.4,0,,,
Raw,1732148014000,18550000000,,697991.6252596321,-1416183213450999808,0.0,111.88369919123792,2254.0625232497223,0.0,0,2,0.0,16431,346431921028683,74,30.565000534057617,604.2354201877047,0.14999,16,0.0,0.0,1575420030,,,,0,17.229621307070552,1,6.0,30.565000534057617,0.0,0.0,0.0,66.7128,C,26898055000000,
Raw,1732148014000,18550000000,,697991.6252596321,-1416183213450999808,0.0,111.88369919123792,2254.0625232497223,0.0,0,7,0.0,16431,346431924697120,74,30.39299964904785,1122.7401957737789,0.14999,16,0.0,0.0,1575420030,,,,0,17.022130906412798,1,6.0,30.39299964904785,0.0,0.0,0.0,66.7128,C,26898055000000,
Raw,1732148014000,18550000000,,697991.6252596321,-1416183213450999808,0.0,111.88369919123792,2254.0625232497223,0.0,0,30,0.0,16431,346431931253523,396,27.579999923706055,883.3172124169319,0.14999,16,0.0,0.0,1575420030,,,,0,13.490755543316649,1,6.0,27.579999923706055,0.0,0.0,0.0,66.7128,C,26898055000000,
Raw,1732148014000,18550000000,,697991.6252596321,-1416183213450999808,0.0,111.88369919123792,2254.0625232497223,0.0,0,21,0.0,16431,346431920095703,74,31.826000213623047,832.6468761927462,0.14999,16,0.0,0.0,1575420030,,,,0,18.716405599364514,1,6.0,31.826000213623047,0.0,0.0,0.0,66.7128,C,26898055000000,
Raw,1732148014000,18550000000,,697991.6252596321,-1416183213450999808,0.0,111.88369919123792,2254.0625232497223,0.0,0,22,0.0,16431,346431931276463,74,30.31999969482422,614.0101315831533,0.14999,16,0.0,0.0,1575420030,,,,0,16.926153248777425,1,6.0,30.31999969482422,0.0,0.0,0.0,66.7128,C,26898055000000,
Raw,1732148014000,18550000000,,697991.6252596321,-1416183213450999808,0.0,111.88369919123792,2254.0625232497223,0.0,0,17,0.0,16431,346431931485916,316,25.94099998474121,341.3201347145882,0.14999,16,0.0,0.0,1575420030,,,,0,11.32014303267268,1,6.0,25.94099998474121,0.0,0.0,0.0,66.7128,C,26898055000000,
Raw,1732148014000,18550000000,,697991.6252596321,-1416183213450999808,0.0,111.88369919123792,2254.0625232497223,0.0,0,29,0.0,16431,346431919236299,396,17.600000381469727,1073.7140228992841,0.14999,16,0.0,0.0,1575420030,,,,0,0.12017010612765944,6,6.0,17.600000381469727,0.0,0.0,12.222910998514633,66.7128,C,26898055000000,
Raw,1732148014000,18550000000,,697991.6252596321,-1416183213450999808,0.0,111.88369919123792,2254.0625232497223,0.0,0,27,0.0,16431,346431918766599,396,22.100000381469727,955.7297157603198,0.14999,16,0.0,0.0,1575420030,,,,0,7.32562834151603,6,6.0,22.100000381469727,0.0,0.0,12.222910998514633,66.7128,C,26898055000000,
Raw,1732148014000,18550000000,,697991.6252596321,-1416183213450999808,0.0,111.88369919123792,2254.0625232497223,0.0,0,13,0.0,16431,346431931172835,396,24.93600082397461,560.7659526424876,0.14999,16,0.0,0.0,1575420030,,,,0,9.925824121680325,1,6.0,24.93600082397461,0.0,0.0,0.0,66.7128,C,26898055000000,
Raw,1732148014000,18550000000,,697991.6252596321,-1416183213450999808,0.0,111.88369919123792,2254.0625232497223,0.0,0,19,0.0,16431,346431924253325,396,24.104999542236328,20.467859220963383,0.14999,16,0.0,0.0,1575420030,,,,0,8.722663946996438,1,6.0,24.104999542236328,0.0,0.0,0.0,66.7128,C,26898055000000,
Raw,1732148014000,18550000000,,697991.6252596321,-1416183213450999808,0.0,111.88369919123792,2254.0625232497223,0.0,0,21,0.0,16431,346431920594486,235,28.5,559.374290784901,0.14999,16,0.0,0.0,1575420030,,,,0,15.225937454610447,6,6.0,28.5,0.0,0.0,12.222910998514633,66.7128,C,26898055000000,
Raw,1732148014000,18550000000,,697991.6252596321,-1416183213450999808,0.0,111.88369919123792,2254.0625232497223,0.0,0,16,0.0,17,785675,316,5.0,1166.9002307017895,0.14999,16,0.0,0.0,1601437440,,,,0,10.758166366841522,3,6.0,25.0,0.0,0.0,45.749930229611145,66.7128,C,26898055000000,
Raw,1732148014000,18550000000,,697991.6252596321,-1416183213450999808,0.0,111.88369919123792,2254.0625232497223,0.0,0,9,0.0,17,941964,487,5.0,867.9822075079351,0.14999,16,0.0,0.0,1600875010,,,,0,10.619023483553928,3,6.0,20.0,0.0,0.0,45.749930229611145,66.7128,C,26898055000000,
Raw,1732148014000,18550000000,,697991.6252596321,-1416183213450999808,0.0,111.88369919123792,2254.0625232497223,0.0,0,8,0.0,17,714570,487,5.0,745.4537707479317,0.14999,16,0.0,0.0,1605374980,,,,0,0.2847347169722063,3,6.0,18.0,0.0,0.0,45.749930229611145,66.7128,C,26898055000000,
Fix,FLP,37.4244083000,-122.1707444000,2.0,0.019635571,2.7,,1732148014207,2.4,,26898055000000,1.0531801,0,,,
Status,1732148014000,27,0,1,14,1575420030,0.00,1.0,71.0,0,0,0,0.0
Status,1732148014000,27,1,1,22,1575420030,30.20,296.0,66.0,1,0,0,25.2
Status,1732148014000,27,2,1,30,1575420030,36.00,100.0,62.0,1,0,0,31.0
Status,1732148014000,27,3,1,17,1575420030,31.80,171.0,58.0,1,0,0,26.8
Status,1732148014000,27,4,1,13,1575420030,30.70,286.0,55.0,1,0,0,25.7
Status,1732148014000,27,5,1,19,1575420030,30.60,193.0,30.0,1,0,0,25.6
Status,1732148014000,27,6,1,7,1575420030,32.70,114.0,28.0,1,0,0,27.7
Status,1732148014000,27,7,1,15,1575420030,0.00,307.0,25.0,0,0,0,0.0
Status,1732148014000,27,8,2,131,1575420030,31.00,3.0,23.0,0,0,0,26.0
Status,1732148014000,27,9,1,2,1575420030,34.70,75.0,20.0,1,0,0,29.7
Status,1732148014000,27,10,1,21,1575420030,31.00,57.0,14.0,1,0,0,26.0
Status,1732148014000,27,11,3,9,1602000000,28.00,38.0,49.0,1,0,0,23.0
Status,1732148014000,27,12,3,8,1602000000,24.60,284.0,40.0,1,0,0,19.6
Status,1732148014000,27,13,3,20,1602000000,0.00,143.0,23.0,0,0,0,0.0
Status,1732148014000,27,14,3,11,1602000000,0.00,283.0,9.0,0,0,0,0.0
Status,1732148014000,27,15,3,16,1602000000,24.80,78.0,7.0,1,0,0,19.8
Status,1732148014000,27,16,3,17,1602000000,33.60,0.0,0.0,0,0,0,28.599998
Status,1732148014000,27,17,6,21,1575420030,22.70,286.0,62.0,1,0,0,17.7
Status,1732148014000,27,18,6,19,1575420030,0.00,282.0,54.0,0,0,0,0.0
Status,1732148014000,27,19,6,27,1575420030,27.10,44.0,51.0,1,0,0,22.1
Status,1732148014000,27,20,6,29,1575420030,25.40,198.0,50.0,1,0,0,20.4
Status,1732148014000,27,21,6,15,1575420030,0.00,86.0,16.0,0,0,0,0.0
Status,1732148014000,27,22,6,4,1575420030,0.00,324.0,8.0,0,0,0,0.0
Status,1732148014000,27,23,6,13,1575420030,0.00,136.0,8.0,0,0,0,0.0
Status,1732148014000,27,24,6,7,1575420030,0.00,162.0,7.0,0,0,0,0.0
Status,1732148014000,27,25,6,34,1575420030,0.00,39.0,6.0,0,0,0,0.0
Status,1732148014000,27,26,6,30,1575420030,0.00,64.0,4.0,0,0,0,0.0
Fix,GPS,37.4244066667,-122.1707616667,-7.199999999999999,0.0,2.5,258.8,1732148015000,2.6,146.4,26899055000000,42.4,0,,,
Raw,1732148015000,19550000000,,697235.9983452285,-1416183213450999808,0.0,110.01224917516781,2251.432561065669,0.0,0,2,0.0,16431,346432921026672,74,29.709999084472656,604.2470812501736,0.14999,16,0.0,0.0,1575420030,,,,0,16.18090400639857,1,6.0,29.709999084472656,0.0,0.0,0.0,66.7128,C,26899055000000,
Raw,1732148015000,19550000000,,697235.9983452285,-1416183213450999808,0.0,110.01224917516781,2251.432561065669,0.0,0,7,0.0,16431,346432924693379,235,27.722999572753906,1121.9460356070758,0.14999,16,0.0,0.0,1575420030,,,,0,13.689136849956002,1,6.0,27.722999572753906,0.0,0.0,0.0,66.7128,C,26899055000000,
Raw,1732148015000,19550000000,,697235.9983452285,-1416183213450999808,0.0,110.01224917516781,2251.432561065669,0.0,0,30,0.0,16431,346432931250579,235,30.969999313354492,882.7097221665629,0.14999,16,0.0,0.0,1575420030,,,,0,17.701205028617757,1,6.0,30.969999313354492,0.0,0.0,0.0,66.7128,C,26899055000000,
Raw,1732148015000,19550000000,,697235.9983452285,-1416183213450999808,0.0,110.01224917516781,2251.432561065669,0.0,0,21,0.0,16431,346432920092926,235,25.98900032043457,832.5042488549798,0.14999,16,0.0,0.0,1575420030,,,,0,11.393442114400788,1,6.0,25.98900032043457,0.0,0.0,0.0,66.7128,C,26899055000000,
Raw,1732148015000,19550000000,,697235.9983452285,-1416183213450999808,0.0,110.01224917516781,2251.432561065669,0.0,0,22,0.0,16431,346432931274419,396,25.240999221801758,613.2890969635657,0.14999,16,0.0,0.0,1575420030,,,,0,10.347552079224402,1,6.0,25.240999221801758,0.0,0.0,0.0,66.7128,C,26899055000000,
Raw,1732148015000,19550000000,,697235.9983452285,-1416183213450999808,0.0,110.01224917516781,2251.432561065669,0.0,0,17,0.0,16431,346432931484785,235,26.791000366210938,341.1517461850332,0.14999,16,0.0,0.0,1575420030,,,,0,12.456948573318709,1,6.0,26.791000366210938,0.0,0.0,0.0,66.7128,C,26899055000000,
Raw,1732148015000,19550000000,,697235.9983452285,-1416183213450999808,0.0,110.01224917516781,2251.432561065669,0.0,0,29,0.0,16431,346432919232719,396,20.399999618530273,1073.0511542167922,0.14999,16,0.0,0.0,1575420030,,,,0,4.84626342667418,6,6.0,20.399999618530273,0.0,0.0,13.557717708122139,66.7128,C,26899055000000,
Raw,1732148015000,19550000000,,697235.9983452285,-1416183213450999808,0.0,110.01224917516781,2251.432561065669,0.0,0,27,0.0,16431,346432918763408,316,22.149999618530273,955.6176580604199,0.14999,16,0.0,0.0,1575420030,,,,0,8.672887938922543,6,6.0,22.149999618530273,0.0,0.0,13.557717708122139,66.7128,C,26899055000000,
Raw,1732148015000,19550000000,,697235.9983452285,-1416183213450999808,0.0,110.01224917516781,2251.432561065669,0.0,0,19,0.0,16431,346432924253250,316,25.636999130249023,20.546420402775404,0.14999,16,0.0,0.0,1575420030,,,,0,10.905553335497798,1,6.0,25.636999130249023,0.0,0.0,0.0,66.7128,C,26899055000000,
Raw,1732148015000,19550000000,,697235.9983452285,-1416183213450999808,0.0,110.01224917516781,2251.432561065669,0.0,0,21,0.0,16431,346432920592623,396,17.700000762939453,559.1800946051409,0.14999,16,0.0,0.0,1575420030,,,,0,0.3833990272870773,6,6.0,17.700000762939453,0.0,0.0,13.557717708122139,66.7128,C,26899055000000,
Raw,1732148015000,19550000000,,697235.9983452285,-1416183213450999808,0.0,110.01224917516781,2251.432561065669,0.0,0,16,0.0,17,781784,487,5.0,1166.7309444306002,0.14999,16,0.0,0.0,1601437440,,,,0,3.8990486733818903,3,6.0,20.0,0.0,0.0,45.30496874528621,66.7128,C,26899055000000,
Raw,1732148015000,19550000000,,697235.9983452285,-1416183213450999808,0.0,110.01224917516781,2251.432561065669,0.0,0,9,0.0,17,939047,396,5.0,867.5257420647399,0.14999,16,0.0,0.0,1600875010,,,,0,8.452614538923495,3,6.0,22.0,0.0,0.0,45.30496874528621,66.7128,C,26899055000000,
Raw,1732148015000,19550000000,,697235.9983452285,-1416183213450999808,0.0,110.01224917516781,2251.432561065669,0.0,0,8,0.0,17,712086,797,5.0,744.3223710984194,0.14999,16,0.0,0.0,1605374980,,,,0,0.2847347169722063,3,6.0,17.0,0.0,0.0,45.30496874528621,66.7128,C,26899055000000,
Raw,1732148015000,19550000000,,697235.9983452285,-1416183213450999808,0.0,110.01224917516781,2251.432561065669,0.0,0,13,0.0,16431,346432931170983,316,25.71500015258789,561.1830098448096,0.14999,16,0.0,0.0,1575420030,,,,0,11.020599913279625,1,6.0,25.71500015258789,0.0,0.0,0.0,66.7128,C,26899055000000,
Fix,FLP,37.4244076000,-122.1707529000,2.0,0.028525924,2.666,,1732148015208,2.6,,26899055000000,1.063181,0,,,
Status,1732148015000,27,0,1,14,1575420030,27.50,1.0,71.0,1,0,0,22.5
Status,1732148015000,27,1,1,22,1575420030,28.50,296.0,66.0,1,0,0,23.5
Status,1732148015000,27,2,1,30,1575420030,31.80,100.0,62.0,1,0,0,26.8
Status,1732148015000,27,3,1,17,1575420030,30.40,171.0,58.0,1,0,0,25.4
Status,1732148015000,27,4,1,13,1575420030,30.70,286.0,55.0,1,0,0,25.7
Status,1732148015000,27,5,1,19,1575420030,27.40,193.0,30.0,1,0,0,22.4
Status,1732148015000,27,6,1,7,1575420030,30.00,114.0,28.0,1,0,0,25.0
Status,1732148015000,27,7,1,15,1575420030,0.00,307.0,25.0,0,0,0,0.0
Status,1732148015000,27,8,2,131,1575420030,30.00,3.0,23.0,0,0,0,25.0
Status,1732148015000,27,9,1,2,1575420030,36.60,75.0,20.0,1,0,0,31.599998
Status,1732148015000,27,10,1,21,1575420030,32.40,57.0,14.0,1,0,0,27.400002
Status,1732148015000,27,11,3,9,1602000000,29.20,38.0,49.0,1,0,0,24.2
Status,1732148015000,27,12,3,8,1602000000,24.50,284.0,40.0,1,0,0,19.5
Status,1732148015000,27,13,3,20,1602000000,0.00,143.0,23.0,0,0,0,0.0
Status,1732148015000,27,14,3,11,1602000000,0.00,283.0,9.0,0,0,0,0.0
Status,1732148015000,27,15,3,16,1602000000,30.40,78.0,7.0,1,0,0,25.4
Status,1732148015000,27,16,3,17,1602000000,27.20,0.0,0.0,0,0,0,22.2
Status,1732148015000,27,17,6,21,1575420030,26.90,286.0,62.0,1,0,0,21.9
Status,1732148015000,27,18,6,19,1575420030,21.30,282.0,54.0,1,0,0,16.3
Status,1732148015000,27,19,6,27,1575420030,29.80,44.0,51.0,1,0,0,24.8
Status,1732148015000,27,20,6,29,1575420030,21.50,198.0,50.0,1,0,0,16.5
Status,1732148015000,27,21,6,15,1575420030,0.00,86.0,16.0,0,0,0,0.0
Status,1732148015000,27,22,6,4,1575420030,0.00,324.0,8.0,0,0,0,0.0
Status,1732148015000,27,23,6,13,1575420030,0.00,136.0,8.0,0,0,0,0.0
Status,1732148015000,27,24,6,7,1575420030,0.00,162.0,7.0,0,0,0,0.0
Status,1732148015000,27,25,6,34,1575420030,0.00,39.0,6.0,0,0,0,0.0
Status,1732148015000,27,26,6,30,1575420030,0.00,64.0,4.0,0,0,0,0.0
Fix,GPS,37.4244066667,-122.1707700000,-7.0,0.6387703,2.6,276.56,1732148016000,2.5,179.9,26900055000000,43.6,0,,,
Raw,1732148016000,20550000000,,696785.4262197617,-1416183213450999808,0.0,111.77219474458946,2250.321235656238,0.0,0,2,0.0,16431,346433921024657,74,31.575000762939453,604.1975101200769,0.14999,16,0.0,0.0,1575420030,,,,0,18.428978613695115,1,6.0,31.575000762939453,0.0,0.0,0.0,66.7128,C,26900055000000,
Raw,1732148016000,20550000000,,696785.4262197617,-1416183213450999808,0.0,111.77219474458946,2250.321235656238,0.0,0,7,0.0,16431,346433924689637,316,25.047000885009766,1121.7636398650334,0.14999,16,0.0,0.0,1575420030,,,,0,10.096980194385633,1,6.0,25.047000885009766,0.0,0.0,0.0,66.7128,C,26900055000000,
Raw,1732148016000,20550000000,,696785.4262197617,-1416183213450999808,0.0,111.77219474458946,2250.321235656238,0.0,0,30,0.0,16431,346433931247641,235,26.812999725341797,882.4955488678322,0.14999,16,0.0,0.0,1575420030,,,,0,12.489178256450295,1,6.0,26.812999725341797,0.0,0.0,0.0,66.7128,C,26900055000000,
Raw,1732148016000,20550000000,,696785.4262197617,-1416183213450999808,0.0,111.77219474458946,2250.321235656238,0.0,0,21,0.0,16431,346433920090149,235,27.395000457763672,832.6821845890661,0.14999,16,0.0,0.0,1575420030,,,,0,13.258343292833807,1,6.0,27.395000457763672,0.0,0.0,0.0,66.7128,C,26900055000000,
Raw,1732148016000,20550000000,,696785.4262197617,-1416183213450999808,0.0,111.77219474458946,2250.321235656238,0.0,0,22,0.0,16431,346433931272374,396,23.451000213623047,613.3658927255618,0.14999,16,0.0,0.0,1575420030,,,,0,7.779896021455223,1,6.0,23.451000213623047,0.0,0.0,0.0,66.7128,C,26900055000000,
Raw,1732148016000,20550000000,,696785.4262197617,-1416183213450999808,0.0,111.77219474458946,2250.321235656238,0.0,0,17,0.0,16431,346433931483647,316,25.42799949645996,340.86872151347853,0.14999,16,0.0,0.0,1575420030,,,,0,10.631032845362645,1,6.0,25.42799949645996,0.0,0.0,0.0,66.7128,C,26900055000000,
Raw,1732148016000,20550000000,,696785.4262197617,-1416183213450999808,0.0,111.77219474458946,2250.321235656238,0.0,0,29,0.0,16431,346433919229136,487,16.5,1074.1686649603205,0.14999,16,0.0,0.0,1575420030,,,,0,0.0,6,6.0,16.5,0.0,0.0,12.01309916394183,66.7128,C,26900055000000,
Raw,1732148016000,20550000000,,696785.4262197617,-1416183213450999808,0.0,111.77219474458946,2250.321235656238,0.0,0,27,0.0,16431,346433918760223,316,24.799999237060547,955.1940502214122,0.14999,16,0.0,0.0,1575420030,,,,0,10.866863339953804,6,6.0,24.799999237060547,0.0,0.0,12.01309916394183,66.7128,C,26900055000000,
Raw,1732148016000,20550000000,,696785.4262197617,-1416183213450999808,0.0,111.77219474458946,2250.321235656238,0.0,0,19,0.0,16431,346433920870821,487,16.299999237060547,618.6221514772059,0.14999,16,0.0,0.0,1575420030,,,,0,0.0,6,6.0,16.299999237060547,0.0,0.0,12.01309916394183,66.7128,C,26900055000000,
Raw,1732148016000,20550000000,,696785.4262197617,-1416183213450999808,0.0,111.77219474458946,2250.321235656238,0.0,0,14,0.0,16431,346433932729747,396,22.545000076293945,755.5670674400151,0.14999,16,0.0,0.0,1575420030,,,,0,6.4039989405667015,1,6.0,22.545000076293945,0.0,0.0,0.0,66.7128,C,26900055000000,
Raw,1732148016000,20550000000,,696785.4262197617,-1416183213450999808,0.0,111.77219474458946,2250.321235656238,0.0,0,19,0.0,16431,346433924253189,487,22.43000030517578,20.13456654306898,0.14999,16,0.0,0.0,1575420030,,,,0,6.207328886385834,1,6.0,22.43000030517578,0.0,0.0,0.0,66.7128,C,26900055000000,
Raw,1732148016000,20550000000,,696785.4262197617,-1416183213450999808,0.0,111.77219474458946,2250.321235656238,0.0,0,21,0.0,16431,346433920590760,316,21.899999618530273,559.4528984251291,0.14999,16,0.0,0.0,1575420030,,,,0,7.029152815175541,6,6.0,21.899999618530273,0.0,0.0,12.01309916394183,66.7128,C,26900055000000,
Raw,1732148016000,20550000000,,696785.4262197617,-1416183213450999808,0.0,111.77219474458946,2250.321235656238,0.0,0,16,0.0,17,777890,316,5.0,1166.5877092324608,0.14999,16,0.0,0.0,1601437440,,,,0,11.636878861564014,3,6.0,26.0,0.0,0.0,42.66148575722338,66.7128,C,26900055000000,
Raw,1732148016000,20550000000,,696785.4262197617,-1416183213450999808,0.0,111.77219474458946,2250.321235656238,0.0,0,9,0.0,17,936156,316,5.0,867.4771877477655,0.14999,16,0.0,0.0,1600875010,,,,0,10.093953224625755,3,6.0,25.0,0.0,0.0,42.66148575722338,66.7128,C,26900055000000,
Raw,1732148016000,20550000000,,696785.4262197617,-1416183213450999808,0.0,111.77219474458946,2250.321235656238,0.0,0,8,0.0,17,709602,797,5.0,744.4750115733777,0.14999,16,0.0,0.0,1605374980,,,,0,0.2847347169722063,3,6.0,17.0,0.0,0.0,42.66148575722338,66.7128,C,26900055000000,
Raw,1732148016000,20550000000,,696785.4262197617,-1416183213450999808,0.0,111.77219474458946,2250.321235656238,0.0,0,13,0.0,16431,346433931169094,316,25.663000106811523,561.0414045921999,0.14999,16,0.0,0.0,1575420030,,,,0,10.944071756218566,1,6.0,25.663000106811523,0.0,0.0,0.0,66.7128,C,26900055000000,
Fix,FLP,37.4244072000,-122.1707615000,2.0,0.054221675,2.633,,1732148016207,2.5,,26900055000000,1.0731843,0,,,
Status,1732148016000,27,0,1,14,1575420030,30.80,1.0,71.0,1,0,0,25.8
Status,1732148016000,27,1,1,22,1575420030,29.60,296.0,66.0,1,0,0,24.6
Status,1732148016000,27,2,1,30,1575420030,33.90,100.0,62.0,1,0,0,28.900002
Status,1732148016000,27,3,1,17,1575420030,32.90,171.0,58.0,1,0,0,27.900002
Status,1732148016000,27,4,1,13,1575420030,30.80,286.0,55.0,1,0,0,25.8
Status,1732148016000,27,5,1,19,1575420030,27.40,193.0,30.0,1,0,0,22.4
Status,1732148016000,27,6,1,7,1575420030,35.10,114.0,28.0,1,0,0,30.099998
Status,1732148016000,27,7,1,15,1575420030,29.80,307.0,25.0,1,0,0,24.8
Status,1732148016000,27,8,2,131,1575420030,30.00,3.0,23.0,0,0,0,25.0
Status,1732148016000,27,9,1,2,1575420030,35.80,75.0,20.0,1,0,0,30.8
Status,1732148016000,27,10,1,21,1575420030,29.50,57.0,14.0,1,0,0,24.5
Status,1732148016000,27,11,3,9,1602000000,30.40,38.0,49.0,1,0,0,25.4
Status,1732148016000,27,12,3,8,1602000000,21.30,284.0,40.0,1,0,0,16.3
Status,1732148016000,27,13,3,20,1602000000,0.00,143.0,23.0,0,0,0,0.0
Status,1732148016000,27,14,3,11,1602000000,0.00,283.0,9.0,0,0,0,0.0
Status,1732148016000,27,15,3,16,1602000000,27.60,78.0,7.0,1,0,0,22.6
Status,1732148016000,27,16,3,17,1602000000,30.20,0.0,0.0,0,0,0,25.2
Status,1732148016000,27,17,6,21,1575420030,21.80,286.0,62.0,1,0,0,16.8
Status,1732148016000,27,18,6,19,1575420030,22.70,282.0,54.0,1,0,0,17.7
Status,1732148016000,27,19,6,27,1575420030,31.60,44.0,51.0,1,0,0,26.6
Status,1732148016000,27,20,6,29,1575420030,21.60,198.0,50.0,1,0,0,16.6
Status,1732148016000,27,21,6,15,1575420030,0.00,86.0,16.0,0,0,0,0.0
Status,1732148016000,27,22,6,4,1575420030,0.00,324.0,8.0,0,0,0,0.0
Status,1732148016000,27,23,6,13,1575420030,0.00,136.0,8.0,0,0,0,0.0
Status,1732148016000,27,24,6,7,1575420030,0.00,162.0,7.0,0,0,0,0.0
Status,1732148016000,27,25,6,34,1575420030,0.00,39.0,6.0,0,0,0,0.0
Status,1732148016000,27,26,6,30,1575420030,0.00,64.0,4.0,0,0,0,0.0
Fix,GPS,37.4244116667,-122.1707833333,-7.0,0.47817695,2.5,284.15,1732148017000,2.3,146.4,26901055000000,44.3,0,,,
Raw,1732148017000,21550000000,,696256.8834870423,-1416183213450999808,0.0,114.35749971460517,2251.120713084941,0.0,0,2,0.0,16431,346434921022642,74,30.75,604.4161898851798,0.14999,16,0.0,0.0,1575420030,,,,0,17.450460905512927,1,6.0,30.75,0.0,0.0,0.0,66.7128,C,26901055000000,
Raw,1732148017000,21550000000,,696256.8834870423,-1416183213450999808,0.0,114.35749971460517,2251.120713084941,0.0,0,7,0.0,16431,346434924685893,235,30.125999450683594,1123.1610161078138,0.14999,16,0.0,0.0,1575420030,,,,0,16.691385183352537,1,6.0,30.125999450683594,0.0,0.0,0.0,66.7128,C,26901055000000,
Raw,1732148017000,21550000000,,696256.8834870423,-1416183213450999808,0.0,114.35749971460517,2251.120713084941,0.0,0,30,0.0,16431,346434931244698,235,28.89699935913086,883.4770293686961,0.14999,16,0.0,0.0,1575420030,,,,0,15.1788593467409,1,6.0,28.89699935913086,0.0,0.0,0.0,66.7128,C,26901055000000,
Raw,1732148017000,21550000000,,696256.8834870423,-1416183213450999808,0.0,114.35749971460517,2251.120713084941,0.0,0,21,0.0,16431,346434920087369,396,24.530000686645508,832.8748940995074,0.14999,16,0.0,0.0,1575420030,,,,0,9.345059958544145,1,6.0,24.530000686645508,0.0,0.0,0.0,66.7128,C,26901055000000,
Raw,1732148017000,21550000000,,696256.8834870423,-1416183213450999808,0.0,114.35749971460517,2251.120713084941,0.0,0,22,0.0,16431,346434931270324,396,24.6200008392334,614.2797762308393,0.14999,16,0.0,0.0,1575420030,,,,0,9.4825703182251,1,6.0,24.6200008392334,0.0,0.0,0.0,66.7128,C,26901055000000,
Raw,1732148017000,21550000000,,696256.8834870423,-1416183213450999808,0.0,114.35749971460517,2251.120713084941,0.0,0,17,0.0,16431,346434931482506,235,27.920000076293945,340.6369637042123,0.14999,16,0.0,0.0,1575420030,,,,0,13.937716634414171,1,6.0,27.920000076293945,0.0,0.0,0.0,66.7128,C,26901055000000,
Raw,1732148017000,21550000000,,696256.8834870423,-1416183213450999808,0.0,114.35749971460517,2251.120713084941,0.0,0,29,0.0,16431,346434919225551,487,16.594999313354492,1074.0898714864275,0.14999,16,0.0,0.0,1575420030,,,,0,1.5917174767201852,6,6.0,16.594999313354492,0.0,0.0,16.408730578352955,66.7128,C,26901055000000,
Raw,1732148017000,21550000000,,696256.8834870423,-1416183213450999808,0.0,114.35749971460517,2251.120713084941,0.0,0,27,0.0,16431,346434918757038,235,26.600000381469727,955.336305891849,0.14999,16,0.0,0.0,1575420030,,,,0,13.019540907950395,6,6.0,26.600000381469727,0.0,0.0,16.408730578352955,66.7128,C,26901055000000,
Raw,1732148017000,21550000000,,696256.8834870423,-1416183213450999808,0.0,114.35749971460517,2251.120713084941,0.0,0,19,0.0,16431,346434920868747,487,17.700000762939453,619.2947764271021,0.14999,16,0.0,0.0,1575420030,,,,0,0.3833990272870773,6,6.0,17.700000762939453,0.0,0.0,16.408730578352955,66.7128,C,26901055000000,
Raw,1732148017000,21550000000,,696256.8834870423,-1416183213450999808,0.0,114.35749971460517,2251.120713084941,0.0,0,14,0.0,16431,346434932727188,316,25.816999435424805,755.2333101779586,0.14999,16,0.0,0.0,1575420030,,,,0,11.171662671088542,1,6.0,25.816999435424805,0.0,0.0,0.0,66.7128,C,26901055000000,
Raw,1732148017000,21550000000,,696256.8834870423,-1416183213450999808,0.0,114.35749971460517,2251.120713084941,0.0,0,19,0.0,16431,346434924253121,396,22.43000030517578,20.580195671360467,0.14999,16,0.0,0.0,1575420030,,,,0,6.207328886385834,1,6.0,22.43000030517578,0.0,0.0,0.0,66.7128,C,26901055000000,
Raw,1732148017000,21550000000,,696256.8834870423,-1416183213450999808,0.0,114.35749971460517,2251.120713084941,0.0,0,21,0.0,16431,346434920588893,487,16.799999237060547,558.6055433718651,0.14999,16,0.0,0.0,1575420030,,,,0,0.0,6,6.0,16.799999237060547,0.0,0.0,16.408730578352955,66.7128,C,26901055000000,
Raw,1732148017000,21550000000,,696256.8834870423,-1416183213450999808,0.0,114.35749971460517,2251.120713084941,0.0,0,16,0.0,17,773989,396,5.0,1167.5716171282943,0.14999,16,0.0,0.0,1601437440,,,,0,8.03136242393189,3,6.0,23.0,0.0,0.0,43.489959546794786,66.7128,C,26901055000000,
Raw,1732148017000,21550000000,,696256.8834870423,-1416183213450999808,0.0,114.35749971460517,2251.120713084941,0.0,0,9,0.0,17,933260,316,5.0,868.1464326553667,0.14999,16,0.0,0.0,1600875010,,,,0,11.57147489836023,3,6.0,24.0,0.0,0.0,43.489959546794786,66.7128,C,26901055000000,
Raw,1732148017000,21550000000,,696256.8834870423,-1416183213450999808,0.0,114.35749971460517,2251.120713084941,0.0,0,8,0.0,17,707138,487,5.0,745.5675216395151,0.14999,16,0.0,0.0,1605374980,,,,0,0.0,3,6.0,19.0,0.0,0.0,43.489959546794786,66.7128,C,26901055000000,
Raw,1732148017000,21550000000,,696256.8834870423,-1416183213450999808,0.0,114.35749971460517,2251.120713084941,0.0,0,15,0.0,16431,346434924471122,316,24.766000747680664,357.3245480565404,0.14999,16,0.0,0.0,1575420030,,,,0,9.70702440040007,1,6.0,24.766000747680664,0.0,0.0,0.0,66.7128,C,26901055000000,
Raw,1732148017000,21550000000,,696256.8834870423,-1416183213450999808,0.0,114.35749971460517,2251.120713084941,0.0,0,13,0.0,16431,346434931167190,316,25.766000747680664,562.0048127691578,0.14999,16,0.0,0.0,1575420030,,,,0,11.096459693622407,1,6.0,25.766000747680664,0.0,0.0,0.0,66.7128,C,26901055000000,
Fix,FLP,37.4244095000,-122.1707726000,2.0,0.084923096,2.6,,1732148017207,2.3,,26901055000000,1.0831885,0,,,
Status,1732148017000,27,0,1,14,1575420030,0.00,1.0,71.0,0,0,0,0.0
Status,1732148017000,27,1,1,22,1575420030,29.10,296.0,66.0,1,0,0,24.1
Status,1732148017000,27,2,1,30,1575420030,28.90,100.0,62.0,1,0,0,23.9
Status,1732148017000,27,3,1,17,1575420030,30.00,171.0,58.0,1,0,0,25.0
Status,1732148017000,27,4,1,13,1575420030,29.90,286.0,55.0,1,0,0,24.9
Status,1732148017000,27,5,1,19,1575420030,29.40,193.0,30.0,1,0,0,24.4
Status,1732148017000,27,6,1,7,1575420030,32.70,114.0,28.0,1,0,0,27.7
Status,1732148017000,27,7,1,15,1575420030,0.00,307.0,25.0,0,0,0,0.0
Status,1732148017000,27,8,2,131,1575420030,32.00,3.0,23.0,0,0,0,27.0
Status,1732148017000,27,9,1,2,1575420030,32.30,75.0,20.0,1,0,0,27.3
Status,1732148017000,27,10,1,21,1575420030,28.50,57.0,14.0,1,0,0,23.5
Status,1732148017000,27,11,3,9,1602000000,32.00,38.0,49.0,1,0,0,27.0
Status,1732148017000,27,12,3,8,1602000000,24.20,284.0,40.0,1,0,0,19.2
Status,1732148017000,27,13,3,20,1602000000,0.00,143.0,23.0,0,0,0,0.0
Status,1732148017000,27,14,3,11,1602000000,0.00,283.0,9.0,0,0,0,0.0
Status,1732148017000,27,15,3,16,1602000000,28.20,78.0,7.0,1,0,0,23.2
Status,1732148017000,27,16,3,17,1602000000,25.80,0.0,0.0,0,0,0,20.8
Status,1732148017000,27,17,6,21,1575420030,22.10,286.0,62.0,1,0,0,17.1
Status,1732148017000,27,18,6,19,1575420030,22.20,282.0,54.0,1,0,0,17.2
Status,1732148017000,27,19,6,27,1575420030,29.40,44.0,51.0,1,0,0,24.4
Status,1732148017000,27,20,6,29,1575420030,21.60,198.0,50.0,1,0,0,16.6
Status,1732148017000,27,21,6,15,1575420030,0.00,86.0,16.0,0,0,0,0.0
Status,1732148017000,27,22,6,4,1575420030,0.00,324.0,8.0,0,0,0,0.0
Status,1732148017000,27,23,6,13,1575420030,0.00,136.0,8.0,0,0,0,0.0
Status,1732148017000,27,24,6,7,1575420030,0.00,162.0,7.0,0,0,0,0.0
Status,1732148017000,27,25,6,34,1575420030,0.00,39.0,6.0,0,0,0,0.0
Status,1732148017000,27,26,6,30,1575420030,0.00,64.0,4.0,0,0,0,0.0
Fix,GPS,37.4244150000,-122.1707866667,-7.0,0.0,2.6,284.15,1732148018000,2.7,179.9,26902055000000,44.5,0,,,
Raw,1732148018000,22550000000,,695876.359821567,-1416183213450999808,0.0,114.69796810202646,2255.713789055735,0.0,0,2,0.0,16431,346435921020621,316,27.33300018310547,604.4042500722138,0.14999,16,0.0,0.0,1575420030,,,,0,13.169560002238914,1,6.0,27.33300018310547,0.0,0.0,0.0,66.7128,C,26902055000000,
Raw,1732148018000,22550000000,,695876.359821567,-1416183213450999808,0.0,114.69796810202646,2255.713789055735,0.0,0,7,0.0,16431,346435924682141,235,27.722999572753906,1124.627987058078,0.14999,16,0.0,0.0,1575420030,,,,0,13.689136849956002,1,6.0,27.722999572753906,0.0,0.0,0.0,66.7128,C,26902055000000,
Raw,1732148018000,22550000000,,695876.359821567,-1416183213450999808,0.0,114.69796810202646,2255.713789055735,0.0,0,30,0.0,16431,346435931241750,396,23.85099983215332,883.9205214098419,0.14999,16,0.0,0.0,1575420030,,,,0,8.368088607787804,1,6.0,23.85099983215332,0.0,0.0,0.0,66.7128,C,26902055000000,
Raw,1732148018000,22550000000,,695876.359821567,-1416183213450999808,0.0,114.69796810202646,2255.713789055735,0.0,0,21,0.0,16431,346435920084587,396,23.483999252319336,832.8526869765589,0.14999,16,0.0,0.0,1575420030,,,,0,7.835044712359001,1,6.0,23.483999252319336,0.0,0.0,0.0,66.7128,C,26902055000000,
Raw,1732148018000,22550000000,,695876.359821567,-1416183213450999808,0.0,114.69796810202646,2255.713789055735,0.0,0,22,0.0,16431,346435931268273,396,24.072999954223633,614.9764666403325,0.14999,16,0.0,0.0,1575420030,,,,0,8.672887938922543,1,6.0,24.072999954223633,0.0,0.0,0.0,66.7128,C,26902055000000,
Raw,1732148018000,22550000000,,695876.359821567,-1416183213450999808,0.0,114.69796810202646,2255.713789055735,0.0,0,17,0.0,16431,346435931481366,316,25.047000885009766,342.1769672847592,0.14999,16,0.0,0.0,1575420030,,,,0,10.096980194385633,1,6.0,25.047000885009766,0.0,0.0,0.0,66.7128,C,26902055000000,
Raw,1732148018000,22550000000,,695876.359821567,-1416183213450999808,0.0,114.69796810202646,2255.713789055735,0.0,0,29,0.0,16431,346435919221966,487,16.600000381469727,1074.7249580360253,0.14999,16,0.0,0.0,1575420030,,,,0,0.0,6,6.0,16.600000381469727,0.0,0.0,15.906478283043866,66.7128,C,26902055000000,
Raw,1732148018000,22550000000,,695876.359821567,-1416183213450999808,0.0,114.69796810202646,2255.713789055735,0.0,0,27,0.0,16431,346435918753850,316,24.399999618530273,956.93326749067,0.14999,16,0.0,0.0,1575420030,,,,0,10.388620191845577,6,6.0,24.399999618530273,0.0,0.0,15.906478283043866,66.7128,C,26902055000000,
Raw,1732148018000,22550000000,,695876.359821567,-1416183213450999808,0.0,114.69796810202646,2255.713789055735,0.0,0,19,0.0,16431,346435920866680,487,17.200000762939453,620.4016017349019,0.14999,16,0.0,0.0,1575420030,,,,0,0.0,6,6.0,17.200000762939453,0.0,0.0,15.906478283043866,66.7128,C,26902055000000,
Raw,1732148018000,22550000000,,695876.359821567,-1416183213450999808,0.0,114.69796810202646,2255.713789055735,0.0,0,19,0.0,16431,346435924253059,396,24.441999435424805,21.61779793900663,0.14999,16,0.0,0.0,1575420030,,,,0,9.205337541330824,1,6.0,24.441999435424805,0.0,0.0,0.0,66.7128,C,26902055000000,
