# 
# Header Description:
# 
# Version: v3.1.0.3 Platform: 13 Manufacturer: samsung Model: SM-S135DL GNSS Hardware Model Name: MediaTek,MT6631,MTK_MNLD_default,MNL_VER_default
# 
# Raw,utcTimeMillis,TimeNanos,LeapSecond,TimeUncertaintyNanos,FullBiasNanos,BiasNanos,BiasUncertaintyNanos,DriftNanosPerSecond,DriftUncertaintyNanosPerSecond,HardwareClockDiscontinuityCount,Svid,TimeOffsetNanos,State,ReceivedSvTimeNanos,ReceivedSvTimeUncertaintyNanos,Cn0DbHz,PseudorangeRateMetersPerSecond,PseudorangeRateUncertaintyMetersPerSecond,AccumulatedDeltaRangeState,AccumulatedDeltaRangeMeters,AccumulatedDeltaRangeUncertaintyMeters,CarrierFrequencyHz,CarrierCycles,CarrierPhase,CarrierPhaseUncertainty,MultipathIndicator,SnrInDb,ConstellationType,AgcDb,BasebandCn0DbHz,FullInterSignalBiasNanos,FullInterSignalBiasUncertaintyNanos,SatelliteInterSignalBiasNanos,SatelliteInterSignalBiasUncertaintyNanos,CodeType,ChipsetElapsedRealtimeNanos,IsFullTracking
# 
# UncalAccel,utcTimeMillis,elapsedRealtimeNanos,UncalAccelXMps2,UncalAccelYMps2,UncalAccelZMps2,BiasXMps2,BiasYMps2,BiasZMps2
# 
# Accel,utcTimeMillis,elapsedRealtimeNanos,AccelXMps2,AccelYMps2,AccelZMps2
# 
# UncalGyro,utcTimeMillis,elapsedRealtimeNanos,UncalGyroXRadPerSec,UncalGyroYRadPerSec,UncalGyroZRadPerSec,DriftXRadPerSec,DriftYRadPerSec,DriftZRadPerSec
# 
# Gyro,utcTimeMillis,elapsedRealtimeNanos,GyroXRadPerSec,GyroYRadPerSec,GyroZRadPerSec
# 
# UncalMag,utcTimeMillis,elapsedRealtimeNanos,UncalMagXMicroT,UncalMagYMicroT,UncalMagZMicroT,BiasXMicroT,BiasYMicroT,BiasZMicroT
# 
# Mag,utcTimeMillis,elapsedRealtimeNanos,MagXMicroT,MagYMicroT,MagZMicroT
# 
# Pressure,utcTimeMillis,elapsedRealtimeNanos,PressureHpa
# 
# OrientationDeg,utcTimeMillis,elapsedRealtimeNanos,yawDeg,rollDeg,pitchDeg
# 
# Fix,Provider,LatitudeDegrees,LongitudeDegrees,AltitudeMeters,SpeedMps,AccuracyMeters,BearingDegrees,UnixTimeMillis,SpeedAccuracyMps,BearingAccuracyDegrees,elapsedRealtimeNanos,VerticalAccuracyMeters,MockLocation,NumberOfUsedSignals,VerticalSpeedAccuracyMps,SolutionType
# 
# Nav,Svid,Type,Status,MessageId,Sub-messageId,Data(Bytes)
# 
# Status,UnixTimeMillis,SignalCount,SignalIndex,ConstellationType,Svid,CarrierFrequencyHz,Cn0DbHz,AzimuthDegrees,ElevationDegrees,UsedInFix,HasAlmanacData,HasEphemerisData,BasebandCn0DbHz
# 
# Agc,utcTimeMillis,TimeNanos,LeapSecond,TimeUncertaintyNanos,FullBiasNanos,BiasNanos,BiasUncertaintyNanos,DriftNanosPerSecond,DriftUncertaintyNanosPerSecond,HardwareClockDiscontinuityCount,AgcDb,CarrierFrequencyHz,ConstellationType
# 
Fix,FLP,37.4243795000,-122.1707858000,2.0,0.043335352,2.55,,1732148543207,2.5,,27427055000000,1.083119,0,,,
Fix,NLP,37.4244084000,-122.1708759000,2.0,,23.953,,1732148542643,,,27426491000000,1.0,0,,,
Status,,29,0,1,14,1575420030,28.10,11.0,69.0,1,0,0,23.1
Status,,29,1,1,22,1575420030,26.60,305.0,68.0,1,0,0,21.6
Status,,29,2,1,17,1575420030,30.80,169.0,63.0,1,0,0,25.8
Status,,29,3,1,30,1575420030,28.60,106.0,59.0,1,0,0,23.6
Status,,29,4,1,13,1575420030,25.90,278.0,56.0,1,0,0,20.9
Status,,29,5,1,19,1575420030,27.30,194.0,34.0,1,0,0,22.3
Status,,29,6,1,15,1575420030,0.00,303.0,26.0,0,0,0,0.0
Status,,29,7,1,7,1575420030,41.30,117.0,25.0,1,0,0,36.3
Status,,29,8,2,131,1575420030,30.00,3.0,23.0,0,0,0,25.0
Status,,29,9,1,2,1575420030,33.70,71.0,20.0,1,0,0,28.7
Status,,29,10,1,21,1575420030,0.00,53.0,14.0,0,0,0,0.0
Status,,29,11,3,9,1602000000,0.00,45.0,47.0,0,0,0,0.0
Status,,29,12,3,8,1602000000,28.10,278.0,39.0,1,0,0,23.1
Status,,29,13,3,19,1602000000,24.20,63.0,36.0,1,0,0,19.2
Status,,29,14,3,20,1602000000,0.00,140.0,27.0,0,0,0,0.0
Status,,29,15,3,18,1602000000,21.90,26.0,12.0,1,0,0,16.9
Status,,29,16,3,11,1602000000,0.00,286.0,11.0,0,0,0,0.0
Status,,29,17,3,16,1602000000,31.50,82.0,4.0,0,0,0,26.5
Status,,29,18,3,17,1602000000,29.30,0.0,0.0,0,0,0,24.3
Status,,29,19,6,21,1575420030,0.00,293.0,63.0,0,0,0,0.0
Status,,29,20,6,19,1575420030,20.90,276.0,54.0,1,0,0,15.9
Status,,29,21,6,27,1575420030,24.10,47.0,48.0,1,0,0,19.1
Status,,29,22,6,29,1575420030,20.40,197.0,47.0,1,0,0,15.4
Status,,29,23,6,15,1575420030,29.30,83.0,18.0,1,0,0,24.3
Status,,29,24,6,13,1575420030,0.00,134.0,11.0,0,0,0,0.0
Status,,29,25,6,4,1575420030,0.00,323.0,10.0,0,0,0,0.0
Status,,29,26,6,34,1575420030,0.00,36.0,6.0,0,0,0,0.0
Status,,29,27,6,7,1575420030,0.00,162.0,4.0,0,0,0,0.0
Status,,29,28,6,30,1575420030,0.00,66.0,2.0,0,0,0,0.0
Fix,GPS,37.4243766667,-122.1707700000,1.6000000000000014,0.0,2.5,31.6,1732148544000,2.7,159.1,27428055000000,41.6,0,,,
Fix,FLP,37.4243783000,-122.1707780000,2.0,0.045066237,2.533,,1732148544207,2.7,,27428055000000,0.8744007,0,,,
Raw,1732148544000,18392000000,,692832.952288613,-1416183743608000000,0.0,104.67578861803997,2112.8114635572847,0.0,0,22,0.0,16431,346961930986141,396,21.555999755859375,601.3435231538473,0.14999,16,0.0,0.0,1575420030,,,,0,4.84626342667418,1,6.0,21.555999755859375,0.0,0.0,0.0,66.7128,C,27428055000000,
Raw,1732148544000,18392000000,,692832.952288613,-1416183743608000000,0.0,104.67578861803997,2112.8114635572847,0.0,0,30,0.0,16431,346961930477922,487,23.586000442504883,882.6383620392635,0.14999,16,0.0,0.0,1575420030,,,,0,7.998420493907542,1,6.0,23.586000442504883,0.0,0.0,0.0,66.7128,C,27428055000000,
Raw,1732148544000,18392000000,,692832.952288613,-1416183743608000000,0.0,104.67578861803997,2112.8114635572847,0.0,0,19,0.0,16431,346961925020007,396,22.273000717163086,0.41101760821463235,0.14999,16,0.0,0.0,1575420030,,,,0,5.937977392389685,1,6.0,22.273000717163086,0.0,0.0,0.0,66.7128,C,27428055000000,
Raw,1732148544000,18392000000,,692832.952288613,-1416183743608000000,0.0,104.67578861803997,2112.8114635572847,0.0,0,17,0.0,16431,346961931655747,396,25.766000747680664,356.49396449152835,0.14999,16,0.0,0.0,1575420030,,,,0,11.096459693622407,1,6.0,25.766000747680664,0.0,0.0,0.0,66.7128,C,27428055000000,
Raw,1732148544000,18392000000,,692832.952288613,-1416183743608000000,0.0,104.67578861803997,2112.8114635572847,0.0,0,15,0.0,16431,346961910093058,235,24.299999237060547,346.09680323569097,0.14999,16,0.0,0.0,1575420030,,,,0,10.181309882408904,6,6.0,24.299999237060547,0.0,0.0,20.122852383601284,66.7128,C,27428055000000,
Raw,1732148544000,18392000000,,692832.952288613,-1416183743608000000,0.0,104.67578861803997,2112.8114635572847,0.0,0,7,0.0,16431,346961923508772,51,36.340999603271484,1109.2217258248363,0.14999,16,0.0,0.0,1575420030,,,,0,23.84451379901797,1,6.0,36.340999603271484,0.0,0.0,0.0,66.7128,C,27428055000000,
Raw,1732148544000,18392000000,,692832.952288613,-1416183743608000000,0.0,104.67578861803997,2112.8114635572847,0.0,0,2,0.0,16431,346961920736292,235,28.70400047302246,615.612528816671,0.14999,16,0.0,0.0,1575420030,,,,0,14.939563506148035,1,6.0,28.70400047302246,0.0,0.0,0.0,66.7128,C,27428055000000,
Raw,1732148544000,18392000000,,692832.952288613,-1416183743608000000,0.0,104.67578861803997,2112.8114635572847,0.0,0,29,0.0,16431,346961918131809,487,15.399999618530273,1063.0427105293884,0.14999,16,0.0,0.0,1575420030,,,,0,0.0,6,6.0,15.399999618530273,0.0,0.0,20.122852383601284,66.7128,C,27428055000000,
Raw,1732148544000,18392000000,,692832.952288613,-1416183743608000000,0.0,104.67578861803997,2112.8114635572847,0.0,0,27,0.0,16431,346961917892936,396,19.100000381469727,920.7481079399356,0.14999,16,0.0,0.0,1575420030,,,,0,2.8497031061688034,6,6.0,19.100000381469727,0.0,0.0,20.122852383601284,66.7128,C,27428055000000,
Raw,1732148544000,18392000000,,692832.952288613,-1416183743608000000,0.0,104.67578861803997,2112.8114635572847,0.0,0,19,0.0,16431,346961920560954,1797,15.899999618530273,621.4819457454618,0.14999,16,0.0,0.0,1575420030,,,,0,0.0,6,6.0,15.899999618530273,0.0,0.0,20.122852383601284,66.7128,C,27428055000000,
Raw,1732148544000,18392000000,,692832.952288613,-1416183743608000000,0.0,104.67578861803997,2112.8114635572847,0.0,0,16,0.0,17,543774,235,5.0,1127.2360551700945,0.14999,16,0.0,0.0,1601437440,,,,0,12.874674676720282,3,6.0,27.0,0.0,0.0,26.31806085560749,66.7128,C,27428055000000,
Raw,1732148544000,18392000000,,692832.952288613,-1416183743608000000,0.0,104.67578861803997,2112.8114635572847,0.0,0,19,0.0,17,25116,487,18.0,681.1808821054735,0.14999,16,0.0,0.0,1603687550,,,,0,2.925011249232762,3,6.0,18.0,0.0,0.0,26.31806085560749,66.7128,C,27428055000000,
Raw,1732148544000,18392000000,,692832.952288613,-1416183743608000000,0.0,104.67578861803997,2112.8114635572847,0.0,0,18,0.0,17,101446,487,5.0,1196.15886357953,0.14999,16,0.0,0.0,1600312450,,,,0,0.0,3,6.0,18.0,0.0,0.0,26.31806085560749,66.7128,C,27428055000000,
Raw,1732148544000,18392000000,,692832.952288613,-1416183743608000000,0.0,104.67578861803997,2112.8114635572847,0.0,0,8,0.0,17,141990,396,5.0,790.7231606411025,0.14999,16,0.0,0.0,1605374980,,,,0,8.68342778930946,3,6.0,21.0,0.0,0.0,26.31806085560749,66.7128,C,27428055000000,
Raw,1732148544000,18392000000,,692832.952288613,-1416183743608000000,0.0,104.67578861803997,2112.8114635572847,0.0,0,14,0.0,16431,346961932196827,396,23.06599998474121,741.1749005158173,0.14999,16,0.0,0.0,1575420030,,,,0,7.20824966823407,1,6.0,23.06599998474121,0.0,0.0,0.0,66.7128,C,27428055000000,
Raw,1732148544000,18392000000,,692832.952288613,-1416183743608000000,0.0,104.67578861803997,2112.8114635572847,0.0,0,13,0.0,16431,346961930943286,487,20.861000061035156,585.7939841650126,0.14999,16,0.0,0.0,1575420030,,,,0,3.6864244871204455,1,6.0,20.861000061035156,0.0,0.0,0.0,66.7128,C,27428055000000,
Status,1732148544000,29,0,1,14,1575420030,0.00,11.0,69.0,0,0,0,0.0
Status,1732148544000,29,1,1,22,1575420030,26.00,306.0,68.0,1,0,0,21.0
Status,1732148544000,29,2,1,17,1575420030,28.50,169.0,63.0,1,0,0,23.5
Status,1732148544000,29,3,1,30,1575420030,30.70,106.0,59.0,1,0,0,25.7
Status,1732148544000,29,4,1,13,1575420030,31.50,278.0,56.0,1,0,0,26.5
Status,1732148544000,29,5,1,19,1575420030,27.20,194.0,34.0,1,0,0,22.2
Status,1732148544000,29,6,1,15,1575420030,0.00,303.0,26.0,0,0,0,0.0
Status,1732148544000,29,7,1,7,1575420030,32.60,117.0,25.0,1,0,0,27.599998
Status,1732148544000,29,8,2,131,1575420030,29.00,3.0,23.0,0,0,0,24.0
Status,1732148544000,29,9,1,2,1575420030,32.20,71.0,20.0,1,0,0,27.2
Status,1732148544000,29,10,1,21,1575420030,0.00,53.0,14.0,0,0,0,0.0
Status,1732148544000,29,11,3,9,1602000000,23.30,45.0,47.0,1,0,0,18.3
Status,1732148544000,29,12,3,8,1602000000,25.10,278.0,39.0,1,0,0,20.1
Status,1732148544000,29,13,3,19,1602000000,0.00,63.0,36.0,0,0,0,0.0
Status,1732148544000,29,14,3,20,1602000000,0.00,140.0,27.0,0,0,0,0.0
Status,1732148544000,29,15,3,18,1602000000,21.90,26.0,12.0,1,0,0,16.9
Status,1732148544000,29,16,3,11,1602000000,0.00,286.0,11.0,0,0,0,0.0
Status,1732148544000,29,17,3,16,1602000000,30.90,82.0,4.0,0,0,0,25.9
Status,1732148544000,29,18,3,17,1602000000,28.60,0.0,0.0,0,0,0,23.6
Status,1732148544000,29,19,6,21,1575420030,23.60,293.0,63.0,1,0,0,18.6
Status,1732148544000,29,20,6,19,1575420030,20.90,276.0,54.0,1,0,0,15.9
Status,1732148544000,29,21,6,27,1575420030,21.40,47.0,48.0,1,0,0,16.4
Status,1732148544000,29,22,6,29,1575420030,20.40,197.0,47.0,1,0,0,15.4
Status,1732148544000,29,23,6,15,1575420030,30.90,83.0,18.0,1,0,0,25.9
Status,1732148544000,29,24,6,13,1575420030,0.00,134.0,11.0,0,0,0,0.0
Status,1732148544000,29,25,6,4,1575420030,0.00,323.0,10.0,0,0,0,0.0
Status,1732148544000,29,26,6,34,1575420030,0.00,36.0,6.0,0,0,0,0.0
Status,1732148544000,29,27,6,7,1575420030,0.00,162.0,4.0,0,0,0,0.0
Status,1732148544000,29,28,6,30,1575420030,0.00,66.0,2.0,0,0,0,0.0
Fix,GPS,37.4243716667,-122.1707733333,1.6999999999999993,0.0,2.6,31.6,1732148545000,2.5,132.2,27429055000000,40.4,0,,,
Fix,FLP,37.4243752000,-122.1707756000,2.0,0.03931875,2.55,,1732148545208,2.5,,27429055000000,0.8843998,0,,,
Raw,1732148545000,19392000000,,692286.3241276069,-1416183743608000000,0.0,102.04015204483836,2107.038900886471,0.0,0,22,0.0,16431,346962930984131,487,21.003000259399414,599.9573898477897,0.14999,16,0.0,0.0,1575420030,,,,0,3.9483304489233992,1,6.0,21.003000259399414,0.0,0.0,0.0,66.7128,C,27429055000000,
Raw,1732148545000,19392000000,,692286.3241276069,-1416183743608000000,0.0,102.04015204483836,2107.038900886471,0.0,0,30,0.0,16431,346962930474986,316,25.663000106811523,880.7029973367648,0.14999,16,0.0,0.0,1575420030,,,,0,10.944071756218566,1,6.0,25.663000106811523,0.0,0.0,0.0,66.7128,C,27429055000000,
Raw,1732148545000,19392000000,,692286.3241276069,-1416183743608000000,0.0,102.04015204483836,2107.038900886471,0.0,0,19,0.0,16431,346962925020006,487,22.207000732421875,-0.1493173497006701,0.14999,16,0.0,0.0,1575420030,,,,0,3.8619029732705474,1,6.0,22.207000732421875,0.0,0.0,0.0,66.7128,C,27429055000000,
Raw,1732148545000,19392000000,,692286.3241276069,-1416183743608000000,0.0,102.04015204483836,2107.038900886471,0.0,0,17,0.0,16431,346962931654562,396,23.451000213623047,354.22751388590535,0.14999,16,0.0,0.0,1575420030,,,,0,7.779896021455223,1,6.0,23.451000213623047,0.0,0.0,0.0,66.7128,C,27429055000000,
Raw,1732148545000,19392000000,,692286.3241276069,-1416183743608000000,0.0,102.04015204483836,2107.038900886471,0.0,0,15,0.0,16431,346962910091907,235,25.899999618530273,344.5346854490278,0.14999,16,0.0,0.0,1575420030,,,,0,12.194713120036166,6,6.0,25.899999618530273,0.0,0.0,13.826135013865368,66.7128,C,27429055000000,
Raw,1732148545000,19392000000,,692286.3241276069,-1416183743608000000,0.0,102.04015204483836,2107.038900886471,0.0,0,7,0.0,16431,346962923505072,316,27.579999923706055,1108.389283923176,0.14999,16,0.0,0.0,1575420030,,,,0,13.490755543316649,1,6.0,27.579999923706055,0.0,0.0,0.0,66.7128,C,27429055000000,
Raw,1732148545000,19392000000,,692286.3241276069,-1416183743608000000,0.0,102.04015204483836,2107.038900886471,0.0,0,2,0.0,16431,346962920734242,235,27.249000549316406,613.7001610301966,0.14999,16,0.0,0.0,1575420030,,,,0,13.079859828401506,1,6.0,27.249000549316406,0.0,0.0,0.0,66.7128,C,27429055000000,
Raw,1732148545000,19392000000,,692286.3241276069,-1416183743608000000,0.0,102.04015204483836,2107.038900886471,0.0,0,29,0.0,16431,346962918128265,797,15.399999618530273,1060.9771693446678,0.14999,16,0.0,0.0,1575420030,,,,0,0.0,6,6.0,15.399999618530273,0.0,0.0,13.826135013865368,66.7128,C,27429055000000,
Raw,1732148545000,19392000000,,692286.3241276069,-1416183743608000000,0.0,102.04015204483836,2107.038900886471,0.0,0,27,0.0,16431,346962917889868,487,16.399999618530273,915.9515552166948,0.14999,16,0.0,0.0,1575420030,,,,0,0.0,6,6.0,16.399999618530273,0.0,0.0,13.826135013865368,66.7128,C,27429055000000,
Raw,1732148545000,19392000000,,692286.3241276069,-1416183743608000000,0.0,102.04015204483836,2107.038900886471,0.0,0,19,0.0,16431,346962920558881,1797,15.899999618530273,620.9878604890627,0.14999,16,0.0,0.0,1575420030,,,,0,0.0,6,6.0,15.899999618530273,0.0,0.0,13.826135013865368,66.7128,C,27429055000000,
Raw,1732148545000,19392000000,,692286.3241276069,-1416183743608000000,0.0,102.04015204483836,2107.038900886471,0.0,0,21,0.0,16431,346962920409177,487,18.600000381469727,534.1255353269596,0.14999,16,0.0,0.0,1575420030,,,,0,1.923702713109419,6,6.0,18.600000381469727,0.0,0.0,13.826135013865368,66.7128,C,27429055000000,
Raw,1732148545000,19392000000,,692286.3241276069,-1416183743608000000,0.0,102.04015204483836,2107.038900886471,0.0,0,16,0.0,17,540015,316,5.0,1123.7292151084403,0.14999,16,0.0,0.0,1601437440,,,,0,12.170622438560343,3,6.0,26.0,0.0,0.0,28.39846981182513,66.7128,C,27429055000000,
Raw,1732148545000,19392000000,,692286.3241276069,-1416183743608000000,0.0,102.04015204483836,2107.038900886471,0.0,0,9,0.0,17,209861,797,5.0,836.3081508712899,0.14999,16,0.0,0.0,1600875010,,,,0,1.34636819801137,3,6.0,17.0,0.0,0.0,28.39846981182513,66.7128,C,27429055000000,
Raw,1732148545000,19392000000,,692286.3241276069,-1416183743608000000,0.0,102.04015204483836,2107.038900886471,0.0,0,18,0.0,17,97467,487,5.0,1194.6807750931434,0.14999,16,0.0,0.0,1600312450,,,,0,0.0,3,6.0,20.0,0.0,0.0,28.39846981182513,66.7128,C,27429055000000,
Raw,1732148545000,19392000000,,692286.3241276069,-1416183743608000000,0.0,102.04015204483836,2107.038900886471,0.0,0,8,0.0,17,139356,396,5.0,788.8374033755024,0.14999,16,0.0,0.0,1605374980,,,,0,4.431265931680586,3,6.0,21.0,0.0,0.0,28.39846981182513,66.7128,C,27429055000000,
Raw,1732148545000,19392000000,,692286.3241276069,-1416183743608000000,0.0,102.04015204483836,2107.038900886471,0.0,0,13,0.0,16431,346962930941337,487,26.493000030517578,585.97349948525,0.14999,16,0.0,0.0,1575420030,,,,0,12.06056543989644,1,6.0,26.493000030517578,0.0,0.0,0.0,66.7128,C,27429055000000,
Status,1732148545000,29,0,1,14,1575420030,0.00,11.0,69.0,0,0,0,0.0
Status,1732148545000,29,1,1,22,1575420030,29.00,306.0,68.0,1,0,0,24.0
Status,1732148545000,29,2,1,17,1575420030,27.40,169.0,63.0,1,0,0,22.4
Status,1732148545000,29,3,1,30,1575420030,27.10,106.0,59.0,1,0,0,22.1
Status,1732148545000,29,4,1,13,1575420030,30.20,278.0,56.0,1,0,0,25.2
Status,1732148545000,29,5,1,19,1575420030,24.10,194.0,34.0,1,0,0,19.1
Status,1732148545000,29,6,1,15,1575420030,0.00,303.0,26.0,0,0,0,0.0
Status,1732148545000,29,7,1,7,1575420030,30.00,117.0,25.0,1,0,0,25.0
Status,1732148545000,29,8,2,131,1575420030,29.00,3.0,23.0,0,0,0,24.0
Status,1732148545000,29,9,1,2,1575420030,29.90,71.0,20.0,1,0,0,24.9
Status,1732148545000,29,10,1,21,1575420030,0.00,53.0,14.0,0,0,0,0.0
Status,1732148545000,29,11,3,9,1602000000,0.00,45.0,47.0,0,0,0,0.0
Status,1732148545000,29,12,3,8,1602000000,25.50,278.0,39.0,1,0,0,20.5
Status,1732148545000,29,13,3,19,1602000000,0.00,63.0,36.0,0,0,0,0.0
Status,1732148545000,29,14,3,20,1602000000,0.00,140.0,27.0,0,0,0,0.0
Status,1732148545000,29,15,3,18,1602000000,21.90,26.0,12.0,1,0,0,16.9
Status,1732148545000,29,16,3,11,1602000000,0.00,286.0,11.0,0,0,0,0.0
Status,1732148545000,29,17,3,16,1602000000,27.50,82.0,4.0,0,0,0,22.5
Status,1732148545000,29,18,3,17,1602000000,27.90,0.0,0.0,0,0,0,22.9
Status,1732148545000,29,19,6,21,1575420030,23.00,293.0,63.0,1,0,0,18.0
Status,1732148545000,29,20,6,19,1575420030,20.90,276.0,54.0,1,0,0,15.9
Status,1732148545000,29,21,6,27,1575420030,21.40,47.0,48.0,1,0,0,16.4
Status,1732148545000,29,22,6,29,1575420030,20.40,197.0,47.0,1,0,0,15.4
Status,1732148545000,29,23,6,15,1575420030,25.90,83.0,18.0,1,0,0,20.9
Status,1732148545000,29,24,6,13,1575420030,0.00,134.0,11.0,0,0,0,0.0
Status,1732148545000,29,25,6,4,1575420030,0.00,323.0,10.0,0,0,0,0.0
Status,1732148545000,29,26,6,34,1575420030,0.00,36.0,6.0,0,0,0,0.0
Status,1732148545000,29,27,6,7,1575420030,0.00,162.0,4.0,0,0,0,0.0
Status,1732148545000,29,28,6,30,1575420030,0.00,66.0,2.0,0,0,0,0.0
Fix,GPS,37.4243733333,-122.1707816667,1.6999999999999993,0.0,2.7,31.6,1732148546000,2.7,179.9,27430055000000,40.7,0,,,
Raw,1732148546000,20392000000,,691864.4697859611,-1416183743608000000,0.0,103.0535153481177,2099.216872375675,0.0,0,22,0.0,16431,346963930982132,396,24.007999420166016,597.4347907643898,0.14999,16,0.0,0.0,1575420030,,,,0,8.622825035846457,1,6.0,24.007999420166016,0.0,0.0,0.0,66.7128,C,27430055000000,
Raw,1732148546000,20392000000,,691864.4697859611,-1416183743608000000,0.0,103.0535153481177,2099.216872375675,0.0,0,30,0.0,16431,346963930472046,396,22.110000610351562,879.0556748147716,0.14999,16,0.0,0.0,1575420030,,,,0,5.73033667651525,1,6.0,22.110000610351562,0.0,0.0,0.0,66.7128,C,27430055000000,
Raw,1732148546000,20392000000,,691864.4697859611,-1416183743608000000,0.0,103.0535153481177,2099.216872375675,0.0,0,19,0.0,16431,346963925020013,487,19.128999710083008,-2.3501919008425007,0.14999,16,0.0,0.0,1575420030,,,,0,0.6388847880156545,1,6.0,19.128999710083008,0.0,0.0,0.0,66.7128,C,27430055000000,
Raw,1732148546000,20392000000,,691864.4697859611,-1416183743608000000,0.0,103.0535153481177,2099.216872375675,0.0,0,17,0.0,16431,346963931653384,487,22.43000030517578,352.26255517228066,0.14999,16,0.0,0.0,1575420030,,,,0,6.207328886385834,1,6.0,22.43000030517578,0.0,0.0,0.0,66.7128,C,27430055000000,
Raw,1732148546000,20392000000,,691864.4697859611,-1416183743608000000,0.0,103.0535153481177,2099.216872375675,0.0,0,15,0.0,16431,346963910090762,316,20.899999618530273,341.7392593164316,0.14999,16,0.0,0.0,1575420030,,,,0,5.5176103795995495,6,6.0,20.899999618530273,0.0,0.0,10.333932264665222,66.7128,C,27430055000000,
Raw,1732148546000,20392000000,,691864.4697859611,-1416183743608000000,0.0,103.0535153481177,2099.216872375675,0.0,0,7,0.0,16431,346963923501380,487,24.96299934387207,1106.0968398336831,0.14999,16,0.0,0.0,1575420030,,,,0,9.968930362203023,1,6.0,24.96299934387207,0.0,0.0,0.0,66.7128,C,27430055000000,
Raw,1732148546000,20392000000,,691864.4697859611,-1416183743608000000,0.0,103.0535153481177,2099.216872375675,0.0,0,2,0.0,16431,346963920732192,396,24.93600082397461,611.3999583851967,0.14999,16,0.0,0.0,1575420030,,,,0,9.925824121680325,1,6.0,24.93600082397461,0.0,0.0,0.0,66.7128,C,27430055000000,
Raw,1732148546000,20392000000,,691864.4697859611,-1416183743608000000,0.0,103.0535153481177,2099.216872375675,0.0,0,29,0.0,16431,346963918124721,797,15.425000190734863,1061.6298171755934,0.14999,16,0.0,0.0,1575420030,,,,0,0.0,6,6.0,15.425000190734863,0.0,0.0,10.333932264665222,66.7128,C,27430055000000,
Raw,1732148546000,20392000000,,691864.4697859611,-1416183743608000000,0.0,103.0535153481177,2099.216872375675,0.0,0,27,0.0,16431,346963917886812,487,16.399999618530273,916.934894054207,0.14999,16,0.0,0.0,1575420030,,,,0,0.0,6,6.0,16.399999618530273,0.0,0.0,10.333932264665222,66.7128,C,27430055000000,
Raw,1732148546000,20392000000,,691864.4697859611,-1416183743608000000,0.0,103.0535153481177,2099.216872375675,0.0,0,19,0.0,16431,346963920556812,1797,15.899999618530273,619.187736236153,0.14999,16,0.0,0.0,1575420030,,,,0,0.0,6,6.0,15.899999618530273,0.0,0.0,10.333932264665222,66.7128,C,27430055000000,
Raw,1732148546000,20392000000,,691864.4697859611,-1416183743608000000,0.0,103.0535153481177,2099.216872375675,0.0,0,21,0.0,16431,346963920407396,316,18.0,531.736039606003,0.14999,16,0.0,0.0,1575420030,,,,0,0.887069947652054,6,6.0,18.0,0.0,0.0,10.333932264665222,66.7128,C,27430055000000,
Raw,1732148546000,20392000000,,691864.4697859611,-1416183743608000000,0.0,103.0535153481177,2099.216872375675,0.0,0,16,0.0,17,536268,487,5.0,1122.986256786503,0.14999,16,0.0,0.0,1601437440,,,,0,7.794547885996659,3,6.0,20.0,0.0,0.0,30.682904897367344,66.7128,C,27430055000000,
Raw,1732148546000,20392000000,,691864.4697859611,-1416183743608000000,0.0,103.0535153481177,2099.216872375675,0.0,0,18,0.0,17,93479,487,5.0,1193.243208495455,0.14999,16,0.0,0.0,1600312450,,,,0,1.9615554741221306,3,6.0,18.0,0.0,0.0,30.682904897367344,66.7128,C,27430055000000,
Raw,1732148546000,20392000000,,691864.4697859611,-1416183743608000000,0.0,103.0535153481177,2099.216872375675,0.0,0,8,0.0,17,136726,487,5.0,787.4554326237286,0.14999,16,0.0,0.0,1605374980,,,,0,4.938615365446468,3,6.0,18.0,0.0,0.0,30.682904897367344,66.7128,C,27430055000000,
Raw,1732148546000,20392000000,,691864.4697859611,-1416183743608000000,0.0,103.0535153481177,2099.216872375675,0.0,0,13,0.0,16431,346963930939413,316,25.18600082397461,582.9920306249388,0.14999,16,0.0,0.0,1575420030,,,,0,10.264828695491628,1,6.0,25.18600082397461,0.0,0.0,0.0,66.7128,C,27430055000000,
Fix,FLP,37.4243744000,-122.1707784000,2.0,0.031947903,2.583,,1732148546207,2.7,,27430055000000,0.8944019,0,,,
Status,1732148546000,29,0,1,14,1575420030,26.40,11.0,69.0,1,0,0,21.4
Status,1732148546000,29,1,1,22,1575420030,34.60,306.0,68.0,1,0,0,29.599998
Status,1732148546000,29,2,1,17,1575420030,30.60,169.0,63.0,1,0,0,25.6
Status,1732148546000,29,3,1,30,1575420030,29.70,106.0,59.0,1,0,0,24.7
Status,1732148546000,29,4,1,13,1575420030,29.70,278.0,56.0,1,0,0,24.7
Status,1732148546000,29,5,1,19,1575420030,24.20,194.0,34.0,1,0,0,19.2
Status,1732148546000,29,6,1,15,1575420030,23.80,303.0,26.0,1,0,0,18.8
Status,1732148546000,29,7,1,7,1575420030,27.80,117.0,25.0,1,0,0,22.8
Status,1732148546000,29,8,2,131,1575420030,29.00,3.0,23.0,0,0,0,24.0
Status,1732148546000,29,9,1,2,1575420030,32.20,71.0,20.0,1,0,0,27.2
Status,1732148546000,29,10,1,21,1575420030,0.00,53.0,14.0,0,0,0,0.0
Status,1732148546000,29,11,3,9,1602000000,25.60,45.0,47.0,1,0,0,20.6
Status,1732148546000,29,12,3,8,1602000000,21.90,278.0,39.0,1,0,0,16.9
Status,1732148546000,29,13,3,19,1602000000,0.00,63.0,36.0,0,0,0,0.0
Status,1732148546000,29,14,3,20,1602000000,0.00,140.0,27.0,0,0,0,0.0
Status,1732148546000,29,15,3,18,1602000000,24.60,26.0,12.0,1,0,0,19.6
Status,1732148546000,29,16,3,11,1602000000,0.00,286.0,11.0,0,0,0,0.0
Status,1732148546000,29,17,3,16,1602000000,27.90,82.0,4.0,0,0,0,22.9
Status,1732148546000,29,18,3,17,1602000000,24.20,0.0,0.0,0,0,0,19.2
Status,1732148546000,29,19,6,21,1575420030,28.10,293.0,63.0,1,0,0,23.1
Status,1732148546000,29,20,6,19,1575420030,20.90,276.0,54.0,1,0,0,15.9
Status,1732148546000,29,21,6,27,1575420030,21.50,47.0,48.0,1,0,0,16.5
Status,1732148546000,29,22,6,29,1575420030,20.40,197.0,47.0,1,0,0,15.4
Status,1732148546000,29,23,6,15,1575420030,33.20,83.0,18.0,1,0,0,28.2
Status,1732148546000,29,24,6,13,1575420030,0.00,134.0,11.0,0,0,0,0.0
Status,1732148546000,29,25,6,4,1575420030,0.00,323.0,10.0,0,0,0,0.0
Status,1732148546000,29,26,6,34,1575420030,0.00,36.0,6.0,0,0,0,0.0
Status,1732148546000,29,27,6,7,1575420030,0.00,162.0,4.0,0,0,0,0.0
Status,1732148546000,29,28,6,30,1575420030,0.00,66.0,2.0,0,0,0,0.0
Fix,GPS,37.4243766667,-122.1707833333,1.8000000000000007,0.0,2.6,31.6,1732148547000,2.5,179.9,27431055000000,42.1,0,,,
Fix,FLP,37.4243756000,-122.1707806000,2.0,0.029274058,2.583,,1732148547207,2.5,,27431055000000,0.9043995,0,,,
Raw,1732148547000,21392000000,,691289.175960524,-1416183743608000000,0.0,106.18426067620821,2095.394413086459,0.0,0,22,0.0,16431,346964930980133,235,29.597999572753906,598.2789401869354,0.14999,16,0.0,0.0,1575420030,,,,0,16.053791157774953,1,6.0,29.597999572753906,0.0,0.0,0.0,66.7128,C,27431055000000,
Raw,1732148547000,21392000000,,691289.175960524,-1416183743608000000,0.0,106.18426067620821,2095.394413086459,0.0,0,30,0.0,16431,346964930469109,316,24.70800018310547,880.2441740182695,0.14999,16,0.0,0.0,1575420030,,,,0,9.617937571875068,1,6.0,24.70800018310547,0.0,0.0,0.0,66.7128,C,27431055000000,
Raw,1732148547000,21392000000,,691289.175960524,-1416183743608000000,0.0,106.18426067620821,2095.394413086459,0.0,0,19,0.0,16431,346964925020019,487,19.191999435424805,-2.4715877424006374,0.14999,16,0.0,0.0,1575420030,,,,0,2.9467531620570457,1,6.0,19.191999435424805,0.0,0.0,0.0,66.7128,C,27431055000000,
Raw,1732148547000,21392000000,,691289.175960524,-1416183743608000000,0.0,106.18426067620821,2095.394413086459,0.0,0,17,0.0,16431,346964931652216,316,25.558000564575195,352.5039298737025,0.14999,16,0.0,0.0,1575420030,,,,0,10.788962462283322,1,6.0,25.558000564575195,0.0,0.0,0.0,66.7128,C,27431055000000,
Raw,1732148547000,21392000000,,691289.175960524,-1416183743608000000,0.0,106.18426067620821,2095.394413086459,0.0,0,15,0.0,16431,346964924606312,487,18.799999237060547,374.2661670287077,0.14999,16,0.0,0.0,1575420030,,,,0,0.12017010612765944,1,6.0,18.799999237060547,0.0,0.0,0.0,66.7128,C,27431055000000,
Raw,1732148547000,21392000000,,691289.175960524,-1416183743608000000,0.0,106.18426067620821,2095.394413086459,0.0,0,15,0.0,16431,346964910089618,235,28.200000762939453,342.31954816410934,0.14999,16,0.0,0.0,1575420030,,,,0,14.890902932728052,6,6.0,28.200000762939453,0.0,0.0,8.969663899720146,66.7128,C,27431055000000,
Raw,1732148547000,21392000000,,691289.175960524,-1416183743608000000,0.0,106.18426067620821,2095.394413086459,0.0,0,7,0.0,16431,346964923497684,396,22.849000930786133,1107.0442198570486,0.14999,16,0.0,0.0,1575420030,,,,0,6.846285226378146,1,6.0,22.849000930786133,0.0,0.0,0.0,66.7128,C,27431055000000,
Raw,1732148547000,21392000000,,691289.175960524,-1416183743608000000,0.0,106.18426067620821,2095.394413086459,0.0,0,2,0.0,16431,346964920730147,235,27.163000106811523,611.6523205020522,0.14999,16,0.0,0.0,1575420030,,,,0,12.958800173440752,1,6.0,27.163000106811523,0.0,0.0,0.0,66.7128,C,27431055000000,
Raw,1732148547000,21392000000,,691289.175960524,-1416183743608000000,0.0,106.18426067620821,2095.394413086459,0.0,0,29,0.0,16431,346964918121177,487,15.447999954223633,1061.5575278799697,0.14999,16,0.0,0.0,1575420030,,,,0,0.0,6,6.0,15.447999954223633,0.0,0.0,8.969663899720146,66.7128,C,27431055000000,
Raw,1732148547000,21392000000,,691289.175960524,-1416183743608000000,0.0,106.18426067620821,2095.394413086459,0.0,0,27,0.0,16431,346964917883752,396,16.4950008392334,917.8323777385622,0.14999,16,0.0,0.0,1575420030,,,,0,1.4781748188863748,6,6.0,16.4950008392334,0.0,0.0,8.969663899720146,66.7128,C,27431055000000,
Raw,1732148547000,21392000000,,691289.175960524,-1416183743608000000,0.0,106.18426067620821,2095.394413086459,0.0,0,19,0.0,16431,346964920554749,797,15.899999618530273,618.3670483137938,0.14999,16,0.0,0.0,1575420030,,,,0,0.0,6,6.0,15.899999618530273,0.0,0.0,8.969663899720146,66.7128,C,27431055000000,
Raw,1732148547000,21392000000,,691289.175960524,-1416183743608000000,0.0,106.18426067620821,2095.394413086459,0.0,0,21,0.0,16431,346964920405639,316,23.100000381469727,531.3340349305332,0.14999,16,0.0,0.0,1575420030,,,,0,8.622825035846457,6,6.0,23.100000381469727,0.0,0.0,8.969663899720146,66.7128,C,27431055000000,
Raw,1732148547000,21392000000,,691289.175960524,-1416183743608000000,0.0,106.18426067620821,2095.394413086459,0.0,0,14,0.0,16431,346964932189429,396,21.42300033569336,738.0984241943554,0.14999,16,0.0,0.0,1575420030,,,,0,4.610432932083021,1,6.0,21.42300033569336,0.0,0.0,0.0,66.7128,C,27431055000000,
Raw,1732148547000,21392000000,,691289.175960524,-1416183743608000000,0.0,106.18426067620821,2095.394413086459,0.0,0,16,0.0,17,532522,396,5.0,1122.4262958268341,0.14999,16,0.0,0.0,1601437440,,,,0,8.312516507550324,3,6.0,21.0,0.0,0.0,31.143873827061505,66.7128,C,27431055000000,
Raw,1732148547000,21392000000,,691289.175960524,-1416183743608000000,0.0,106.18426067620821,2095.394413086459,0.0,0,9,0.0,17,204304,487,5.0,829.2687807432983,0.14999,16,0.0,0.0,1600875010,,,,0,5.155572331472369,3,6.0,19.0,0.0,0.0,31.143873827061505,66.7128,C,27431055000000,
Raw,1732148547000,21392000000,,691289.175960524,-1416183743608000000,0.0,106.18426067620821,2095.394413086459,0.0,0,18,0.0,17,89505,487,5.0,1191.8257656348176,0.14999,16,0.0,0.0,1600312450,,,,0,3.5822204923064964,3,6.0,20.0,0.0,0.0,31.143873827061505,66.7128,C,27431055000000,
Raw,1732148547000,21392000000,,691289.175960524,-1416183743608000000,0.0,106.18426067620821,2095.394413086459,0.0,0,8,0.0,17,134104,487,5.0,786.3773750756802,0.14999,16,0.0,0.0,1605374980,,,,0,0.0,3,6.0,18.0,0.0,0.0,31.143873827061505,66.7128,C,27431055000000,
Raw,1732148547000,21392000000,,691289.175960524,-1416183743608000000,0.0,106.18426067620821,2095.394413086459,0.0,0,13,0.0,16431,346964930937451,316,24.73699951171875,582.37840786363,0.14999,16,0.0,0.0,1575420030,,,,0,9.662595200520908,1,6.0,24.73699951171875,0.0,0.0,0.0,66.7128,C,27431055000000,
Status,1732148547000,29,0,1,14,1575420030,33.30,11.0,69.0,1,0,0,28.3
Status,1732148547000,29,1,1,22,1575420030,35.00,306.0,68.0,1,0,0,30.0
Status,1732148547000,29,2,1,17,1575420030,31.00,169.0,63.0,1,0,0,26.0
Status,1732148547000,29,3,1,30,1575420030,30.10,106.0,59.0,1,0,0,25.1
Status,1732148547000,29,4,1,13,1575420030,36.50,278.0,56.0,1,0,0,31.5
Status,1732148547000,29,5,1,19,1575420030,27.00,194.0,34.0,1,0,0,22.0
Status,1732148547000,29,6,1,15,1575420030,0.00,303.0,26.0,0,0,0,0.0
Status,1732148547000,29,7,1,7,1575420030,27.90,117.0,25.0,1,0,0,22.9
Status,1732148547000,29,8,2,131,1575420030,30.00,3.0,23.0,0,0,0,25.0
Status,1732148547000,29,9,1,2,1575420030,33.30,71.0,20.0,1,0,0,28.3
Status,1732148547000,29,10,1,21,1575420030,0.00,53.0,14.0,0,0,0,0.0
Status,1732148547000,29,11,3,9,1602000000,0.00,45.0,47.0,0,0,0,0.0
Status,1732148547000,29,12,3,8,1602000000,21.90,278.0,39.0,1,0,0,16.9
Status,1732148547000,29,13,3,19,1602000000,0.00,63.0,36.0,0,0,0,0.0
Status,1732148547000,29,14,3,20,1602000000,0.00,140.0,27.0,0,0,0,0.0
Status,1732148547000,29,15,3,18,1602000000,24.60,26.0,12.0,1,0,0,19.6
Status,1732148547000,29,16,3,11,1602000000,0.00,286.0,11.0,0,0,0,0.0
Status,1732148547000,29,17,3,16,1602000000,24.30,82.0,4.0,0,0,0,19.3
Status,1732148547000,29,18,3,17,1602000000,25.00,0.0,0.0,0,0,0,20.0
Status,1732148547000,29,19,6,21,1575420030,28.70,293.0,63.0,1,0,0,23.7
Status,1732148547000,29,20,6,19,1575420030,17.20,276.0,54.0,1,0,0,12.200001
Status,1732148547000,29,21,6,27,1575420030,21.60,47.0,48.0,1,0,0,16.6
Status,1732148547000,29,22,6,29,1575420030,20.40,197.0,47.0,1,0,0,15.4
Status,1732148547000,29,23,6,15,1575420030,38.60,83.0,18.0,1,0,0,33.6
Status,1732148547000,29,24,6,13,1575420030,0.00,134.0,11.0,0,0,0,0.0
Status,1732148547000,29,25,6,4,1575420030,0.00,323.0,10.0,0,0,0,0.0
Status,1732148547000,29,26,6,34,1575420030,0.00,36.0,6.0,0,0,0,0.0
Status,1732148547000,29,27,6,7,1575420030,0.00,162.0,4.0,0,0,0,0.0
Status,1732148547000,29,28,6,30,1575420030,0.00,66.0,2.0,0,0,0,0.0
Fix,GPS,37.4243750000,-122.1707816667,1.8000000000000007,0.0,2.6,31.6,1732148548000,2.4,179.9,27432055000000,41.9,0,,,
Raw,1732148548000,22392000000,,690636.6933186825,-1416183743608000000,0.0,104.3719539521639,2092.9366403581776,0.0,0,22,0.0,16431,346965930978139,316,30.003999710083008,597.5745376803512,0.14999,16,0.0,0.0,1575420030,,,,0,16.55144837648518,1,6.0,30.003999710083008,0.0,0.0,0.0,66.7128,C,27432055000000,
Raw,1732148548000,22392000000,,690636.6933186825,-1416183743608000000,0.0,104.3719539521639,2092.9366403581776,0.0,0,30,0.0,16431,346965930466175,316,25.075000762939453,878.4892538043327,0.14999,16,0.0,0.0,1575420030,,,,0,10.139247380653616,1,6.0,25.075000762939453,0.0,0.0,0.0,66.7128,C,27432055000000,
Raw,1732148548000,22392000000,,690636.6933186825,-1416183743608000000,0.0,104.3719539521639,2092.9366403581776,0.0,0,19,0.0,16431,346965925020026,396,21.985000610351562,-3.5249394131421723,0.14999,16,0.0,0.0,1575420030,,,,0,5.5176103795995495,1,6.0,21.985000610351562,0.0,0.0,0.0,66.7128,C,27432055000000,
Raw,1732148548000,22392000000,,690636.6933186825,-1416183743608000000,0.0,104.3719539521639,2092.9366403581776,0.0,0,17,0.0,16431,346965931651038,316,25.98900032043457,352.2227635387963,0.14999,16,0.0,0.0,1575420030,,,,0,11.393442114400788,1,6.0,25.98900032043457,0.0,0.0,0.0,66.7128,C,27432055000000,
Raw,1732148548000,22392000000,,690636.6933186825,-1416183743608000000,0.0,104.3719539521639,2092.9366403581776,0.0,0,15,0.0,16431,346965910088472,51,33.599998474121094,342.717325123704,0.14999,16,0.0,0.0,1575420030,,,,0,20.9964807809282,6,6.0,33.599998474121094,0.0,0.0,6.416166708249235,66.7128,C,27432055000000,
Raw,1732148548000,22392000000,,690636.6933186825,-1416183743608000000,0.0,104.3719539521639,2092.9366403581776,0.0,0,7,0.0,16431,346965923493991,396,22.88599967956543,1106.1799074818675,0.14999,16,0.0,0.0,1575420030,,,,0,6.907669860931678,1,6.0,22.88599967956543,0.0,0.0,0.0,66.7128,C,27432055000000,
Raw,1732148548000,22392000000,,690636.6933186825,-1416183743608000000,0.0,104.3719539521639,2092.9366403581776,0.0,0,2,0.0,16431,346965920728103,235,28.30299949645996,611.9676337728732,0.14999,16,0.0,0.0,1575420030,,,,0,14.440236978823643,1,6.0,28.30299949645996,0.0,0.0,0.0,66.7128,C,27432055000000,
Raw,1732148548000,22392000000,,690636.6933186825,-1416183743608000000,0.0,104.3719539521639,2092.9366403581776,0.0,0,29,0.0,16431,346965918117643,797,15.4399995803833,1058.4513181721331,0.14999,16,0.0,0.0,1575420030,,,,0,0.0,6,6.0,15.4399995803833,0.0,0.0,6.416166708249235,66.7128,C,27432055000000,
Raw,1732148548000,22392000000,,690636.6933186825,-1416183743608000000,0.0,104.3719539521639,2092.9366403581776,0.0,0,27,0.0,16431,346965917880693,487,16.610000610351562,916.1373888815369,0.14999,16,0.0,0.0,1575420030,,,,0,2.347488694508181,6,6.0,16.610000610351562,0.0,0.0,6.416166708249235,66.7128,C,27432055000000,
Raw,1732148548000,22392000000,,690636.6933186825,-1416183743608000000,0.0,104.3719539521639,2092.9366403581776,0.0,0,19,0.0,16431,346965920552665,1797,12.199999809265137,618.237986833561,0.14999,16,0.0,0.0,1575420030,,,,0,0.0,6,6.0,12.199999809265137,0.0,0.0,6.416166708249235,66.7128,C,27432055000000,
Raw,1732148548000,22392000000,,690636.6933186825,-1416183743608000000,0.0,104.3719539521639,2092.9366403581776,0.0,0,21,0.0,16431,346965920403848,316,23.700000762939453,531.1939163472423,0.14999,16,0.0,0.0,1575420030,,,,0,9.391139056735431,6,6.0,23.700000762939453,0.0,0.0,6.416166708249235,66.7128,C,27432055000000,
Raw,1732148548000,22392000000,,690636.6933186825,-1416183743608000000,0.0,104.3719539521639,2092.9366403581776,0.0,0,14,0.0,16431,346965932186884,235,28.284000396728516,737.3192236376723,0.14999,16,0.0,0.0,1575420030,,,,0,14.41450099069732,1,6.0,28.284000396728516,0.0,0.0,0.0,66.7128,C,27432055000000,
Raw,1732148548000,22392000000,,690636.6933186825,-1416183743608000000,0.0,104.3719539521639,2092.9366403581776,0.0,0,16,0.0,17,528779,487,5.0,1121.9917456469018,0.14999,16,0.0,0.0,1601437440,,,,0,3.0359103327788963,3,6.0,19.0,0.0,0.0,29.077365307201383,66.7128,C,27432055000000,
Raw,1732148548000,22392000000,,690636.6933186825,-1416183743608000000,0.0,104.3719539521639,2092.9366403581776,0.0,0,18,0.0,17,85551,487,5.0,1190.8098827998767,0.14999,16,0.0,0.0,1600312450,,,,0,4.947517123477024,3,6.0,20.0,0.0,0.0,29.077365307201383,66.7128,C,27432055000000,
Raw,1732148548000,22392000000,,690636.6933186825,-1416183743608000000,0.0,104.3719539521639,2092.9366403581776,0.0,0,8,0.0,17,131484,797,5.0,784.1786774814916,0.14999,16,0.0,0.0,1605374980,,,,0,0.0,3,6.0,17.0,0.0,0.0,29.077365307201383,66.7128,C,27432055000000,
Raw,1732148548000,22392000000,,690636.6933186825,-1416183743608000000,0.0,104.3719539521639,2092.9366403581776,0.0,0,13,0.0,16431,346965930935483,74,31.459999084472656,582.9971875091381,0.14999,16,0.0,0.0,1575420030,,,,0,18.298115277521482,1,6.0,31.459999084472656,0.0,0.0,0.0,66.7128,C,27432055000000,
Fix,FLP,37.4243754000,-122.1707810000,2.0,0.026295064,2.583,,1732148548207,2.4,,27432055000000,0.91440475,0,,,
Status,1732148548000,29,0,1,14,1575420030,32.90,11.0,69.0,1,0,0,27.900002
Status,1732148548000,29,1,1,22,1575420030,30.50,306.0,68.0,1,0,0,25.5
Status,1732148548000,29,2,1,17,1575420030,29.20,169.0,63.0,1,0,0,24.2
Status,1732148548000,29,3,1,30,1575420030,32.10,106.0,59.0,1,0,0,27.099998
Status,1732148548000,29,4,1,13,1575420030,0.00,278.0,56.0,0,0,0,0.0
Status,1732148548000,29,5,1,19,1575420030,27.10,194.0,34.0,1,0,0,22.1
Status,1732148548000,29,6,1,15,1575420030,0.00,303.0,26.0,0,0,0,0.0
Status,1732148548000,29,7,1,7,1575420030,29.60,117.0,25.0,1,0,0,24.6
Status,1732148548000,29,8,2,131,1575420030,28.00,3.0,23.0,0,0,0,23.0
Status,1732148548000,29,9,1,2,1575420030,33.80,71.0,20.0,1,0,0,28.8
Status,1732148548000,29,10,1,21,1575420030,0.00,53.0,14.0,0,0,0,0.0
Status,1732148548000,29,11,3,9,1602000000,0.00,45.0,47.0,0,0,0,0.0
Status,1732148548000,29,12,3,8,1602000000,22.90,278.0,39.0,1,0,0,17.9
Status,1732148548000,29,13,3,19,1602000000,0.00,63.0,36.0,0,0,0,0.0
Status,1732148548000,29,14,3,20,1602000000,0.00,140.0,27.0,0,0,0,0.0
Status,1732148548000,29,15,3,18,1602000000,24.60,26.0,12.0,1,0,0,19.6
Status,1732148548000,29,16,3,11,1602000000,0.00,286.0,11.0,0,0,0,0.0
Status,1732148548000,29,17,3,16,1602000000,24.30,82.0,4.0,0,0,0,19.3
Status,1732148548000,29,18,3,17,1602000000,29.60,0.0,0.0,0,0,0,24.6
Status,1732148548000,29,19,6,21,1575420030,25.40,293.0,63.0,1,0,0,20.4
Status,1732148548000,29,20,6,19,1575420030,17.20,276.0,54.0,1,0,0,12.200001
Status,1732148548000,29,21,6,27,1575420030,28.60,47.0,48.0,1,0,0,23.6
Status,1732148548000,29,22,6,29,1575420030,20.40,197.0,47.0,1,0,0,15.4
Status,1732148548000,29,23,6,15,1575420030,32.20,83.0,18.0,1,0,0,27.2
Status,1732148548000,29,24,6,13,1575420030,0.00,134.0,11.0,0,0,0,0.0
Status,1732148548000,29,25,6,4,1575420030,0.00,323.0,10.0,0,0,0,0.0
Status,1732148548000,29,26,6,34,1575420030,0.00,36.0,6.0,0,0,0,0.0
Status,1732148548000,29,27,6,7,1575420030,0.00,162.0,4.0,0,0,0,0.0
Status,1732148548000,29,28,6,30,1575420030,0.00,66.0,2.0,0,0,0,0.0
Fix,GPS,37.4243783333,-122.1708016667,1.8000000000000007,0.0,2.6,31.6,1732148549000,2.7,104.8,27433055000000,39.8,0,,,
Raw,1732148549000,23392000000,,689992.8103761703,-1416183743608000000,0.0,100.48753247124768,2092.9648149722307,0.0,0,22,0.0,16431,346966930976141,396,25.45400047302246,598.6457293829176,0.14999,16,0.0,0.0,1575420030,,,,0,10.670785270072916,1,6.0,25.45400047302246,0.0,0.0,0.0,66.7128,C,27433055000000,
Raw,1732148549000,23392000000,,689992.8103761703,-1416183743608000000,0.0,100.48753247124768,2092.9648149722307,0.0,0,30,0.0,16431,346966930463243,235,27.054000854492188,879.0818773615143,0.14999,16,0.0,0.0,1575420030,,,,0,12.805063600114934,1,6.0,27.054000854492188,0.0,0.0,0.0,66.7128,C,27433055000000,
Raw,1732148549000,23392000000,,689992.8103761703,-1416183743608000000,0.0,100.48753247124768,2092.9648149722307,0.0,0,19,0.0,16431,346966925020038,396,22.075000762939453,-1.5126395733989164,0.14999,16,0.0,0.0,1575420030,,,,0,8.26406473407165,1,6.0,22.075000762939453,0.0,0.0,0.0,66.7128,C,27433055000000,
Raw,1732148549000,23392000000,,689992.8103761703,-1416183743608000000,0.0,100.48753247124768,2092.9648149722307,0.0,0,17,0.0,16431,346966931649859,316,24.229999542236328,352.92739833746157,0.14999,16,0.0,0.0,1575420030,,,,0,8.918963592868412,1,6.0,24.229999542236328,0.0,0.0,0.0,66.7128,C,27433055000000,
Raw,1732148549000,23392000000,,689992.8103761703,-1416183743608000000,0.0,100.48753247124768,2092.9648149722307,0.0,0,15,0.0,16431,346966910087328,235,27.200000762939453,342.783969721758,0.14999,16,0.0,0.0,1575420030,,,,0,13.717110753807297,6,6.0,27.200000762939453,0.0,0.0,2.463409031520811,66.7128,C,27433055000000,
Raw,1732148549000,23392000000,,689992.8103761703,-1416183743608000000,0.0,100.48753247124768,2092.9648149722307,0.0,0,7,0.0,16431,346966923490294,316,24.649999618530273,1107.1906567849442,0.14999,16,0.0,0.0,1575420030,,,,0,9.527927547341541,1,6.0,24.649999618530273,0.0,0.0,0.0,66.7128,C,27433055000000,
Raw,1732148549000,23392000000,,689992.8103761703,-1416183743608000000,0.0,100.48753247124768,2092.9648149722307,0.0,0,2,0.0,16431,346966920726061,235,28.827999114990234,612.8485782610575,0.14999,16,0.0,0.0,1575420030,,,,0,15.08393064625167,1,6.0,28.827999114990234,0.0,0.0,0.0,66.7128,C,27433055000000,
Raw,1732148549000,23392000000,,689992.8103761703,-1416183743608000000,0.0,100.48753247124768,2092.9648149722307,0.0,0,29,0.0,16431,346966918114108,487,15.432999610900879,1061.4424968414326,0.14999,16,0.0,0.0,1575420030,,,,0,0.0,6,6.0,15.432999610900879,0.0,0.0,2.463409031520811,66.7128,C,27433055000000,
Raw,1732148549000,23392000000,,689992.8103761703,-1416183743608000000,0.0,100.48753247124768,2092.9648149722307,0.0,0,27,0.0,16431,346966917877637,396,23.600000381469727,916.7551929003047,0.14999,16,0.0,0.0,1575420030,,,,0,9.252161857628874,6,6.0,23.600000381469727,0.0,0.0,2.463409031520811,66.7128,C,27433055000000,
Raw,1732148549000,23392000000,,689992.8103761703,-1416183743608000000,0.0,100.48753247124768,2092.9648149722307,0.0,0,19,0.0,16431,346966920550601,797,12.199999809265137,618.9903808840907,0.14999,16,0.0,0.0,1575420030,,,,0,0.0,6,6.0,12.199999809265137,0.0,0.0,2.463409031520811,66.7128,C,27433055000000,
Raw,1732148549000,23392000000,,689992.8103761703,-1416183743608000000,0.0,100.48753247124768,2092.9648149722307,0.0,0,21,0.0,16431,346966920402077,396,20.399999618530273,531.9365076719515,0.14999,16,0.0,0.0,1575420030,,,,0,4.768362549003697,6,6.0,20.399999618530273,0.0,0.0,2.463409031520811,66.7128,C,27433055000000,
Raw,1732148549000,23392000000,,689992.8103761703,-1416183743608000000,0.0,100.48753247124768,2092.9648149722307,0.0,0,14,0.0,16431,346966932184444,316,27.881000518798828,737.1961552931306,0.14999,16,0.0,0.0,1575420030,,,,0,13.883088217625577,1,6.0,27.881000518798828,0.0,0.0,0.0,66.7128,C,27433055000000,
Raw,1732148549000,23392000000,,689992.8103761703,-1416183743608000000,0.0,100.48753247124768,2092.9648149722307,0.0,0,16,0.0,17,525033,487,5.0,1123.821627862313,0.14999,16,0.0,0.0,1601437440,,,,0,3.1645925328870934,3,6.0,20.0,0.0,0.0,34.19423223736738,66.7128,C,27433055000000,
Raw,1732148549000,23392000000,,689992.8103761703,-1416183743608000000,0.0,100.48753247124768,2092.9648149722307,0.0,0,18,0.0,17,81573,487,5.0,1192.0420043365823,0.14999,16,0.0,0.0,1600312450,,,,0,2.6739126583180353,3,6.0,18.0,0.0,0.0,34.19423223736738,66.7128,C,27433055000000,
Raw,1732148549000,23392000000,,689992.8103761703,-1416183743608000000,0.0,100.48753247124768,2092.9648149722307,0.0,0,8,0.0,17,128868,487,5.0,784.4675454771118,0.14999,16,0.0,0.0,1605374980,,,,0,0.7446181647112402,3,6.0,19.0,0.0,0.0,34.19423223736738,66.7128,C,27433055000000,
Fix,FLP,37.4243769000,-122.1707910000,2.0,0.022346746,2.6,,1732148549207,2.7,,27433055000000,0.9244116,0,,,
Status,1732148549000,29,0,1,14,1575420030,30.90,11.0,69.0,1,0,0,25.9
Status,1732148549000,29,1,1,22,1575420030,28.50,306.0,68.0,1,0,0,23.5
Status,1732148549000,29,2,1,17,1575420030,29.60,169.0,63.0,1,0,0,24.6
Status,1732148549000,29,3,1,30,1575420030,32.10,106.0,59.0,1,0,0,27.099998
Status,1732148549000,29,4,1,13,1575420030,32.50,278.0,56.0,1,0,0,27.5
Status,1732148549000,29,5,1,19,1575420030,32.30,194.0,34.0,1,0,0,27.3
Status,1732148549000,29,6,1,15,1575420030,28.20,303.0,26.0,1,0,0,23.2
Status,1732148549000,29,7,1,7,1575420030,32.10,117.0,25.0,1,0,0,27.099998
Status,1732148549000,29,8,2,131,1575420030,30.00,3.0,23.0,0,0,0,25.0
Status,1732148549000,29,9,1,2,1575420030,31.20,71.0,20.0,1,0,0,26.2
Status,1732148549000,29,10,1,21,1575420030,0.00,53.0,14.0,0,0,0,0.0
Status,1732148549000,29,11,3,9,1602000000,0.00,45.0,47.0,0,0,0,0.0
Status,1732148549000,29,12,3,8,1602000000,25.40,278.0,39.0,1,0,0,20.4
Status,1732148549000,29,13,3,19,1602000000,0.00,63.0,36.0,0,0,0,0.0
Status,1732148549000,29,14,3,20,1602000000,0.00,140.0,27.0,0,0,0,0.0
Status,1732148549000,29,15,3,18,1602000000,24.60,26.0,12.0,1,0,0,19.6
Status,1732148549000,29,16,3,11,1602000000,0.00,286.0,11.0,0,0,0,0.0
Status,1732148549000,29,17,3,16,1602000000,26.40,82.0,4.0,0,0,0,21.4
Status,1732148549000,29,18,3,17,1602000000,30.30,0.0,0.0,0,0,0,25.3
Status,1732148549000,29,19,6,21,1575420030,0.00,293.0,63.0,0,0,0,0.0
Status,1732148549000,29,20,6,19,1575420030,17.20,276.0,54.0,1,0,0,12.200001
Status,1732148549000,29,21,6,27,1575420030,26.90,47.0,48.0,1,0,0,21.9
Status,1732148549000,29,22,6,29,1575420030,23.80,197.0,47.0,1,0,0,18.8
Status,1732148549000,29,23,6,15,1575420030,36.40,83.0,18.0,1,0,0,31.400002
Status,1732148549000,29,24,6,13,1575420030,0.00,134.0,11.0,0,0,0,0.0
Status,1732148549000,29,25,6,4,1575420030,0.00,323.0,10.0,0,0,0,0.0
Status,1732148549000,29,26,6,34,1575420030,0.00,36.0,6.0,0,0,0,0.0
Status,1732148549000,29,27,6,7,1575420030,0.00,162.0,4.0,0,0,0,0.0
Status,1732148549000,29,28,6,30,1575420030,0.00,66.0,2.0,0,0,0,0.0
Fix,GPS,37.4243900000,-122.1708083333,1.9000000000000021,0.0,2.6,31.6,1732148550000,2.4,87.3,27434055000000,39.8,0,,,
Raw,1732148550000,24392000000,,689104.8523308749,-1416183743608000000,0.0,102.00089072221668,2094.2866359582304,0.0,0,22,0.0,16431,346967930974147,396,23.517000198364258,597.5927493795057,0.14999,16,0.0,0.0,1575420030,,,,0,7.889845459679577,1,6.0,23.517000198364258,0.0,0.0,0.0,66.7128,C,27434055000000,
Raw,1732148550000,24392000000,,689104.8523308749,-1416183743608000000,0.0,102.00089072221668,2094.2866359582304,0.0,0,30,0.0,16431,346967930460304,316,27.097999572753906,879.2195801071623,0.14999,16,0.0,0.0,1575420030,,,,0,12.866885139657771,1,6.0,27.097999572753906,0.0,0.0,0.0,66.7128,C,27434055000000,
Raw,1732148550000,24392000000,,689104.8523308749,-1416183743608000000,0.0,102.00089072221668,2094.2866359582304,0.0,0,19,0.0,16431,346967925020045,235,27.270000457763672,-2.7322194573417575,0.14999,16,0.0,0.0,1575420030,,,,0,13.109862931249669,1,6.0,27.270000457763672,0.0,0.0,0.0,66.7128,C,27434055000000,
Raw,1732148550000,24392000000,,689104.8523308749,-1416183743608000000,0.0,102.00089072221668,2094.2866359582304,0.0,0,17,0.0,16431,346967931648684,396,24.6200008392334,353.22614918290344,0.14999,16,0.0,0.0,1575420030,,,,0,9.4825703182251,1,6.0,24.6200008392334,0.0,0.0,0.0,66.7128,C,27434055000000,
Raw,1732148550000,24392000000,,689104.8523308749,-1416183743608000000,0.0,102.00089072221668,2094.2866359582304,0.0,0,15,0.0,16431,346967910086184,74,31.399999618530273,343.1869500239682,0.14999,16,0.0,0.0,1575420030,,,,0,18.493678277005323,6,6.0,31.399999618530273,0.0,0.0,5.655205858361042,66.7128,C,27434055000000,
Raw,1732148550000,24392000000,,689104.8523308749,-1416183743608000000,0.0,102.00089072221668,2094.2866359582304,0.0,0,7,0.0,16431,346967923486601,316,27.054000854492188,1106.7382447278858,0.14999,16,0.0,0.0,1575420030,,,,0,12.805063600114934,1,6.0,27.054000854492188,0.0,0.0,0.0,66.7128,C,27434055000000,
Raw,1732148550000,24392000000,,689104.8523308749,-1416183743608000000,0.0,102.00089072221668,2094.2866359582304,0.0,0,2,0.0,16431,346967920724020,316,26.187000274658203,613.0125764702807,0.14999,16,0.0,0.0,1575420030,,,,0,11.645224660561198,1,6.0,26.187000274658203,0.0,0.0,0.0,66.7128,C,27434055000000,
Raw,1732148550000,24392000000,,689104.8523308749,-1416183743608000000,0.0,102.00089072221668,2094.2866359582304,0.0,0,29,0.0,16431,346967918110558,396,18.799999237060547,1059.5291534282178,0.14999,16,0.0,0.0,1575420030,,,,0,2.347488694508181,6,6.0,18.799999237060547,0.0,0.0,5.655205858361042,66.7128,C,27434055000000,
Raw,1732148550000,24392000000,,689104.8523308749,-1416183743608000000,0.0,102.00089072221668,2094.2866359582304,0.0,0,27,0.0,16431,346967917874580,316,21.899999618530273,916.6710102501312,0.14999,16,0.0,0.0,1575420030,,,,0,6.968623722571784,6,6.0,21.899999618530273,0.0,0.0,5.655205858361042,66.7128,C,27434055000000,
Raw,1732148550000,24392000000,,689104.8523308749,-1416183743608000000,0.0,102.00089072221668,2094.2866359582304,0.0,0,19,0.0,16431,346967920548535,1797,12.199999809265137,619.7797558339239,0.14999,16,0.0,0.0,1575420030,,,,0,0.0,6,6.0,12.199999809265137,0.0,0.0,5.655205858361042,66.7128,C,27434055000000,
Raw,1732148550000,24392000000,,689104.8523308749,-1416183743608000000,0.0,102.00089072221668,2094.2866359582304,0.0,0,14,0.0,16431,346967932181986,316,25.891000747680664,737.2148780348634,0.14999,16,0.0,0.0,1575420030,,,,0,11.246220121473407,1,6.0,25.891000747680664,0.0,0.0,0.0,66.7128,C,27434055000000,
Raw,1732148550000,24392000000,,689104.8523308749,-1416183743608000000,0.0,102.00089072221668,2094.2866359582304,0.0,0,13,0.0,16431,346967930931600,316,27.476999282836914,583.2311056347583,0.14999,16,0.0,0.0,1575420030,,,,0,13.375326739759142,1,6.0,27.476999282836914,0.0,0.0,0.0,66.7128,C,27434055000000,
Raw,1732148550000,24392000000,,689104.8523308749,-1416183743608000000,0.0,102.00089072221668,2094.2866359582304,0.0,0,16,0.0,17,521281,396,5.0,1122.4415608415688,0.14999,16,0.0,0.0,1601437440,,,,0,6.338935792612265,3,6.0,21.0,0.0,0.0,37.21946185973389,66.7128,C,27434055000000,
Raw,1732148550000,24392000000,,689104.8523308749,-1416183743608000000,0.0,102.00089072221668,2094.2866359582304,0.0,0,18,0.0,17,77597,487,5.0,1192.6965746199278,0.14999,16,0.0,0.0,1600312450,,,,0,2.6739126583180353,3,6.0,20.0,0.0,0.0,37.21946185973389,66.7128,C,27434055000000,
Raw,1732148550000,24392000000,,689104.8523308749,-1416183743608000000,0.0,102.00089072221668,2094.2866359582304,0.0,0,8,0.0,17,126245,396,5.0,787.0575096651155,0.14999,16,0.0,0.0,1605374980,,,,0,4.814529117420772,3,6.0,21.0,0.0,0.0,37.21946185973389,66.7128,C,27434055000000,
Raw,1732148550000,24392000000,,689104.8523308749,-1416183743608000000,0.0,102.00089072221668,2094.2866359582304,0.0,0,15,0.0,16431,346967924602513,396,23.209999084472656,375.5376409635577,0.14999,16,0.0,0.0,1575420030,,,,0,7.3837281543841735,1,6.0,23.209999084472656,0.0,0.0,0.0,66.7128,C,27434055000000,
Fix,FLP,37.4243834000,-122.1707994000,2.0,0.042060353,2.616,,1732148550207,2.4,,27434055000000,0.9344016,0,,,
Status,1732148550000,29,0,1,14,1575420030,28.50,11.0,69.0,1,0,0,23.5
Status,1732148550000,29,1,1,22,1575420030,26.60,306.0,68.0,1,0,0,21.6
Status,1732148550000,29,2,1,17,1575420030,30.20,169.0,63.0,1,0,0,25.2
Status,1732148550000,29,3,1,30,1575420030,38.70,106.0,59.0,1,0,0,33.7
Status,1732148550000,29,4,1,13,1575420030,32.30,278.0,56.0,1,0,0,27.3
Status,1732148550000,29,5,1,19,1575420030,27.80,194.0,34.0,1,0,0,22.8
Status,1732148550000,29,6,1,15,1575420030,0.00,303.0,26.0,0,0,0,0.0
Status,1732148550000,29,7,1,7,1575420030,34.20,117.0,25.0,1,0,0,29.2
Status,1732148550000,29,8,2,131,1575420030,30.00,3.0,23.0,0,0,0,25.0
Status,1732148550000,29,9,1,2,1575420030,30.20,71.0,20.0,1,0,0,25.2
Status,1732148550000,29,10,1,21,1575420030,0.00,53.0,14.0,0,0,0,0.0
Status,1732148550000,29,11,3,9,1602000000,0.00,45.0,47.0,0,0,0,0.0
Status,1732148550000,29,12,3,8,1602000000,23.10,278.0,39.0,1,0,0,18.1
Status,1732148550000,29,13,3,19,1602000000,0.00,63.0,36.0,0,0,0,0.0
Status,1732148550000,29,14,3,20,1602000000,0.00,140.0,27.0,0,0,0,0.0
Status,1732148550000,29,15,3,18,1602000000,24.60,26.0,12.0,1,0,0,19.6
Status,1732148550000,29,16,3,11,1602000000,0.00,286.0,11.0,0,0,0,0.0
Status,1732148550000,29,17,3,16,1602000000,26.50,82.0,4.0,0,0,0,21.5
Status,1732148550000,29,18,3,17,1602000000,32.80,0.0,0.0,0,0,0,27.8
Status,1732148550000,29,19,6,21,1575420030,0.00,293.0,63.0,0,0,0,0.0
Status,1732148550000,29,20,6,19,1575420030,17.20,276.0,54.0,1,0,0,12.200001
Status,1732148550000,29,21,6,27,1575420030,24.40,47.0,48.0,1,0,0,19.4
Status,1732148550000,29,22,6,29,1575420030,23.80,197.0,47.0,1,0,0,18.8
Status,1732148550000,29,23,6,15,1575420030,34.70,83.0,18.0,1,0,0,29.7
Status,1732148550000,29,24,6,13,1575420030,0.00,134.0,11.0,0,0,0,0.0
Status,1732148550000,29,25,6,4,1575420030,0.00,323.0,10.0,0,0,0,0.0
Status,1732148550000,29,26,6,34,1575420030,0.00,36.0,6.0,0,0,0,0.0
Status,1732148550000,29,27,6,7,1575420030,0.00,162.0,4.0,0,0,0,0.0
Status,1732148550000,29,28,6,30,1575420030,0.00,66.0,2.0,0,0,0,0.0
Fix,GPS,37.4243916667,-122.1708216667,1.9000000000000021,0.0,2.6,31.6,1732148551000,2.5,111.5,27435055000000,40.2,0,,,
Raw,1732148551000,25392000000,,688317.8495437667,-1416183743608000000,0.0,102.86783365945882,2094.358839957954,0.0,0,22,0.0,16431,346968930972146,487,21.555999755859375,599.0818345358858,0.14999,16,0.0,0.0,1575420030,,,,0,4.84626342667418,1,6.0,21.555999755859375,0.0,0.0,0.0,66.7128,C,27435055000000,
Raw,1732148551000,25392000000,,688317.8495437667,-1416183743608000000,0.0,102.86783365945882,2094.358839957954,0.0,0,30,0.0,16431,346968930457381,58,33.65999984741211,880.158876366107,0.14999,16,0.0,0.0,1575420030,,,,0,20.837996994306625,1,6.0,33.65999984741211,0.0,0.0,0.0,66.7128,C,27435055000000,
Raw,1732148551000,25392000000,,688317.8495437667,-1416183743608000000,0.0,102.86783365945882,2094.358839957954,0.0,0,19,0.0,16431,346968925020053,487,22.774999618530273,-1.3710807792054063,0.14999,16,0.0,0.0,1575420030,,,,0,6.72219897835245,1,6.0,22.774999618530273,0.0,0.0,0.0,66.7128,C,27435055000000,
Raw,1732148551000,25392000000,,688317.8495437667,-1416183743608000000,0.0,102.86783365945882,2094.358839957954,0.0,0,17,0.0,16431,346968931647514,316,25.214000701904297,352.03028632043606,0.14999,16,0.0,0.0,1575420030,,,,0,10.306288867948933,1,6.0,25.214000701904297,0.0,0.0,0.0,66.7128,C,27435055000000,
Raw,1732148551000,25392000000,,688317.8495437667,-1416183743608000000,0.0,102.86783365945882,2094.358839957954,0.0,0,15,0.0,16431,346968910085040,74,29.700000762939453,343.19600941512925,0.14999,16,0.0,0.0,1575420030,,,,0,16.65163275864227,6,6.0,29.700000762939453,0.0,0.0,3.7461256311251385,66.7128,C,27435055000000,
Raw,1732148551000,25392000000,,688317.8495437667,-1416183743608000000,0.0,102.86783365945882,2094.358839957954,0.0,0,7,0.0,16431,346968923482908,235,29.23900032043457,1106.4118278955907,0.14999,16,0.0,0.0,1575420030,,,,0,15.593649066705646,1,6.0,29.23900032043457,0.0,0.0,0.0,66.7128,C,27435055000000,
Raw,1732148551000,25392000000,,688317.8495437667,-1416183743608000000,0.0,102.86783365945882,2094.358839957954,0.0,0,2,0.0,16431,346968920721983,316,25.240999221801758,612.4184662437802,0.14999,16,0.0,0.0,1575420030,,,,0,10.347552079224402,1,6.0,25.240999221801758,0.0,0.0,0.0,66.7128,C,27435055000000,
Raw,1732148551000,25392000000,,688317.8495437667,-1416183743608000000,0.0,102.86783365945882,2094.358839957954,0.0,0,29,0.0,16431,346968918107029,487,18.809999465942383,1059.9687429624018,0.14999,16,0.0,0.0,1575420030,,,,0,2.652288025642919,6,6.0,18.809999465942383,0.0,0.0,3.7461256311251385,66.7128,C,27435055000000,
Raw,1732148551000,25392000000,,688317.8495437667,-1416183743608000000,0.0,102.86783365945882,2094.358839957954,0.0,0,27,0.0,16431,346968917871520,316,19.399999618530273,917.588285219792,0.14999,16,0.0,0.0,1575420030,,,,0,3.2315619443492505,6,6.0,19.399999618530273,0.0,0.0,3.7461256311251385,66.7128,C,27435055000000,
Raw,1732148551000,25392000000,,688317.8495437667,-1416183743608000000,0.0,102.86783365945882,2094.358839957954,0.0,0,19,0.0,16431,346968920546466,797,12.199999809265137,620.6894580817424,0.14999,16,0.0,0.0,1575420030,,,,0,0.0,6,6.0,12.199999809265137,0.0,0.0,3.7461256311251385,66.7128,C,27435055000000,
Raw,1732148551000,25392000000,,688317.8495437667,-1416183743608000000,0.0,102.86783365945882,2094.358839957954,0.0,0,14,0.0,16431,346968932179525,396,23.517000198364258,737.2087919823398,0.14999,16,0.0,0.0,1575420030,,,,0,7.889845459679577,1,6.0,23.517000198364258,0.0,0.0,0.0,66.7128,C,27435055000000,
Raw,1732148551000,25392000000,,688317.8495437667,-1416183743608000000,0.0,102.86783365945882,2094.358839957954,0.0,0,13,0.0,16431,346968930929644,316,27.270000457763672,583.812950839379,0.14999,16,0.0,0.0,1575420030,,,,0,13.109862931249669,1,6.0,27.270000457763672,0.0,0.0,0.0,66.7128,C,27435055000000,
Raw,1732148551000,25392000000,,688317.8495437667,-1416183743608000000,0.0,102.86783365945882,2094.358839957954,0.0,0,16,0.0,17,517530,316,5.0,1122.463589994569,0.14999,16,0.0,0.0,1601437440,,,,0,9.248825621890502,3,6.0,24.0,0.0,0.0,41.57134782243953,66.7128,C,27435055000000,
Raw,1732148551000,25392000000,,688317.8495437667,-1416183743608000000,0.0,102.86783365945882,2094.358839957954,0.0,0,18,0.0,17,73619,797,5.0,1191.6088866323282,0.14999,16,0.0,0.0,1600312450,,,,0,4.177377185062286,3,6.0,16.0,0.0,0.0,41.57134782243953,66.7128,C,27435055000000,
Raw,1732148551000,25392000000,,688317.8495437667,-1416183743608000000,0.0,102.86783365945882,2094.358839957954,0.0,0,8,0.0,17,123611,797,5.0,788.213802295311,0.14999,16,0.0,0.0,1605374980,,,,0,1.135060958760743,3,6.0,17.0,0.0,0.0,41.57134782243953,66.7128,C,27435055000000,
Fix,FLP,37.4243877000,-122.1708103000,2.0,0.05808308,2.616,,1732148551208,2.5,,27435055000000,0.9444042,0,,,
Status,1732148551000,29,0,1,14,1575420030,29.60,11.0,69.0,1,0,0,24.6
Status,1732148551000,29,1,1,22,1575420030,30.30,306.0,68.0,1,0,0,25.3
Status,1732148551000,29,2,1,17,1575420030,33.50,169.0,63.0,1,0,0,28.5
Status,1732148551000,29,3,1,30,1575420030,34.10,106.0,59.0,1,0,0,29.099998
Status,1732148551000,29,4,1,13,1575420030,29.30,278.0,56.0,1,0,0,24.3
Status,1732148551000,29,5,1,19,1575420030,27.70,194.0,34.0,1,0,0,22.7
Status,1732148551000,29,6,1,15,1575420030,29.10,303.0,26.0,1,0,0,24.1
Status,1732148551000,29,7,1,7,1575420030,34.00,117.0,25.0,1,0,0,29.0
Status,1732148551000,29,8,2,131,1575420030,32.00,3.0,23.0,0,0,0,27.0
Status,1732148551000,29,9,1,2,1575420030,28.90,71.0,20.0,1,0,0,23.9
Status,1732148551000,29,10,1,21,1575420030,0.00,53.0,14.0,0,0,0,0.0
Status,1732148551000,29,11,3,9,1602000000,0.00,45.0,47.0,0,0,0,0.0
Status,1732148551000,29,12,3,8,1602000000,23.10,278.0,39.0,1,0,0,18.1
Status,1732148551000,29,13,3,19,1602000000,0.00,63.0,36.0,0,0,0,0.0
Status,1732148551000,29,14,3,20,1602000000,0.00,140.0,27.0,0,0,0,0.0
Status,1732148551000,29,15,3,18,1602000000,24.50,26.0,12.0,1,0,0,19.5
Status,1732148551000,29,16,3,11,1602000000,0.00,286.0,11.0,0,0,0,0.0
Status,1732148551000,29,17,3,16,1602000000,26.40,82.0,4.0,0,0,0,21.4
Status,1732148551000,29,18,3,17,1602000000,27.90,0.0,0.0,0,0,0,22.9
Status,1732148551000,29,19,6,21,1575420030,29.50,293.0,63.0,1,0,0,24.5
Status,1732148551000,29,20,6,19,1575420030,17.20,276.0,54.0,1,0,0,12.200001
Status,1732148551000,29,21,6,27,1575420030,27.00,47.0,48.0,1,0,0,22.0
Status,1732148551000,29,22,6,29,1575420030,23.90,197.0,47.0,1,0,0,18.9
Status,1732148551000,29,23,6,15,1575420030,32.20,83.0,18.0,1,0,0,27.2
Status,1732148551000,29,24,6,13,1575420030,0.00,134.0,11.0,0,0,0,0.0
