# 
# Header Description:
# 
# Version: v3.1.0.3 Platform: 13 Manufacturer: samsung Model: SM-S135DL GNSS Hardware Model Name: MediaTek,MT6631,MTK_MNLD_default,MNL_VER_default
# 
# Raw,utcTimeMillis,TimeNanos,LeapSecond,TimeUncertaintyNanos,FullBiasNanos,BiasNanos,BiasUncertaintyNanos,DriftNanosPerSecond,DriftUncertaintyNanosPerSecond,HardwareClockDiscontinuityCount,Svid,TimeOffsetNanos,State,ReceivedSvTimeNanos,ReceivedSvTimeUncertaintyNanos,Cn0DbHz,PseudorangeRateMetersPerSecond,PseudorangeRateUncertaintyMetersPerSecond,AccumulatedDeltaRangeState,AccumulatedDeltaRangeMeters,AccumulatedDeltaRangeUncertaintyMeters,CarrierFrequencyHz,CarrierCycles,CarrierPhase,CarrierPhaseUncertainty,MultipathIndicator,SnrInDb,ConstellationType,AgcDb,BasebandCn0DbHz,FullInterSignalBiasNanos,FullInterSignalBiasUncertaintyNanos,SatelliteInterSignalBiasNanos,SatelliteInterSignalBiasUncertaintyNanos,CodeType,ChipsetElapsedRealtimeNanos,IsFullTracking
# 
# UncalAccel,utcTimeMillis,elapsedRealtimeNanos,UncalAccelXMps2,UncalAccelYMps2,UncalAccelZMps2,BiasXMps2,BiasYMps2,BiasZMps2
# 
# Accel,utcTimeMillis,elapsedRealtimeNanos,AccelXMps2,AccelYMps2,AccelZMps2
# 
# UncalGyro,utcTimeMillis,elapsedRealtimeNanos,UncalGyroXRadPerSec,UncalGyroYRadPerSec,UncalGyroZRadPerSec,DriftXRadPerSec,DriftYRadPerSec,DriftZRadPerSec
# 
# Gyro,utcTimeMillis,elapsedRealtimeNanos,GyroXRadPerSec,GyroYRadPerSec,GyroZRadPerSec
# 
# UncalMag,utcTimeMillis,elapsedRealtimeNanos,UncalMagXMicroT,UncalMagYMicroT,UncalMagZMicroT,BiasXMicroT,BiasYMicroT,BiasZMicroT
# 
# Mag,utcTimeMillis,elapsedRealtimeNanos,MagXMicroT,MagYMicroT,MagZMicroT
# 
# Pressure,utcTimeMillis,elapsedRealtimeNanos,PressureHpa
# 
# OrientationDeg,utcTimeMillis,elapsedRealtimeNanos,yawDeg,rollDeg,pitchDeg
# 
# Fix,Provider,LatitudeDegrees,LongitudeDegrees,AltitudeMeters,SpeedMps,AccuracyMeters,BearingDegrees,UnixTimeMillis,SpeedAccuracyMps,BearingAccuracyDegrees,elapsedRealtimeNanos,VerticalAccuracyMeters,MockLocation,NumberOfUsedSignals,VerticalSpeedAccuracyMps,SolutionType
# 
# Nav,Svid,Type,Status,MessageId,Sub-messageId,Data(Bytes)
# 
# Status,UnixTimeMillis,SignalCount,SignalIndex,ConstellationType,Svid,CarrierFrequencyHz,Cn0DbHz,AzimuthDegrees,ElevationDegrees,UsedInFix,HasAlmanacData,HasEphemerisData,BasebandCn0DbHz
# 
# Agc,utcTimeMillis,TimeNanos,LeapSecond,TimeUncertaintyNanos,FullBiasNanos,BiasNanos,BiasUncertaintyNanos,DriftNanosPerSecond,DriftUncertaintyNanosPerSecond,HardwareClockDiscontinuityCount,AgcDb,CarrierFrequencyHz,ConstellationType
# 
Fix,FLP,37.4244043000,-122.1708106000,2.0,0.03541887,2.616,,1732148430208,2.6,,27314055000000,1.005809,0,,,
Status,,28,0,1,14,1575420030,28.10,9.0,69.0,1,0,0,23.1
Status,,28,1,1,22,1575420030,32.70,303.0,67.0,1,0,0,27.7
Status,,28,2,1,17,1575420030,31.90,169.0,62.0,1,0,0,26.9
Status,,28,3,1,30,1575420030,34.00,105.0,60.0,1,0,0,29.0
Status,,28,4,1,13,1575420030,32.10,280.0,56.0,1,0,0,27.099998
Status,,28,5,1,19,1575420030,0.00,194.0,33.0,0,0,0,0.0
Status,,28,6,1,7,1575420030,38.80,116.0,26.0,1,0,0,33.8
Status,,28,7,1,15,1575420030,0.00,304.0,26.0,0,0,0,0.0
Status,,28,8,2,131,1575420030,29.00,3.0,23.0,0,0,0,24.0
Status,,28,9,1,2,1575420030,34.40,72.0,20.0,1,0,0,29.400002
Status,,28,10,1,21,1575420030,0.00,54.0,14.0,0,0,0,0.0
Status,,28,11,3,9,1602000000,29.40,44.0,47.0,1,0,0,24.4
Status,,28,12,3,8,1602000000,23.10,279.0,39.0,1,0,0,18.1
Status,,28,13,3,19,1602000000,26.10,64.0,36.0,1,0,0,21.1
Status,,28,14,3,20,1602000000,0.00,141.0,26.0,0,0,0,0.0
Status,,28,15,3,18,1602000000,24.40,26.0,12.0,1,0,0,19.4
Status,,28,16,3,11,1602000000,0.00,285.0,10.0,0,0,0,0.0
Status,,28,17,3,16,1602000000,29.20,81.0,5.0,1,0,0,24.2
Status,,28,18,6,21,1575420030,23.40,292.0,63.0,1,0,0,18.4
Status,,28,19,6,19,1575420030,19.80,278.0,54.0,1,0,0,14.799999
Status,,28,20,6,27,1575420030,23.20,46.0,49.0,1,0,0,18.2
Status,,28,21,6,29,1575420030,23.80,197.0,48.0,1,0,0,18.8
Status,,28,22,6,15,1575420030,0.00,84.0,18.0,0,0,0,0.0
Status,,28,23,6,13,1575420030,0.00,135.0,11.0,0,0,0,0.0
Status,,28,24,6,4,1575420030,0.00,323.0,10.0,0,0,0,0.0
Status,,28,25,6,34,1575420030,0.00,36.0,6.0,0,0,0,0.0
Status,,28,26,6,7,1575420030,0.00,162.0,5.0,0,0,0,0.0
Status,,28,27,6,30,1575420030,0.00,66.0,2.0,0,0,0,0.0
Fix,GPS,37.4243983333,-122.1707983333,-1.3000000000000007,0.0,2.6,10.19,1732148431000,2.6,179.9,27315055000000,39.8,0,,,
Raw,1732148431000,15092000000,,698421.6102260984,-1416183633908000000,0.0,100.65773485380728,2109.0220297613027,0.0,0,7,0.0,16431,346848923588101,58,33.784000396728516,1103.0649635917835,0.14999,16,0.0,0.0,1575420030,,,,0,20.986810989071635,1,6.0,33.784000396728516,0.0,0.0,0.0,66.7128,C,27315055000000,
Raw,1732148431000,15092000000,,698421.6102260984,-1416183633908000000,0.0,100.65773485380728,2109.0220297613027,0.0,0,2,0.0,16431,346848920628237,235,29.391000747680664,603.3002587278028,0.14999,16,0.0,0.0,1575420030,,,,0,15.790645810347886,1,6.0,29.391000747680664,0.0,0.0,0.0,66.7128,C,27315055000000,
Raw,1732148431000,15092000000,,698421.6102260984,-1416183633908000000,0.0,100.65773485380728,2109.0220297613027,0.0,0,30,0.0,16431,346848930470984,396,29.02400016784668,872.9393314038218,0.14999,16,0.0,0.0,1575420030,,,,0,15.346317707498812,1,6.0,29.02400016784668,0.0,0.0,0.0,66.7128,C,27315055000000,
Raw,1732148431000,15092000000,,698421.6102260984,-1416183633908000000,0.0,100.65773485380728,2109.0220297613027,0.0,0,13,0.0,16431,346848930823791,235,27.072999954223633,571.7895127240917,0.14999,16,0.0,0.0,1575420030,,,,0,12.831532114323615,1,6.0,27.072999954223633,0.0,0.0,0.0,66.7128,C,27315055000000,
Raw,1732148431000,15092000000,,698421.6102260984,-1416183633908000000,0.0,100.65773485380728,2109.0220297613027,0.0,0,22,0.0,16431,346848930873923,396,27.68000030517578,595.06090507128,0.14999,16,0.0,0.0,1575420030,,,,0,13.627275283179747,1,6.0,27.68000030517578,0.0,0.0,0.0,66.7128,C,27315055000000,
Raw,1732148431000,15092000000,,698421.6102260984,-1416183633908000000,0.0,100.65773485380728,2109.0220297613027,0.0,0,17,0.0,16431,346848931449449,316,26.915000915527344,342.2962028099636,0.14999,16,0.0,0.0,1575420030,,,,0,12.637063775571656,1,6.0,26.915000915527344,0.0,0.0,0.0,66.7128,C,27315055000000,
Raw,1732148431000,15092000000,,698421.6102260984,-1416183633908000000,0.0,100.65773485380728,2109.0220297613027,0.0,0,14,0.0,16431,346848932137107,487,23.0939998626709,735.013864108473,0.14999,16,0.0,0.0,1575420030,,,,0,7.217913184496629,1,6.0,23.0939998626709,0.0,0.0,0.0,66.7128,C,27315055000000,
Raw,1732148431000,15092000000,,698421.6102260984,-1416183633908000000,0.0,100.65773485380728,2109.0220297613027,0.0,0,29,0.0,16431,346848918193516,487,18.799999237060547,1055.9764783405979,0.14999,16,0.0,0.0,1575420030,,,,0,2.2339460366743715,6,6.0,18.799999237060547,0.0,0.0,20.515229715615977,66.7128,C,27315055000000,
Raw,1732148431000,15092000000,,698421.6102260984,-1416183633908000000,0.0,100.65773485380728,2109.0220297613027,0.0,0,27,0.0,16431,346848917901798,487,18.200000762939453,918.6864692621767,0.14999,16,0.0,0.0,1575420030,,,,0,1.1973132712170056,6,6.0,18.200000762939453,0.0,0.0,20.515229715615977,66.7128,C,27315055000000,
Raw,1732148431000,15092000000,,698421.6102260984,-1416183633908000000,0.0,100.65773485380728,2109.0220297613027,0.0,0,19,0.0,16431,346848920456369,797,14.829999923706055,613.2936963467706,0.14999,16,0.0,0.0,1575420030,,,,0,0.0,6,6.0,14.829999923706055,0.0,0.0,20.515229715615977,66.7128,C,27315055000000,
Raw,1732148431000,15092000000,,698421.6102260984,-1416183633908000000,0.0,100.65773485380728,2109.0220297613027,0.0,0,21,0.0,16431,346848920274236,487,18.399999618530273,532.1828301946998,0.14999,16,0.0,0.0,1575420030,,,,0,1.5567806914550228,6,6.0,18.399999618530273,0.0,0.0,20.515229715615977,66.7128,C,27315055000000,
Raw,1732148431000,15092000000,,698421.6102260984,-1416183633908000000,0.0,100.65773485380728,2109.0220297613027,0.0,0,16,0.0,17,630291,316,5.0,1123.996489977208,0.14999,16,0.0,0.0,1601437440,,,,0,10.010780068014409,3,6.0,24.0,0.0,0.0,31.22442684097347,66.7128,C,27315055000000,
Raw,1732148431000,15092000000,,698421.6102260984,-1416183633908000000,0.0,100.65773485380728,2109.0220297613027,0.0,0,9,0.0,17,192314,396,5.0,840.974028709815,0.14999,16,0.0,0.0,1600875010,,,,0,10.340605748742627,3,6.0,23.0,0.0,0.0,31.22442684097347,66.7128,C,27315055000000,
Raw,1732148431000,15092000000,,698421.6102260984,-1416183633908000000,0.0,100.65773485380728,2109.0220297613027,0.0,0,8,0.0,17,98354,487,5.0,770.1314681805866,0.14999,16,0.0,0.0,1605374980,,,,0,1.1085067050061115,3,6.0,18.0,0.0,0.0,31.22442684097347,66.7128,C,27315055000000,
Raw,1732148431000,15092000000,,698421.6102260984,-1416183633908000000,0.0,100.65773485380728,2109.0220297613027,0.0,0,19,0.0,17,939718,396,21.0,660.2973814987556,0.14999,16,0.0,0.0,1603687550,,,,0,5.926000393059384,3,6.0,21.0,0.0,0.0,31.22442684097347,66.7128,C,27315055000000,
Raw,1732148431000,15092000000,,698421.6102260984,-1416183633908000000,0.0,100.65773485380728,2109.0220297613027,0.0,0,18,0.0,17,211786,487,5.0,1182.828808685502,0.14999,16,0.0,0.0,1600312450,,,,0,3.2452190063421944,3,6.0,20.0,0.0,0.0,31.22442684097347,66.7128,C,27315055000000,
Fix,FLP,37.4244014000,-122.1708048000,2.0,0.022885455,2.616,,1732148431207,2.6,,27315055000000,1.0148035,0,,,
Status,1732148431000,28,0,1,14,1575420030,30.70,9.0,69.0,1,0,0,25.7
Status,1732148431000,28,1,1,22,1575420030,27.20,303.0,67.0,1,0,0,22.2
Status,1732148431000,28,2,1,17,1575420030,31.00,169.0,62.0,1,0,0,26.0
Status,1732148431000,28,3,1,30,1575420030,30.70,105.0,60.0,1,0,0,25.7
Status,1732148431000,28,4,1,13,1575420030,31.90,280.0,56.0,1,0,0,26.9
Status,1732148431000,28,5,1,19,1575420030,0.00,194.0,33.0,0,0,0,0.0
Status,1732148431000,28,6,1,7,1575420030,41.20,116.0,26.0,1,0,0,36.2
Status,1732148431000,28,7,1,15,1575420030,27.10,304.0,26.0,1,0,0,22.1
Status,1732148431000,28,8,2,131,1575420030,32.00,3.0,23.0,0,0,0,27.0
Status,1732148431000,28,9,1,2,1575420030,30.90,72.0,20.0,1,0,0,25.9
Status,1732148431000,28,10,1,21,1575420030,0.00,54.0,14.0,0,0,0,0.0
Status,1732148431000,28,11,3,9,1602000000,26.00,44.0,47.0,1,0,0,21.0
Status,1732148431000,28,12,3,8,1602000000,29.50,279.0,39.0,1,0,0,24.5
Status,1732148431000,28,13,3,19,1602000000,0.00,64.0,36.0,0,0,0,0.0
Status,1732148431000,28,14,3,20,1602000000,0.00,141.0,26.0,0,0,0,0.0
Status,1732148431000,28,15,3,18,1602000000,25.20,26.0,12.0,1,0,0,20.2
Status,1732148431000,28,16,3,11,1602000000,0.00,285.0,10.0,0,0,0,0.0
Status,1732148431000,28,17,3,16,1602000000,29.00,81.0,5.0,1,0,0,24.0
Status,1732148431000,28,18,6,21,1575420030,20.20,292.0,63.0,1,0,0,15.200001
Status,1732148431000,28,19,6,19,1575420030,19.80,278.0,54.0,1,0,0,14.799999
Status,1732148431000,28,20,6,27,1575420030,21.90,46.0,49.0,1,0,0,16.9
Status,1732148431000,28,21,6,29,1575420030,0.00,197.0,48.0,0,0,0,0.0
Status,1732148431000,28,22,6,15,1575420030,0.00,84.0,18.0,0,0,0,0.0
Status,1732148431000,28,23,6,13,1575420030,0.00,135.0,11.0,0,0,0,0.0
Status,1732148431000,28,24,6,4,1575420030,0.00,323.0,10.0,0,0,0,0.0
Status,1732148431000,28,25,6,34,1575420030,0.00,36.0,6.0,0,0,0,0.0
Status,1732148431000,28,26,6,7,1575420030,0.00,162.0,5.0,0,0,0,0.0
Status,1732148431000,28,27,6,30,1575420030,0.00,66.0,2.0,0,0,0,0.0
Fix,GPS,37.4243983333,-122.1707966667,-1.3000000000000007,0.0,2.7,10.19,1732148432000,2.9,179.9,27316055000000,38.2,0,,,
Raw,1732148432000,16092000000,,698344.004454575,-1416183633908000000,0.0,98.51184367542815,2111.4229877144776,0.0,0,7,0.0,16431,346849923584420,51,36.24300003051758,1103.1799946303208,0.14999,16,0.0,0.0,1575420030,,,,0,23.735756635583776,1,6.0,36.24300003051758,0.0,0.0,0.0,66.7128,C,27316055000000,
Raw,1732148432000,16092000000,,698344.004454575,-1416183633908000000,0.0,98.51184367542815,2111.4229877144776,0.0,0,2,0.0,16431,346849920626223,316,25.94499969482422,603.8470742866008,0.14999,16,0.0,0.0,1575420030,,,,0,11.330843236844576,1,6.0,25.94499969482422,0.0,0.0,0.0,66.7128,C,27316055000000,
Raw,1732148432000,16092000000,,698344.004454575,-1416183633908000000,0.0,98.51184367542815,2111.4229877144776,0.0,0,30,0.0,16431,346849930468074,316,25.73699951171875,872.7748686104364,0.14999,16,0.0,0.0,1575420030,,,,0,11.059991770537714,1,6.0,25.73699951171875,0.0,0.0,0.0,66.7128,C,27316055000000,
Raw,1732148432000,16092000000,,698344.004454575,-1416183633908000000,0.0,98.51184367542815,2111.4229877144776,0.0,0,13,0.0,16431,346849930821882,487,26.937999725341797,572.1700536112722,0.14999,16,0.0,0.0,1575420030,,,,0,12.669779029456837,1,6.0,26.937999725341797,0.0,0.0,0.0,66.7128,C,27316055000000,
Raw,1732148432000,16092000000,,698344.004454575,-1416183633908000000,0.0,98.51184367542815,2111.4229877144776,0.0,0,22,0.0,16431,346849930871933,396,22.23200035095215,595.726654175577,0.14999,16,0.0,0.0,1575420030,,,,0,5.899342910330464,1,6.0,22.23200035095215,0.0,0.0,0.0,66.7128,C,27316055000000,
Raw,1732148432000,16092000000,,698344.004454575,-1416183633908000000,0.0,98.51184367542815,2111.4229877144776,0.0,0,17,0.0,16431,346849931448302,396,25.969999313354492,343.0640907422994,0.14999,16,0.0,0.0,1575420030,,,,0,11.36885594363326,1,6.0,25.969999313354492,0.0,0.0,0.0,66.7128,C,27316055000000,
Raw,1732148432000,16092000000,,698344.004454575,-1416183633908000000,0.0,98.51184367542815,2111.4229877144776,0.0,0,14,0.0,16431,346849932134649,396,25.656999588012695,734.8870326322182,0.14999,16,0.0,0.0,1575420030,,,,0,10.941276168927596,1,6.0,25.656999588012695,0.0,0.0,0.0,66.7128,C,27316055000000,
Raw,1732148432000,16092000000,,698344.004454575,-1416183633908000000,0.0,98.51184367542815,2111.4229877144776,0.0,0,15,0.0,16431,346849924410716,396,22.148000717163086,364.68495493677597,0.14999,16,0.0,0.0,1575420030,,,,0,5.755771217787995,1,6.0,22.148000717163086,0.0,0.0,0.0,66.7128,C,27316055000000,
Raw,1732148432000,16092000000,,698344.004454575,-1416183633908000000,0.0,98.51184367542815,2111.4229877144776,0.0,0,27,0.0,16431,346849917898730,487,16.899999618530273,919.0011785735869,0.14999,16,0.0,0.0,1575420030,,,,0,0.0,6,6.0,16.899999618530273,0.0,0.0,17.35912367243758,66.7128,C,27316055000000,
Raw,1732148432000,16092000000,,698344.004454575,-1416183633908000000,0.0,98.51184367542815,2111.4229877144776,0.0,0,19,0.0,16431,346849920454323,487,14.762999534606934,613.139315029703,0.14999,16,0.0,0.0,1575420030,,,,0,0.0,6,6.0,14.762999534606934,0.0,0.0,17.35912367243758,66.7128,C,27316055000000,
Raw,1732148432000,16092000000,,698344.004454575,-1416183633908000000,0.0,98.51184367542815,2111.4229877144776,0.0,0,21,0.0,16431,346849920272457,487,15.199999809265137,532.4492692116672,0.14999,16,0.0,0.0,1575420030,,,,0,0.0,6,6.0,15.199999809265137,0.0,0.0,17.35912367243758,66.7128,C,27316055000000,
Raw,1732148432000,16092000000,,698344.004454575,-1416183633908000000,0.0,98.51184367542815,2111.4229877144776,0.0,0,16,0.0,17,626536,396,5.0,1125.4989513376513,0.14999,16,0.0,0.0,1601437440,,,,0,9.769489839986797,3,6.0,23.0,0.0,0.0,31.209165696195015,66.7128,C,27316055000000,
Raw,1732148432000,16092000000,,698344.004454575,-1416183633908000000,0.0,98.51184367542815,2111.4229877144776,0.0,0,9,0.0,17,189504,396,5.0,841.5157156660425,0.14999,16,0.0,0.0,1600875010,,,,0,5.654898858796762,3,6.0,22.0,0.0,0.0,31.209165696195015,66.7128,C,27316055000000,
Raw,1732148432000,16092000000,,698344.004454575,-1416183633908000000,0.0,98.51184367542815,2111.4229877144776,0.0,0,8,0.0,17,95772,396,5.0,770.4093030235963,0.14999,16,0.0,0.0,1605374980,,,,0,10.460025441274752,3,6.0,21.0,0.0,0.0,31.209165696195015,66.7128,C,27316055000000,
Raw,1732148432000,16092000000,,698344.004454575,-1416183633908000000,0.0,98.51184367542815,2111.4229877144776,0.0,0,18,0.0,17,207841,487,5.0,1183.300618847813,0.14999,16,0.0,0.0,1600312450,,,,0,4.453537455775303,3,6.0,19.0,0.0,0.0,31.209165696195015,66.7128,C,27316055000000,
Fix,FLP,37.4243999000,-122.1708010000,2.0,0.017417533,2.633,,1732148432207,2.9,,27316055000000,1.024803,0,,,
Status,1732148432000,28,0,1,14,1575420030,31.00,9.0,69.0,1,0,0,26.0
Status,1732148432000,28,1,1,22,1575420030,30.50,303.0,67.0,1,0,0,25.5
Status,1732148432000,28,2,1,17,1575420030,29.40,169.0,62.0,1,0,0,24.4
Status,1732148432000,28,3,1,30,1575420030,33.90,105.0,60.0,1,0,0,28.900002
Status,1732148432000,28,4,1,13,1575420030,30.50,280.0,56.0,1,0,0,25.5
Status,1732148432000,28,5,1,19,1575420030,0.00,194.0,33.0,0,0,0,0.0
Status,1732148432000,28,6,1,7,1575420030,34.40,116.0,26.0,1,0,0,29.400002
Status,1732148432000,28,7,1,15,1575420030,25.40,304.0,26.0,1,0,0,20.4
Status,1732148432000,28,8,2,131,1575420030,30.00,3.0,23.0,0,0,0,25.0
Status,1732148432000,28,9,1,2,1575420030,30.20,72.0,20.0,1,0,0,25.2
Status,1732148432000,28,10,1,21,1575420030,0.00,54.0,14.0,0,0,0,0.0
Status,1732148432000,28,11,3,9,1602000000,26.80,44.0,47.0,1,0,0,21.8
Status,1732148432000,28,12,3,8,1602000000,24.50,279.0,39.0,1,0,0,19.5
Status,1732148432000,28,13,3,19,1602000000,0.00,64.0,36.0,0,0,0,0.0
Status,1732148432000,28,14,3,20,1602000000,0.00,141.0,26.0,0,0,0,0.0
Status,1732148432000,28,15,3,18,1602000000,25.20,26.0,12.0,1,0,0,20.2
Status,1732148432000,28,16,3,11,1602000000,0.00,285.0,10.0,0,0,0,0.0
Status,1732148432000,28,17,3,16,1602000000,32.60,81.0,5.0,1,0,0,27.599998
Status,1732148432000,28,18,6,21,1575420030,22.60,292.0,63.0,1,0,0,17.6
Status,1732148432000,28,19,6,19,1575420030,19.80,278.0,54.0,1,0,0,14.799999
Status,1732148432000,28,20,6,27,1575420030,23.20,46.0,49.0,1,0,0,18.2
Status,1732148432000,28,21,6,29,1575420030,0.00,197.0,48.0,0,0,0,0.0
Status,1732148432000,28,22,6,15,1575420030,0.00,84.0,18.0,0,0,0,0.0
Status,1732148432000,28,23,6,13,1575420030,0.00,135.0,11.0,0,0,0,0.0
Status,1732148432000,28,24,6,4,1575420030,0.00,323.0,10.0,0,0,0,0.0
Status,1732148432000,28,25,6,34,1575420030,0.00,36.0,6.0,0,0,0,0.0
Status,1732148432000,28,26,6,7,1575420030,0.00,162.0,5.0,0,0,0,0.0
Status,1732148432000,28,27,6,30,1575420030,0.00,66.0,2.0,0,0,0,0.0
Fix,GPS,37.4243966667,-122.1707983333,-1.3000000000000007,0.0,2.8,10.19,1732148433000,2.8,162.0,27317055000000,38.0,0,,,
Raw,1732148433000,17092000000,,698284.3798725584,-1416183633908000000,0.0,98.23747885988163,2109.3289156875853,0.0,0,7,0.0,16431,346850923580740,235,29.391000747680664,1103.157508756875,0.14999,16,0.0,0.0,1575420030,,,,0,15.790645810347886,1,6.0,29.391000747680664,0.0,0.0,0.0,66.7128,C,27317055000000,
Raw,1732148433000,17092000000,,698284.3798725584,-1416183633908000000,0.0,98.23747885988163,2109.3289156875853,0.0,0,2,0.0,16431,346850920624204,316,25.246999740600586,604.4072698692675,0.14999,16,0.0,0.0,1575420030,,,,0,10.364749645353474,1,6.0,25.246999740600586,0.0,0.0,0.0,66.7128,C,27317055000000,
Raw,1732148433000,17092000000,,698284.3798725584,-1416183633908000000,0.0,98.23747885988163,2109.3289156875853,0.0,0,30,0.0,16431,346850930465163,235,28.881999969482422,873.180357667122,0.14999,16,0.0,0.0,1575420030,,,,0,15.152211537351256,1,6.0,28.881999969482422,0.0,0.0,0.0,66.7128,C,27317055000000,
Raw,1732148433000,17092000000,,698284.3798725584,-1416183633908000000,0.0,98.23747885988163,2109.3289156875853,0.0,0,13,0.0,16431,346850930819966,316,25.493999481201172,572.0208291784039,0.14999,16,0.0,0.0,1575420030,,,,0,10.698863515410528,1,6.0,25.493999481201172,0.0,0.0,0.0,66.7128,C,27317055000000,
Raw,1732148433000,17092000000,,698284.3798725584,-1416183633908000000,0.0,98.23747885988163,2109.3289156875853,0.0,0,22,0.0,16431,346850930869939,316,25.466999053955078,594.7302140646934,0.14999,16,0.0,0.0,1575420030,,,,0,10.657795402789354,1,6.0,25.466999053955078,0.0,0.0,0.0,66.7128,C,27317055000000,
Raw,1732148433000,17092000000,,698284.3798725584,-1416183633908000000,0.0,98.23747885988163,2109.3289156875853,0.0,0,17,0.0,16431,346850931447157,316,24.448999404907227,342.7079405236294,0.14999,16,0.0,0.0,1575420030,,,,0,9.229206916433363,1,6.0,24.448999404907227,0.0,0.0,0.0,66.7128,C,27317055000000,
Raw,1732148433000,17092000000,,698284.3798725584,-1416183633908000000,0.0,98.23747885988163,2109.3289156875853,0.0,0,14,0.0,16431,346850932132195,487,25.969999313354492,735.2443443112934,0.14999,16,0.0,0.0,1575420030,,,,0,11.36885594363326,1,6.0,25.969999313354492,0.0,0.0,0.0,66.7128,C,27317055000000,
Raw,1732148433000,17092000000,,698284.3798725584,-1416183633908000000,0.0,98.23747885988163,2109.3289156875853,0.0,0,15,0.0,16431,346850924409501,487,20.381000518798828,363.99811371151935,0.14999,16,0.0,0.0,1575420030,,,,0,2.8621153217068542,1,6.0,20.381000518798828,0.0,0.0,0.0,66.7128,C,27317055000000,
Raw,1732148433000,17092000000,,698284.3798725584,-1416183633908000000,0.0,98.23747885988163,2109.3289156875853,0.0,0,27,0.0,16431,346850917895665,396,18.200000762939453,918.985103961578,0.14999,16,0.0,0.0,1575420030,,,,0,1.318796225460868,6,6.0,18.200000762939453,0.0,0.0,18.639644917033014,66.7128,C,27317055000000,
Raw,1732148433000,17092000000,,698284.3798725584,-1416183633908000000,0.0,98.23747885988163,2109.3289156875853,0.0,0,19,0.0,16431,346850920452255,487,14.779000282287598,612.3641098968139,0.14999,16,0.0,0.0,1575420030,,,,0,0.0,6,6.0,14.779000282287598,0.0,0.0,18.639644917033014,66.7128,C,27317055000000,
Raw,1732148433000,17092000000,,698284.3798725584,-1416183633908000000,0.0,98.23747885988163,2109.3289156875853,0.0,0,21,0.0,16431,346850920270682,487,17.600000381469727,531.1449956349726,0.14999,16,0.0,0.0,1575420030,,,,0,0.15895728590713354,6,6.0,17.600000381469727,0.0,0.0,18.639644917033014,66.7128,C,27317055000000,
Raw,1732148433000,17092000000,,698284.3798725584,-1416183633908000000,0.0,98.23747885988163,2109.3289156875853,0.0,0,16,0.0,17,622788,235,5.0,1125.4451124533475,0.14999,16,0.0,0.0,1601437440,,,,0,14.255262093455904,3,6.0,27.0,0.0,0.0,31.07570499537092,66.7128,C,27317055000000,
Raw,1732148433000,17092000000,,698284.3798725584,-1416183633908000000,0.0,98.23747885988163,2109.3289156875853,0.0,0,9,0.0,17,186697,487,5.0,841.0896995402721,0.14999,16,0.0,0.0,1600875010,,,,0,6.917245148337253,3,6.0,20.0,0.0,0.0,31.07570499537092,66.7128,C,27317055000000,
Raw,1732148433000,17092000000,,698284.3798725584,-1416183633908000000,0.0,98.23747885988163,2109.3289156875853,0.0,0,8,0.0,17,93203,396,5.0,770.8336690752428,0.14999,16,0.0,0.0,1605374980,,,,0,3.416375079047504,3,6.0,21.0,0.0,0.0,31.07570499537092,66.7128,C,27317055000000,
Raw,1732148433000,17092000000,,698284.3798725584,-1416183633908000000,0.0,98.23747885988163,2109.3289156875853,0.0,0,18,0.0,17,203898,487,5.0,1180.7206642863596,0.14999,16,0.0,0.0,1600312450,,,,0,4.453537455775303,3,6.0,20.0,0.0,0.0,31.07570499537092,66.7128,C,27317055000000,
Fix,FLP,37.4243983000,-122.1707998000,2.0,0.016010562,2.666,,1732148433207,2.8,,27317055000000,1.0358139,0,,,
Status,1732148433000,28,0,1,14,1575420030,25.00,9.0,69.0,1,0,0,20.0
Status,1732148433000,28,1,1,22,1575420030,34.20,303.0,67.0,1,0,0,29.2
Status,1732148433000,28,2,1,17,1575420030,28.60,169.0,62.0,1,0,0,23.6
Status,1732148433000,28,3,1,30,1575420030,28.00,105.0,60.0,1,0,0,23.0
Status,1732148433000,28,4,1,13,1575420030,30.80,280.0,56.0,1,0,0,25.8
Status,1732148433000,28,5,1,19,1575420030,0.00,194.0,33.0,0,0,0,0.0
Status,1732148433000,28,6,1,7,1575420030,33.90,116.0,26.0,1,0,0,28.900002
Status,1732148433000,28,7,1,15,1575420030,0.00,304.0,26.0,0,0,0,0.0
Status,1732148433000,28,8,2,131,1575420030,30.00,3.0,23.0,0,0,0,25.0
Status,1732148433000,28,9,1,2,1575420030,33.00,72.0,20.0,1,0,0,28.0
Status,1732148433000,28,10,1,21,1575420030,0.00,54.0,14.0,0,0,0,0.0
Status,1732148433000,28,11,3,9,1602000000,26.70,44.0,47.0,1,0,0,21.7
Status,1732148433000,28,12,3,8,1602000000,29.20,279.0,39.0,1,0,0,24.2
Status,1732148433000,28,13,3,19,1602000000,0.00,64.0,36.0,0,0,0,0.0
Status,1732148433000,28,14,3,20,1602000000,0.00,141.0,26.0,0,0,0,0.0
Status,1732148433000,28,15,3,18,1602000000,25.10,26.0,12.0,1,0,0,20.1
Status,1732148433000,28,16,3,11,1602000000,0.00,285.0,10.0,0,0,0,0.0
Status,1732148433000,28,17,3,16,1602000000,28.30,81.0,5.0,1,0,0,23.3
Status,1732148433000,28,18,6,21,1575420030,21.00,292.0,63.0,1,0,0,16.0
Status,1732148433000,28,19,6,19,1575420030,19.80,278.0,54.0,1,0,0,14.799999
Status,1732148433000,28,20,6,27,1575420030,25.90,46.0,49.0,1,0,0,20.9
Status,1732148433000,28,21,6,29,1575420030,21.10,197.0,48.0,1,0,0,16.1
Status,1732148433000,28,22,6,15,1575420030,0.00,84.0,18.0,0,0,0,0.0
Status,1732148433000,28,23,6,13,1575420030,0.00,135.0,11.0,0,0,0,0.0
Status,1732148433000,28,24,6,4,1575420030,0.00,323.0,10.0,0,0,0,0.0
Status,1732148433000,28,25,6,34,1575420030,0.00,36.0,6.0,0,0,0,0.0
Status,1732148433000,28,26,6,7,1575420030,0.00,162.0,5.0,0,0,0,0.0
Status,1732148433000,28,27,6,30,1575420030,0.00,66.0,2.0,0,0,0,0.0
Fix,GPS,37.4243950000,-122.1707966667,-1.3000000000000007,0.0,2.8,10.19,1732148434000,2.8,179.9,27318055000000,38.6,0,,,
Raw,1732148434000,18092000000,,698208.7546378502,-1416183633908000000,0.0,101.24659107083046,2108.6608297121547,0.0,0,7,0.0,16431,346851923577060,316,28.917999267578125,1103.330334065178,0.14999,16,0.0,0.0,1575420030,,,,0,15.201146256293004,1,6.0,28.917999267578125,0.0,0.0,0.0,66.7128,C,27318055000000,
Raw,1732148434000,18092000000,,698208.7546378502,-1416183633908000000,0.0,101.24659107083046,2108.6608297121547,0.0,0,2,0.0,16431,346851920622187,235,27.965999603271484,603.5674875378458,0.14999,16,0.0,0.0,1575420030,,,,0,13.999380173520953,1,6.0,27.965999603271484,0.0,0.0,0.0,66.7128,C,27318055000000,
Raw,1732148434000,18092000000,,698208.7546378502,-1416183633908000000,0.0,101.24659107083046,2108.6608297121547,0.0,0,30,0.0,16431,346851930462249,487,23.01799964904785,872.729525196215,0.14999,16,0.0,0.0,1575420030,,,,0,7.09470701040026,1,6.0,23.01799964904785,0.0,0.0,0.0,66.7128,C,27318055000000,
Raw,1732148434000,18092000000,,698208.7546378502,-1416183633908000000,0.0,101.24659107083046,2108.6608297121547,0.0,0,13,0.0,16431,346851930818060,396,25.841999053955078,570.4524395055524,0.14999,16,0.0,0.0,1575420030,,,,0,11.177106663518755,1,6.0,25.841999053955078,0.0,0.0,0.0,66.7128,C,27318055000000,
Raw,1732148434000,18092000000,,698208.7546378502,-1416183633908000000,0.0,101.24659107083046,2108.6608297121547,0.0,0,22,0.0,16431,346851930867956,235,29.20199966430664,594.0535472325869,0.14999,16,0.0,0.0,1575420030,,,,0,15.559624489136416,1,6.0,29.20199966430664,0.0,0.0,0.0,66.7128,C,27318055000000,
Raw,1732148434000,18092000000,,698208.7546378502,-1416183633908000000,0.0,101.24659107083046,2108.6608297121547,0.0,0,17,0.0,16431,346851931446014,396,23.56100082397461,342.722853675233,0.14999,16,0.0,0.0,1575420030,,,,0,7.92256071356476,1,6.0,23.56100082397461,0.0,0.0,0.0,66.7128,C,27318055000000,
Raw,1732148434000,18092000000,,698208.7546378502,-1416183633908000000,0.0,101.24659107083046,2108.6608297121547,0.0,0,14,0.0,16431,346851932129740,487,19.985000610351562,734.8809001212784,0.14999,16,0.0,0.0,1575420030,,,,0,2.2339460366743715,1,6.0,19.985000610351562,0.0,0.0,0.0,66.7128,C,27318055000000,
Raw,1732148434000,18092000000,,698208.7546378502,-1416183633908000000,0.0,101.24659107083046,2108.6608297121547,0.0,0,29,0.0,16431,346851918182918,487,16.100000381469727,1056.5881498484257,0.14999,16,0.0,0.0,1575420030,,,,0,0.0,6,6.0,16.100000381469727,0.0,0.0,20.579637528032766,66.7128,C,27318055000000,
Raw,1732148434000,18092000000,,698208.7546378502,-1416183633908000000,0.0,101.24659107083046,2108.6608297121547,0.0,0,27,0.0,16431,346851917892597,487,20.899999618530273,917.6042669149684,0.14999,16,0.0,0.0,1575420030,,,,0,5.535863531758733,6,6.0,20.899999618530273,0.0,0.0,20.579637528032766,66.7128,C,27318055000000,
Raw,1732148434000,18092000000,,698208.7546378502,-1416183633908000000,0.0,101.24659107083046,2108.6608297121547,0.0,0,19,0.0,16431,346851920450210,487,14.795000076293945,613.466335821409,0.14999,16,0.0,0.0,1575420030,,,,0,0.0,6,6.0,14.795000076293945,0.0,0.0,20.579637528032766,66.7128,C,27318055000000,
Raw,1732148434000,18092000000,,698208.7546378502,-1416183633908000000,0.0,101.24659107083046,2108.6608297121547,0.0,0,21,0.0,16431,346851920268910,396,16.0,530.3569679792095,0.14999,16,0.0,0.0,1575420030,,,,0,0.0,6,6.0,16.0,0.0,0.0,20.579637528032766,66.7128,C,27318055000000,
Raw,1732148434000,18092000000,,698208.7546378502,-1416183633908000000,0.0,101.24659107083046,2108.6608297121547,0.0,0,16,0.0,17,619031,396,5.0,1126.655527573807,0.14999,16,0.0,0.0,1601437440,,,,0,8.867922345283034,3,6.0,22.0,0.0,0.0,31.42331263248986,66.7128,C,27318055000000,
Raw,1732148434000,18092000000,,698208.7546378502,-1416183633908000000,0.0,101.24659107083046,2108.6608297121547,0.0,0,9,0.0,17,183891,396,5.0,841.1773899168795,0.14999,16,0.0,0.0,1600875010,,,,0,6.771158772865812,3,6.0,21.0,0.0,0.0,31.42331263248986,66.7128,C,27318055000000,
Raw,1732148434000,18092000000,,698208.7546378502,-1416183633908000000,0.0,101.24659107083046,2108.6608297121547,0.0,0,8,0.0,17,90596,396,5.0,770.1999466732351,0.14999,16,0.0,0.0,1605374980,,,,0,10.065144277359611,3,6.0,23.0,0.0,0.0,31.42331263248986,66.7128,C,27318055000000,
Raw,1732148434000,18092000000,,698208.7546378502,-1416183633908000000,0.0,101.24659107083046,2108.6608297121547,0.0,0,18,0.0,17,199954,487,5.0,1182.8423464722455,0.14999,16,0.0,0.0,1600312450,,,,0,2.3206389369979967,3,6.0,18.0,0.0,0.0,31.42331263248986,66.7128,C,27318055000000,
Fix,FLP,37.4243966000,-122.1707983000,2.0,0.016550886,2.7,,1732148434207,2.8,,27318055000000,1.0458122,0,,,
Status,1732148434000,28,0,1,14,1575420030,24.20,9.0,69.0,1,0,0,19.2
Status,1732148434000,28,1,1,22,1575420030,30.40,303.0,67.0,1,0,0,25.4
Status,1732148434000,28,2,1,17,1575420030,27.20,169.0,62.0,1,0,0,22.2
Status,1732148434000,28,3,1,30,1575420030,28.20,105.0,60.0,1,0,0,23.2
Status,1732148434000,28,4,1,13,1575420030,28.30,280.0,56.0,1,0,0,23.3
Status,1732148434000,28,5,1,19,1575420030,0.00,194.0,33.0,0,0,0,0.0
Status,1732148434000,28,6,1,7,1575420030,28.30,116.0,26.0,1,0,0,23.3
Status,1732148434000,28,7,1,15,1575420030,0.00,304.0,26.0,0,0,0,0.0
Status,1732148434000,28,8,2,131,1575420030,29.00,3.0,23.0,0,0,0,24.0
Status,1732148434000,28,9,1,2,1575420030,32.40,72.0,20.0,1,0,0,27.400002
Status,1732148434000,28,10,1,21,1575420030,0.00,54.0,14.0,0,0,0,0.0
Status,1732148434000,28,11,3,9,1602000000,26.60,44.0,47.0,1,0,0,21.6
Status,1732148434000,28,12,3,8,1602000000,24.80,279.0,39.0,1,0,0,19.8
Status,1732148434000,28,13,3,19,1602000000,0.00,64.0,36.0,0,0,0,0.0
Status,1732148434000,28,14,3,20,1602000000,0.00,141.0,26.0,0,0,0,0.0
Status,1732148434000,28,15,3,18,1602000000,25.00,26.0,12.0,1,0,0,20.0
Status,1732148434000,28,16,3,11,1602000000,0.00,285.0,10.0,0,0,0,0.0
Status,1732148434000,28,17,3,16,1602000000,29.80,81.0,5.0,1,0,0,24.8
Status,1732148434000,28,18,6,21,1575420030,30.50,292.0,63.0,1,0,0,25.5
Status,1732148434000,28,19,6,19,1575420030,19.90,278.0,54.0,1,0,0,14.9
Status,1732148434000,28,20,6,27,1575420030,30.00,46.0,49.0,1,0,0,25.0
Status,1732148434000,28,21,6,29,1575420030,21.10,197.0,48.0,1,0,0,16.1
Status,1732148434000,28,22,6,15,1575420030,0.00,84.0,18.0,0,0,0,0.0
Status,1732148434000,28,23,6,13,1575420030,0.00,135.0,11.0,0,0,0,0.0
Status,1732148434000,28,24,6,4,1575420030,0.00,323.0,10.0,0,0,0,0.0
Status,1732148434000,28,25,6,34,1575420030,0.00,36.0,6.0,0,0,0,0.0
Status,1732148434000,28,26,6,7,1575420030,0.00,162.0,5.0,0,0,0,0.0
Status,1732148434000,28,27,6,30,1575420030,0.00,66.0,2.0,0,0,0,0.0
Fix,GPS,37.4243866667,-122.1708016667,-1.1999999999999993,0.0,2.8,10.19,1732148435000,2.5,179.9,27319055000000,38.1,0,,,
Raw,1732148435000,19092000000,,698101.5450528779,-1416183633908000000,0.0,101.48140826339588,2104.1367423241963,0.0,0,7,0.0,16431,346852923573378,396,23.315000534057617,1102.2974705559855,0.14999,16,0.0,0.0,1575420030,,,,0,7.577380604734647,1,6.0,23.315000534057617,0.0,0.0,0.0,66.7128,C,27319055000000,
Raw,1732148435000,19092000000,,698101.5450528779,-1416183633908000000,0.0,101.48140826339588,2104.1367423241963,0.0,0,2,0.0,16431,346852920620179,235,27.382999420166016,601.867527630286,0.14999,16,0.0,0.0,1575420030,,,,0,13.238513097776254,1,6.0,27.382999420166016,0.0,0.0,0.0,66.7128,C,27319055000000,
Raw,1732148435000,19092000000,,698101.5450528779,-1416183633908000000,0.0,101.48140826339588,2104.1367423241963,0.0,0,30,0.0,16431,346852930459337,396,23.20599937438965,871.7024225306324,0.14999,16,0.0,0.0,1575420030,,,,0,7.399506341534996,1,6.0,23.20599937438965,0.0,0.0,0.0,66.7128,C,27319055000000,
Raw,1732148435000,19092000000,,698101.5450528779,-1416183633908000000,0.0,101.48140826339588,2104.1367423241963,0.0,0,13,0.0,16431,346852930816162,316,23.315000534057617,569.9863222157121,0.14999,16,0.0,0.0,1575420030,,,,0,7.577380604734647,1,6.0,23.315000534057617,0.0,0.0,0.0,66.7128,C,27319055000000,
Raw,1732148435000,19092000000,,698101.5450528779,-1416183633908000000,0.0,101.48140826339588,2104.1367423241963,0.0,0,22,0.0,16431,346852930865981,316,25.413000106811523,593.2460070420153,0.14999,16,0.0,0.0,1575420030,,,,0,10.616532191513883,1,6.0,25.413000106811523,0.0,0.0,0.0,66.7128,C,27319055000000,
Raw,1732148435000,19092000000,,698101.5450528779,-1416183633908000000,0.0,101.48140826339588,2104.1367423241963,0.0,0,17,0.0,16431,346852931444874,396,22.23200035095215,341.70555373547086,0.14999,16,0.0,0.0,1575420030,,,,0,5.899342910330464,1,6.0,22.23200035095215,0.0,0.0,0.0,66.7128,C,27319055000000,
Raw,1732148435000,19092000000,,698101.5450528779,-1416183633908000000,0.0,101.48140826339588,2104.1367423241963,0.0,0,14,0.0,16431,346852932127289,487,19.18400001525879,733.2861220680193,0.14999,16,0.0,0.0,1575420030,,,,0,0.8223245509602259,1,6.0,19.18400001525879,0.0,0.0,0.0,66.7128,C,27319055000000,
Raw,1732148435000,19092000000,,698101.5450528779,-1416183633908000000,0.0,101.48140826339588,2104.1367423241963,0.0,0,29,0.0,16431,346852918179394,487,16.100000381469727,1056.4788796534986,0.14999,16,0.0,0.0,1575420030,,,,0,0.0,6,6.0,16.100000381469727,0.0,0.0,19.956793862500763,66.7128,C,27319055000000,
Raw,1732148435000,19092000000,,698101.5450528779,-1416183633908000000,0.0,101.48140826339588,2104.1367423241963,0.0,0,27,0.0,16431,346852917889539,316,25.0,916.6226934972722,0.14999,16,0.0,0.0,1575420030,,,,0,11.099205785848271,6,6.0,25.0,0.0,0.0,19.956793862500763,66.7128,C,27319055000000,
Raw,1732148435000,19092000000,,698101.5450528779,-1416183633908000000,0.0,101.48140826339588,2104.1367423241963,0.0,0,19,0.0,16431,346852920448161,487,14.869999885559082,612.9229581854105,0.14999,16,0.0,0.0,1575420030,,,,0,0.0,6,6.0,14.869999885559082,0.0,0.0,19.956793862500763,66.7128,C,27319055000000,
Raw,1732148435000,19092000000,,698101.5450528779,-1416183633908000000,0.0,101.48140826339588,2104.1367423241963,0.0,0,21,0.0,16431,346852920267143,235,25.5,529.2819202280975,0.14999,16,0.0,0.0,1575420030,,,,0,11.667113217037578,6,6.0,25.5,0.0,0.0,19.956793862500763,66.7128,C,27319055000000,
Raw,1732148435000,19092000000,,698101.5450528779,-1416183633908000000,0.0,101.48140826339588,2104.1367423241963,0.0,0,16,0.0,17,615270,316,5.0,1123.7723593417022,0.14999,16,0.0,0.0,1601437440,,,,0,10.88879329240462,3,6.0,26.0,0.0,0.0,32.88385443110452,66.7128,C,27319055000000,
Raw,1732148435000,19092000000,,698101.5450528779,-1416183633908000000,0.0,101.48140826339588,2104.1367423241963,0.0,0,9,0.0,17,181087,487,5.0,839.6214572282961,0.14999,16,0.0,0.0,1600875010,,,,0,3.0359103327788963,3,6.0,20.0,0.0,0.0,32.88385443110452,66.7128,C,27319055000000,
Raw,1732148435000,19092000000,,698101.5450528779,-1416183633908000000,0.0,101.48140826339588,2104.1367423241963,0.0,0,8,0.0,17,88034,487,5.0,766.7952616705641,0.14999,16,0.0,0.0,1605374980,,,,0,3.976949551052374,3,6.0,20.0,0.0,0.0,32.88385443110452,66.7128,C,27319055000000,
Raw,1732148435000,19092000000,,698101.5450528779,-1416183633908000000,0.0,101.48140826339588,2104.1367423241963,0.0,0,18,0.0,17,196004,487,5.0,1184.6146988772348,0.14999,16,0.0,0.0,1600312450,,,,0,1.716159284880531,3,6.0,20.0,0.0,0.0,32.88385443110452,66.7128,C,27319055000000,
Fix,FLP,37.4243917000,-122.1708000000,2.0,0.025517564,2.733,,1732148435207,2.5,,27319055000000,1.0560547,0,,,
Status,1732148435000,28,0,1,14,1575420030,35.20,9.0,69.0,1,0,0,30.2
Status,1732148435000,28,1,1,22,1575420030,34.40,303.0,67.0,1,0,0,29.400002
Status,1732148435000,28,2,1,17,1575420030,30.40,169.0,62.0,1,0,0,25.4
Status,1732148435000,28,3,1,30,1575420030,31.40,105.0,60.0,1,0,0,26.4
Status,1732148435000,28,4,1,13,1575420030,35.60,280.0,56.0,1,0,0,30.599998
Status,1732148435000,28,5,1,19,1575420030,0.00,194.0,33.0,0,0,0,0.0
Status,1732148435000,28,6,1,7,1575420030,31.80,116.0,26.0,1,0,0,26.8
Status,1732148435000,28,7,1,15,1575420030,19.00,304.0,26.0,1,0,0,14.0
Status,1732148435000,28,8,2,131,1575420030,31.00,3.0,23.0,0,0,0,26.0
Status,1732148435000,28,9,1,2,1575420030,32.00,72.0,20.0,1,0,0,27.0
Status,1732148435000,28,10,1,21,1575420030,0.00,54.0,14.0,0,0,0,0.0
Status,1732148435000,28,11,3,9,1602000000,30.00,44.0,47.0,1,0,0,25.0
Status,1732148435000,28,12,3,8,1602000000,24.50,279.0,39.0,1,0,0,19.5
Status,1732148435000,28,13,3,19,1602000000,0.00,64.0,36.0,0,0,0,0.0
Status,1732148435000,28,14,3,20,1602000000,0.00,141.0,26.0,0,0,0,0.0
Status,1732148435000,28,15,3,18,1602000000,25.00,26.0,12.0,1,0,0,20.0
Status,1732148435000,28,16,3,11,1602000000,0.00,285.0,10.0,0,0,0,0.0
Status,1732148435000,28,17,3,16,1602000000,29.70,81.0,5.0,1,0,0,24.7
Status,1732148435000,28,18,6,21,1575420030,29.00,292.0,63.0,1,0,0,24.0
Status,1732148435000,28,19,6,19,1575420030,19.90,278.0,54.0,1,0,0,14.9
Status,1732148435000,28,20,6,27,1575420030,28.00,46.0,49.0,1,0,0,23.0
Status,1732148435000,28,21,6,29,1575420030,23.50,197.0,48.0,1,0,0,18.5
Status,1732148435000,28,22,6,15,1575420030,0.00,84.0,18.0,0,0,0,0.0
Status,1732148435000,28,23,6,13,1575420030,0.00,135.0,11.0,0,0,0,0.0
Status,1732148435000,28,24,6,4,1575420030,0.00,323.0,10.0,0,0,0,0.0
Status,1732148435000,28,25,6,34,1575420030,0.00,36.0,6.0,0,0,0,0.0
Status,1732148435000,28,26,6,7,1575420030,0.00,162.0,5.0,0,0,0,0.0
Status,1732148435000,28,27,6,30,1575420030,0.00,66.0,2.0,0,0,0,0.0
Fix,GPS,37.4243933333,-122.1707983333,-1.0999999999999979,0.0,2.8,10.19,1732148436000,2.5,179.9,27320055000000,40.8,0,,,
Raw,1732148436000,20092000000,,697972.2368465987,-1416183633908000000,0.0,109.98154505217765,2102.236022436965,0.0,0,7,0.0,16431,346853923569699,316,26.801000595092773,1102.0645280571057,0.14999,16,0.0,0.0,1575420030,,,,0,12.471613256251858,1,6.0,26.801000595092773,0.0,0.0,0.0,66.7128,C,27320055000000,
Raw,1732148436000,20092000000,,697972.2368465987,-1416183633908000000,0.0,109.98154505217765,2102.236022436965,0.0,0,2,0.0,16431,346853920618167,235,27.0049991607666,603.8466097024387,0.14999,16,0.0,0.0,1575420030,,,,0,12.76719189688366,1,6.0,27.0049991607666,0.0,0.0,0.0,66.7128,C,27320055000000,
Raw,1732148436000,20092000000,,697972.2368465987,-1416183633908000000,0.0,109.98154505217765,2102.236022436965,0.0,0,30,0.0,16431,346853930456427,316,26.371999740600586,871.3491527337675,0.14999,16,0.0,0.0,1575420030,,,,0,11.919942823610088,1,6.0,26.371999740600586,0.0,0.0,0.0,66.7128,C,27320055000000,
Raw,1732148436000,20092000000,,697972.2368465987,-1416183633908000000,0.0,109.98154505217765,2102.236022436965,0.0,0,13,0.0,16431,346853930814261,74,30.63800048828125,571.1787239261718,0.14999,16,0.0,0.0,1575420030,,,,0,17.313263353977575,1,6.0,30.63800048828125,0.0,0.0,0.0,66.7128,C,27320055000000,
Raw,1732148436000,20092000000,,697972.2368465987,-1416183633908000000,0.0,109.98154505217765,2102.236022436965,0.0,0,22,0.0,16431,346853930864005,235,29.408000946044922,593.13450684311,0.14999,16,0.0,0.0,1575420030,,,,0,15.813413555069673,1,6.0,29.408000946044922,0.0,0.0,0.0,66.7128,C,27320055000000,
Raw,1732148436000,20092000000,,697972.2368465987,-1416183633908000000,0.0,109.98154505217765,2102.236022436965,0.0,0,17,0.0,16431,346853931443741,316,25.38599967956543,341.58555164639904,0.14999,16,0.0,0.0,1575420030,,,,0,10.575072019056577,1,6.0,25.38599967956543,0.0,0.0,0.0,66.7128,C,27320055000000,
Raw,1732148436000,20092000000,,697972.2368465987,-1416183633908000000,0.0,109.98154505217765,2102.236022436965,0.0,0,14,0.0,16431,346853932124846,74,30.216999053955078,733.2557847222338,0.14999,16,0.0,0.0,1575420030,,,,0,16.801021677098937,1,6.0,30.216999053955078,0.0,0.0,0.0,66.7128,C,27320055000000,
Raw,1732148436000,20092000000,,697972.2368465987,-1416183633908000000,0.0,109.98154505217765,2102.236022436965,0.0,0,29,0.0,16431,346853918175870,396,18.5,1055.0667296343631,0.14999,16,0.0,0.0,1575420030,,,,0,1.7884181424513264,6,6.0,18.5,0.0,0.0,19.401106144438405,66.7128,C,27320055000000,
Raw,1732148436000,20092000000,,697972.2368465987,-1416183633908000000,0.0,109.98154505217765,2102.236022436965,0.0,0,27,0.0,16431,346853917886481,316,23.0,916.8921523112933,0.14999,16,0.0,0.0,1575420030,,,,0,8.574308057636602,6,6.0,23.0,0.0,0.0,19.401106144438405,66.7128,C,27320055000000,
Raw,1732148436000,20092000000,,697972.2368465987,-1416183633908000000,0.0,109.98154505217765,2102.236022436965,0.0,0,19,0.0,16431,346853920446119,487,14.940999984741211,612.1508193079914,0.14999,16,0.0,0.0,1575420030,,,,0,0.0,6,6.0,14.940999984741211,0.0,0.0,19.401106144438405,66.7128,C,27320055000000,
Raw,1732148436000,20092000000,,697972.2368465987,-1416183633908000000,0.0,109.98154505217765,2102.236022436965,0.0,0,21,0.0,16431,346853920265387,316,24.0,529.2825706459245,0.14999,16,0.0,0.0,1575420030,,,,0,9.79281364179005,6,6.0,24.0,0.0,0.0,19.401106144438405,66.7128,C,27320055000000,
Raw,1732148436000,20092000000,,697972.2368465987,-1416183633908000000,0.0,109.98154505217765,2102.236022436965,0.0,0,16,0.0,17,611523,316,5.0,1123.44530411583,0.14999,16,0.0,0.0,1601437440,,,,0,10.67365190034252,3,6.0,25.0,0.0,0.0,34.69760924411157,66.7128,C,27320055000000,
Raw,1732148436000,20092000000,,697972.2368465987,-1416183633908000000,0.0,109.98154505217765,2102.236022436965,0.0,0,9,0.0,17,178274,316,5.0,839.3359834475158,0.14999,16,0.0,0.0,1600875010,,,,0,11.072148371035837,3,6.0,25.0,0.0,0.0,34.69760924411157,66.7128,C,27320055000000,
Raw,1732148436000,20092000000,,697972.2368465987,-1416183633908000000,0.0,109.98154505217765,2102.236022436965,0.0,0,8,0.0,17,85469,487,5.0,769.2436185362199,0.14999,16,0.0,0.0,1605374980,,,,0,3.416375079047504,3,6.0,20.0,0.0,0.0,34.69760924411157,66.7128,C,27320055000000,
Raw,1732148436000,20092000000,,697972.2368465987,-1416183633908000000,0.0,109.98154505217765,2102.236022436965,0.0,0,18,0.0,17,192058,487,5.0,1181.967512739725,0.14999,16,0.0,0.0,1600312450,,,,0,4.2734250773928615,3,6.0,20.0,0.0,0.0,34.69760924411157,66.7128,C,27320055000000,
Raw,1732148436000,20092000000,,697972.2368465987,-1416183633908000000,0.0,109.98154505217765,2102.236022436965,0.0,0,15,0.0,16431,346853924405918,797,14.0,362.67293384753,0.14999,16,0.0,0.0,1575420030,,,,0,0.0,1,6.0,14.0,0.0,0.0,0.0,66.7128,C,27320055000000,
Fix,FLP,37.4243924000,-122.1707992000,2.0,0.022598905,2.75,,1732148436208,2.5,,27320055000000,1.0658189,0,,,
Status,1732148436000,28,0,1,14,1575420030,30.10,9.0,69.0,1,0,0,25.1
Status,1732148436000,28,1,1,22,1575420030,30.00,303.0,67.0,1,0,0,25.0
Status,1732148436000,28,2,1,17,1575420030,27.30,169.0,62.0,1,0,0,22.3
Status,1732148436000,28,3,1,30,1575420030,35.30,105.0,60.0,1,0,0,30.3
Status,1732148436000,28,4,1,13,1575420030,30.50,280.0,56.0,1,0,0,25.5
Status,1732148436000,28,5,1,19,1575420030,0.00,194.0,33.0,0,0,0,0.0
Status,1732148436000,28,6,1,7,1575420030,33.10,116.0,26.0,1,0,0,28.099998
Status,1732148436000,28,7,1,15,1575420030,0.00,304.0,26.0,0,0,0,0.0
Status,1732148436000,28,8,2,131,1575420030,32.00,3.0,23.0,0,0,0,27.0
Status,1732148436000,28,9,1,2,1575420030,31.00,72.0,20.0,1,0,0,26.0
Status,1732148436000,28,10,1,21,1575420030,0.00,54.0,14.0,0,0,0,0.0
Status,1732148436000,28,11,3,9,1602000000,30.00,44.0,47.0,1,0,0,25.0
Status,1732148436000,28,12,3,8,1602000000,22.60,279.0,39.0,1,0,0,17.6
Status,1732148436000,28,13,3,19,1602000000,0.00,64.0,36.0,0,0,0,0.0
Status,1732148436000,28,14,3,20,1602000000,0.00,141.0,26.0,0,0,0,0.0
Status,1732148436000,28,15,3,18,1602000000,25.00,26.0,12.0,1,0,0,20.0
Status,1732148436000,28,16,3,11,1602000000,0.00,285.0,10.0,0,0,0,0.0
Status,1732148436000,28,17,3,16,1602000000,29.80,81.0,5.0,1,0,0,24.8
Status,1732148436000,28,18,6,21,1575420030,27.60,292.0,63.0,1,0,0,22.6
Status,1732148436000,28,19,6,19,1575420030,20.00,278.0,54.0,1,0,0,15.0
Status,1732148436000,28,20,6,27,1575420030,23.70,46.0,49.0,1,0,0,18.7
Status,1732148436000,28,21,6,29,1575420030,23.50,197.0,48.0,1,0,0,18.5
Status,1732148436000,28,22,6,15,1575420030,0.00,84.0,18.0,0,0,0,0.0
Status,1732148436000,28,23,6,13,1575420030,0.00,135.0,11.0,0,0,0,0.0
Status,1732148436000,28,24,6,4,1575420030,0.00,323.0,10.0,0,0,0,0.0
Status,1732148436000,28,25,6,34,1575420030,0.00,36.0,6.0,0,0,0,0.0
Status,1732148436000,28,26,6,7,1575420030,0.00,162.0,5.0,0,0,0,0.0
Status,1732148436000,28,27,6,30,1575420030,0.00,66.0,2.0,0,0,0,0.0
Fix,GPS,37.4244016667,-122.1707983333,-1.0,0.0,2.8,10.19,1732148437000,2.8,179.9,27321055000000,41.2,0,,,
Raw,1732148437000,21092000000,,697914.9576371264,-1416183633908000000,0.0,110.60218060909637,2101.8611391584004,0.0,0,7,0.0,16431,346854923566018,235,28.145999908447266,1102.6611470380815,0.14999,16,0.0,0.0,1575420030,,,,0,14.220688696524153,1,6.0,28.145999908447266,0.0,0.0,0.0,66.7128,C,27321055000000,
Raw,1732148437000,21092000000,,697914.9576371264,-1416183633908000000,0.0,110.60218060909637,2101.8611391584004,0.0,0,2,0.0,16431,346854920616160,316,26.04599952697754,601.2306292024557,0.14999,16,0.0,0.0,1575420030,,,,0,11.481905994653491,1,6.0,26.04599952697754,0.0,0.0,0.0,66.7128,C,27321055000000,
Raw,1732148437000,21092000000,,697914.9576371264,-1416183633908000000,0.0,110.60218060909637,2101.8611391584004,0.0,0,30,0.0,16431,346854930453519,74,30.339000701904297,872.0377593788401,0.14999,16,0.0,0.0,1575420030,,,,0,16.941931435928247,1,6.0,30.339000701904297,0.0,0.0,0.0,66.7128,C,27321055000000,
Raw,1732148437000,21092000000,,697914.9576371264,-1416183633908000000,0.0,110.60218060909637,2101.8611391584004,0.0,0,13,0.0,16431,346854930812352,316,25.54800033569336,571.8546009652026,0.14999,16,0.0,0.0,1575420030,,,,0,10.780421763819316,1,6.0,25.54800033569336,0.0,0.0,0.0,66.7128,C,27321055000000,
Raw,1732148437000,21092000000,,697914.9576371264,-1416183633908000000,0.0,110.60218060909637,2101.8611391584004,0.0,0,22,0.0,16431,346854930862023,316,24.988000869750977,593.9868794053248,0.14999,16,0.0,0.0,1575420030,,,,0,10.01726772396502,1,6.0,24.988000869750977,0.0,0.0,0.0,66.7128,C,27321055000000,
Raw,1732148437000,21092000000,,697914.9576371264,-1416183633908000000,0.0,110.60218060909637,2101.8611391584004,0.0,0,17,0.0,16431,346854931442603,487,22.27400016784668,341.59774698065434,0.14999,16,0.0,0.0,1575420030,,,,0,5.970248525623457,1,6.0,22.27400016784668,0.0,0.0,0.0,66.7128,C,27321055000000,
Raw,1732148437000,21092000000,,697914.9576371264,-1416183633908000000,0.0,110.60218060909637,2101.8611391584004,0.0,0,14,0.0,16431,346854932122404,316,25.104000091552734,732.6013714714921,0.14999,16,0.0,0.0,1575420030,,,,0,10.149207825029633,1,6.0,25.104000091552734,0.0,0.0,0.0,66.7128,C,27321055000000,
Raw,1732148437000,21092000000,,697914.9576371264,-1416183633908000000,0.0,110.60218060909637,2101.8611391584004,0.0,0,29,0.0,16431,346854918172352,396,18.5,1054.7660507646485,0.14999,16,0.0,0.0,1575420030,,,,0,1.7884181424513264,6,6.0,18.5,0.0,0.0,18.984193612163356,66.7128,C,27321055000000,
Raw,1732148437000,21092000000,,697914.9576371264,-1416183633908000000,0.0,110.60218060909637,2101.8611391584004,0.0,0,27,0.0,16431,346854917883425,487,18.700000762939453,917.0369167362054,0.14999,16,0.0,0.0,1575420030,,,,0,2.124688122644327,6,6.0,18.700000762939453,0.0,0.0,18.984193612163356,66.7128,C,27321055000000,
Raw,1732148437000,21092000000,,697914.9576371264,-1416183633908000000,0.0,110.60218060909637,2101.8611391584004,0.0,0,19,0.0,16431,346854920444076,487,15.008000373840332,612.2914024754444,0.14999,16,0.0,0.0,1575420030,,,,0,0.0,6,6.0,15.008000373840332,0.0,0.0,18.984193612163356,66.7128,C,27321055000000,
Raw,1732148437000,21092000000,,697914.9576371264,-1416183633908000000,0.0,110.60218060909637,2101.8611391584004,0.0,0,21,0.0,16431,346854920263619,396,22.600000381469727,529.9579366423771,0.14999,16,0.0,0.0,1575420030,,,,0,7.978780260241329,6,6.0,22.600000381469727,0.0,0.0,18.984193612163356,66.7128,C,27321055000000,
Raw,1732148437000,21092000000,,697914.9576371264,-1416183633908000000,0.0,110.60218060909637,2101.8611391584004,0.0,0,16,0.0,17,607772,316,5.0,1123.9580989221868,0.14999,16,0.0,0.0,1601437440,,,,0,10.88879329240462,3,6.0,24.0,0.0,0.0,33.84814274696789,66.7128,C,27321055000000,
Raw,1732148437000,21092000000,,697914.9576371264,-1416183633908000000,0.0,110.60218060909637,2101.8611391584004,0.0,0,9,0.0,17,175476,487,5.0,839.5462026089552,0.14999,16,0.0,0.0,1600875010,,,,0,11.795970739921149,3,6.0,20.0,0.0,0.0,33.84814274696789,66.7128,C,27321055000000,
Raw,1732148437000,21092000000,,697914.9576371264,-1416183633908000000,0.0,110.60218060909637,2101.8611391584004,0.0,0,8,0.0,17,82931,487,5.0,771.7913649584495,0.14999,16,0.0,0.0,1605374980,,,,0,0.12393348991186581,3,6.0,18.0,0.0,0.0,33.84814274696789,66.7128,C,27321055000000,
Raw,1732148437000,21092000000,,697914.9576371264,-1416183633908000000,0.0,110.60218060909637,2101.8611391584004,0.0,0,18,0.0,17,188117,487,5.0,1184.0663270425985,0.14999,16,0.0,0.0,1600312450,,,,0,1.3973752628515745,3,6.0,20.0,0.0,0.0,33.84814274696789,66.7128,C,27321055000000,
Fix,FLP,37.4243968000,-122.1707988000,2.0,0.01118937,2.783,,1732148437207,2.8,,27321055000000,1.0758061,0,,,
Status,1732148437000,28,0,1,14,1575420030,34.90,9.0,69.0,1,0,0,29.900002
Status,1732148437000,28,1,1,22,1575420030,31.60,303.0,67.0,1,0,0,26.6
Status,1732148437000,28,2,1,17,1575420030,29.20,169.0,62.0,1,0,0,24.2
Status,1732148437000,28,3,1,30,1575420030,37.00,105.0,60.0,1,0,0,32.0
Status,1732148437000,28,4,1,13,1575420030,30.90,280.0,56.0,1,0,0,25.9
Status,1732148437000,28,5,1,19,1575420030,0.00,194.0,33.0,0,0,0,0.0
Status,1732148437000,28,6,1,7,1575420030,36.70,116.0,26.0,1,0,0,31.7
Status,1732148437000,28,7,1,15,1575420030,26.00,304.0,26.0,1,0,0,21.0
Status,1732148437000,28,8,2,131,1575420030,31.00,3.0,23.0,0,0,0,26.0
Status,1732148437000,28,9,1,2,1575420030,36.30,72.0,20.0,1,0,0,31.3
Status,1732148437000,28,10,1,21,1575420030,0.00,54.0,14.0,0,0,0,0.0
Status,1732148437000,28,11,3,9,1602000000,31.80,44.0,47.0,1,0,0,26.8
Status,1732148437000,28,12,3,8,1602000000,24.40,279.0,39.0,1,0,0,19.4
Status,1732148437000,28,13,3,19,1602000000,0.00,64.0,36.0,0,0,0,0.0
Status,1732148437000,28,14,3,20,1602000000,0.00,141.0,26.0,0,0,0,0.0
Status,1732148437000,28,15,3,18,1602000000,24.90,26.0,12.0,1,0,0,19.9
Status,1732148437000,28,16,3,11,1602000000,0.00,285.0,10.0,0,0,0,0.0
Status,1732148437000,28,17,3,16,1602000000,24.60,81.0,5.0,1,0,0,19.6
Status,1732148437000,28,18,6,21,1575420030,24.60,292.0,63.0,1,0,0,19.6
Status,1732148437000,28,19,6,19,1575420030,23.60,278.0,54.0,1,0,0,18.6
Status,1732148437000,28,20,6,27,1575420030,24.50,46.0,49.0,1,0,0,19.5
Status,1732148437000,28,21,6,29,1575420030,23.50,197.0,48.0,1,0,0,18.5
Status,1732148437000,28,22,6,15,1575420030,0.00,84.0,18.0,0,0,0,0.0
Status,1732148437000,28,23,6,13,1575420030,0.00,135.0,11.0,0,0,0,0.0
Status,1732148437000,28,24,6,4,1575420030,0.00,323.0,10.0,0,0,0,0.0
Status,1732148437000,28,25,6,34,1575420030,0.00,36.0,6.0,0,0,0,0.0
Status,1732148437000,28,26,6,7,1575420030,0.00,162.0,5.0,0,0,0,0.0
Status,1732148437000,28,27,6,30,1575420030,0.00,66.0,2.0,0,0,0,0.0
Fix,GPS,37.4244116667,-122.1708016667,-0.8000000000000007,0.0,2.7,10.19,1732148438000,2.8,179.9,27322055000000,39.0,0,,,
Raw,1732148438000,22092000000,,697785.5973114574,-1416183633908000000,0.0,105.40954462808031,2103.2216139065135,0.0,0,7,0.0,16431,346855923562335,74,31.72599983215332,1104.2162031454807,0.14999,16,0.0,0.0,1575420030,,,,0,18.608358601086433,1,6.0,31.72599983215332,0.0,0.0,0.0,66.7128,C,27322055000000,
Raw,1732148438000,22092000000,,697785.5973114574,-1416183633908000000,0.0,105.40954462808031,2103.2216139065135,0.0,0,2,0.0,16431,346855920614148,74,31.341999053955078,603.1682703673487,0.14999,16,0.0,0.0,1575420030,,,,0,18.151546383555875,1,6.0,31.341999053955078,0.0,0.0,0.0,66.7128,C,27322055000000,
Raw,1732148438000,22092000000,,697785.5973114574,-1416183633908000000,0.0,105.40954462808031,2103.2216139065135,0.0,0,30,0.0,16431,346855930450610,74,31.966999053955078,873.3409179535457,0.14999,16,0.0,0.0,1575420030,,,,0,18.8841242907991,1,6.0,31.966999053955078,0.0,0.0,0.0,66.7128,C,27322055000000,
Raw,1732148438000,22092000000,,697785.5973114574,-1416183633908000000,0.0,105.40954462808031,2103.2216139065135,0.0,0,13,0.0,16431,346855930810445,316,25.893999099731445,572.4343090826777,0.14999,16,0.0,0.0,1575420030,,,,0,11.254315079783517,1,6.0,25.893999099731445,0.0,0.0,0.0,66.7128,C,27322055000000,
Raw,1732148438000,22092000000,,697785.5973114574,-1416183633908000000,0.0,105.40954462808031,2103.2216139065135,0.0,0,22,0.0,16431,346855930860036,316,26.56399917602539,594.456295242716,0.14999,16,0.0,0.0,1575420030,,,,0,12.165620726456261,1,6.0,26.56399917602539,0.0,0.0,0.0,66.7128,C,27322055000000,
Raw,1732148438000,22092000000,,697785.5973114574,-1416183633908000000,0.0,105.40954462808031,2103.2216139065135,0.0,0,17,0.0,16431,346855931441468,396,24.229999542236328,342.21896569301356,0.14999,16,0.0,0.0,1575420030,,,,0,8.933068359411408,1,6.0,24.229999542236328,0.0,0.0,0.0,66.7128,C,27322055000000,
Raw,1732148438000,22092000000,,697785.5973114574,-1416183633908000000,0.0,105.40954462808031,2103.2216139065135,0.0,0,14,0.0,16431,346855932119958,74,29.88599967956543,733.3441950882824,0.14999,16,0.0,0.0,1575420030,,,,0,16.406612456982334,1,6.0,29.88599967956543,0.0,0.0,0.0,66.7128,C,27322055000000,
Raw,1732148438000,22092000000,,697785.5973114574,-1416183633908000000,0.0,105.40954462808031,2103.2216139065135,0.0,0,29,0.0,16431,346855918168840,487,18.524999618530273,1055.750783354647,0.14999,16,0.0,0.0,1575420030,,,,0,2.657732018073133,6,6.0,18.524999618530273,0.0,0.0,18.23373291857516,66.7128,C,27322055000000,
Raw,1732148438000,22092000000,,697785.5973114574,-1416183633908000000,0.0,105.40954462808031,2103.2216139065135,0.0,0,27,0.0,16431,346855917880366,396,19.5,917.607054419941,0.14999,16,0.0,0.0,1575420030,,,,0,3.447902843746604,6,6.0,19.5,0.0,0.0,18.23373291857516,66.7128,C,27322055000000,
Raw,1732148438000,22092000000,,697785.5973114574,-1416183633908000000,0.0,105.40954462808031,2103.2216139065135,0.0,0,19,0.0,16431,346855920442024,487,18.600000381469727,612.6846265102505,0.14999,16,0.0,0.0,1575420030,,,,0,2.014038350645108,6,6.0,18.600000381469727,0.0,0.0,18.23373291857516,66.7128,C,27322055000000,
Raw,1732148438000,22092000000,,697785.5973114574,-1416183633908000000,0.0,105.40954462808031,2103.2216139065135,0.0,0,21,0.0,16431,346855920261850,396,19.600000381469727,530.4125322449972,0.14999,16,0.0,0.0,1575420030,,,,0,3.634703368829472,6,6.0,19.600000381469727,0.0,0.0,18.23373291857516,66.7128,C,27322055000000,
Raw,1732148438000,22092000000,,697785.5973114574,-1416183633908000000,0.0,105.40954462808031,2103.2216139065135,0.0,0,16,0.0,17,604018,487,5.0,1126.06174592281,0.14999,16,0.0,0.0,1601437440,,,,0,3.5822204923064964,3,6.0,20.0,0.0,0.0,33.24928206370269,66.7128,C,27322055000000,
Raw,1732148438000,22092000000,,697785.5973114574,-1416183633908000000,0.0,105.40954462808031,2103.2216139065135,0.0,0,9,0.0,17,172677,316,5.0,839.7705948761029,0.14999,16,0.0,0.0,1600875010,,,,0,13.287383642413529,3,6.0,25.0,0.0,0.0,33.24928206370269,66.7128,C,27322055000000,
Raw,1732148438000,22092000000,,697785.5973114574,-1416183633908000000,0.0,105.40954462808031,2103.2216139065135,0.0,0,8,0.0,17,80358,487,5.0,771.4670267449328,0.14999,16,0.0,0.0,1605374980,,,,0,3.3179503472621033,3,6.0,20.0,0.0,0.0,33.24928206370269,66.7128,C,27322055000000,
Raw,1732148438000,22092000000,,697785.5973114574,-1416183633908000000,0.0,105.40954462808031,2103.2216139065135,0.0,0,18,0.0,17,184174,487,5.0,1183.1683510124694,0.14999,16,0.0,0.0,1600312450,,,,0,3.1551256222626667,3,6.0,18.0,0.0,0.0,33.24928206370269,66.7128,C,27322055000000,
Raw,1732148438000,22092000000,,697785.5973114574,-1416183633908000000,0.0,105.40954462808031,2103.2216139065135,0.0,0,15,0.0,16431,346855924403733,487,20.95400047302246,363.84152561968176,0.14999,16,0.0,0.0,1575420030,,,,0,3.817570957626867,1,6.0,20.95400047302246,0.0,0.0,0.0,66.7128,C,27322055000000,
Fix,FLP,37.4244041000,-122.1708002000,2.0,0.009078289,2.783,,1732148438207,2.8,,27322055000000,1.0858226,0,,,
Status,1732148438000,28,0,1,14,1575420030,32.90,9.0,69.0,1,0,0,27.900002
Status,1732148438000,28,1,1,22,1575420030,30.20,303.0,67.0,1,0,0,25.2
Status,1732148438000,28,2,1,17,1575420030,29.40,169.0,62.0,1,0,0,24.4
Status,1732148438000,28,3,1,30,1575420030,33.00,105.0,60.0,1,0,0,28.0
Status,1732148438000,28,4,1,13,1575420030,28.50,280.0,56.0,1,0,0,23.5
Status,1732148438000,28,5,1,19,1575420030,28.70,194.0,33.0,1,0,0,23.7
Status,1732148438000,28,6,1,7,1575420030,36.70,116.0,26.0,1,0,0,31.7
Status,1732148438000,28,7,1,15,1575420030,29.50,304.0,26.0,1,0,0,24.5
Status,1732148438000,28,8,2,131,1575420030,30.00,3.0,23.0,0,0,0,25.0
Status,1732148438000,28,9,1,2,1575420030,30.50,72.0,20.0,1,0,0,25.5
Status,1732148438000,28,10,1,21,1575420030,0.00,54.0,14.0,0,0,0,0.0
Status,1732148438000,28,11,3,9,1602000000,29.30,44.0,47.0,1,0,0,24.3
Status,1732148438000,28,12,3,8,1602000000,25.20,279.0,39.0,1,0,0,20.2
Status,1732148438000,28,13,3,19,1602000000,0.00,64.0,36.0,0,0,0,0.0
Status,1732148438000,28,14,3,20,1602000000,0.00,141.0,26.0,0,0,0,0.0
Status,1732148438000,28,15,3,18,1602000000,24.80,26.0,12.0,1,0,0,19.8
Status,1732148438000,28,16,3,11,1602000000,0.00,285.0,10.0,0,0,0,0.0
Status,1732148438000,28,17,3,16,1602000000,24.70,81.0,5.0,1,0,0,19.7
Status,1732148438000,28,18,6,21,1575420030,24.70,292.0,63.0,1,0,0,19.7
Status,1732148438000,28,19,6,19,1575420030,23.60,278.0,54.0,1,0,0,18.6
Status,1732148438000,28,20,6,27,1575420030,27.00,46.0,49.0,1,0,0,22.0
Status,1732148438000,28,21,6,29,1575420030,23.50,197.0,48.0,1,0,0,18.5
Status,1732148438000,28,22,6,15,1575420030,0.00,84.0,18.0,0,0,0,0.0
Status,1732148438000,28,23,6,13,1575420030,0.00,135.0,11.0,0,0,0,0.0
Status,1732148438000,28,24,6,4,1575420030,0.00,323.0,10.0,0,0,0,0.0
Status,1732148438000,28,25,6,34,1575420030,0.00,36.0,6.0,0,0,0,0.0
Status,1732148438000,28,26,6,7,1575420030,0.00,162.0,5.0,0,0,0,0.0
Status,1732148438000,28,27,6,30,1575420030,0.00,66.0,2.0,0,0,0,0.0
Fix,GPS,37.4244233333,-122.1708066667,-0.6999999999999993,0.0,2.6,10.19,1732148439000,2.6,179.9,27323055000000,39.1,0,,,
Raw,1732148439000,23092000000,,697324.809785575,-1416183633908000000,0.0,105.58710811099209,2108.3343440858603,0.0,0,7,0.0,16431,346856923558650,74,31.73900032043457,1104.4384602086318,0.14999,16,0.0,0.0,1575420030,,,,0,18.624824747511745,1,6.0,31.73900032043457,0.0,0.0,0.0,66.7128,C,27323055000000,
Raw,1732148439000,23092000000,,697324.809785575,-1416183633908000000,0.0,105.58710811099209,2108.3343440858603,0.0,0,2,0.0,16431,346856920612134,316,25.520000457763672,604.6170760768742,0.14999,16,0.0,0.0,1575420030,,,,0,10.739738365610254,1,6.0,25.520000457763672,0.0,0.0,0.0,66.7128,C,27323055000000,
Raw,1732148439000,23092000000,,697324.809785575,-1416183633908000000,0.0,105.58710811099209,2108.3343440858603,0.0,0,30,0.0,16431,346856930447699,316,28.006000518798828,874.2590291746983,0.14999,16,0.0,0.0,1575420030,,,,0,14.055238177204355,1,6.0,28.006000518798828,0.0,0.0,0.0,66.7128,C,27323055000000,
Raw,1732148439000,23092000000,,697324.809785575,-1416183633908000000,0.0,105.58710811099209,2108.3343440858603,0.0,0,13,0.0,16431,346856930808537,316,23.524999618530273,573.247749492108,0.14999,16,0.0,0.0,1575420030,,,,0,7.865974913187475,1,6.0,23.524999618530273,0.0,0.0,0.0,66.7128,C,27323055000000,
Raw,1732148439000,23092000000,,697324.809785575,-1416183633908000000,0.0,105.58710811099209,2108.3343440858603,0.0,0,22,0.0,16431,346856930858053,316,25.246999740600586,595.9529066625223,0.14999,16,0.0,0.0,1575420030,,,,0,10.364749645353474,1,6.0,25.246999740600586,0.0,0.0,0.0,66.7128,C,27323055000000,
Raw,1732148439000,23092000000,,697324.809785575,-1416183633908000000,0.0,105.58710811099209,2108.3343440858603,0.0,0,17,0.0,16431,346856931440333,316,24.448999404907227,343.6687005708634,0.14999,16,0.0,0.0,1575420030,,,,0,9.229206916433363,1,6.0,24.448999404907227,0.0,0.0,0.0,66.7128,C,27323055000000,
