# 
# Header Description:
# 
# Version: v3.1.0.3 Platform: 13 Manufacturer: samsung Model: SM-S135DL GNSS Hardware Model Name: MediaTek,MT6631,MTK_MNLD_default,MNL_VER_default
# 
# Raw,utcTimeMillis,TimeNanos,LeapSecond,TimeUncertaintyNanos,FullBiasNanos,BiasNanos,BiasUncertaintyNanos,DriftNanosPerSecond,DriftUncertaintyNanosPerSecond,HardwareClockDiscontinuityCount,Svid,TimeOffsetNanos,State,ReceivedSvTimeNanos,ReceivedSvTimeUncertaintyNanos,Cn0DbHz,PseudorangeRateMetersPerSecond,PseudorangeRateUncertaintyMetersPerSecond,AccumulatedDeltaRangeState,AccumulatedDeltaRangeMeters,AccumulatedDeltaRangeUncertaintyMeters,CarrierFrequencyHz,CarrierCycles,CarrierPhase,CarrierPhaseUncertainty,MultipathIndicator,SnrInDb,ConstellationType,AgcDb,BasebandCn0DbHz,FullInterSignalBiasNanos,FullInterSignalBiasUncertaintyNanos,SatelliteInterSignalBiasNanos,SatelliteInterSignalBiasUncertaintyNanos,CodeType,ChipsetElapsedRealtimeNanos,IsFullTracking
# 
# UncalAccel,utcTimeMillis,elapsedRealtimeNanos,UncalAccelXMps2,UncalAccelYMps2,UncalAccelZMps2,BiasXMps2,BiasYMps2,BiasZMps2
# 
# Accel,utcTimeMillis,elapsedRealtimeNanos,AccelXMps2,AccelYMps2,AccelZMps2
# 
# UncalGyro,utcTimeMillis,elapsedRealtimeNanos,UncalGyroXRadPerSec,UncalGyroYRadPerSec,UncalGyroZRadPerSec,DriftXRadPerSec,DriftYRadPerSec,DriftZRadPerSec
# 
# Gyro,utcTimeMillis,elapsedRealtimeNanos,GyroXRadPerSec,GyroYRadPerSec,GyroZRadPerSec
# 
# UncalMag,utcTimeMillis,elapsedRealtimeNanos,UncalMagXMicroT,UncalMagYMicroT,UncalMagZMicroT,BiasXMicroT,BiasYMicroT,BiasZMicroT
# 
# Mag,utcTimeMillis,elapsedRealtimeNanos,MagXMicroT,MagYMicroT,MagZMicroT
# 
# Pressure,utcTimeMillis,elapsedRealtimeNanos,PressureHpa
# 
# OrientationDeg,utcTimeMillis,elapsedRealtimeNanos,yawDeg,rollDeg,pitchDeg
# 
# Fix,Provider,LatitudeDegrees,LongitudeDegrees,AltitudeMeters,SpeedMps,AccuracyMeters,BearingDegrees,UnixTimeMillis,SpeedAccuracyMps,BearingAccuracyDegrees,elapsedRealtimeNanos,VerticalAccuracyMeters,MockLocation,NumberOfUsedSignals,VerticalSpeedAccuracyMps,SolutionType
# 
# Nav,Svid,Type,Status,MessageId,Sub-messageId,Data(Bytes)
# 
# Status,UnixTimeMillis,SignalCount,SignalIndex,ConstellationType,Svid,CarrierFrequencyHz,Cn0DbHz,AzimuthDegrees,ElevationDegrees,UsedInFix,HasAlmanacData,HasEphemerisData,BasebandCn0DbHz
# 
# Agc,utcTimeMillis,TimeNanos,LeapSecond,TimeUncertaintyNanos,FullBiasNanos,BiasNanos,BiasUncertaintyNanos,DriftNanosPerSecond,DriftUncertaintyNanosPerSecond,HardwareClockDiscontinuityCount,AgcDb,CarrierFrequencyHz,ConstellationType
# 
Fix,FLP,37.4244028000,-122.1708044000,2.0,0.04432963,2.633,,1732148791209,2.7,,27675057000000,1.0179886,0,,,
Status,,29,0,1,14,1575420030,28.80,15.0,68.0,1,0,0,23.8
Status,,29,1,1,22,1575420030,30.70,310.0,68.0,1,0,0,25.7
Status,,29,2,1,17,1575420030,0.00,167.0,65.0,0,0,0,0.0
Status,,29,3,1,30,1575420030,28.70,109.0,57.0,1,0,0,23.7
Status,,29,4,1,13,1575420030,29.60,275.0,56.0,1,0,0,24.6
Status,,29,5,2,133,1575420030,31.00,191.0,45.0,0,0,0,26.0
Status,,29,6,1,19,1575420030,26.70,194.0,35.0,1,0,0,21.7
Status,,29,7,1,15,1575420030,28.50,301.0,27.0,1,0,0,23.5
Status,,29,8,1,7,1575420030,33.80,118.0,23.0,1,0,0,28.8
Status,,29,9,1,2,1575420030,34.10,69.0,21.0,1,0,0,29.099998
Status,,29,10,1,21,1575420030,30.60,51.0,13.0,1,0,0,25.6
Status,,29,11,3,9,1602000000,24.70,48.0,46.0,1,0,0,19.7
Status,,29,12,3,8,1602000000,23.30,275.0,38.0,1,0,0,18.3
Status,,29,13,3,19,1602000000,0.00,60.0,35.0,0,0,0,0.0
Status,,29,14,3,20,1602000000,0.00,139.0,29.0,0,0,0,0.0
Status,,29,15,3,11,1602000000,0.00,288.0,12.0,0,0,0,0.0
Status,,29,16,3,18,1602000000,0.00,24.0,10.0,0,0,0,0.0
Status,,29,17,3,16,1602000000,0.00,84.0,3.0,0,0,0,0.0
Status,,29,18,3,17,1602000000,25.60,0.0,0.0,0,0,0,20.6
Status,,29,19,6,21,1575420030,22.70,297.0,64.0,1,0,0,17.7
Status,,29,20,6,19,1575420030,23.20,274.0,54.0,1,0,0,18.2
Status,,29,21,6,27,1575420030,21.90,48.0,47.0,1,0,0,16.9
Status,,29,22,6,29,1575420030,23.00,196.0,45.0,1,0,0,18.0
Status,,29,23,6,15,1575420030,0.00,82.0,19.0,0,0,0,0.0
Status,,29,24,6,13,1575420030,0.00,133.0,12.0,0,0,0,0.0
Status,,29,25,6,4,1575420030,0.00,322.0,11.0,0,0,0,0.0
Status,,29,26,6,34,1575420030,0.00,35.0,5.0,0,0,0,0.0
Status,,29,27,6,7,1575420030,0.00,162.0,3.0,0,0,0,0.0
Status,,29,28,6,30,1575420030,0.00,67.0,1.0,0,0,0,0.0
Fix,GPS,37.4244100000,-122.1707900000,3.6999999999999993,0.0,2.7,29.55,1732148792000,2.8,179.9,27676057000000,44.7,0,,,
Raw,1732148791999,15343000000,,701518.3358948943,-1416183994656999936,0.0,110.9695103324614,2113.21651926637,0.0,0,22,0.0,16431,347209931077712,316,25.73200035095215,616.376909138583,0.14999,16,0.0,0.0,1575420030,,,,0,11.04014073060586,1,6.0,25.73200035095215,0.0,0.0,0.0,66.7128,C,27676057000000,
Raw,1732148791999,15343000000,,701518.3358948943,-1416183994656999936,0.0,110.9695103324614,2113.21651926637,0.0,0,7,0.0,16431,347209923179748,235,28.801000595092773,1125.3155716179938,0.14999,16,0.0,0.0,1575420030,,,,0,15.061328786925216,1,6.0,28.801000595092773,0.0,0.0,0.0,66.7128,C,27676057000000,
Raw,1732148791999,15343000000,,701518.3358948943,-1416183994656999936,0.0,110.9695103324614,2113.21651926637,0.0,0,15,0.0,16431,347209924879909,487,23.472000122070312,409.49851092138016,0.14999,16,0.0,0.0,1575420030,,,,0,7.815708020530957,1,6.0,23.472000122070312,0.0,0.0,0.0,66.7128,C,27676057000000,
Raw,1732148791999,15343000000,,701518.3358948943,-1416183994656999936,0.0,110.9695103324614,2113.21651926637,0.0,0,21,0.0,16431,347209919277134,396,25.597999572753906,876.348635819016,0.14999,16,0.0,0.0,1575420030,,,,0,10.882569250395665,1,6.0,25.597999572753906,0.0,0.0,0.0,66.7128,C,27676057000000,
Raw,1732148791999,15343000000,,701518.3358948943,-1416183994656999936,0.0,110.9695103324614,2113.21651926637,0.0,0,19,0.0,16431,347209925609106,797,21.70800018310547,15.735047444763428,0.14999,16,0.0,0.0,1575420030,,,,0,5.116590873214478,1,6.0,21.70800018310547,0.0,0.0,0.0,66.7128,C,27676057000000,
Raw,1732148791999,15343000000,,701518.3358948943,-1416183994656999936,0.0,110.9695103324614,2113.21651926637,0.0,0,13,0.0,16431,347209931039737,316,24.63800048828125,619.5492756311033,0.14999,16,0.0,0.0,1575420030,,,,0,9.50711714716098,1,6.0,24.63800048828125,0.0,0.0,0.0,66.7128,C,27676057000000,
Raw,1732148791999,15343000000,,701518.3358948943,-1416183994656999936,0.0,110.9695103324614,2113.21651926637,0.0,0,14,0.0,16431,347209932173602,396,23.847999572753906,755.0269418931514,0.14999,16,0.0,0.0,1575420030,,,,0,8.36389556419295,1,6.0,23.847999572753906,0.0,0.0,0.0,66.7128,C,27676057000000,
Raw,1732148791999,15343000000,,701518.3358948943,-1416183994656999936,0.0,110.9695103324614,2113.21651926637,0.0,0,2,0.0,16431,347209920811380,316,29.101999282836914,643.4315961514603,0.14999,16,0.0,0.0,1575420030,,,,0,15.445829278883743,1,6.0,29.101999282836914,0.0,0.0,0.0,66.7128,C,27676057000000,
Raw,1732148791999,15343000000,,701518.3358948943,-1416183994656999936,0.0,110.9695103324614,2113.21651926637,0.0,0,29,0.0,16431,347209917841257,487,18.0,1079.0693774527053,0.14999,16,0.0,0.0,1575420030,,,,0,0.807351854115363,6,6.0,18.0,0.0,0.0,14.255588323584698,66.7128,C,27676057000000,
Raw,1732148791999,15343000000,,701518.3358948943,-1416183994656999936,0.0,110.9695103324614,2113.21651926637,0.0,0,30,0.0,16431,347209930334717,396,23.714000701904297,903.2789071932814,0.14999,16,0.0,0.0,1575420030,,,,0,8.20304115908467,1,6.0,23.714000701904297,0.0,0.0,0.0,66.7128,C,27676057000000,
Raw,1732148791999,15343000000,,701518.3358948943,-1416183994656999936,0.0,110.9695103324614,2113.21651926637,0.0,0,27,0.0,16431,347209917725039,487,16.899999618530273,925.2615430747894,0.14999,16,0.0,0.0,1575420030,,,,0,0.0,6,6.0,16.899999618530273,0.0,0.0,14.255588323584698,66.7128,C,27676057000000,
Raw,1732148791999,15343000000,,701518.3358948943,-1416183994656999936,0.0,110.9695103324614,2113.21651926637,0.0,0,19,0.0,16431,347209920630437,797,18.200000762939453,647.2294787598394,0.14999,16,0.0,0.0,1575420030,,,,0,1.300300555686725,6,6.0,18.200000762939453,0.0,0.0,14.255588323584698,66.7128,C,27676057000000,
Raw,1732148791999,15343000000,,701518.3358948943,-1416183994656999936,0.0,110.9695103324614,2113.21651926637,0.0,0,21,0.0,16431,347209920559645,487,17.700000762939453,544.1818776414766,0.14999,16,0.0,0.0,1575420030,,,,0,0.418366424102512,6,6.0,17.700000762939453,0.0,0.0,14.255588323584698,66.7128,C,27676057000000,
Raw,1732148791999,15343000000,,701518.3358948943,-1416183994656999936,0.0,110.9695103324614,2113.21651926637,0.0,0,9,0.0,17,103357,487,5.0,857.2249117148166,0.14999,16,0.0,0.0,1600875010,,,,0,3.7045589885001347,3,6.0,20.0,0.0,0.0,20.204594309024575,66.7128,C,27676057000000,
Raw,1732148791999,15343000000,,701518.3358948943,-1416183994656999936,0.0,110.9695103324614,2113.21651926637,0.0,0,8,0.0,17,67541,487,5.0,829.0410261081066,0.14999,16,0.0,0.0,1605374980,,,,0,1.3531958333463452,3,6.0,20.0,0.0,0.0,20.204594309024575,66.7128,C,27676057000000,
Fix,FLP,37.4244065000,-122.1707975000,2.0,0.045118734,2.65,,1732148792209,2.8,,27676057000000,1.0279806,0,,,
Status,1732148792000,29,0,1,14,1575420030,0.00,15.0,68.0,0,0,0,0.0
Status,1732148792000,29,1,1,22,1575420030,26.20,310.0,68.0,1,0,0,21.2
Status,1732148792000,29,2,1,17,1575420030,0.00,167.0,65.0,0,0,0,0.0
Status,1732148792000,29,3,1,30,1575420030,29.00,109.0,57.0,1,0,0,24.0
Status,1732148792000,29,4,1,13,1575420030,33.90,275.0,56.0,1,0,0,28.900002
Status,1732148792000,29,5,2,135,1575420030,0.00,197.0,45.0,0,0,0,0.0
Status,1732148792000,29,6,1,19,1575420030,26.50,194.0,36.0,1,0,0,21.5
Status,1732148792000,29,7,1,15,1575420030,25.80,301.0,27.0,1,0,0,20.8
Status,1732148792000,29,8,1,7,1575420030,35.20,118.0,23.0,1,0,0,30.2
Status,1732148792000,29,9,1,2,1575420030,34.70,69.0,21.0,1,0,0,29.7
Status,1732148792000,29,10,1,21,1575420030,35.10,51.0,13.0,1,0,0,30.099998
Status,1732148792000,29,11,3,9,1602000000,24.70,48.0,46.0,1,0,0,19.7
Status,1732148792000,29,12,3,8,1602000000,29.00,275.0,38.0,1,0,0,24.0
Status,1732148792000,29,13,3,19,1602000000,0.00,60.0,35.0,0,0,0,0.0
Status,1732148792000,29,14,3,20,1602000000,0.00,139.0,29.0,0,0,0,0.0
Status,1732148792000,29,15,3,11,1602000000,0.00,288.0,12.0,0,0,0,0.0
Status,1732148792000,29,16,3,18,1602000000,0.00,24.0,10.0,0,0,0,0.0
Status,1732148792000,29,17,3,16,1602000000,0.00,84.0,3.0,0,0,0,0.0
Status,1732148792000,29,18,3,17,1602000000,31.50,0.0,0.0,0,0,0,26.5
Status,1732148792000,29,19,6,21,1575420030,26.30,297.0,64.0,1,0,0,21.3
Status,1732148792000,29,20,6,19,1575420030,18.30,274.0,54.0,1,0,0,13.299999
Status,1732148792000,29,21,6,27,1575420030,21.90,48.0,47.0,1,0,0,16.9
Status,1732148792000,29,22,6,29,1575420030,21.40,196.0,45.0,1,0,0,16.4
Status,1732148792000,29,23,6,15,1575420030,0.00,82.0,19.0,0,0,0,0.0
Status,1732148792000,29,24,6,13,1575420030,0.00,133.0,12.0,0,0,0,0.0
Status,1732148792000,29,25,6,4,1575420030,0.00,322.0,11.0,0,0,0,0.0
Status,1732148792000,29,26,6,34,1575420030,0.00,35.0,5.0,0,0,0,0.0
Status,1732148792000,29,27,6,7,1575420030,0.00,162.0,3.0,0,0,0,0.0
Status,1732148792000,29,28,6,30,1575420030,0.00,67.0,1.0,0,0,0,0.0
Fix,GPS,37.4244166667,-122.1707883333,3.6999999999999993,0.0,2.6,29.55,1732148793000,2.7,167.6,27677057000000,45.0,0,,,
Raw,1732148792999,16343000000,,701412.1686977196,-1416183994656999936,0.0,111.33402795007392,2113.620574348796,0.0,0,22,0.0,16431,347210931075653,487,21.201000213623047,616.6974257520195,0.14999,16,0.0,0.0,1575420030,,,,0,4.308017732102313,1,6.0,21.201000213623047,0.0,0.0,0.0,66.7128,C,27677057000000,
Raw,1732148792999,16343000000,,701412.1686977196,-1416183994656999936,0.0,111.33402795007392,2113.620574348796,0.0,0,7,0.0,16431,347210923175992,74,30.18199920654297,1124.4984609936828,0.14999,16,0.0,0.0,1575420030,,,,0,16.773003540060323,1,6.0,30.18199920654297,0.0,0.0,0.0,66.7128,C,27677057000000,
Raw,1732148792999,16343000000,,701412.1686977196,-1416183994656999936,0.0,111.33402795007392,2113.620574348796,0.0,0,15,0.0,16431,347210924878536,487,20.80699920654297,410.11139034802954,0.14999,16,0.0,0.0,1575420030,,,,0,3.60217659445211,1,6.0,20.80699920654297,0.0,0.0,0.0,66.7128,C,27677057000000,
Raw,1732148792999,16343000000,,701412.1686977196,-1416183994656999936,0.0,111.33402795007392,2113.620574348796,0.0,0,21,0.0,16431,347210919274211,74,30.089000701904297,876.8567050586944,0.14999,16,0.0,0.0,1575420030,,,,0,16.65109431586628,1,6.0,30.089000701904297,0.0,0.0,0.0,66.7128,C,27677057000000,
Raw,1732148792999,16343000000,,701412.1686977196,-1416183994656999936,0.0,111.33402795007392,2113.620574348796,0.0,0,19,0.0,16431,347210925609050,487,21.52400016784668,15.246351364644774,0.14999,16,0.0,0.0,1575420030,,,,0,4.802135187957818,1,6.0,21.52400016784668,0.0,0.0,0.0,66.7128,C,27677057000000,
Raw,1732148792999,16343000000,,701412.1686977196,-1416183994656999936,0.0,111.33402795007392,2113.620574348796,0.0,0,13,0.0,16431,347210931037668,235,28.891000747680664,619.5073701396815,0.14999,16,0.0,0.0,1575420030,,,,0,15.183323624343231,1,6.0,28.891000747680664,0.0,0.0,0.0,66.7128,C,27677057000000,
Raw,1732148792999,16343000000,,701412.1686977196,-1416183994656999936,0.0,111.33402795007392,2113.620574348796,0.0,0,2,0.0,16431,347210920809166,235,29.740999221801758,641.8905704857567,0.14999,16,0.0,0.0,1575420030,,,,0,16.231910943232673,1,6.0,29.740999221801758,0.0,0.0,0.0,66.7128,C,27677057000000,
Raw,1732148792999,16343000000,,701412.1686977196,-1416183994656999936,0.0,111.33402795007392,2113.620574348796,0.0,0,29,0.0,16431,347210917837656,487,16.399999618530273,1080.0037491195317,0.14999,16,0.0,0.0,1575420030,,,,0,0.0,6,6.0,16.399999618530273,0.0,0.0,17.549972200390947,66.7128,C,27677057000000,
Raw,1732148792999,16343000000,,701412.1686977196,-1416183994656999936,0.0,111.33402795007392,2113.620574348796,0.0,0,30,0.0,16431,347210930331703,396,24.042999267578125,903.2919155498204,0.14999,16,0.0,0.0,1575420030,,,,0,8.67693447504887,1,6.0,24.042999267578125,0.0,0.0,0.0,66.7128,C,27677057000000,
Raw,1732148792999,16343000000,,701412.1686977196,-1416183994656999936,0.0,111.33402795007392,2113.620574348796,0.0,0,27,0.0,16431,347210917721953,396,16.899999618530273,925.2404509538298,0.14999,16,0.0,0.0,1575420030,,,,0,0.0,6,6.0,16.899999618530273,0.0,0.0,17.549972200390947,66.7128,C,27677057000000,
Raw,1732148792999,16343000000,,701412.1686977196,-1416183994656999936,0.0,111.33402795007392,2113.620574348796,0.0,0,19,0.0,16431,347210920628260,797,13.300000190734863,647.2984230494958,0.14999,16,0.0,0.0,1575420030,,,,0,0.0,6,6.0,13.300000190734863,0.0,0.0,17.549972200390947,66.7128,C,27677057000000,
Raw,1732148792999,16343000000,,701412.1686977196,-1416183994656999936,0.0,111.33402795007392,2113.620574348796,0.0,0,21,0.0,16431,347210920557826,396,21.299999237060547,544.3096847444717,0.14999,16,0.0,0.0,1575420030,,,,0,6.135350934503585,6,6.0,21.299999237060547,0.0,0.0,17.549972200390947,66.7128,C,27677057000000,
Raw,1732148792999,16343000000,,701412.1686977196,-1416183994656999936,0.0,111.33402795007392,2113.620574348796,0.0,0,9,0.0,17,100498,396,5.0,857.018258689652,0.14999,16,0.0,0.0,1600875010,,,,0,3.6610642073877355,3,6.0,21.0,0.0,0.0,25.805679682310316,66.7128,C,27677057000000,
Raw,1732148792999,16343000000,,701412.1686977196,-1416183994656999936,0.0,111.33402795007392,2113.620574348796,0.0,0,8,0.0,17,64774,316,5.0,829.5128985441339,0.14999,16,0.0,0.0,1605374980,,,,0,9.770376290938023,3,6.0,24.0,0.0,0.0,25.805679682310316,66.7128,C,27677057000000,
Fix,FLP,37.4244117000,-122.1707931000,2.0,0.054033633,2.65,,1732148793209,2.7,,27677057000000,1.0379733,0,,,
Fix,NLP,37.4243591000,-122.1708705000,2.0,,10.923,,1732148792755,,,27676603000000,1.0,0,,,
Status,1732148793000,29,0,1,14,1575420030,0.00,15.0,68.0,0,0,0,0.0
Status,1732148793000,29,1,1,22,1575420030,26.20,310.0,68.0,1,0,0,21.2
Status,1732148793000,29,2,1,17,1575420030,0.00,167.0,65.0,0,0,0,0.0
Status,1732148793000,29,3,1,30,1575420030,25.90,109.0,57.0,1,0,0,20.9
Status,1732148793000,29,4,1,13,1575420030,29.80,275.0,56.0,1,0,0,24.8
Status,1732148793000,29,5,2,135,1575420030,0.00,197.0,45.0,0,0,0,0.0
Status,1732148793000,29,6,1,19,1575420030,25.30,194.0,36.0,1,0,0,20.3
Status,1732148793000,29,7,1,15,1575420030,26.80,301.0,27.0,1,0,0,21.8
Status,1732148793000,29,8,1,7,1575420030,30.50,118.0,23.0,1,0,0,25.5
Status,1732148793000,29,9,1,2,1575420030,29.80,69.0,21.0,1,0,0,24.8
Status,1732148793000,29,10,1,21,1575420030,33.10,51.0,13.0,1,0,0,28.099998
Status,1732148793000,29,11,3,9,1602000000,24.80,48.0,46.0,1,0,0,19.8
Status,1732148793000,29,12,3,8,1602000000,24.40,275.0,38.0,1,0,0,19.4
Status,1732148793000,29,13,3,19,1602000000,0.00,60.0,35.0,0,0,0,0.0
Status,1732148793000,29,14,3,20,1602000000,0.00,139.0,29.0,0,0,0,0.0
Status,1732148793000,29,15,3,11,1602000000,0.00,288.0,12.0,0,0,0,0.0
Status,1732148793000,29,16,3,18,1602000000,0.00,24.0,10.0,0,0,0,0.0
Status,1732148793000,29,17,3,16,1602000000,0.00,84.0,3.0,0,0,0,0.0
Status,1732148793000,29,18,3,17,1602000000,29.50,0.0,0.0,0,0,0,24.5
Status,1732148793000,29,19,6,21,1575420030,23.90,297.0,64.0,1,0,0,18.9
Status,1732148793000,29,20,6,19,1575420030,18.30,274.0,54.0,1,0,0,13.299999
Status,1732148793000,29,21,6,27,1575420030,26.10,48.0,47.0,1,0,0,21.1
Status,1732148793000,29,22,6,29,1575420030,0.00,196.0,45.0,0,0,0,0.0
Status,1732148793000,29,23,6,15,1575420030,0.00,82.0,19.0,0,0,0,0.0
Status,1732148793000,29,24,6,13,1575420030,0.00,133.0,12.0,0,0,0,0.0
Status,1732148793000,29,25,6,4,1575420030,0.00,322.0,11.0,0,0,0,0.0
Status,1732148793000,29,26,6,34,1575420030,0.00,35.0,5.0,0,0,0,0.0
Status,1732148793000,29,27,6,7,1575420030,0.00,162.0,3.0,0,0,0,0.0
Status,1732148793000,29,28,6,30,1575420030,0.00,67.0,1.0,0,0,0,0.0
Fix,GPS,37.4244183333,-122.1707833333,3.8000000000000007,0.0,2.7,29.55,1732148794000,2.8,143.4,27678057000000,45.0,0,,,
Raw,1732148793999,17343000000,,701363.5934263563,-1416183994656999936,0.0,111.27680605157133,2107.778689362105,0.0,0,22,0.0,16431,347211931073600,487,21.201000213623047,614.86162143546,0.14999,16,0.0,0.0,1575420030,,,,0,4.308017732102313,1,6.0,21.201000213623047,0.0,0.0,0.0,66.7128,C,27678057000000,
Raw,1732148793999,17343000000,,701363.5934263563,-1416183994656999936,0.0,111.27680605157133,2107.778689362105,0.0,0,7,0.0,16431,347211923172247,316,25.516000747680664,1123.73078212422,0.14999,16,0.0,0.0,1575420030,,,,0,10.762485914201859,1,6.0,25.516000747680664,0.0,0.0,0.0,66.7128,C,27678057000000,
Raw,1732148793999,17343000000,,701363.5934263563,-1416183994656999936,0.0,111.27680605157133,2107.778689362105,0.0,0,15,0.0,16431,347211924877170,487,21.75200080871582,408.3954952037096,0.14999,16,0.0,0.0,1575420030,,,,0,5.193457654849682,1,6.0,21.75200080871582,0.0,0.0,0.0,66.7128,C,27678057000000,
Raw,1732148793999,17343000000,,701363.5934263563,-1416183994656999936,0.0,111.27680605157133,2107.778689362105,0.0,0,21,0.0,16431,347211919271287,235,28.10300064086914,875.2579780400573,0.14999,16,0.0,0.0,1575420030,,,,0,14.182957674155231,1,6.0,28.10300064086914,0.0,0.0,0.0,66.7128,C,27678057000000,
Raw,1732148793999,17343000000,,701363.5934263563,-1416183994656999936,0.0,111.27680605157133,2107.778689362105,0.0,0,19,0.0,16431,347211925608981,487,20.27899932861328,13.797963780865032,0.14999,16,0.0,0.0,1575420030,,,,0,2.732862718830304,1,6.0,20.27899932861328,0.0,0.0,0.0,66.7128,C,27678057000000,
Raw,1732148793999,17343000000,,701363.5934263563,-1416183994656999936,0.0,111.27680605157133,2107.778689362105,0.0,0,13,0.0,16431,347211931035602,396,24.78700065612793,617.9379583816733,0.14999,16,0.0,0.0,1575420030,,,,0,9.736915990359682,1,6.0,24.78700065612793,0.0,0.0,0.0,66.7128,C,27678057000000,
Raw,1732148793999,17343000000,,701363.5934263563,-1416183994656999936,0.0,111.27680605157133,2107.778689362105,0.0,0,2,0.0,16431,347211920807028,396,24.78700065612793,641.2129280269098,0.14999,16,0.0,0.0,1575420030,,,,0,9.736915990359682,1,6.0,24.78700065612793,0.0,0.0,0.0,66.7128,C,27678057000000,
Raw,1732148793999,17343000000,,701363.5934263563,-1416183994656999936,0.0,111.27680605157133,2107.778689362105,0.0,0,30,0.0,16431,347211930328694,487,20.85700035095215,901.2518335771832,0.14999,16,0.0,0.0,1575420030,,,,0,3.693607855941778,1,6.0,20.85700035095215,0.0,0.0,0.0,66.7128,C,27678057000000,
Raw,1732148793999,17343000000,,701363.5934263563,-1416183994656999936,0.0,111.27680605157133,2107.778689362105,0.0,0,27,0.0,16431,347211917718868,396,21.100000381469727,923.2078952446187,0.14999,16,0.0,0.0,1575420030,,,,0,5.926879576180542,6,6.0,21.100000381469727,0.0,0.0,18.737656595667225,66.7128,C,27678057000000,
Raw,1732148793999,17343000000,,701363.5934263563,-1416183994656999936,0.0,111.27680605157133,2107.778689362105,0.0,0,19,0.0,16431,347211920626104,797,13.300000190734863,645.1122758162927,0.14999,16,0.0,0.0,1575420030,,,,0,0.0,6,6.0,13.300000190734863,0.0,0.0,18.737656595667225,66.7128,C,27678057000000,
Raw,1732148793999,17343000000,,701363.5934263563,-1416183994656999936,0.0,111.27680605157133,2107.778689362105,0.0,0,21,0.0,16431,347211920556015,396,18.899999618530273,542.7775790946806,0.14999,16,0.0,0.0,1575420030,,,,0,2.527269933938893,6,6.0,18.899999618530273,0.0,0.0,18.737656595667225,66.7128,C,27678057000000,
Raw,1732148793999,17343000000,,701363.5934263563,-1416183994656999936,0.0,111.27680605157133,2107.778689362105,0.0,0,9,0.0,17,97643,396,5.0,854.9724851799156,0.14999,16,0.0,0.0,1600875010,,,,0,7.3422679819268675,3,6.0,23.0,0.0,0.0,26.995389901539628,66.7128,C,27678057000000,
Raw,1732148793999,17343000000,,701363.5934263563,-1416183994656999936,0.0,111.27680605157133,2107.778689362105,0.0,0,8,0.0,17,62005,487,5.0,829.8274801681521,0.14999,16,0.0,0.0,1605374980,,,,0,3.263987141643664,3,6.0,20.0,0.0,0.0,26.995389901539628,66.7128,C,27678057000000,
Fix,FLP,37.4244152000,-122.1707884000,2.0,0.060031977,2.65,,1732148794210,2.8,,27678057000000,0.83099145,0,,,
Status,1732148794000,29,0,1,14,1575420030,29.30,15.0,68.0,1,0,0,24.3
Status,1732148794000,29,1,1,22,1575420030,33.20,310.0,68.0,1,0,0,28.2
Status,1732148794000,29,2,1,17,1575420030,0.00,167.0,65.0,0,0,0,0.0
Status,1732148794000,29,3,1,30,1575420030,29.00,109.0,57.0,1,0,0,24.0
Status,1732148794000,29,4,1,13,1575420030,30.80,275.0,56.0,1,0,0,25.8
Status,1732148794000,29,5,2,135,1575420030,0.00,197.0,45.0,0,0,0,0.0
Status,1732148794000,29,6,1,19,1575420030,27.60,194.0,36.0,1,0,0,22.6
Status,1732148794000,29,7,1,15,1575420030,26.80,301.0,27.0,1,0,0,21.8
Status,1732148794000,29,8,1,7,1575420030,29.50,118.0,23.0,1,0,0,24.5
Status,1732148794000,29,9,1,2,1575420030,35.90,69.0,21.0,1,0,0,30.900002
Status,1732148794000,29,10,1,21,1575420030,37.30,51.0,13.0,1,0,0,32.3
Status,1732148794000,29,11,3,9,1602000000,28.90,48.0,46.0,1,0,0,23.9
Status,1732148794000,29,12,3,8,1602000000,22.10,275.0,38.0,1,0,0,17.1
Status,1732148794000,29,13,3,19,1602000000,0.00,60.0,35.0,0,0,0,0.0
Status,1732148794000,29,14,3,20,1602000000,0.00,139.0,29.0,0,0,0,0.0
Status,1732148794000,29,15,3,11,1602000000,0.00,288.0,12.0,0,0,0,0.0
Status,1732148794000,29,16,3,18,1602000000,0.00,24.0,10.0,0,0,0,0.0
Status,1732148794000,29,17,3,16,1602000000,0.00,84.0,3.0,0,0,0,0.0
Status,1732148794000,29,18,3,17,1602000000,29.90,0.0,0.0,0,0,0,24.9
Status,1732148794000,29,19,6,21,1575420030,28.00,297.0,64.0,1,0,0,23.0
Status,1732148794000,29,20,6,19,1575420030,18.40,274.0,54.0,1,0,0,13.4
Status,1732148794000,29,21,6,27,1575420030,23.50,48.0,47.0,1,0,0,18.5
Status,1732148794000,29,22,6,29,1575420030,0.00,196.0,45.0,0,0,0,0.0
Status,1732148794000,29,23,6,15,1575420030,0.00,82.0,19.0,0,0,0,0.0
Status,1732148794000,29,24,6,13,1575420030,0.00,133.0,12.0,0,0,0,0.0
Status,1732148794000,29,25,6,4,1575420030,0.00,322.0,11.0,0,0,0,0.0
Status,1732148794000,29,26,6,34,1575420030,0.00,35.0,5.0,0,0,0,0.0
Status,1732148794000,29,27,6,7,1575420030,0.00,162.0,3.0,0,0,0,0.0
Status,1732148794000,29,28,6,30,1575420030,0.00,67.0,1.0,0,0,0,0.0
Fix,GPS,37.4244216667,-122.1707766667,3.8000000000000007,0.0,2.7,29.55,1732148795000,2.7,179.9,27679057000000,43.9,0,,,
Raw,1732148794999,18343000000,,701335.8137915531,-1416183994656999936,0.0,110.52895133938715,2100.651209492132,0.0,0,22,0.0,16431,347212931071552,235,28.22100067138672,612.9448400994456,0.14999,16,0.0,0.0,1575420030,,,,0,14.344560282351067,1,6.0,28.22100067138672,0.0,0.0,0.0,66.7128,C,27679057000000,
Raw,1732148794999,18343000000,,701335.8137915531,-1416183994656999936,0.0,110.52895133938715,2100.651209492132,0.0,0,7,0.0,16431,347212923168500,396,24.45400047302246,1121.9644331398954,0.14999,16,0.0,0.0,1575420030,,,,0,9.271073011709477,1,6.0,24.45400047302246,0.0,0.0,0.0,66.7128,C,27679057000000,
Raw,1732148794999,18343000000,,701335.8137915531,-1416183994656999936,0.0,110.52895133938715,2100.651209492132,0.0,0,15,0.0,16431,347212924875812,797,21.75200080871582,406.07526898132284,0.14999,16,0.0,0.0,1575420030,,,,0,5.193457654849682,1,6.0,21.75200080871582,0.0,0.0,0.0,66.7128,C,27679057000000,
Raw,1732148794999,18343000000,,701335.8137915531,-1416183994656999936,0.0,110.52895133938715,2100.651209492132,0.0,0,21,0.0,16431,347212919268368,74,32.26900100708008,873.9283381681117,0.14999,16,0.0,0.0,1575420030,,,,0,19.249050244505362,1,6.0,32.26900100708008,0.0,0.0,0.0,66.7128,C,27679057000000,
Raw,1732148794999,18343000000,,701335.8137915531,-1416183994656999936,0.0,110.52895133938715,2100.651209492132,0.0,0,19,0.0,16431,347212925608924,396,22.62299919128418,11.592536304934569,0.14999,16,0.0,0.0,1575420030,,,,0,6.537857989723385,1,6.0,22.62299919128418,0.0,0.0,0.0,66.7128,C,27679057000000,
Raw,1732148794999,18343000000,,701335.8137915531,-1416183994656999936,0.0,110.52895133938715,2100.651209492132,0.0,0,13,0.0,16431,347212931033548,316,25.784000396728516,616.748530009851,0.14999,16,0.0,0.0,1575420030,,,,0,11.117867331053692,1,6.0,25.784000396728516,0.0,0.0,0.0,66.7128,C,27679057000000,
Raw,1732148794999,18343000000,,701335.8137915531,-1416183994656999936,0.0,110.52895133938715,2100.651209492132,0.0,0,2,0.0,16431,347212920804891,74,30.902999877929688,640.5626960336272,0.14999,16,0.0,0.0,1575420030,,,,0,17.636550849735507,1,6.0,30.902999877929688,0.0,0.0,0.0,66.7128,C,27679057000000,
Raw,1732148794999,18343000000,,701335.8137915531,-1416183994656999936,0.0,110.52895133938715,2100.651209492132,0.0,0,30,0.0,16431,347212930325686,396,24.042999267578125,900.0432643378823,0.14999,16,0.0,0.0,1575420030,,,,0,8.67693447504887,1,6.0,24.042999267578125,0.0,0.0,0.0,66.7128,C,27679057000000,
Raw,1732148794999,18343000000,,701335.8137915531,-1416183994656999936,0.0,110.52895133938715,2100.651209492132,0.0,0,27,0.0,16431,347212917715792,487,18.5,920.9490870484624,0.14999,16,0.0,0.0,1575420030,,,,0,1.7667691273392028,6,6.0,18.5,0.0,0.0,17.225950391007324,66.7128,C,27679057000000,
Raw,1732148794999,18343000000,,701335.8137915531,-1416183994656999936,0.0,110.52895133938715,2100.651209492132,0.0,0,19,0.0,16431,347212920623947,487,13.354999542236328,643.2569589649248,0.14999,16,0.0,0.0,1575420030,,,,0,0.0,6,6.0,13.354999542236328,0.0,0.0,17.225950391007324,66.7128,C,27679057000000,
Raw,1732148794999,18343000000,,701335.8137915531,-1416183994656999936,0.0,110.52895133938715,2100.651209492132,0.0,0,21,0.0,16431,347212920554211,316,23.0,541.15069827582,0.14999,16,0.0,0.0,1575420030,,,,0,8.469500386501602,6,6.0,23.0,0.0,0.0,17.225950391007324,66.7128,C,27679057000000,
Raw,1732148794999,18343000000,,701335.8137915531,-1416183994656999936,0.0,110.52895133938715,2100.651209492132,0.0,0,9,0.0,17,94789,316,5.0,853.408688703649,0.14999,16,0.0,0.0,1600875010,,,,0,9.68166412066736,3,6.0,24.0,0.0,0.0,26.331501290787234,66.7128,C,27679057000000,
Raw,1732148794999,18343000000,,701335.8137915531,-1416183994656999936,0.0,110.52895133938715,2100.651209492132,0.0,0,8,0.0,17,59247,487,5.0,825.2874746435533,0.14999,16,0.0,0.0,1605374980,,,,0,0.0,3,6.0,18.0,0.0,0.0,26.331501290787234,66.7128,C,27679057000000,
Raw,1732148794999,18343000000,,701335.8137915531,-1416183994656999936,0.0,110.52895133938715,2100.651209492132,0.0,0,14,0.0,16431,347212932166049,396,24.332000732421875,751.1302886919087,0.14999,16,0.0,0.0,1575420030,,,,0,9.07750757208911,1,6.0,24.332000732421875,0.0,0.0,0.0,66.7128,C,27679057000000,
Fix,FLP,37.4244186000,-122.1707827000,2.0,0.06691201,2.65,,1732148795210,2.7,,27679057000000,0.8409757,0,,,
Status,1732148795000,29,0,1,14,1575420030,36.50,15.0,68.0,1,0,0,31.5
Status,1732148795000,29,1,1,22,1575420030,31.10,311.0,68.0,1,0,0,26.1
Status,1732148795000,29,2,1,17,1575420030,0.00,167.0,65.0,0,0,0,0.0
Status,1732148795000,29,3,1,30,1575420030,31.00,109.0,57.0,1,0,0,26.0
Status,1732148795000,29,4,1,13,1575420030,33.90,275.0,56.0,1,0,0,28.900002
Status,1732148795000,29,5,2,135,1575420030,0.00,197.0,45.0,0,0,0,0.0
Status,1732148795000,29,6,1,19,1575420030,25.30,194.0,36.0,1,0,0,20.3
Status,1732148795000,29,7,1,15,1575420030,26.80,301.0,27.0,1,0,0,21.8
Status,1732148795000,29,8,1,7,1575420030,34.50,118.0,23.0,1,0,0,29.5
Status,1732148795000,29,9,1,2,1575420030,32.70,69.0,21.0,1,0,0,27.7
Status,1732148795000,29,10,1,21,1575420030,29.10,51.0,13.0,1,0,0,24.1
Status,1732148795000,29,11,3,9,1602000000,28.50,48.0,46.0,1,0,0,23.5
Status,1732148795000,29,12,3,8,1602000000,22.10,275.0,38.0,1,0,0,17.1
Status,1732148795000,29,13,3,19,1602000000,0.00,60.0,35.0,0,0,0,0.0
Status,1732148795000,29,14,3,20,1602000000,0.00,139.0,29.0,0,0,0,0.0
Status,1732148795000,29,15,3,11,1602000000,0.00,288.0,12.0,0,0,0,0.0
Status,1732148795000,29,16,3,18,1602000000,0.00,24.0,10.0,0,0,0,0.0
Status,1732148795000,29,17,3,16,1602000000,0.00,84.0,3.0,0,0,0,0.0
Status,1732148795000,29,18,3,17,1602000000,31.00,0.0,0.0,0,0,0,26.0
Status,1732148795000,29,19,6,21,1575420030,27.70,297.0,64.0,1,0,0,22.7
Status,1732148795000,29,20,6,19,1575420030,18.40,274.0,54.0,1,0,0,13.4
Status,1732148795000,29,21,6,27,1575420030,23.00,48.0,47.0,1,0,0,18.0
Status,1732148795000,29,22,6,29,1575420030,21.90,196.0,45.0,1,0,0,16.9
Status,1732148795000,29,23,6,15,1575420030,0.00,82.0,19.0,0,0,0,0.0
Status,1732148795000,29,24,6,13,1575420030,0.00,133.0,12.0,0,0,0,0.0
Status,1732148795000,29,25,6,4,1575420030,0.00,322.0,11.0,0,0,0,0.0
Status,1732148795000,29,26,6,34,1575420030,0.00,35.0,5.0,0,0,0,0.0
Status,1732148795000,29,27,6,7,1575420030,0.00,162.0,3.0,0,0,0,0.0
Status,1732148795000,29,28,6,30,1575420030,0.00,67.0,1.0,0,0,0,0.0
Fix,GPS,37.4244216667,-122.1707783333,3.8000000000000007,0.0,2.7,29.55,1732148796000,2.7,179.9,27680057000000,42.9,0,,,
Raw,1732148795999,19343000000,,701316.32113974,-1416183994656999936,0.0,109.59535767847221,2093.8339712018515,0.0,0,22,0.0,16431,347213931069505,316,26.11400032043457,611.772508424789,0.14999,16,0.0,0.0,1575420030,,,,0,11.57016332574346,1,6.0,26.11400032043457,0.0,0.0,0.0,66.7128,C,27680057000000,
Raw,1732148795999,19343000000,,701316.32113974,-1416183994656999936,0.0,109.59535767847221,2093.8339712018515,0.0,0,7,0.0,16431,347213923164758,235,29.527000427246094,1121.0154735303788,0.14999,16,0.0,0.0,1575420030,,,,0,15.970333645892278,1,6.0,29.527000427246094,0.0,0.0,0.0,66.7128,C,27680057000000,
Raw,1732148795999,19343000000,,701316.32113974,-1416183994656999936,0.0,109.59535767847221,2093.8339712018515,0.0,0,15,0.0,16431,347213924874460,487,21.75200080871582,404.8059785920347,0.14999,16,0.0,0.0,1575420030,,,,0,5.193457654849682,1,6.0,21.75200080871582,0.0,0.0,0.0,66.7128,C,27680057000000,
Raw,1732148795999,19343000000,,701316.32113974,-1416183994656999936,0.0,109.59535767847221,2093.8339712018515,0.0,0,21,0.0,16431,347213919265450,396,24.141000747680664,872.2723743807034,0.14999,16,0.0,0.0,1575420030,,,,0,8.82932241245271,1,6.0,24.141000747680664,0.0,0.0,0.0,66.7128,C,27680057000000,
Raw,1732148795999,19343000000,,701316.32113974,-1416183994656999936,0.0,109.59535767847221,2093.8339712018515,0.0,0,19,0.0,16431,347213925608906,487,20.27899932861328,9.969976118781519,0.14999,16,0.0,0.0,1575420030,,,,0,2.732862718830304,1,6.0,20.27899932861328,0.0,0.0,0.0,66.7128,C,27680057000000,
Raw,1732148795999,19343000000,,701316.32113974,-1416183994656999936,0.0,109.59535767847221,2093.8339712018515,0.0,0,13,0.0,16431,347213931031497,316,28.908000946044922,615.7384775830178,0.14999,16,0.0,0.0,1575420030,,,,0,15.20751831864488,1,6.0,28.908000946044922,0.0,0.0,0.0,66.7128,C,27680057000000,
Raw,1732148795999,19343000000,,701316.32113974,-1416183994656999936,0.0,109.59535767847221,2093.8339712018515,0.0,0,2,0.0,16431,347213920802757,235,27.701000213623047,639.8670741677067,0.14999,16,0.0,0.0,1575420030,,,,0,13.679286753790254,1,6.0,27.701000213623047,0.0,0.0,0.0,66.7128,C,27680057000000,
Raw,1732148795999,19343000000,,701316.32113974,-1416183994656999936,0.0,109.59535767847221,2093.8339712018515,0.0,0,29,0.0,16431,347213917826874,797,16.899999618530273,1074.18669082581,0.14999,16,0.0,0.0,1575420030,,,,0,0.0,6,6.0,16.899999618530273,0.0,0.0,12.41959729770664,66.7128,C,27680057000000,
Raw,1732148795999,19343000000,,701316.32113974,-1416183994656999936,0.0,109.59535767847221,2093.8339712018515,0.0,0,30,0.0,16431,347213930322681,316,25.96299934387207,898.5168266148688,0.14999,16,0.0,0.0,1575420030,,,,0,11.38456033134629,1,6.0,25.96299934387207,0.0,0.0,0.0,66.7128,C,27680057000000,
Raw,1732148795999,19343000000,,701316.32113974,-1416183994656999936,0.0,109.59535767847221,2093.8339712018515,0.0,0,27,0.0,16431,347213917712721,316,18.0,920.4048731609721,0.14999,16,0.0,0.0,1575420030,,,,0,0.9332365160691296,6,6.0,18.0,0.0,0.0,12.41959729770664,66.7128,C,27680057000000,
Raw,1732148795999,19343000000,,701316.32113974,-1416183994656999936,0.0,109.59535767847221,2093.8339712018515,0.0,0,19,0.0,16431,347213920621803,487,13.406999588012695,642.4005909789161,0.14999,16,0.0,0.0,1575420030,,,,0,0.0,6,6.0,13.406999588012695,0.0,0.0,12.41959729770664,66.7128,C,27680057000000,
Raw,1732148795999,19343000000,,701316.32113974,-1416183994656999936,0.0,109.59535767847221,2093.8339712018515,0.0,0,21,0.0,16431,347213920552411,396,22.700000762939453,539.9815257734656,0.14999,16,0.0,0.0,1575420030,,,,0,8.14875417213085,6,6.0,22.700000762939453,0.0,0.0,12.41959729770664,66.7128,C,27680057000000,
Raw,1732148795999,19343000000,,701316.32113974,-1416183994656999936,0.0,109.59535767847221,2093.8339712018515,0.0,0,9,0.0,17,91945,396,5.0,851.9905551783057,0.14999,16,0.0,0.0,1600875010,,,,0,9.12108964866249,3,6.0,23.0,0.0,0.0,26.70790539311854,66.7128,C,27680057000000,
Raw,1732148795999,19343000000,,701316.32113974,-1416183994656999936,0.0,109.59535767847221,2093.8339712018515,0.0,0,8,0.0,17,56490,487,5.0,825.5272861424426,0.14999,16,0.0,0.0,1605374980,,,,0,0.0,3,6.0,18.0,0.0,0.0,26.70790539311854,66.7128,C,27680057000000,
Raw,1732148795999,19343000000,,701316.32113974,-1416183994656999936,0.0,109.59535767847221,2093.8339712018515,0.0,0,14,0.0,16431,347213932163546,74,31.488000869750977,750.927358329901,0.14999,16,0.0,0.0,1575420030,,,,0,18.33811381665756,1,6.0,31.488000869750977,0.0,0.0,0.0,66.7128,C,27680057000000,
Fix,FLP,37.4244204000,-122.1707805000,2.0,0.06893585,2.666,,1732148796209,2.7,,27680057000000,0.85095584,0,,,
Status,1732148796000,29,0,1,14,1575420030,30.50,15.0,68.0,1,0,0,25.5
Status,1732148796000,29,1,1,22,1575420030,27.70,311.0,68.0,1,0,0,22.7
Status,1732148796000,29,2,1,17,1575420030,0.00,167.0,65.0,0,0,0,0.0
Status,1732148796000,29,3,1,30,1575420030,33.70,109.0,57.0,1,0,0,28.7
Status,1732148796000,29,4,1,13,1575420030,34.20,275.0,56.0,1,0,0,29.2
Status,1732148796000,29,5,2,135,1575420030,0.00,197.0,45.0,0,0,0,0.0
Status,1732148796000,29,6,1,19,1575420030,25.40,194.0,36.0,1,0,0,20.4
Status,1732148796000,29,7,1,15,1575420030,25.10,301.0,27.0,1,0,0,20.1
Status,1732148796000,29,8,1,7,1575420030,32.60,118.0,23.0,1,0,0,27.599998
Status,1732148796000,29,9,1,2,1575420030,33.10,69.0,21.0,1,0,0,28.099998
Status,1732148796000,29,10,1,21,1575420030,33.40,51.0,13.0,1,0,0,28.400002
Status,1732148796000,29,11,3,9,1602000000,26.70,48.0,46.0,1,0,0,21.7
Status,1732148796000,29,12,3,8,1602000000,29.40,275.0,38.0,1,0,0,24.4
Status,1732148796000,29,13,3,19,1602000000,0.00,60.0,35.0,0,0,0,0.0
Status,1732148796000,29,14,3,20,1602000000,0.00,139.0,29.0,0,0,0,0.0
Status,1732148796000,29,15,3,11,1602000000,0.00,288.0,12.0,0,0,0,0.0
Status,1732148796000,29,16,3,18,1602000000,22.10,24.0,10.0,1,0,0,17.1
Status,1732148796000,29,17,3,16,1602000000,0.00,84.0,3.0,0,0,0,0.0
Status,1732148796000,29,18,3,17,1602000000,29.60,0.0,0.0,0,0,0,24.6
Status,1732148796000,29,19,6,21,1575420030,22.80,297.0,64.0,1,0,0,17.8
Status,1732148796000,29,20,6,19,1575420030,18.50,274.0,54.0,1,0,0,13.5
Status,1732148796000,29,21,6,27,1575420030,28.10,48.0,47.0,1,0,0,23.1
Status,1732148796000,29,22,6,29,1575420030,23.40,196.0,45.0,1,0,0,18.4
Status,1732148796000,29,23,6,15,1575420030,0.00,82.0,19.0,0,0,0,0.0
Status,1732148796000,29,24,6,13,1575420030,0.00,133.0,12.0,0,0,0,0.0
Status,1732148796000,29,25,6,4,1575420030,0.00,322.0,11.0,0,0,0,0.0
Status,1732148796000,29,26,6,34,1575420030,0.00,35.0,5.0,0,0,0,0.0
Status,1732148796000,29,27,6,7,1575420030,0.00,162.0,3.0,0,0,0,0.0
Status,1732148796000,29,28,6,30,1575420030,0.00,67.0,1.0,0,0,0,0.0
Fix,GPS,37.4244216667,-122.1707800000,3.900000000000002,0.0,2.6,29.55,1732148797000,2.4,179.9,27681057000000,40.3,0,,,
Raw,1732148796999,20343000000,,701291.8771458887,-1416183994656999936,0.0,102.57366958350093,2090.911094028401,0.0,0,22,0.0,16431,347214931067468,396,22.740999221801758,610.9960024562461,0.14999,16,0.0,0.0,1575420030,,,,0,6.732326328475342,1,6.0,22.740999221801758,0.0,0.0,0.0,66.7128,C,27681057000000,
Raw,1732148796999,20343000000,,701291.8771458887,-1416183994656999936,0.0,102.57366958350093,2090.911094028401,0.0,0,7,0.0,16431,347214923161016,235,27.618000030517578,1120.7795576928618,0.14999,16,0.0,0.0,1575420030,,,,0,13.563279825558219,1,6.0,27.618000030517578,0.0,0.0,0.0,66.7128,C,27681057000000,
Raw,1732148796999,20343000000,,701291.8771458887,-1416183994656999936,0.0,102.57366958350093,2090.911094028401,0.0,0,15,0.0,16431,347214924873047,487,20.052000045776367,404.48118780430684,0.14999,16,0.0,0.0,1575420030,,,,0,2.316692599066384,1,6.0,20.052000045776367,0.0,0.0,0.0,66.7128,C,27681057000000,
Raw,1732148796999,20343000000,,701291.8771458887,-1416183994656999936,0.0,102.57366958350093,2090.911094028401,0.0,0,21,0.0,16431,347214919262542,235,28.354999542236328,871.4350078869246,0.14999,16,0.0,0.0,1575420030,,,,0,14.50321107908269,1,6.0,28.354999542236328,0.0,0.0,0.0,66.7128,C,27681057000000,
Raw,1732148796999,20343000000,,701291.8771458887,-1416183994656999936,0.0,102.57366958350093,2090.911094028401,0.0,0,19,0.0,16431,347214925608882,396,20.350000381469727,9.177395538229735,0.14999,16,0.0,0.0,1575420030,,,,0,5.116590873214478,1,6.0,20.350000381469727,0.0,0.0,0.0,66.7128,C,27681057000000,
Raw,1732148796999,20343000000,,701291.8771458887,-1416183994656999936,0.0,102.57366958350093,2090.911094028401,0.0,0,13,0.0,16431,347214931029441,235,29.190000534057617,615.0504748973559,0.14999,16,0.0,0.0,1575420030,,,,0,15.562576864976556,1,6.0,29.190000534057617,0.0,0.0,0.0,66.7128,C,27681057000000,
Raw,1732148796999,20343000000,,701291.8771458887,-1416183994656999936,0.0,102.57366958350093,2090.911094028401,0.0,0,14,0.0,16431,347214932161076,316,25.516000747680664,749.2004989993553,0.14999,16,0.0,0.0,1575420030,,,,0,10.762485914201859,1,6.0,25.516000747680664,0.0,0.0,0.0,66.7128,C,27681057000000,
Raw,1732148796999,20343000000,,701291.8771458887,-1416183994656999936,0.0,102.57366958350093,2090.911094028401,0.0,0,2,0.0,16431,347214920800629,235,28.062999725341797,638.1255804360547,0.14999,16,0.0,0.0,1575420030,,,,0,14.128415016826741,1,6.0,28.062999725341797,0.0,0.0,0.0,66.7128,C,27681057000000,
Raw,1732148796999,20343000000,,701291.8771458887,-1416183994656999936,0.0,102.57366958350093,2090.911094028401,0.0,0,29,0.0,16431,347214917823277,396,18.399999618530273,1073.4274673880975,0.14999,16,0.0,0.0,1575420030,,,,0,1.5366658792327086,6,6.0,18.399999618530273,0.0,0.0,14.551569896169179,66.7128,C,27681057000000,
Raw,1732148796999,20343000000,,701291.8771458887,-1416183994656999936,0.0,102.57366958350093,2090.911094028401,0.0,0,30,0.0,16431,347214930319684,396,28.746999740600586,897.6933047291208,0.14999,16,0.0,0.0,1575420030,,,,0,15.012047011383707,1,6.0,28.746999740600586,0.0,0.0,0.0,66.7128,C,27681057000000,
Raw,1732148796999,20343000000,,701291.8771458887,-1416183994656999936,0.0,102.57366958350093,2090.911094028401,0.0,0,27,0.0,16431,347214917709650,316,23.100000381469727,920.0697221464293,0.14999,16,0.0,0.0,1575420030,,,,0,8.67693447504887,6,6.0,23.100000381469727,0.0,0.0,14.551569896169179,66.7128,C,27681057000000,
Raw,1732148796999,20343000000,,701291.8771458887,-1416183994656999936,0.0,102.57366958350093,2090.911094028401,0.0,0,19,0.0,16431,347214920619663,487,13.520999908447266,641.4409459336712,0.14999,16,0.0,0.0,1575420030,,,,0,0.0,6,6.0,13.520999908447266,0.0,0.0,14.551569896169179,66.7128,C,27681057000000,
Raw,1732148796999,20343000000,,701291.8771458887,-1416183994656999936,0.0,102.57366958350093,2090.911094028401,0.0,0,21,0.0,16431,347214920550609,487,17.799999237060547,539.992861627021,0.14999,16,0.0,0.0,1575420030,,,,0,0.5499733303289425,6,6.0,17.799999237060547,0.0,0.0,14.551569896169179,66.7128,C,27681057000000,
Raw,1732148796999,20343000000,,701291.8771458887,-1416183994656999936,0.0,102.57366958350093,2090.911094028401,0.0,0,18,0.0,17,676367,797,5.0,1219.7145210413603,0.14999,16,0.0,0.0,1600312450,,,,0,0.0,3,6.0,17.0,0.0,0.0,25.51207851115736,66.7128,C,27681057000000,
Raw,1732148796999,20343000000,,701291.8771458887,-1416183994656999936,0.0,102.57366958350093,2090.911094028401,0.0,0,9,0.0,17,89106,396,5.0,851.1295618663817,0.14999,16,0.0,0.0,1600875010,,,,0,6.771158772865812,3,6.0,21.0,0.0,0.0,25.51207851115736,66.7128,C,27681057000000,
Raw,1732148796999,20343000000,,701291.8771458887,-1416183994656999936,0.0,102.57366958350093,2090.911094028401,0.0,0,8,0.0,17,53741,316,5.0,824.9397023786242,0.14999,16,0.0,0.0,1605374980,,,,0,10.333221880654373,3,6.0,24.0,0.0,0.0,25.51207851115736,66.7128,C,27681057000000,
Fix,FLP,37.4244213000,-122.1707802000,2.0,0.06756738,2.666,,1732148797209,2.4,,27681057000000,0.8609671,0,,,
Status,1732148797000,29,0,1,14,1575420030,30.80,15.0,68.0,1,0,0,25.8
Status,1732148797000,29,1,1,22,1575420030,31.00,311.0,68.0,1,0,0,26.0
Status,1732148797000,29,2,1,17,1575420030,25.20,167.0,65.0,1,0,0,20.2
Status,1732148797000,29,3,1,30,1575420030,37.40,109.0,57.0,1,0,0,32.4
Status,1732148797000,29,4,1,13,1575420030,32.20,275.0,56.0,1,0,0,27.2
Status,1732148797000,29,5,2,135,1575420030,0.00,197.0,45.0,0,0,0,0.0
Status,1732148797000,29,6,1,19,1575420030,25.50,194.0,36.0,1,0,0,20.5
Status,1732148797000,29,7,1,15,1575420030,25.10,301.0,27.0,1,0,0,20.1
Status,1732148797000,29,8,1,7,1575420030,34.40,118.0,23.0,1,0,0,29.400002
Status,1732148797000,29,9,1,2,1575420030,0.00,69.0,21.0,0,0,0,0.0
Status,1732148797000,29,10,1,21,1575420030,29.40,51.0,13.0,1,0,0,24.4
Status,1732148797000,29,11,3,9,1602000000,29.10,48.0,46.0,1,0,0,24.1
Status,1732148797000,29,12,3,8,1602000000,25.40,275.0,38.0,1,0,0,20.4
Status,1732148797000,29,13,3,19,1602000000,0.00,60.0,35.0,0,0,0,0.0
Status,1732148797000,29,14,3,20,1602000000,0.00,139.0,29.0,0,0,0,0.0
Status,1732148797000,29,15,3,11,1602000000,0.00,288.0,12.0,0,0,0,0.0
Status,1732148797000,29,16,3,18,1602000000,22.10,24.0,10.0,1,0,0,17.1
Status,1732148797000,29,17,3,16,1602000000,0.00,84.0,3.0,0,0,0,0.0
Status,1732148797000,29,18,3,17,1602000000,31.30,0.0,0.0,0,0,0,26.3
Status,1732148797000,29,19,6,21,1575420030,25.10,297.0,64.0,1,0,0,20.1
Status,1732148797000,29,20,6,19,1575420030,18.60,274.0,54.0,1,0,0,13.6
Status,1732148797000,29,21,6,27,1575420030,27.10,48.0,47.0,1,0,0,22.1
Status,1732148797000,29,22,6,29,1575420030,25.50,196.0,45.0,1,0,0,20.5
Status,1732148797000,29,23,6,15,1575420030,0.00,82.0,19.0,0,0,0,0.0
Status,1732148797000,29,24,6,13,1575420030,0.00,133.0,12.0,0,0,0,0.0
Status,1732148797000,29,25,6,4,1575420030,0.00,322.0,11.0,0,0,0,0.0
Status,1732148797000,29,26,6,34,1575420030,0.00,35.0,5.0,0,0,0,0.0
Status,1732148797000,29,27,6,7,1575420030,0.00,162.0,3.0,0,0,0,0.0
Status,1732148797000,29,28,6,30,1575420030,0.00,67.0,1.0,0,0,0,0.0
Fix,GPS,37.4244266667,-122.1707800000,4.0,0.0,2.6,29.55,1732148798000,2.6,179.9,27682057000000,41.5,0,,,
Raw,1732148797999,21343000000,,701191.0261264811,-1416183994656999936,0.0,104.40838408234244,2088.5217717926603,0.0,0,22,0.0,16431,347215931065430,316,26.011999130249023,610.7522816048055,0.14999,16,0.0,0.0,1575420030,,,,0,11.45927812230947,1,6.0,26.011999130249023,0.0,0.0,0.0,66.7128,C,27682057000000,
Raw,1732148797999,21343000000,,701191.0261264811,-1416183994656999936,0.0,104.40838408234244,2088.5217717926603,0.0,0,7,0.0,16431,347215923157277,235,29.444000244140625,1120.3124647762809,0.14999,16,0.0,0.0,1575420030,,,,0,15.858974561113433,1,6.0,29.444000244140625,0.0,0.0,0.0,66.7128,C,27682057000000,
Raw,1732148797999,21343000000,,701191.0261264811,-1416183994656999936,0.0,104.40838408234244,2088.5217717926603,0.0,0,15,0.0,16431,347215924871699,487,20.052000045776367,404.2108927387939,0.14999,16,0.0,0.0,1575420030,,,,0,2.316692599066384,1,6.0,20.052000045776367,0.0,0.0,0.0,66.7128,C,27682057000000,
Raw,1732148797999,21343000000,,701191.0261264811,-1416183994656999936,0.0,104.40838408234244,2088.5217717926603,0.0,0,21,0.0,16431,347215919259635,396,24.423999786376953,870.5940176366814,0.14999,16,0.0,0.0,1575420030,,,,0,9.223084549100385,1,6.0,24.423999786376953,0.0,0.0,0.0,66.7128,C,27682057000000,
Raw,1732148797999,21343000000,,701191.0261264811,-1416183994656999936,0.0,104.40838408234244,2088.5217717926603,0.0,0,19,0.0,16431,347215925608869,396,20.458999633789062,8.317821921502356,0.14999,16,0.0,0.0,1575420030,,,,0,6.405750657752846,1,6.0,20.458999633789062,0.0,0.0,0.0,66.7128,C,27682057000000,
Raw,1732148797999,21343000000,,701191.0261264811,-1416183994656999936,0.0,104.40838408234244,2088.5217717926603,0.0,0,13,0.0,16431,347215931027385,235,27.19099998474121,614.6715600547427,0.14999,16,0.0,0.0,1575420030,,,,0,13.021176668715693,1,6.0,27.19099998474121,0.0,0.0,0.0,66.7128,C,27682057000000,
Raw,1732148797999,21343000000,,701191.0261264811,-1416183994656999936,0.0,104.40838408234244,2088.5217717926603,0.0,0,17,0.0,16431,347215931937681,487,20.16699981689453,378.5086334510135,0.14999,16,0.0,0.0,1575420030,,,,0,2.527269933938893,1,6.0,20.16699981689453,0.0,0.0,0.0,66.7128,C,27682057000000,
Raw,1732148797999,21343000000,,701191.0261264811,-1416183994656999936,0.0,104.40838408234244,2088.5217717926603,0.0,0,14,0.0,16431,347215932158588,316,25.757999420166016,748.5555632655206,0.14999,16,0.0,0.0,1575420030,,,,0,11.079090973625956,1,6.0,25.757999420166016,0.0,0.0,0.0,66.7128,C,27682057000000,
Raw,1732148797999,21343000000,,701191.0261264811,-1416183994656999936,0.0,104.40838408234244,2088.5217717926603,0.0,0,29,0.0,16431,347215917819711,396,20.5,1073.0305266799946,0.14999,16,0.0,0.0,1575420030,,,,0,4.9607859846894415,6,6.0,20.5,0.0,0.0,9.734613728894113,66.7128,C,27682057000000,
Raw,1732148797999,21343000000,,701191.0261264811,-1416183994656999936,0.0,104.40838408234244,2088.5217717926603,0.0,0,30,0.0,16431,347215930316686,74,32.44599914550781,898.9759286838613,0.14999,16,0.0,0.0,1575420030,,,,0,19.45890075329781,1,6.0,32.44599914550781,0.0,0.0,0.0,66.7128,C,27682057000000,
Raw,1732148797999,21343000000,,701191.0261264811,-1416183994656999936,0.0,104.40838408234244,2088.5217717926603,0.0,0,27,0.0,16431,347215917706583,396,22.100000381469727,920.6625315372758,0.14999,16,0.0,0.0,1575420030,,,,0,7.290897366118185,6,6.0,22.100000381469727,0.0,0.0,9.734613728894113,66.7128,C,27682057000000,
Raw,1732148797999,21343000000,,701191.0261264811,-1416183994656999936,0.0,104.40838408234244,2088.5217717926603,0.0,0,19,0.0,16431,347215920617522,487,13.628999710083008,641.710125997195,0.14999,16,0.0,0.0,1575420030,,,,0,0.0,6,6.0,13.628999710083008,0.0,0.0,9.734613728894113,66.7128,C,27682057000000,
Raw,1732148797999,21343000000,,701191.0261264811,-1416183994656999936,0.0,104.40838408234244,2088.5217717926603,0.0,0,21,0.0,16431,347215920548809,487,20.100000381469727,538.6934661840285,0.14999,16,0.0,0.0,1575420030,,,,0,4.308017732102313,6,6.0,20.100000381469727,0.0,0.0,9.734613728894113,66.7128,C,27682057000000,
Raw,1732148797999,21343000000,,701191.0261264811,-1416183994656999936,0.0,104.40838408234244,2088.5217717926603,0.0,0,18,0.0,17,672302,487,5.0,1219.0440347114381,0.14999,16,0.0,0.0,1600312450,,,,0,0.0,3,6.0,18.0,0.0,0.0,11.328529065112198,66.7128,C,27682057000000,
Raw,1732148797999,21343000000,,701191.0261264811,-1416183994656999936,0.0,104.40838408234244,2088.5217717926603,0.0,0,9,0.0,17,86269,396,5.0,850.8268974799682,0.14999,16,0.0,0.0,1600875010,,,,0,9.919648586661514,3,6.0,22.0,0.0,0.0,11.328529065112198,66.7128,C,27682057000000,
Raw,1732148797999,21343000000,,701191.0261264811,-1416183994656999936,0.0,104.40838408234244,2088.5217717926603,0.0,0,8,0.0,17,50985,487,5.0,826.6605094535435,0.14999,16,0.0,0.0,1605374980,,,,0,4.809093641875393,3,6.0,20.0,0.0,0.0,11.328529065112198,66.7128,C,27682057000000,
Fix,FLP,37.4244243000,-122.1707801000,2.0,0.07221985,2.65,,1732148798209,2.6,,27682057000000,0.8790228,0,,,
Status,1732148798000,29,0,1,14,1575420030,31.50,15.0,68.0,1,0,0,26.5
Status,1732148798000,29,1,1,22,1575420030,36.20,311.0,68.0,1,0,0,31.2
Status,1732148798000,29,2,1,17,1575420030,25.40,167.0,65.0,1,0,0,20.4
Status,1732148798000,29,3,1,30,1575420030,31.00,109.0,57.0,1,0,0,26.0
Status,1732148798000,29,4,1,13,1575420030,31.20,275.0,56.0,1,0,0,26.2
Status,1732148798000,29,5,2,135,1575420030,0.00,197.0,45.0,0,0,0,0.0
Status,1732148798000,29,6,1,19,1575420030,30.00,194.0,36.0,1,0,0,25.0
Status,1732148798000,29,7,1,15,1575420030,30.50,301.0,27.0,1,0,0,25.5
Status,1732148798000,29,8,1,7,1575420030,34.80,118.0,23.0,1,0,0,29.8
Status,1732148798000,29,9,1,2,1575420030,33.70,69.0,21.0,1,0,0,28.7
Status,1732148798000,29,10,1,21,1575420030,26.10,51.0,13.0,1,0,0,21.1
Status,1732148798000,29,11,3,9,1602000000,29.20,48.0,46.0,1,0,0,24.2
Status,1732148798000,29,12,3,8,1602000000,22.40,275.0,38.0,1,0,0,17.4
Status,1732148798000,29,13,3,19,1602000000,0.00,60.0,35.0,0,0,0,0.0
Status,1732148798000,29,14,3,20,1602000000,0.00,139.0,29.0,0,0,0,0.0
Status,1732148798000,29,15,3,11,1602000000,0.00,288.0,12.0,0,0,0,0.0
Status,1732148798000,29,16,3,18,1602000000,23.30,24.0,10.0,1,0,0,18.3
Status,1732148798000,29,17,3,16,1602000000,0.00,84.0,3.0,0,0,0,0.0
Status,1732148798000,29,18,3,17,1602000000,26.90,0.0,0.0,0,0,0,21.9
Status,1732148798000,29,19,6,21,1575420030,27.20,297.0,64.0,1,0,0,22.2
Status,1732148798000,29,20,6,19,1575420030,22.40,274.0,54.0,1,0,0,17.4
Status,1732148798000,29,21,6,27,1575420030,25.10,48.0,47.0,1,0,0,20.1
Status,1732148798000,29,22,6,29,1575420030,22.80,196.0,45.0,1,0,0,17.8
Status,1732148798000,29,23,6,15,1575420030,0.00,82.0,19.0,0,0,0,0.0
Status,1732148798000,29,24,6,13,1575420030,0.00,133.0,12.0,0,0,0,0.0
Status,1732148798000,29,25,6,4,1575420030,0.00,322.0,11.0,0,0,0,0.0
Status,1732148798000,29,26,6,34,1575420030,0.00,35.0,5.0,0,0,0,0.0
Status,1732148798000,29,27,6,7,1575420030,0.00,162.0,3.0,0,0,0,0.0
Status,1732148798000,29,28,6,30,1575420030,0.00,67.0,1.0,0,0,0,0.0
Fix,GPS,37.4244250000,-122.1707850000,4.0,0.0,2.6,29.55,1732148799000,2.6,115.0,27683057000000,40.7,0,,,
Fix,FLP,37.4244249000,-122.1707824000,2.0,0.06986787,2.65,,1732148799210,2.6,,27683057000000,0.88902205,0,,,
Raw,1732148798999,22343000000,,701034.9285538064,-1416183994656999936,0.0,97.80564248442435,2089.1627072585607,0.0,0,22,0.0,16431,347216931063397,74,31.152999877929688,611.5861172589523,0.14999,16,0.0,0.0,1575420030,,,,0,17.94166512093946,1,6.0,31.152999877929688,0.0,0.0,0.0,66.7128,C,27683057000000,
Raw,1732148798999,22343000000,,701034.9285538064,-1416183994656999936,0.0,97.80564248442435,2089.1627072585607,0.0,0,7,0.0,16431,347216923153539,235,29.80500030517578,1120.6217849114107,0.14999,16,0.0,0.0,1575420030,,,,0,16.31738164163554,1,6.0,29.80500030517578,0.0,0.0,0.0,66.7128,C,27683057000000,
Raw,1732148798999,22343000000,,701034.9285538064,-1416183994656999936,0.0,97.80564248442435,2089.1627072585607,0.0,0,15,0.0,16431,347216924870415,396,25.464000701904297,404.2169323329013,0.14999,16,0.0,0.0,1575420030,,,,0,10.681498011487705,1,6.0,25.464000701904297,0.0,0.0,0.0,66.7128,C,27683057000000,
Raw,1732148798999,22343000000,,701034.9285538064,-1416183994656999936,0.0,97.80564248442435,2089.1627072585607,0.0,0,21,0.0,16431,347216919256730,487,21.052000045776367,871.0241296539585,0.14999,16,0.0,0.0,1575420030,,,,0,4.05000203918136,1,6.0,21.052000045776367,0.0,0.0,0.0,66.7128,C,27683057000000,
Raw,1732148798999,22343000000,,701034.9285538064,-1416183994656999936,0.0,97.80564248442435,2089.1627072585607,0.0,0,19,0.0,16431,347216925608860,316,24.959999084472656,9.081598284003606,0.14999,16,0.0,0.0,1575420030,,,,0,10.004882423516433,1,6.0,24.959999084472656,0.0,0.0,0.0,66.7128,C,27683057000000,
Raw,1732148798999,22343000000,,701034.9285538064,-1416183994656999936,0.0,97.80564248442435,2089.1627072585607,0.0,0,13,0.0,16431,347216931025334,396,26.165000915527344,614.3193588014507,0.14999,16,0.0,0.0,1575420030,,,,0,11.643308091789507,1,6.0,26.165000915527344,0.0,0.0,0.0,66.7128,C,27683057000000,
Raw,1732148798999,22343000000,,701034.9285538064,-1416183994656999936,0.0,97.80564248442435,2089.1627072585607,0.0,0,2,0.0,16431,347216920796394,235,28.72800064086914,638.3082084701783,0.14999,16,0.0,0.0,1575420030,,,,0,14.9873008703204,1,6.0,28.72800064086914,0.0,0.0,0.0,66.7128,C,27683057000000,
Raw,1732148798999,22343000000,,701034.9285538064,-1416183994656999936,0.0,97.80564248442435,2089.1627072585607,0.0,0,14,0.0,16431,347216932156083,396,26.457000732421875,748.4213913595046,0.14999,16,0.0,0.0,1575420030,,,,0,12.034951423455027,1,6.0,26.457000732421875,0.0,0.0,0.0,66.7128,C,27683057000000,
Raw,1732148798999,22343000000,,701034.9285538064,-1416183994656999936,0.0,97.80564248442435,2089.1627072585607,0.0,0,29,0.0,16431,347216917816134,487,17.799999237060547,1073.7662421591046,0.14999,16,0.0,0.0,1575420030,,,,0,0.5499733303289425,6,6.0,17.799999237060547,0.0,0.0,8.320742486587926,66.7128,C,27683057000000,
Raw,1732148798999,22343000000,,701034.9285538064,-1416183994656999936,0.0,97.80564248442435,2089.1627072585607,0.0,0,30,0.0,16431,347216930313688,316,25.98699951171875,899.1824828023334,0.14999,16,0.0,0.0,1575420030,,,,0,11.421999568786307,1,6.0,25.98699951171875,0.0,0.0,0.0,66.7128,C,27683057000000,
Raw,1732148798999,22343000000,,701034.9285538064,-1416183994656999936,0.0,97.80564248442435,2089.1627072585607,0.0,0,27,0.0,16431,347216917703515,487,20.100000381469727,920.2449632923755,0.14999,16,0.0,0.0,1575420030,,,,0,4.392347420125583,6,6.0,20.100000381469727,0.0,0.0,8.320742486587926,66.7128,C,27683057000000,
Raw,1732148798999,22343000000,,701034.9285538064,-1416183994656999936,0.0,97.80564248442435,2089.1627072585607,0.0,0,19,0.0,16431,347216920615372,487,17.399999618530273,642.1224908994798,0.14999,16,0.0,0.0,1575420030,,,,0,0.0,6,6.0,17.399999618530273,0.0,0.0,8.320742486587926,66.7128,C,27683057000000,
Raw,1732148798999,22343000000,,701034.9285538064,-1416183994656999936,0.0,97.80564248442435,2089.1627072585607,0.0,0,21,0.0,16431,347216920547011,396,22.200000762939453,539.3263691880646,0.14999,16,0.0,0.0,1575420030,,,,0,7.469380830550487,6,6.0,22.200000762939453,0.0,0.0,8.320742486587926,66.7128,C,27683057000000,
Raw,1732148798999,22343000000,,701034.9285538064,-1416183994656999936,0.0,97.80564248442435,2089.1627072585607,0.0,0,18,0.0,17,668197,487,5.0,1221.4556816539207,0.14999,16,0.0,0.0,1600312450,,,,0,1.34636819801137,3,6.0,19.0,0.0,0.0,10.965732744349117,66.7128,C,27683057000000,
Raw,1732148798999,22343000000,,701034.9285538064,-1416183994656999936,0.0,97.80564248442435,2089.1627072585607,0.0,0,9,0.0,17,83425,396,5.0,851.6001089758932,0.14999,16,0.0,0.0,1600875010,,,,0,10.093953224625755,3,6.0,23.0,0.0,0.0,10.965732744349117,66.7128,C,27683057000000,
Raw,1732148798999,22343000000,,701034.9285538064,-1416183994656999936,0.0,97.80564248442435,2089.1627072585607,0.0,0,8,0.0,17,48229,487,5.0,825.8299227830561,0.14999,16,0.0,0.0,1605374980,,,,0,0.0,3,6.0,19.0,0.0,0.0,10.965732744349117,66.7128,C,27683057000000,
Raw,1732148798999,22343000000,,701034.9285538064,-1416183994656999936,0.0,97.80564248442435,2089.1627072585607,0.0,0,17,0.0,16431,347216931936258,487,20.440000534057617,379.12910882871336,0.14999,16,0.0,0.0,1575420030,,,,0,3.03240583822336,1,6.0,20.440000534057617,0.0,0.0,0.0,66.7128,C,27683057000000,
Status,1732148799000,29,0,1,14,1575420030,33.20,15.0,68.0,1,0,0,28.2
Status,1732148799000,29,1,1,22,1575420030,35.30,311.0,68.0,1,0,0,30.3
Status,1732148799000,29,2,1,17,1575420030,37.50,167.0,65.0,1,0,0,32.5
Status,1732148799000,29,3,1,30,1575420030,38.50,109.0,57.0,1,0,0,33.5
Status,1732148799000,29,4,1,13,1575420030,28.80,275.0,56.0,1,0,0,23.8
Status,1732148799000,29,5,2,135,1575420030,0.00,197.0,45.0,0,0,0,0.0
Status,1732148799000,29,6,1,19,1575420030,25.80,194.0,36.0,1,0,0,20.8
Status,1732148799000,29,7,1,15,1575420030,30.90,301.0,27.0,1,0,0,25.9
Status,1732148799000,29,8,1,7,1575420030,33.70,118.0,23.0,1,0,0,28.7
Status,1732148799000,29,9,1,2,1575420030,28.80,69.0,21.0,1,0,0,23.8
Status,1732148799000,29,10,1,21,1575420030,26.90,51.0,13.0,1,0,0,21.9
Status,1732148799000,29,11,3,9,1602000000,26.80,48.0,46.0,1,0,0,21.8
Status,1732148799000,29,12,3,8,1602000000,26.40,275.0,38.0,1,0,0,21.4
Status,1732148799000,29,13,3,19,1602000000,0.00,60.0,35.0,0,0,0,0.0
Status,1732148799000,29,14,3,20,1602000000,0.00,139.0,29.0,0,0,0,0.0
Status,1732148799000,29,15,3,11,1602000000,0.00,288.0,12.0,0,0,0,0.0
Status,1732148799000,29,16,3,18,1602000000,23.90,24.0,10.0,1,0,0,18.9
Status,1732148799000,29,17,3,16,1602000000,22.90,84.0,3.0,0,0,0,17.9
Status,1732148799000,29,18,3,17,1602000000,27.00,0.0,0.0,0,0,0,22.0
Status,1732148799000,29,19,6,21,1575420030,26.10,297.0,64.0,1,0,0,21.1
Status,1732148799000,29,20,6,19,1575420030,22.40,274.0,54.0,1,0,0,17.4
Status,1732148799000,29,21,6,27,1575420030,25.00,48.0,47.0,1,0,0,20.0
Status,1732148799000,29,22,6,29,1575420030,22.90,196.0,45.0,1,0,0,17.9
Status,1732148799000,29,23,6,15,1575420030,0.00,82.0,19.0,0,0,0,0.0
Status,1732148799000,29,24,6,13,1575420030,0.00,133.0,12.0,0,0,0,0.0
Status,1732148799000,29,25,6,4,1575420030,0.00,322.0,11.0,0,0,0,0.0
Status,1732148799000,29,26,6,34,1575420030,0.00,35.0,5.0,0,0,0,0.0
Status,1732148799000,29,27,6,7,1575420030,0.00,162.0,3.0,0,0,0,0.0
Status,1732148799000,29,28,6,30,1575420030,0.00,67.0,1.0,0,0,0,0.0
Fix,GPS,37.4244283333,-122.1707883333,4.100000000000001,0.0,2.5,29.55,1732148800000,2.2,148.6,27684057000000,36.6,0,,,
Fix,FLP,37.4244269000,-122.1707853000,2.0,0.07081811,2.616,,1732148800209,2.2,,27684057000000,0.89901793,0,,,
Raw,1732148799999,23343000000,,700245.5803941538,-1416183994656999936,0.0,89.01349205349543,2093.287542984277,0.0,0,22,0.0,16431,347217931061358,74,30.319000244140625,612.4463412935066,0.14999,16,0.0,0.0,1575420030,,,,0,16.93293237830804,1,6.0,30.319000244140625,0.0,0.0,0.0,66.7128,C,27684057000000,
Raw,1732148799999,23343000000,,700245.5803941538,-1416183994656999936,0.0,89.01349205349543,2093.287542984277,0.0,0,7,0.0,16431,347217923149800,235,28.709999084472656,1120.8848324639948,0.14999,16,0.0,0.0,1575420030,,,,0,14.962484025900855,1,6.0,28.709999084472656,0.0,0.0,0.0,66.7128,C,27684057000000,
Raw,1732148799999,23343000000,,700245.5803941538,-1416183994656999936,0.0,89.01349205349543,2093.287542984277,0.0,0,15,0.0,16431,347217924869054,316,25.861000061035156,405.0431952652057,0.14999,16,0.0,0.0,1575420030,,,,0,11.233168444129475,1,6.0,25.861000061035156,0.0,0.0,0.0,66.7128,C,27684057000000,
Raw,1732148799999,23343000000,,700245.5803941538,-1416183994656999936,0.0,89.01349205349543,2093.287542984277,0.0,0,21,0.0,16431,347217919253817,396,21.924999237060547,872.2100271861487,0.14999,16,0.0,0.0,1575420030,,,,0,5.420058931507606,1,6.0,21.924999237060547,0.0,0.0,0.0,66.7128,C,27684057000000,
Raw,1732148799999,23343000000,,700245.5803941538,-1416183994656999936,0.0,89.01349205349543,2093.287542984277,0.0,0,19,0.0,16431,347217925608835,487,20.80699920654297,10.227680953501375,0.14999,16,0.0,0.0,1575420030,,,,0,3.60217659445211,1,6.0,20.80699920654297,0.0,0.0,0.0,66.7128,C,27684057000000,
