# 
# Header Description:
# 
# Version: v3.1.0.3 Platform: 13 Manufacturer: samsung Model: SM-S135DL GNSS Hardware Model Name: MediaTek,MT6631,MTK_MNLD_default,MNL_VER_default
# 
# Raw,utcTimeMillis,TimeNanos,LeapSecond,TimeUncertaintyNanos,FullBiasNanos,BiasNanos,BiasUncertaintyNanos,DriftNanosPerSecond,DriftUncertaintyNanosPerSecond,HardwareClockDiscontinuityCount,Svid,TimeOffsetNanos,State,ReceivedSvTimeNanos,ReceivedSvTimeUncertaintyNanos,Cn0DbHz,PseudorangeRateMetersPerSecond,PseudorangeRateUncertaintyMetersPerSecond,AccumulatedDeltaRangeState,AccumulatedDeltaRangeMeters,AccumulatedDeltaRangeUncertaintyMeters,CarrierFrequencyHz,CarrierCycles,CarrierPhase,CarrierPhaseUncertainty,MultipathIndicator,SnrInDb,ConstellationType,AgcDb,BasebandCn0DbHz,FullInterSignalBiasNanos,FullInterSignalBiasUncertaintyNanos,SatelliteInterSignalBiasNanos,SatelliteInterSignalBiasUncertaintyNanos,CodeType,ChipsetElapsedRealtimeNanos,IsFullTracking
# 
# UncalAccel,utcTimeMillis,elapsedRealtimeNanos,UncalAccelXMps2,UncalAccelYMps2,UncalAccelZMps2,BiasXMps2,BiasYMps2,BiasZMps2
# 
# Accel,utcTimeMillis,elapsedRealtimeNanos,AccelXMps2,AccelYMps2,AccelZMps2
# 
# UncalGyro,utcTimeMillis,elapsedRealtimeNanos,UncalGyroXRadPerSec,UncalGyroYRadPerSec,UncalGyroZRadPerSec,DriftXRadPerSec,DriftYRadPerSec,DriftZRadPerSec
# 
# Gyro,utcTimeMillis,elapsedRealtimeNanos,GyroXRadPerSec,GyroYRadPerSec,GyroZRadPerSec
# 
# UncalMag,utcTimeMillis,elapsedRealtimeNanos,UncalMagXMicroT,UncalMagYMicroT,UncalMagZMicroT,BiasXMicroT,BiasYMicroT,BiasZMicroT
# 
# Mag,utcTimeMillis,elapsedRealtimeNanos,MagXMicroT,MagYMicroT,MagZMicroT
# 
# Pressure,utcTimeMillis,elapsedRealtimeNanos,PressureHpa
# 
# OrientationDeg,utcTimeMillis,elapsedRealtimeNanos,yawDeg,rollDeg,pitchDeg
# 
# Fix,Provider,LatitudeDegrees,LongitudeDegrees,AltitudeMeters,SpeedMps,AccuracyMeters,BearingDegrees,UnixTimeMillis,SpeedAccuracyMps,BearingAccuracyDegrees,elapsedRealtimeNanos,VerticalAccuracyMeters,MockLocation,NumberOfUsedSignals,VerticalSpeedAccuracyMps,SolutionType
# 
# Nav,Svid,Type,Status,MessageId,Sub-messageId,Data(Bytes)
# 
# Status,UnixTimeMillis,SignalCount,SignalIndex,ConstellationType,Svid,CarrierFrequencyHz,Cn0DbHz,AzimuthDegrees,ElevationDegrees,UsedInFix,HasAlmanacData,HasEphemerisData,BasebandCn0DbHz
# 
# Agc,utcTimeMillis,TimeNanos,LeapSecond,TimeUncertaintyNanos,FullBiasNanos,BiasNanos,BiasUncertaintyNanos,DriftNanosPerSecond,DriftUncertaintyNanosPerSecond,HardwareClockDiscontinuityCount,AgcDb,CarrierFrequencyHz,ConstellationType
# 
Fix,FLP,37.4244437000,-122.1707503000,2.0,0.19511211,3.583,139.41629,1732147941813,2.9,179.9,26825661000000,0.984743,0,,,
Status,,26,0,1,14,1575420030,0.00,359.0,71.0,0,0,0,0.0
Status,,26,1,1,22,1575420030,31.90,294.0,66.0,1,0,0,26.9
Status,,26,2,1,30,1575420030,30.90,99.0,62.0,1,0,0,25.9
Status,,26,3,1,17,1575420030,25.50,171.0,58.0,1,0,0,20.5
Status,,26,4,1,13,1575420030,26.40,287.0,54.0,1,0,0,21.4
Status,,26,5,1,19,1575420030,26.90,193.0,29.0,1,0,0,21.9
Status,,26,6,1,7,1575420030,44.30,113.0,29.0,1,0,0,39.3
Status,,26,7,1,15,1575420030,0.00,307.0,24.0,0,0,0,0.0
Status,,26,8,2,131,1575420030,0.00,3.0,23.0,0,0,0,0.0
Status,,26,9,1,2,1575420030,36.80,76.0,20.0,1,0,0,31.8
Status,,26,10,1,21,1575420030,27.80,57.0,14.0,1,0,0,22.8
Status,,26,11,3,9,1602000000,23.60,38.0,49.0,1,0,0,18.6
Status,,26,12,3,8,1602000000,33.50,285.0,40.0,1,0,0,28.5
Status,,26,13,3,20,1602000000,0.00,143.0,22.0,0,0,0,0.0
Status,,26,14,3,11,1602000000,0.00,282.0,8.0,0,0,0,0.0
Status,,26,15,3,16,1602000000,36.30,78.0,7.0,1,0,0,31.3
Status,,26,16,6,21,1575420030,0.00,286.0,62.0,0,0,0,0.0
Status,,26,17,6,19,1575420030,0.00,283.0,54.0,0,0,0,0.0
Status,,26,18,6,27,1575420030,0.00,44.0,51.0,0,0,0,0.0
Status,,26,19,6,29,1575420030,0.00,198.0,51.0,0,0,0,0.0
Status,,26,20,6,15,1575420030,0.00,87.0,16.0,0,0,0,0.0
Status,,26,21,6,7,1575420030,0.00,162.0,8.0,0,0,0,0.0
Status,,26,22,6,13,1575420030,0.00,137.0,8.0,0,0,0,0.0
Status,,26,23,6,4,1575420030,0.00,324.0,7.0,0,0,0,0.0
Status,,26,24,6,34,1575420030,0.00,39.0,6.0,0,0,0,0.0
Status,,26,25,6,30,1575420030,0.00,64.0,4.0,0,0,0,0.0
Fix,GPS,37.4244333333,-122.1707333333,-8.399999999999999,0.3541289,3.0,210.88,1732147943000,2.6,179.9,26827054000000,41.9,0,,,
Raw,1732147942999,9907000000,,704414.5061514523,-1416183151092999936,0.0,100.00960810015413,2361.004400378187,0.0,0,2,0.0,16431,346360920682750,74,31.775999069213867,629.2879817539888,0.14999,16,0.0,0.0,1575420030,,,,0,18.669156763155428,1,6.0,31.775999069213867,0.0,0.0,0.0,66.7128,C,26827054000000,
Raw,1732147942999,9907000000,,704414.5061514523,-1416183151092999936,0.0,100.00960810015413,2361.004400378187,0.0,0,13,0.0,16431,346360930816701,316,21.378999710083008,584.5074577033104,0.14999,16,0.0,0.0,1575420030,,,,0,4.530378083009541,1,6.0,21.378999710083008,0.0,0.0,0.0,66.7128,C,26827054000000,
Raw,1732147942999,9907000000,,704414.5061514523,-1416183151092999936,0.0,100.00960810015413,2361.004400378187,0.0,0,19,0.0,16431,346360923769840,797,21.944000244140625,50.420389944973,0.14999,16,0.0,0.0,1575420030,,,,0,5.445527894223044,1,6.0,21.944000244140625,0.0,0.0,0.0,66.7128,C,26827054000000,
Raw,1732147942999,9907000000,,704414.5061514523,-1416183151092999936,0.0,100.00960810015413,2361.004400378187,0.0,0,22,0.0,16431,346360930933451,235,26.8799991607666,642.4543898248878,0.14999,16,0.0,0.0,1575420030,,,,0,12.58515591408567,1,6.0,26.8799991607666,0.0,0.0,0.0,66.7128,C,26827054000000,
Raw,1732147942999,9907000000,,704414.5061514523,-1416183151092999936,0.0,100.00960810015413,2361.004400378187,0.0,0,7,0.0,16431,346360924474395,42,39.34199905395508,1150.5036523843642,0.14999,16,0.0,0.0,1575420030,,,,0,27.095251222025265,1,6.0,39.34199905395508,0.0,0.0,0.0,66.7128,C,26827054000000,
Raw,1732147942999,9907000000,,704414.5061514523,-1416183151092999936,0.0,100.00960810015413,2361.004400378187,0.0,0,30,0.0,16431,346360930973963,316,25.867000579833984,910.5004963258799,0.14999,16,0.0,0.0,1575420030,,,,0,11.209021393790927,1,6.0,25.867000579833984,0.0,0.0,0.0,66.7128,C,26827054000000,
Raw,1732147942999,9907000000,,704414.5061514523,-1416183151092999936,0.0,100.00960810015413,2361.004400378187,0.0,0,21,0.0,16431,346360919803885,316,22.849000930786133,857.5296322477808,0.14999,16,0.0,0.0,1575420030,,,,0,6.846285226378146,1,6.0,22.849000930786133,0.0,0.0,0.0,66.7128,C,26827054000000,
Raw,1732147942999,9907000000,,704414.5061514523,-1416183151092999936,0.0,100.00960810015413,2361.004400378187,0.0,0,17,0.0,16431,346360931077637,487,20.5049991607666,365.85238524852247,0.14999,16,0.0,0.0,1575420030,,,,0,3.0427308196924203,1,6.0,20.5049991607666,0.0,0.0,0.0,66.7128,C,26827054000000,
Raw,1732147942999,9907000000,,704414.5061514523,-1416183151092999936,0.0,100.00960810015413,2361.004400378187,0.0,0,8,0.0,17,401776,235,5.0,767.0048003870841,0.14999,16,0.0,0.0,1605374980,,,,0,15.319653152602521,3,6.0,28.0,0.0,0.0,31.02738129963155,66.7128,C,26827054000000,
Raw,1732147942999,9907000000,,704414.5061514523,-1416183151092999936,0.0,100.00960810015413,2361.004400378187,0.0,0,16,0.0,17,573949,74,5.0,1199.6257714820158,0.14999,16,0.0,0.0,1601437440,,,,0,18.441957158714352,3,6.0,31.0,0.0,0.0,31.02738129963155,66.7128,C,26827054000000,
Raw,1732147942999,9907000000,,704414.5061514523,-1416183151092999936,0.0,100.00960810015413,2361.004400378187,0.0,0,9,0.0,17,659036,396,5.0,897.693609041868,0.14999,16,0.0,0.0,1600875010,,,,0,5.514108004698037,3,6.0,22.0,0.0,0.0,31.02738129963155,66.7128,C,26827054000000,
Fix,FLP,37.4244371000,-122.1707405000,2.0,0.23765409,3.22,166.01558,1732147943206,2.6,179.9,26827054000000,0.9987376,0,,,
Status,1732147943000,26,0,1,14,1575420030,0.00,359.0,71.0,0,0,0,0.0
Status,1732147943000,26,1,1,22,1575420030,32.70,294.0,66.0,1,0,0,27.7
Status,1732147943000,26,2,1,30,1575420030,33.30,99.0,62.0,1,0,0,28.3
Status,1732147943000,26,3,1,17,1575420030,28.40,171.0,58.0,1,0,0,23.4
Status,1732147943000,26,4,1,13,1575420030,26.40,287.0,54.0,1,0,0,21.4
Status,1732147943000,26,5,1,19,1575420030,26.50,193.0,29.0,1,0,0,21.5
Status,1732147943000,26,6,1,7,1575420030,35.10,113.0,29.0,1,0,0,30.099998
Status,1732147943000,26,7,1,15,1575420030,0.00,307.0,24.0,0,0,0,0.0
Status,1732147943000,26,8,2,131,1575420030,0.00,3.0,23.0,0,0,0,0.0
Status,1732147943000,26,9,1,2,1575420030,34.80,76.0,20.0,1,0,0,29.8
Status,1732147943000,26,10,1,21,1575420030,30.00,57.0,14.0,1,0,0,25.0
Status,1732147943000,26,11,3,9,1602000000,28.00,38.0,49.0,1,0,0,23.0
Status,1732147943000,26,12,3,8,1602000000,26.10,285.0,40.0,1,0,0,21.1
Status,1732147943000,26,13,3,20,1602000000,0.00,143.0,22.0,0,0,0,0.0
Status,1732147943000,26,14,3,11,1602000000,0.00,282.0,8.0,0,0,0,0.0
Status,1732147943000,26,15,3,16,1602000000,37.00,78.0,7.0,1,0,0,32.0
Status,1732147943000,26,16,6,21,1575420030,0.00,286.0,62.0,0,0,0,0.0
Status,1732147943000,26,17,6,19,1575420030,0.00,283.0,54.0,0,0,0,0.0
Status,1732147943000,26,18,6,27,1575420030,0.00,44.0,51.0,0,0,0,0.0
Status,1732147943000,26,19,6,29,1575420030,0.00,198.0,51.0,0,0,0,0.0
Status,1732147943000,26,20,6,15,1575420030,0.00,87.0,16.0,0,0,0,0.0
Status,1732147943000,26,21,6,7,1575420030,0.00,162.0,8.0,0,0,0,0.0
Status,1732147943000,26,22,6,13,1575420030,0.00,137.0,8.0,0,0,0,0.0
Status,1732147943000,26,23,6,4,1575420030,0.00,324.0,7.0,0,0,0,0.0
Status,1732147943000,26,24,6,34,1575420030,0.00,39.0,6.0,0,0,0,0.0
Status,1732147943000,26,25,6,30,1575420030,0.00,64.0,4.0,0,0,0,0.0
Fix,GPS,37.4244350000,-122.1707400000,-8.5,0.0,3.1,210.88,1732147944000,2.8,179.9,26828054000000,42.0,0,,,
Raw,1732147943999,10907000000,,704362.0740452383,-1416183151092999936,0.0,101.00917808833965,2355.0574594123245,0.0,0,2,0.0,16431,346361920680651,235,29.788999557495117,627.3895514923776,0.14999,16,0.0,0.0,1575420030,,,,0,16.28542860877125,1,6.0,29.788999557495117,0.0,0.0,0.0,66.7128,C,26828054000000,
Raw,1732147943999,10907000000,,704362.0740452383,-1416183151092999936,0.0,101.00917808833965,2355.0574594123245,0.0,0,13,0.0,16431,346361930814748,396,21.44300079345703,582.5810594751404,0.14999,16,0.0,0.0,1575420030,,,,0,6.596314316398683,1,6.0,21.44300079345703,0.0,0.0,0.0,66.7128,C,26828054000000,
Raw,1732147943999,10907000000,,704362.0740452383,-1416183151092999936,0.0,101.00917808833965,2355.0574594123245,0.0,0,19,0.0,16431,346361923769613,396,21.466999053955078,48.62542257626265,0.14999,16,0.0,0.0,1575420030,,,,0,4.689756676435049,1,6.0,21.466999053955078,0.0,0.0,0.0,66.7128,C,26828054000000,
Raw,1732147943999,10907000000,,704362.0740452383,-1416183151092999936,0.0,101.00917808833965,2355.0574594123245,0.0,0,22,0.0,16431,346361930931313,396,27.66200065612793,640.4267122493789,0.14999,16,0.0,0.0,1575420030,,,,0,13.604670482814278,1,6.0,27.66200065612793,0.0,0.0,0.0,66.7128,C,26828054000000,
Raw,1732147943999,10907000000,,704362.0740452383,-1416183151092999936,0.0,101.00917808833965,2355.0574594123245,0.0,0,7,0.0,16431,346361924470556,74,30.111000061035156,1148.893403678507,0.14999,16,0.0,0.0,1575420030,,,,0,16.671531712678984,1,6.0,30.111000061035156,0.0,0.0,0.0,66.7128,C,26828054000000,
Raw,1732147943999,10907000000,,704362.0740452383,-1416183151092999936,0.0,101.00917808833965,2355.0574594123245,0.0,0,30,0.0,16431,346361930970925,235,28.30299949645996,908.4274288777333,0.14999,16,0.0,0.0,1575420030,,,,0,14.440236978823643,1,6.0,28.30299949645996,0.0,0.0,0.0,66.7128,C,26828054000000,
Raw,1732147943999,10907000000,,704362.0740452383,-1416183151092999936,0.0,101.00917808833965,2355.0574594123245,0.0,0,21,0.0,16431,346361919801025,396,25.01799964904785,854.7194555680377,0.14999,16,0.0,0.0,1575420030,,,,0,10.054506321788523,1,6.0,25.01799964904785,0.0,0.0,0.0,66.7128,C,26828054000000,
Raw,1732147943999,10907000000,,704362.0740452383,-1416183151092999936,0.0,101.00917808833965,2355.0574594123245,0.0,0,17,0.0,16431,346361931076455,396,23.350000381469727,364.0767910393719,0.14999,16,0.0,0.0,1575420030,,,,0,7.612317389999809,1,6.0,23.350000381469727,0.0,0.0,0.0,66.7128,C,26828054000000,
Raw,1732147943999,10907000000,,704362.0740452383,-1416183151092999936,0.0,101.00917808833965,2355.0574594123245,0.0,0,8,0.0,17,399218,487,5.0,764.3635457169034,0.14999,16,0.0,0.0,1605374980,,,,0,5.8494604049482515,3,6.0,20.0,0.0,0.0,36.127376836626134,66.7128,C,26828054000000,
Raw,1732147943999,10907000000,,704362.0740452383,-1416183151092999936,0.0,101.00917808833965,2355.0574594123245,0.0,0,16,0.0,17,569951,74,5.0,1197.7092351709848,0.14999,16,0.0,0.0,1601437440,,,,0,19.17141710140785,3,6.0,32.0,0.0,0.0,36.127376836626134,66.7128,C,26828054000000,
Raw,1732147943999,10907000000,,704362.0740452383,-1416183151092999936,0.0,101.00917808833965,2355.0574594123245,0.0,0,9,0.0,17,656112,396,5.0,895.2794262231104,0.14999,16,0.0,0.0,1600875010,,,,0,8.45091956582063,3,6.0,23.0,0.0,0.0,36.127376836626134,66.7128,C,26828054000000,
Fix,FLP,37.4244352000,-122.1707401000,2.0,0.17425886,3.1,170.50725,1732147944206,2.8,179.9,26828054000000,1.008736,0,,,
Status,1732147944000,26,0,1,14,1575420030,27.40,359.0,71.0,1,0,0,22.4
Status,1732147944000,26,1,1,22,1575420030,30.20,294.0,66.0,1,0,0,25.2
Status,1732147944000,26,2,1,30,1575420030,33.70,99.0,62.0,1,0,0,28.7
Status,1732147944000,26,3,1,17,1575420030,28.30,171.0,58.0,1,0,0,23.3
Status,1732147944000,26,4,1,13,1575420030,33.50,287.0,54.0,1,0,0,28.5
Status,1732147944000,26,5,1,19,1575420030,27.90,193.0,29.0,1,0,0,22.9
Status,1732147944000,26,6,1,7,1575420030,28.80,113.0,29.0,1,0,0,23.8
Status,1732147944000,26,7,1,15,1575420030,0.00,307.0,24.0,0,0,0,0.0
Status,1732147944000,26,8,2,131,1575420030,0.00,3.0,23.0,0,0,0,0.0
Status,1732147944000,26,9,1,2,1575420030,33.20,76.0,20.0,1,0,0,28.2
Status,1732147944000,26,10,1,21,1575420030,31.00,57.0,14.0,1,0,0,26.0
Status,1732147944000,26,11,3,9,1602000000,29.10,38.0,49.0,1,0,0,24.1
Status,1732147944000,26,12,3,8,1602000000,25.60,285.0,40.0,1,0,0,20.6
Status,1732147944000,26,13,3,20,1602000000,0.00,143.0,22.0,0,0,0,0.0
Status,1732147944000,26,14,3,11,1602000000,0.00,282.0,8.0,0,0,0,0.0
Status,1732147944000,26,15,3,16,1602000000,32.40,78.0,7.0,1,0,0,27.400002
Status,1732147944000,26,16,6,21,1575420030,29.30,286.0,62.0,1,0,0,24.3
Status,1732147944000,26,17,6,19,1575420030,0.00,283.0,54.0,0,0,0,0.0
Status,1732147944000,26,18,6,27,1575420030,0.00,44.0,51.0,0,0,0,0.0
Status,1732147944000,26,19,6,29,1575420030,0.00,198.0,51.0,0,0,0,0.0
Status,1732147944000,26,20,6,15,1575420030,0.00,87.0,16.0,0,0,0,0.0
Status,1732147944000,26,21,6,7,1575420030,0.00,162.0,8.0,0,0,0,0.0
Status,1732147944000,26,22,6,13,1575420030,0.00,137.0,8.0,0,0,0,0.0
Status,1732147944000,26,23,6,4,1575420030,0.00,324.0,7.0,0,0,0,0.0
Status,1732147944000,26,24,6,34,1575420030,0.00,39.0,6.0,0,0,0,0.0
Status,1732147944000,26,25,6,30,1575420030,0.00,64.0,4.0,0,0,0,0.0
Fix,GPS,37.4244366667,-122.1707466667,-8.5,0.0,3.2,210.88,1732147945000,2.8,179.9,26829054000000,43.0,0,,,
Raw,1732147944999,11907000000,,704325.1213978172,-1416183151092999936,0.0,102.95033906081323,2346.976594459038,0.0,0,2,0.0,16431,346362920678557,235,28.17099952697754,625.8423933157343,0.14999,16,0.0,0.0,1575420030,,,,0,14.258462848784923,1,6.0,28.17099952697754,0.0,0.0,0.0,66.7128,C,26829054000000,
Raw,1732147944999,11907000000,,704325.1213978172,-1416183151092999936,0.0,102.95033906081323,2346.976594459038,0.0,0,13,0.0,16431,346362930812800,235,28.503999710083008,581.0701853215575,0.14999,16,0.0,0.0,1575420030,,,,0,14.693487852202168,1,6.0,28.503999710083008,0.0,0.0,0.0,66.7128,C,26829054000000,
Raw,1732147944999,11907000000,,704325.1213978172,-1416183151092999936,0.0,102.95033906081323,2346.976594459038,0.0,0,19,0.0,16431,346362923769461,487,22.922000885009766,46.403455904161234,0.14999,16,0.0,0.0,1575420030,,,,0,6.968623722571784,1,6.0,22.922000885009766,0.0,0.0,0.0,66.7128,C,26829054000000,
Raw,1732147944999,11907000000,,704325.1213978172,-1416183151092999936,0.0,102.95033906081323,2346.976594459038,0.0,0,22,0.0,16431,346362930929180,316,25.214000701904297,638.3508572962596,0.14999,16,0.0,0.0,1575420030,,,,0,10.306288867948933,1,6.0,25.214000701904297,0.0,0.0,0.0,66.7128,C,26829054000000,
Raw,1732147944999,11907000000,,704325.1213978172,-1416183151092999936,0.0,102.95033906081323,2346.976594459038,0.0,0,14,0.0,16431,346362932419860,396,22.391000747680664,780.235185612157,0.14999,16,0.0,0.0,1575420030,,,,0,6.140770019407284,1,6.0,22.391000747680664,0.0,0.0,0.0,66.7128,C,26829054000000,
Raw,1732147944999,11907000000,,704325.1213978172,-1416183151092999936,0.0,102.95033906081323,2346.976594459038,0.0,0,30,0.0,16431,346362930967901,235,28.649999618530273,905.6070313464239,0.14999,16,0.0,0.0,1575420030,,,,0,14.86647003437243,1,6.0,28.649999618530273,0.0,0.0,0.0,66.7128,C,26829054000000,
Raw,1732147944999,11907000000,,704325.1213978172,-1416183151092999936,0.0,102.95033906081323,2346.976594459038,0.0,0,21,0.0,16431,346362919798173,316,25.98900032043457,853.7334221423853,0.14999,16,0.0,0.0,1575420030,,,,0,11.393442114400788,1,6.0,25.98900032043457,0.0,0.0,0.0,66.7128,C,26829054000000,
Raw,1732147944999,11907000000,,704325.1213978172,-1416183151092999936,0.0,102.95033906081323,2346.976594459038,0.0,0,17,0.0,16431,346362931075258,487,23.250999450683594,361.8791685773648,0.14999,16,0.0,0.0,1575420030,,,,0,4.530378083009541,1,6.0,23.250999450683594,0.0,0.0,0.0,66.7128,C,26829054000000,
Raw,1732147944999,11907000000,,704325.1213978172,-1416183151092999936,0.0,102.95033906081323,2346.976594459038,0.0,0,21,0.0,16431,346362920234941,396,24.299999237060547,585.6915898156846,0.14999,16,0.0,0.0,1575420030,,,,0,10.223169672525778,6,6.0,24.299999237060547,0.0,0.0,-3.8150936757978564,66.7128,C,26829054000000,
Raw,1732147944999,11907000000,,704325.1213978172,-1416183151092999936,0.0,102.95033906081323,2346.976594459038,0.0,0,8,0.0,17,396680,487,5.0,761.9651571787729,0.14999,16,0.0,0.0,1605374980,,,,0,5.059289579274781,3,6.0,19.0,0.0,0.0,36.09928006171946,66.7128,C,26829054000000,
Raw,1732147944999,11907000000,,704325.1213978172,-1416183151092999936,0.0,102.95033906081323,2346.976594459038,0.0,0,16,0.0,17,565957,396,5.0,1195.580268355502,0.14999,16,0.0,0.0,1601437440,,,,0,13.9613891532368,3,6.0,22.0,0.0,0.0,36.09928006171946,66.7128,C,26829054000000,
Raw,1732147944999,11907000000,,704325.1213978172,-1416183151092999936,0.0,102.95033906081323,2346.976594459038,0.0,0,9,0.0,17,653105,316,5.0,893.0089861280512,0.14999,16,0.0,0.0,1600875010,,,,0,9.935190646281086,3,6.0,24.0,0.0,0.0,36.09928006171946,66.7128,C,26829054000000,
Raw,1732147944999,11907000000,,704325.1213978172,-1416183151092999936,0.0,102.95033906081323,2346.976594459038,0.0,0,7,0.0,16431,346362924466754,396,23.785999298095703,1147.3929826685712,0.14999,16,0.0,0.0,1575420030,,,,0,8.26406473407165,1,6.0,23.785999298095703,0.0,0.0,0.0,66.7128,C,26829054000000,
Fix,FLP,37.4244354000,-122.1707433000,2.0,0.10425674,3.1,182.79785,1732147945206,2.8,179.9,26829054000000,1.0206307,0,,,
Status,1732147945000,26,0,1,14,1575420030,37.90,359.0,71.0,1,0,0,32.9
Status,1732147945000,26,1,1,22,1575420030,33.40,294.0,66.0,1,0,0,28.400002
Status,1732147945000,26,2,1,30,1575420030,36.50,99.0,62.0,1,0,0,31.5
Status,1732147945000,26,3,1,17,1575420030,29.30,171.0,58.0,1,0,0,24.3
Status,1732147945000,26,4,1,13,1575420030,29.90,287.0,54.0,1,0,0,24.9
Status,1732147945000,26,5,1,19,1575420030,28.60,193.0,29.0,1,0,0,23.6
Status,1732147945000,26,6,1,7,1575420030,31.40,113.0,29.0,1,0,0,26.4
Status,1732147945000,26,7,1,15,1575420030,0.00,307.0,24.0,0,0,0,0.0
Status,1732147945000,26,8,2,131,1575420030,0.00,3.0,23.0,0,0,0,0.0
Status,1732147945000,26,9,1,2,1575420030,37.50,76.0,20.0,1,0,0,32.5
Status,1732147945000,26,10,1,21,1575420030,31.20,57.0,14.0,1,0,0,26.2
Status,1732147945000,26,11,3,9,1602000000,26.20,38.0,49.0,1,0,0,21.2
Status,1732147945000,26,12,3,8,1602000000,25.00,285.0,40.0,1,0,0,20.0
Status,1732147945000,26,13,3,20,1602000000,0.00,143.0,22.0,0,0,0,0.0
Status,1732147945000,26,14,3,11,1602000000,0.00,282.0,8.0,0,0,0,0.0
Status,1732147945000,26,15,3,16,1602000000,32.90,78.0,7.0,1,0,0,27.900002
Status,1732147945000,26,16,6,21,1575420030,29.30,286.0,62.0,1,0,0,24.3
Status,1732147945000,26,17,6,19,1575420030,0.00,283.0,54.0,0,0,0,0.0
Status,1732147945000,26,18,6,27,1575420030,0.00,44.0,51.0,0,0,0,0.0
Status,1732147945000,26,19,6,29,1575420030,0.00,198.0,51.0,0,0,0,0.0
Status,1732147945000,26,20,6,15,1575420030,0.00,87.0,16.0,0,0,0,0.0
Status,1732147945000,26,21,6,7,1575420030,0.00,162.0,8.0,0,0,0,0.0
Status,1732147945000,26,22,6,13,1575420030,0.00,137.0,8.0,0,0,0,0.0
Status,1732147945000,26,23,6,4,1575420030,0.00,324.0,7.0,0,0,0,0.0
Status,1732147945000,26,24,6,34,1575420030,0.00,39.0,6.0,0,0,0,0.0
Status,1732147945000,26,25,6,30,1575420030,0.00,64.0,4.0,0,0,0,0.0
Fix,GPS,37.4244316667,-122.1707533333,-8.599999999999998,0.0,3.2,210.88,1732147946000,2.8,179.9,26830054000000,40.0,0,,,
Raw,1732147945999,12907000000,,704227.0327060729,-1416183151092999936,0.0,99.59106878583431,2342.342757951676,0.0,0,2,0.0,16431,346363920676463,74,32.48899841308594,624.4873406901215,0.14999,16,0.0,0.0,1575420030,,,,0,19.497010466319928,1,6.0,32.48899841308594,0.0,0.0,0.0,66.7128,C,26830054000000,
Raw,1732147945999,12907000000,,704227.0327060729,-1416183151092999936,0.0,99.59106878583431,2342.342757951676,0.0,0,13,0.0,16431,346363930810862,316,24.908000946044922,579.7589894408475,0.14999,16,0.0,0.0,1575420030,,,,0,9.88250288655017,1,6.0,24.908000946044922,0.0,0.0,0.0,66.7128,C,26830054000000,
Raw,1732147945999,12907000000,,704227.0327060729,-1416183151092999936,0.0,99.59106878583431,2342.342757951676,0.0,0,19,0.0,16431,346363923769332,396,23.552000045776367,45.175374130051864,0.14999,16,0.0,0.0,1575420030,,,,0,7.944302626389043,1,6.0,23.552000045776367,0.0,0.0,0.0,66.7128,C,26830054000000,
Raw,1732147945999,12907000000,,704227.0327060729,-1416183151092999936,0.0,99.59106878583431,2342.342757951676,0.0,0,22,0.0,16431,346363930927049,235,28.37700080871582,637.1795941651757,0.14999,16,0.0,0.0,1575420030,,,,0,14.516990553120504,1,6.0,28.37700080871582,0.0,0.0,0.0,66.7128,C,26830054000000,
Raw,1732147945999,12907000000,,704227.0327060729,-1416183151092999936,0.0,99.59106878583431,2342.342757951676,0.0,0,14,0.0,16431,346363932417322,58,32.93299865722656,779.5605164919476,0.14999,16,0.0,0.0,1575420030,,,,0,20.012603534647617,1,6.0,32.93299865722656,0.0,0.0,0.0,66.7128,C,26830054000000,
Raw,1732147945999,12907000000,,704227.0327060729,-1416183151092999936,0.0,99.59106878583431,2342.342757951676,0.0,0,30,0.0,16431,346363930964882,74,31.49799919128418,905.2058164640297,0.14999,16,0.0,0.0,1575420030,,,,0,18.331016413974265,1,6.0,31.49799919128418,0.0,0.0,0.0,66.7128,C,26830054000000,
Raw,1732147945999,12907000000,,704227.0327060729,-1416183151092999936,0.0,99.59106878583431,2342.342757951676,0.0,0,21,0.0,16431,346363919795326,316,26.16200065612793,852.5865496798119,0.14999,16,0.0,0.0,1575420030,,,,0,11.609699500045137,1,6.0,26.16200065612793,0.0,0.0,0.0,66.7128,C,26830054000000,
Raw,1732147945999,12907000000,,704227.0327060729,-1416183151092999936,0.0,99.59106878583431,2342.342757951676,0.0,0,17,0.0,16431,346363931074058,396,24.26099967956543,360.4397474679137,0.14999,16,0.0,0.0,1575420030,,,,0,8.96735307533667,1,6.0,24.26099967956543,0.0,0.0,0.0,66.7128,C,26830054000000,
Raw,1732147945999,12907000000,,704227.0327060729,-1416183151092999936,0.0,99.59106878583431,2342.342757951676,0.0,0,21,0.0,16431,346363920232987,487,24.299999237060547,584.7683681687487,0.14999,16,0.0,0.0,1575420030,,,,0,10.223169672525778,6,6.0,24.299999237060547,0.0,0.0,-11.590829286746542,66.7128,C,26830054000000,
Raw,1732147945999,12907000000,,704227.0327060729,-1416183151092999936,0.0,99.59106878583431,2342.342757951676,0.0,0,8,0.0,17,394142,487,5.0,761.6567760041556,0.14999,16,0.0,0.0,1605374980,,,,0,4.244228782212004,3,6.0,20.0,0.0,0.0,38.75459025566362,66.7128,C,26830054000000,
Raw,1732147945999,12907000000,,704227.0327060729,-1416183151092999936,0.0,99.59106878583431,2342.342757951676,0.0,0,16,0.0,17,561969,235,5.0,1194.068574860399,0.14999,16,0.0,0.0,1601437440,,,,0,14.62716615325834,3,6.0,28.0,0.0,0.0,38.75459025566362,66.7128,C,26830054000000,
Raw,1732147945999,12907000000,,704227.0327060729,-1416183151092999936,0.0,99.59106878583431,2342.342757951676,0.0,0,9,0.0,17,650136,487,5.0,891.8368245662888,0.14999,16,0.0,0.0,1600875010,,,,0,6.034670369928877,3,6.0,20.0,0.0,0.0,38.75459025566362,66.7128,C,26830054000000,
Raw,1732147945999,12907000000,,704227.0327060729,-1416183151092999936,0.0,99.59106878583431,2342.342757951676,0.0,0,7,0.0,16431,346363924462913,396,26.37700080871582,1145.6457745517255,0.14999,16,0.0,0.0,1575420030,,,,0,11.924313396786907,1,6.0,26.37700080871582,0.0,0.0,0.0,66.7128,C,26830054000000,
Fix,FLP,37.4244332000,-122.1707483000,2.0,0.103268065,3.1,197.11467,1732147946206,2.8,179.9,26830054000000,1.0344849,0,,,
Status,1732147946000,26,0,1,14,1575420030,42.60,359.0,71.0,1,0,0,37.6
Status,1732147946000,26,1,1,22,1575420030,32.40,294.0,66.0,1,0,0,27.400002
Status,1732147946000,26,2,1,30,1575420030,33.10,99.0,62.0,1,0,0,28.099998
Status,1732147946000,26,3,1,17,1575420030,27.60,171.0,58.0,1,0,0,22.6
Status,1732147946000,26,4,1,13,1575420030,31.30,287.0,54.0,1,0,0,26.3
Status,1732147946000,26,5,1,19,1575420030,29.60,193.0,29.0,1,0,0,24.6
Status,1732147946000,26,6,1,7,1575420030,34.60,113.0,29.0,1,0,0,29.599998
Status,1732147946000,26,7,1,15,1575420030,0.00,307.0,24.0,0,0,0,0.0
Status,1732147946000,26,8,2,131,1575420030,32.00,3.0,23.0,0,0,0,27.0
Status,1732147946000,26,9,1,2,1575420030,37.50,76.0,20.0,1,0,0,32.5
Status,1732147946000,26,10,1,21,1575420030,29.60,57.0,14.0,1,0,0,24.6
Status,1732147946000,26,11,3,9,1602000000,28.90,38.0,49.0,1,0,0,23.9
Status,1732147946000,26,12,3,8,1602000000,25.20,285.0,40.0,1,0,0,20.2
Status,1732147946000,26,13,3,20,1602000000,0.00,143.0,22.0,0,0,0,0.0
Status,1732147946000,26,14,3,11,1602000000,0.00,282.0,8.0,0,0,0,0.0
Status,1732147946000,26,15,3,16,1602000000,26.90,78.0,7.0,1,0,0,21.9
Status,1732147946000,26,16,6,21,1575420030,29.30,286.0,62.0,1,0,0,24.3
Status,1732147946000,26,17,6,19,1575420030,0.00,283.0,54.0,0,0,0,0.0
Status,1732147946000,26,18,6,27,1575420030,0.00,44.0,51.0,0,0,0,0.0
Status,1732147946000,26,19,6,29,1575420030,0.00,198.0,51.0,0,0,0,0.0
Status,1732147946000,26,20,6,15,1575420030,0.00,87.0,16.0,0,0,0,0.0
Status,1732147946000,26,21,6,7,1575420030,0.00,162.0,8.0,0,0,0,0.0
Status,1732147946000,26,22,6,13,1575420030,0.00,137.0,8.0,0,0,0,0.0
Status,1732147946000,26,23,6,4,1575420030,0.00,324.0,7.0,0,0,0,0.0
Status,1732147946000,26,24,6,34,1575420030,0.00,39.0,6.0,0,0,0,0.0
Status,1732147946000,26,25,6,30,1575420030,0.00,64.0,4.0,0,0,0,0.0
Fix,GPS,37.4244316667,-122.1707766667,-8.7,0.0,3.1,210.88,1732147947000,3.1,168.0,26831054000000,39.8,0,,,
Raw,1732147946999,13907000000,,703900.2962509483,-1416183151092999936,0.0,100.80206840833581,2339.224284643082,0.0,0,2,0.0,16431,346364920674376,74,32.465999603271484,623.3974727042385,0.14999,16,0.0,0.0,1575420030,,,,0,19.468249216073573,1,6.0,32.465999603271484,0.0,0.0,0.0,66.7128,C,26831054000000,
Raw,1732147946999,13907000000,,703900.2962509483,-1416183151092999936,0.0,100.80206840833581,2339.224284643082,0.0,0,13,0.0,16431,346364930808925,316,26.283000946044922,578.4251683114429,0.14999,16,0.0,0.0,1575420030,,,,0,11.785889915185274,1,6.0,26.283000946044922,0.0,0.0,0.0,66.7128,C,26831054000000,
Raw,1732147946999,13907000000,,703900.2962509483,-1416183151092999936,0.0,100.80206840833581,2339.224284643082,0.0,0,19,0.0,16431,346364923769195,396,24.649999618530273,43.97382011159871,0.14999,16,0.0,0.0,1575420030,,,,0,9.527927547341541,1,6.0,24.649999618530273,0.0,0.0,0.0,66.7128,C,26831054000000,
Raw,1732147946999,13907000000,,703900.2962509483,-1416183151092999936,0.0,100.80206840833581,2339.224284643082,0.0,0,22,0.0,16431,346364930924924,316,27.354000091552734,636.4369563820503,0.14999,16,0.0,0.0,1575420030,,,,0,13.199255380352739,1,6.0,27.354000091552734,0.0,0.0,0.0,66.7128,C,26831054000000,
Raw,1732147946999,13907000000,,703900.2962509483,-1416183151092999936,0.0,100.80206840833581,2339.224284643082,0.0,0,7,0.0,16431,346364924459015,235,29.582000732421875,1145.373156565402,0.14999,16,0.0,0.0,1575420030,,,,0,16.03242364481443,1,6.0,29.582000732421875,0.0,0.0,0.0,66.7128,C,26831054000000,
Raw,1732147946999,13907000000,,703900.2962509483,-1416183151092999936,0.0,100.80206840833581,2339.224284643082,0.0,0,14,0.0,16431,346364932414739,51,37.606998443603516,778.5469332254822,0.14999,16,0.0,0.0,1575420030,,,,0,25.22562020819378,1,6.0,37.606998443603516,0.0,0.0,0.0,66.7128,C,26831054000000,
Raw,1732147946999,13907000000,,703900.2962509483,-1416183151092999936,0.0,100.80206840833581,2339.224284643082,0.0,0,30,0.0,16431,346364930961867,235,28.113000869750977,904.6493375546598,0.14999,16,0.0,0.0,1575420030,,,,0,14.17937984750413,1,6.0,28.113000869750977,0.0,0.0,0.0,66.7128,C,26831054000000,
Raw,1732147946999,13907000000,,703900.2962509483,-1416183151092999936,0.0,100.80206840833581,2339.224284643082,0.0,0,21,0.0,16431,346364919792480,316,24.649999618530273,851.5184706911316,0.14999,16,0.0,0.0,1575420030,,,,0,9.527927547341541,1,6.0,24.649999618530273,0.0,0.0,0.0,66.7128,C,26831054000000,
Raw,1732147946999,13907000000,,703900.2962509483,-1416183151092999936,0.0,100.80206840833581,2339.224284643082,0.0,0,17,0.0,16431,346364931072842,487,22.583999633789062,360.203041837321,0.14999,16,0.0,0.0,1575420030,,,,0,6.46857834317067,1,6.0,22.583999633789062,0.0,0.0,0.0,66.7128,C,26831054000000,
Raw,1732147946999,13907000000,,703900.2962509483,-1416183151092999936,0.0,100.80206840833581,2339.224284643082,0.0,0,21,0.0,16431,346364920231008,487,24.299999237060547,584.0982519733279,0.14999,16,0.0,0.0,1575420030,,,,0,10.264828695491628,6,6.0,24.299999237060547,0.0,0.0,-24.59757785382583,66.7128,C,26831054000000,
Raw,1732147946999,13907000000,,703900.2962509483,-1416183151092999936,0.0,100.80206840833581,2339.224284643082,0.0,0,8,0.0,17,391603,487,5.0,761.1749190209313,0.14999,16,0.0,0.0,1605374980,,,,0,4.5035283254993566,3,6.0,20.0,0.0,0.0,46.16429332899917,66.7128,C,26831054000000,
Raw,1732147946999,13907000000,,703900.2962509483,-1416183151092999936,0.0,100.80206840833581,2339.224284643082,0.0,0,16,0.0,17,557986,487,5.0,1192.8155639503207,0.14999,16,0.0,0.0,1601437440,,,,0,7.039790770746627,3,6.0,20.0,0.0,0.0,46.16429332899917,66.7128,C,26831054000000,
Raw,1732147946999,13907000000,,703900.2962509483,-1416183151092999936,0.0,100.80206840833581,2339.224284643082,0.0,0,9,0.0,17,647155,316,5.0,891.088941781855,0.14999,16,0.0,0.0,1600875010,,,,0,9.646283665890426,3,6.0,24.0,0.0,0.0,46.16429332899917,66.7128,C,26831054000000,
Fix,FLP,37.4244321000,-122.1707624000,2.0,0.12989555,3.12,231.38123,1732147947206,3.1,168.0,26831054000000,1.044499,0,,,
Status,1732147947000,27,0,1,14,1575420030,32.50,359.0,71.0,1,0,0,27.5
Status,1732147947000,27,1,1,22,1575420030,29.60,294.0,66.0,1,0,0,24.6
Status,1732147947000,27,2,1,30,1575420030,31.30,99.0,62.0,1,0,0,26.3
Status,1732147947000,27,3,1,17,1575420030,27.90,171.0,58.0,1,0,0,22.9
Status,1732147947000,27,4,1,13,1575420030,33.80,287.0,54.0,1,0,0,28.8
Status,1732147947000,27,5,1,19,1575420030,28.80,193.0,29.0,1,0,0,23.8
Status,1732147947000,27,6,1,7,1575420030,38.90,113.0,29.0,1,0,0,33.9
Status,1732147947000,27,7,1,15,1575420030,0.00,307.0,24.0,0,0,0,0.0
Status,1732147947000,27,8,2,131,1575420030,35.00,3.0,23.0,0,0,0,30.0
Status,1732147947000,27,9,1,2,1575420030,35.10,76.0,20.0,1,0,0,30.099998
Status,1732147947000,27,10,1,21,1575420030,33.30,57.0,14.0,1,0,0,28.3
Status,1732147947000,27,11,3,9,1602000000,32.10,38.0,49.0,1,0,0,27.099998
Status,1732147947000,27,12,3,8,1602000000,27.10,285.0,40.0,1,0,0,22.1
Status,1732147947000,27,13,3,20,1602000000,0.00,143.0,22.0,0,0,0,0.0
Status,1732147947000,27,14,3,11,1602000000,0.00,282.0,8.0,0,0,0,0.0
Status,1732147947000,27,15,3,16,1602000000,23.70,78.0,7.0,1,0,0,18.7
Status,1732147947000,27,16,3,17,1602000000,37.40,0.0,0.0,0,0,0,32.4
Status,1732147947000,27,17,6,21,1575420030,27.30,286.0,62.0,1,0,0,22.3
Status,1732147947000,27,18,6,19,1575420030,0.00,283.0,54.0,0,0,0,0.0
Status,1732147947000,27,19,6,27,1575420030,0.00,44.0,51.0,0,0,0,0.0
Status,1732147947000,27,20,6,29,1575420030,0.00,198.0,51.0,0,0,0,0.0
Status,1732147947000,27,21,6,15,1575420030,0.00,87.0,16.0,0,0,0,0.0
Status,1732147947000,27,22,6,7,1575420030,0.00,162.0,8.0,0,0,0,0.0
Status,1732147947000,27,23,6,13,1575420030,0.00,137.0,8.0,0,0,0,0.0
Status,1732147947000,27,24,6,4,1575420030,0.00,324.0,7.0,0,0,0,0.0
Status,1732147947000,27,25,6,34,1575420030,0.00,39.0,6.0,0,0,0,0.0
Status,1732147947000,27,26,6,30,1575420030,0.00,64.0,4.0,0,0,0,0.0
Fix,GPS,37.4244450000,-122.1707950000,-8.7,0.0,2.8,210.88,1732147948000,2.5,116.2,26832054000000,40.2,0,,,
Raw,1732147947999,14907000000,,703303.1122817639,-1416183151092999936,0.0,101.47871704001733,2336.957627192548,0.0,0,2,0.0,16431,346365920672291,235,30.125999450683594,622.2027480729682,0.14999,16,0.0,0.0,1575420030,,,,0,16.691385183352537,1,6.0,30.125999450683594,0.0,0.0,0.0,66.7128,C,26832054000000,
Raw,1732147947999,14907000000,,703303.1122817639,-1416183151092999936,0.0,101.47871704001733,2336.957627192548,0.0,0,13,0.0,16431,346365930806992,235,28.792999267578125,578.5770408740351,0.14999,16,0.0,0.0,1575420030,,,,0,15.036074383933862,1,6.0,28.792999267578125,0.0,0.0,0.0,66.7128,C,26832054000000,
Raw,1732147947999,14907000000,,703303.1122817639,-1416183151092999936,0.0,101.47871704001733,2336.957627192548,0.0,0,19,0.0,16431,346365923769047,316,23.819000244140625,43.53608891406302,0.14999,16,0.0,0.0,1575420030,,,,0,8.316232396222212,1,6.0,23.819000244140625,0.0,0.0,0.0,66.7128,C,26832054000000,
Raw,1732147947999,14907000000,,703303.1122817639,-1416183151092999936,0.0,101.47871704001733,2336.957627192548,0.0,0,22,0.0,16431,346365930922797,316,24.649999618530273,635.843078447631,0.14999,16,0.0,0.0,1575420030,,,,0,9.527927547341541,1,6.0,24.649999618530273,0.0,0.0,0.0,66.7128,C,26832054000000,
Raw,1732147947999,14907000000,,703303.1122817639,-1416183151092999936,0.0,101.47871704001733,2336.957627192548,0.0,0,7,0.0,16431,346365924455245,58,33.944000244140625,1144.7129824710503,0.14999,16,0.0,0.0,1575420030,,,,0,21.163982466093106,1,6.0,33.944000244140625,0.0,0.0,0.0,66.7128,C,26832054000000,
Raw,1732147947999,14907000000,,703303.1122817639,-1416183151092999936,0.0,101.47871704001733,2336.957627192548,0.0,0,14,0.0,16431,346365932412158,235,27.476999282836914,776.1576697966067,0.14999,16,0.0,0.0,1575420030,,,,0,13.375326739759142,1,6.0,27.476999282836914,0.0,0.0,0.0,66.7128,C,26832054000000,
Raw,1732147947999,14907000000,,703303.1122817639,-1416183151092999936,0.0,101.47871704001733,2336.957627192548,0.0,0,30,0.0,16431,346365930958858,316,26.283000946044922,903.4469937431311,0.14999,16,0.0,0.0,1575420030,,,,0,11.785889915185274,1,6.0,26.283000946044922,0.0,0.0,0.0,66.7128,C,26832054000000,
Raw,1732147947999,14907000000,,703303.1122817639,-1416183151092999936,0.0,101.47871704001733,2336.957627192548,0.0,0,21,0.0,16431,346365919789639,316,28.34000015258789,851.5009094098041,0.14999,16,0.0,0.0,1575420030,,,,0,14.465896937332193,1,6.0,28.34000015258789,0.0,0.0,0.0,66.7128,C,26832054000000,
Raw,1732147947999,14907000000,,703303.1122817639,-1416183151092999936,0.0,101.47871704001733,2336.957627192548,0.0,0,17,0.0,16431,346365931071642,316,22.88599967956543,359.06285938668196,0.14999,16,0.0,0.0,1575420030,,,,0,6.907669860931678,1,6.0,22.88599967956543,0.0,0.0,0.0,66.7128,C,26832054000000,
Raw,1732147947999,14907000000,,703303.1122817639,-1416183151092999936,0.0,101.47871704001733,2336.957627192548,0.0,0,21,0.0,16431,346365920229053,316,22.299999237060547,582.3982920657681,0.14999,16,0.0,0.0,1575420030,,,,0,7.498774732165998,6,6.0,22.299999237060547,0.0,0.0,-31.38837067078332,66.7128,C,26832054000000,
Raw,1732147947999,14907000000,,703303.1122817639,-1416183151092999936,0.0,101.47871704001733,2336.957627192548,0.0,0,8,0.0,17,389066,487,5.0,759.8683110843026,0.14999,16,0.0,0.0,1605374980,,,,0,7.315907143368604,3,6.0,20.0,0.0,0.0,54.45870470894908,66.7128,C,26832054000000,
Raw,1732147947999,14907000000,,703303.1122817639,-1416183151092999936,0.0,101.47871704001733,2336.957627192548,0.0,0,16,0.0,17,554009,396,5.0,1192.1758958478456,0.14999,16,0.0,0.0,1601437440,,,,0,2.157864765093722,3,6.0,22.0,0.0,0.0,54.45870470894908,66.7128,C,26832054000000,
Raw,1732147947999,14907000000,,703303.1122817639,-1416183151092999936,0.0,101.47871704001733,2336.957627192548,0.0,0,9,0.0,17,644184,235,5.0,890.3016486196135,0.14999,16,0.0,0.0,1600875010,,,,0,13.61156842602788,3,6.0,27.0,0.0,0.0,54.45870470894908,66.7128,C,26832054000000,
Fix,FLP,37.4244387000,-122.1707787000,2.0,0.13953453,3.066,291.39755,1732147948206,2.5,116.2,26832054000000,1.0544869,0,,,
Status,1732147948000,27,0,1,14,1575420030,35.30,359.0,71.0,1,0,0,30.3
Status,1732147948000,27,1,1,22,1575420030,31.00,294.0,66.0,1,0,0,26.0
Status,1732147948000,27,2,1,30,1575420030,32.80,99.0,62.0,1,0,0,27.8
Status,1732147948000,27,3,1,17,1575420030,0.00,171.0,58.0,0,0,0,0.0
Status,1732147948000,27,4,1,13,1575420030,32.80,287.0,54.0,1,0,0,27.8
Status,1732147948000,27,5,1,19,1575420030,30.70,193.0,29.0,1,0,0,25.7
Status,1732147948000,27,6,1,7,1575420030,35.10,113.0,29.0,1,0,0,30.099998
Status,1732147948000,27,7,1,15,1575420030,24.10,307.0,24.0,1,0,0,19.1
Status,1732147948000,27,8,2,131,1575420030,35.00,3.0,23.0,0,0,0,30.0
Status,1732147948000,27,9,1,2,1575420030,33.80,76.0,20.0,1,0,0,28.8
Status,1732147948000,27,10,1,21,1575420030,30.90,57.0,14.0,1,0,0,25.9
Status,1732147948000,27,11,3,9,1602000000,32.30,38.0,49.0,1,0,0,27.3
Status,1732147948000,27,12,3,8,1602000000,27.10,285.0,40.0,1,0,0,22.1
Status,1732147948000,27,13,3,20,1602000000,0.00,143.0,22.0,0,0,0,0.0
Status,1732147948000,27,14,3,11,1602000000,0.00,282.0,8.0,0,0,0,0.0
Status,1732147948000,27,15,3,16,1602000000,26.90,78.0,7.0,1,0,0,21.9
Status,1732147948000,27,16,3,17,1602000000,36.00,0.0,0.0,0,0,0,31.0
Status,1732147948000,27,17,6,21,1575420030,30.00,286.0,62.0,1,0,0,25.0
Status,1732147948000,27,18,6,19,1575420030,0.00,283.0,54.0,0,0,0,0.0
Status,1732147948000,27,19,6,27,1575420030,0.00,44.0,51.0,0,0,0,0.0
Status,1732147948000,27,20,6,29,1575420030,0.00,198.0,51.0,0,0,0,0.0
Status,1732147948000,27,21,6,15,1575420030,0.00,87.0,16.0,0,0,0,0.0
Status,1732147948000,27,22,6,7,1575420030,0.00,162.0,8.0,0,0,0,0.0
Status,1732147948000,27,23,6,13,1575420030,0.00,137.0,8.0,0,0,0,0.0
Status,1732147948000,27,24,6,4,1575420030,0.00,324.0,7.0,0,0,0,0.0
Status,1732147948000,27,25,6,34,1575420030,0.00,39.0,6.0,0,0,0,0.0
Status,1732147948000,27,26,6,30,1575420030,0.00,64.0,4.0,0,0,0,0.0
Fix,GPS,37.4244433333,-122.1708066667,-8.599999999999998,0.5914158,2.7,303.18,1732147949000,2.4,170.7,26833054000000,40.2,0,,,
Raw,1732147948999,15907000000,,702913.0507679416,-1416183151092999936,0.0,102.98913594062964,2330.5666111846913,0.0,0,2,0.0,16431,346366920670215,235,28.844999313354492,620.6950330916877,0.14999,16,0.0,0.0,1575420030,,,,0,15.107760262400042,1,6.0,28.844999313354492,0.0,0.0,0.0,66.7128,C,26833054000000,
Raw,1732147948999,15907000000,,702913.0507679416,-1416183151092999936,0.0,102.98913594062964,2330.5666111846913,0.0,0,13,0.0,16431,346366930805066,235,27.76300048828125,576.1156739832008,0.14999,16,0.0,0.0,1575420030,,,,0,13.744994853639405,1,6.0,27.76300048828125,0.0,0.0,0.0,66.7128,C,26833054000000,
Raw,1732147948999,15907000000,,702913.0507679416,-1416183151092999936,0.0,102.98913594062964,2330.5666111846913,0.0,0,19,0.0,16431,346366923768908,396,25.68899917602539,41.14060005741524,0.14999,16,0.0,0.0,1575420030,,,,0,10.982420117133003,1,6.0,25.68899917602539,0.0,0.0,0.0,66.7128,C,26833054000000,
Raw,1732147948999,15907000000,,702913.0507679416,-1416183151092999936,0.0,102.98913594062964,2330.5666111846913,0.0,0,22,0.0,16431,346366930920683,316,26.013999938964844,633.4181349551056,0.14999,16,0.0,0.0,1575420030,,,,0,11.429860992233301,1,6.0,26.013999938964844,0.0,0.0,0.0,66.7128,C,26833054000000,
Raw,1732147948999,15907000000,,702913.0507679416,-1416183151092999936,0.0,102.98913594062964,2330.5666111846913,0.0,0,7,0.0,16431,346366924451434,74,30.065000534057617,1142.3384928185296,0.14999,16,0.0,0.0,1575420030,,,,0,16.611697563520764,1,6.0,30.065000534057617,0.0,0.0,0.0,66.7128,C,26833054000000,
Raw,1732147948999,15907000000,,702913.0507679416,-1416183151092999936,0.0,102.98913594062964,2330.5666111846913,0.0,0,14,0.0,16431,346366932409570,74,30.31999969482422,775.129219836954,0.14999,16,0.0,0.0,1575420030,,,,0,16.926153248777425,1,6.0,30.31999969482422,0.0,0.0,0.0,66.7128,C,26833054000000,
Raw,1732147948999,15907000000,,702913.0507679416,-1416183151092999936,0.0,102.98913594062964,2330.5666111846913,0.0,0,15,0.0,16431,346366924062596,487,19.062999725341797,371.632160663235,0.14999,16,0.0,0.0,1575420030,,,,0,0.5120812273952744,1,6.0,19.062999725341797,0.0,0.0,0.0,66.7128,C,26833054000000,
Raw,1732147948999,15907000000,,702913.0507679416,-1416183151092999936,0.0,102.98913594062964,2330.5666111846913,0.0,0,30,0.0,16431,346366930955847,235,27.841999053955078,901.362776275094,0.14999,16,0.0,0.0,1575420030,,,,0,13.828114049062558,1,6.0,27.841999053955078,0.0,0.0,0.0,66.7128,C,26833054000000,
Raw,1732147948999,15907000000,,702913.0507679416,-1416183151092999936,0.0,102.98913594062964,2330.5666111846913,0.0,0,21,0.0,16431,346366919786801,316,25.867000579833984,848.8221171311044,0.14999,16,0.0,0.0,1575420030,,,,0,11.209021393790927,1,6.0,25.867000579833984,0.0,0.0,0.0,66.7128,C,26833054000000,
Raw,1732147948999,15907000000,,702913.0507679416,-1416183151092999936,0.0,102.98913594062964,2330.5666111846913,0.0,0,21,0.0,16431,346366920227073,316,25.0,580.7349878485984,0.14999,16,0.0,0.0,1575420030,,,,0,11.134142571113433,6,6.0,25.0,0.0,0.0,-19.699281862785416,66.7128,C,26833054000000,
Raw,1732147948999,15907000000,,702913.0507679416,-1416183151092999936,0.0,102.98913594062964,2330.5666111846913,0.0,0,8,0.0,17,386532,487,5.0,758.6383425259312,0.14999,16,0.0,0.0,1605374980,,,,0,6.743003514378004,3,6.0,19.0,0.0,0.0,59.491957634506086,66.7128,C,26833054000000,
Raw,1732147948999,15907000000,,702913.0507679416,-1416183151092999936,0.0,102.98913594062964,2330.5666111846913,0.0,0,16,0.0,17,550027,396,5.0,1190.3075311701389,0.14999,16,0.0,0.0,1601437440,,,,0,7.058560933941118,3,6.0,21.0,0.0,0.0,59.491957634506086,66.7128,C,26833054000000,
Raw,1732147948999,15907000000,,702913.0507679416,-1416183151092999936,0.0,102.98913594062964,2330.5666111846913,0.0,0,9,0.0,17,641211,235,5.0,888.6122144191982,0.14999,16,0.0,0.0,1600875010,,,,0,13.871856746991861,3,6.0,27.0,0.0,0.0,59.491957634506086,66.7128,C,26833054000000,
Fix,FLP,37.4244417000,-122.1707936000,2.0,0.35443616,3.016,299.3409,1732147949206,2.4,170.7,26833054000000,1.0645031,0,,,
Status,1732147949000,27,0,1,14,1575420030,30.80,359.0,71.0,1,0,0,25.8
Status,1732147949000,27,1,1,22,1575420030,37.10,294.0,66.0,1,0,0,32.1
Status,1732147949000,27,2,1,30,1575420030,35.00,99.0,62.0,1,0,0,30.0
Status,1732147949000,27,3,1,17,1575420030,36.00,171.0,58.0,1,0,0,31.0
Status,1732147949000,27,4,1,13,1575420030,35.30,287.0,54.0,1,0,0,30.3
Status,1732147949000,27,5,1,19,1575420030,30.00,193.0,29.0,1,0,0,25.0
Status,1732147949000,27,6,1,7,1575420030,35.00,113.0,29.0,1,0,0,30.0
Status,1732147949000,27,7,1,15,1575420030,26.10,307.0,24.0,1,0,0,21.1
Status,1732147949000,27,8,2,131,1575420030,33.00,3.0,23.0,0,0,0,28.0
Status,1732147949000,27,9,1,2,1575420030,31.70,76.0,20.0,1,0,0,26.7
Status,1732147949000,27,10,1,21,1575420030,29.00,57.0,14.0,1,0,0,24.0
Status,1732147949000,27,11,3,9,1602000000,30.30,38.0,49.0,1,0,0,25.3
Status,1732147949000,27,12,3,8,1602000000,27.10,285.0,40.0,1,0,0,22.1
Status,1732147949000,27,13,3,20,1602000000,0.00,143.0,22.0,0,0,0,0.0
Status,1732147949000,27,14,3,11,1602000000,0.00,282.0,8.0,0,0,0,0.0
Status,1732147949000,27,15,3,16,1602000000,29.80,78.0,7.0,1,0,0,24.8
Status,1732147949000,27,16,3,17,1602000000,23.80,0.0,0.0,0,0,0,18.8
Status,1732147949000,27,17,6,21,1575420030,25.90,286.0,62.0,1,0,0,20.9
Status,1732147949000,27,18,6,19,1575420030,0.00,283.0,54.0,0,0,0,0.0
Status,1732147949000,27,19,6,27,1575420030,0.00,44.0,51.0,0,0,0,0.0
Status,1732147949000,27,20,6,29,1575420030,0.00,198.0,51.0,0,0,0,0.0
Status,1732147949000,27,21,6,15,1575420030,0.00,87.0,16.0,0,0,0,0.0
Status,1732147949000,27,22,6,7,1575420030,0.00,162.0,8.0,0,0,0,0.0
Status,1732147949000,27,23,6,13,1575420030,0.00,137.0,8.0,0,0,0,0.0
Status,1732147949000,27,24,6,4,1575420030,0.00,324.0,7.0,0,0,0,0.0
Status,1732147949000,27,25,6,34,1575420030,0.00,39.0,6.0,0,0,0,0.0
Status,1732147949000,27,26,6,30,1575420030,0.00,64.0,4.0,0,0,0,0.0
Fix,GPS,37.4244350000,-122.1708233333,-8.3,0.3196425,2.6,294.11,1732147950000,2.4,179.9,26834054000000,40.0,0,,,
Raw,1732147949999,16907000000,,702294.0808937895,-1416183151092999936,0.0,102.04095368584474,2326.4125689399384,0.0,0,2,0.0,16431,346367920668147,316,26.67799949645996,620.1700065300923,0.14999,16,0.0,0.0,1575420030,,,,0,12.326820452006704,1,6.0,26.67799949645996,0.0,0.0,0.0,66.7128,C,26834054000000,
Raw,1732147949999,16907000000,,702294.0808937895,-1416183151092999936,0.0,102.04095368584474,2326.4125689399384,0.0,0,13,0.0,16431,346367930803149,74,30.290000915527344,575.7077690888723,0.14999,16,0.0,0.0,1575420030,,,,0,16.887463253233427,1,6.0,30.290000915527344,0.0,0.0,0.0,66.7128,C,26834054000000,
Raw,1732147949999,16907000000,,702294.0808937895,-1416183151092999936,0.0,102.04095368584474,2326.4125689399384,0.0,0,19,0.0,16431,346367923768773,316,24.96299934387207,40.4310871250479,0.14999,16,0.0,0.0,1575420030,,,,0,9.968930362203023,1,6.0,24.96299934387207,0.0,0.0,0.0,66.7128,C,26834054000000,
Raw,1732147949999,16907000000,,702294.0808937895,-1416183151092999936,0.0,102.04095368584474,2326.4125689399384,0.0,0,22,0.0,16431,346367930918577,74,32.08000183105469,633.3540223407351,0.14999,16,0.0,0.0,1575420030,,,,0,19.02499541261835,1,6.0,32.08000183105469,0.0,0.0,0.0,66.7128,C,26834054000000,
Raw,1732147949999,16907000000,,702294.0808937895,-1416183151092999936,0.0,102.04095368584474,2326.4125689399384,0.0,0,7,0.0,16431,346367924447623,235,30.049999237060547,1141.7717930575934,0.14999,16,0.0,0.0,1575420030,,,,0,16.591660900337857,1,6.0,30.049999237060547,0.0,0.0,0.0,66.7128,C,26834054000000,
Raw,1732147949999,16907000000,,702294.0808937895,-1416183151092999936,0.0,102.04095368584474,2326.4125689399384,0.0,0,15,0.0,16431,346367924061354,487,21.148000717163086,370.87316951760346,0.14999,16,0.0,0.0,1575420030,,,,0,4.118647467373993,1,6.0,21.148000717163086,0.0,0.0,0.0,66.7128,C,26834054000000,
Raw,1732147949999,16907000000,,702294.0808937895,-1416183151092999936,0.0,102.04095368584474,2326.4125689399384,0.0,0,30,0.0,16431,346367930952841,74,29.98900032043457,901.2047247431457,0.14999,16,0.0,0.0,1575420030,,,,0,16.53127208486228,1,6.0,29.98900032043457,0.0,0.0,0.0,66.7128,C,26834054000000,
Raw,1732147949999,16907000000,,702294.0808937895,-1416183151092999936,0.0,102.04095368584474,2326.4125689399384,0.0,0,21,0.0,16431,346367919783971,396,23.976999282836914,847.6066720462043,0.14999,16,0.0,0.0,1575420030,,,,0,8.572471911421527,1,6.0,23.976999282836914,0.0,0.0,0.0,66.7128,C,26834054000000,
Raw,1732147949999,16907000000,,702294.0808937895,-1416183151092999936,0.0,102.04095368584474,2326.4125689399384,0.0,0,17,0.0,16431,346367931069318,74,31.03700065612793,356.7114363378099,0.14999,16,0.0,0.0,1575420030,,,,0,17.78903074793719,1,6.0,31.03700065612793,0.0,0.0,0.0,66.7128,C,26834054000000,
Raw,1732147949999,16907000000,,702294.0808937895,-1416183151092999936,0.0,102.04095368584474,2326.4125689399384,0.0,0,21,0.0,16431,346367920225138,396,20.899999618530273,580.1024565118919,0.14999,16,0.0,0.0,1575420030,,,,0,5.5176103795995495,6,6.0,20.899999618530273,0.0,0.0,-10.189056366784301,66.7128,C,26834054000000,
Raw,1732147949999,16907000000,,702294.0808937895,-1416183151092999936,0.0,102.04095368584474,2326.4125689399384,0.0,0,8,0.0,17,384006,396,5.0,757.5898282956167,0.14999,16,0.0,0.0,1605374980,,,,0,8.521825181113625,3,6.0,23.0,0.0,0.0,63.55191267333259,66.7128,C,26834054000000,
Raw,1732147949999,16907000000,,702294.0808937895,-1416183151092999936,0.0,102.04095368584474,2326.4125689399384,0.0,0,16,0.0,17,546058,396,5.0,1189.3047933758903,0.14999,16,0.0,0.0,1601437440,,,,0,10.867765067402116,3,6.0,22.0,0.0,0.0,63.55191267333259,66.7128,C,26834054000000,
Raw,1732147949999,16907000000,,702294.0808937895,-1416183151092999936,0.0,102.04095368584474,2326.4125689399384,0.0,0,9,0.0,17,638246,316,5.0,887.312494906062,0.14999,16,0.0,0.0,1600875010,,,,0,11.503980568515379,3,6.0,24.0,0.0,0.0,63.55191267333259,66.7128,C,26834054000000,
Raw,1732147949999,16907000000,,702294.0808937895,-1416183151092999936,0.0,102.04095368584474,2326.4125689399384,0.0,0,14,0.0,16431,346367932407081,316,25.766000747680664,774.675971528404,0.14999,16,0.0,0.0,1575420030,,,,0,11.096459693622407,1,6.0,25.766000747680664,0.0,0.0,0.0,66.7128,C,26834054000000,
Fix,FLP,37.4244390000,-122.1708102000,2.0,0.44004992,2.933,284.84375,1732147950206,2.4,179.9,26834054000000,1.0744952,0,,,
Status,1732147950000,27,0,1,14,1575420030,33.80,359.0,71.0,1,0,0,28.8
Status,1732147950000,27,1,1,22,1575420030,38.90,294.0,66.0,1,0,0,33.9
Status,1732147950000,27,2,1,30,1575420030,39.80,99.0,62.0,1,0,0,34.8
Status,1732147950000,27,3,1,17,1575420030,34.60,171.0,58.0,1,0,0,29.599998
Status,1732147950000,27,4,1,13,1575420030,41.80,287.0,54.0,1,0,0,36.8
Status,1732147950000,27,5,1,19,1575420030,28.70,193.0,29.0,1,0,0,23.7
Status,1732147950000,27,6,1,7,1575420030,34.30,113.0,29.0,1,0,0,29.3
Status,1732147950000,27,7,1,15,1575420030,0.00,307.0,24.0,0,0,0,0.0
Status,1732147950000,27,8,2,131,1575420030,35.00,3.0,23.0,0,0,0,30.0
Status,1732147950000,27,9,1,2,1575420030,31.00,76.0,20.0,1,0,0,26.0
Status,1732147950000,27,10,1,21,1575420030,29.00,57.0,14.0,1,0,0,24.0
Status,1732147950000,27,11,3,9,1602000000,31.50,38.0,49.0,1,0,0,26.5
Status,1732147950000,27,12,3,8,1602000000,32.50,285.0,40.0,1,0,0,27.5
Status,1732147950000,27,13,3,20,1602000000,0.00,143.0,22.0,0,0,0,0.0
Status,1732147950000,27,14,3,11,1602000000,0.00,282.0,8.0,0,0,0,0.0
Status,1732147950000,27,15,3,16,1602000000,29.80,78.0,7.0,1,0,0,24.8
Status,1732147950000,27,16,3,17,1602000000,33.90,0.0,0.0,0,0,0,28.900002
Status,1732147950000,27,17,6,21,1575420030,30.20,286.0,62.0,1,0,0,25.2
Status,1732147950000,27,18,6,19,1575420030,0.00,283.0,54.0,0,0,0,0.0
Status,1732147950000,27,19,6,27,1575420030,0.00,44.0,51.0,0,0,0,0.0
Status,1732147950000,27,20,6,29,1575420030,0.00,198.0,51.0,0,0,0,0.0
Status,1732147950000,27,21,6,15,1575420030,0.00,87.0,16.0,0,0,0,0.0
Status,1732147950000,27,22,6,7,1575420030,0.00,162.0,8.0,0,0,0,0.0
Status,1732147950000,27,23,6,13,1575420030,0.00,137.0,8.0,0,0,0,0.0
Status,1732147950000,27,24,6,4,1575420030,0.00,324.0,7.0,0,0,0,0.0
Status,1732147950000,27,25,6,34,1575420030,0.00,39.0,6.0,0,0,0,0.0
Status,1732147950000,27,26,6,30,1575420030,0.00,64.0,4.0,0,0,0,0.0
Fix,GPS,37.4244316667,-122.1708333333,-8.2,0.14926945,2.6,201.78,1732147951000,2.5,179.9,26835054000000,40.1,0,,,
Raw,1732147950999,17907000000,,701841.1633957783,-1416183151092999936,0.0,102.71711878803036,2326.3124640003452,0.0,0,2,0.0,16431,346368920666083,316,26.038999557495117,619.1211613257233,0.14999,16,0.0,0.0,1575420030,,,,0,11.46612780750267,1,6.0,26.038999557495117,0.0,0.0,0.0,66.7128,C,26835054000000,
Raw,1732147950999,17907000000,,701841.1633957783,-1416183151092999936,0.0,102.71711878803036,2326.3124640003452,0.0,0,13,0.0,16431,346368930801229,51,36.76100158691406,575.9808516593578,0.14999,16,0.0,0.0,1575420030,,,,0,24.302217769624953,1,6.0,36.76100158691406,0.0,0.0,0.0,66.7128,C,26835054000000,
Raw,1732147950999,17907000000,,701841.1633957783,-1416183151092999936,0.0,102.71711878803036,2326.3124640003452,0.0,0,19,0.0,16431,346368923768638,396,23.687000274658203,40.39071476136095,0.14999,16,0.0,0.0,1575420030,,,,0,8.105655061349704,1,6.0,23.687000274658203,0.0,0.0,0.0,66.7128,C,26835054000000,
Raw,1732147950999,17907000000,,701841.1633957783,-1416183151092999936,0.0,102.71711878803036,2326.3124640003452,0.0,0,22,0.0,16431,346368930916470,58,33.904998779296875,633.5914713059872,0.14999,16,0.0,0.0,1575420030,,,,0,21.11645353963004,1,6.0,33.904998779296875,0.0,0.0,0.0,66.7128,C,26835054000000,
Raw,1732147950999,17907000000,,701841.1633957783,-1416183151092999936,0.0,102.71711878803036,2326.3124640003452,0.0,0,7,0.0,16431,346368924443822,235,29.30500030517578,1142.4542671917263,0.14999,16,0.0,0.0,1575420030,,,,0,15.683195113800533,1,6.0,29.30500030517578,0.0,0.0,0.0,66.7128,C,26835054000000,
Raw,1732147950999,17907000000,,701841.1633957783,-1416183151092999936,0.0,102.71711878803036,2326.3124640003452,0.0,0,30,0.0,16431,346368930949835,58,34.81399917602539,901.7303552641517,0.14999,16,0.0,0.0,1575420030,,,,0,22.148766115659363,1,6.0,34.81399917602539,0.0,0.0,0.0,66.7128,C,26835054000000,
Raw,1732147950999,17907000000,,701841.1633957783,-1416183151092999936,0.0,102.71711878803036,2326.3124640003452,0.0,0,21,0.0,16431,346368919781144,487,23.976999282836914,847.6586125555277,0.14999,16,0.0,0.0,1575420030,,,,0,8.572471911421527,1,6.0,23.976999282836914,0.0,0.0,0.0,66.7128,C,26835054000000,
Raw,1732147950999,17907000000,,701841.1633957783,-1416183151092999936,0.0,102.71711878803036,2326.3124640003452,0.0,0,17,0.0,16431,346368931068121,235,29.597999572753906,356.1956550010405,0.14999,16,0.0,0.0,1575420030,,,,0,16.053791157774953,1,6.0,29.597999572753906,0.0,0.0,0.0,66.7128,C,26835054000000,
Raw,1732147950999,17907000000,,701841.1633957783,-1416183151092999936,0.0,102.71711878803036,2326.3124640003452,0.0,0,21,0.0,16431,346368920223205,316,25.200000762939453,580.6353345458268,0.14999,16,0.0,0.0,1575420030,,,,0,11.393442114400788,6,6.0,25.200000762939453,0.0,0.0,-1.94228776544553,66.7128,C,26835054000000,
Raw,1732147950999,17907000000,,701841.1633957783,-1416183151092999936,0.0,102.71711878803036,2326.3124640003452,0.0,0,8,0.0,17,381500,235,5.0,758.0843141353415,0.14999,16,0.0,0.0,1605374980,,,,0,14.1306944787577,3,6.0,27.0,0.0,0.0,66.8869935514633,66.7128,C,26835054000000,
Raw,1732147950999,17907000000,,701841.1633957783,-1416183151092999936,0.0,102.71711878803036,2326.3124640003452,0.0,0,16,0.0,17,542090,797,5.0,1189.5840425975339,0.14999,16,0.0,0.0,1601437440,,,,0,10.867765067402116,3,6.0,17.0,0.0,0.0,66.8869935514633,66.7128,C,26835054000000,
Raw,1732147950999,17907000000,,701841.1633957783,-1416183151092999936,0.0,102.71711878803036,2326.3124640003452,0.0,0,9,0.0,17,635288,235,5.0,887.9879576922965,0.14999,16,0.0,0.0,1600875010,,,,0,12.916326300843641,3,6.0,27.0,0.0,0.0,66.8869935514633,66.7128,C,26835054000000,
Raw,1732147950999,17907000000,,701841.1633957783,-1416183151092999936,0.0,102.71711878803036,2326.3124640003452,0.0,0,14,0.0,16431,346368932404440,235,28.809999465942383,774.7009196979091,0.14999,16,0.0,0.0,1575420030,,,,0,15.060035473992798,1,6.0,28.809999465942383,0.0,0.0,0.0,66.7128,C,26835054000000,
Fix,FLP,37.4244356000,-122.1708228000,2.0,0.22303692,2.833,272.7149,1732147951205,2.5,179.9,26835054000000,1.0844975,0,,,
Status,1732147951000,27,0,1,14,1575420030,30.60,359.0,71.0,1,0,0,25.6
Status,1732147951000,27,1,1,22,1575420030,32.20,294.0,66.0,1,0,0,27.2
Status,1732147951000,27,2,1,30,1575420030,42.40,99.0,62.0,1,0,0,37.4
Status,1732147951000,27,3,1,17,1575420030,41.60,171.0,58.0,1,0,0,36.6
Status,1732147951000,27,4,1,13,1575420030,33.10,287.0,54.0,1,0,0,28.099998
Status,1732147951000,27,5,1,19,1575420030,28.10,193.0,29.0,1,0,0,23.1
Status,1732147951000,27,6,1,7,1575420030,34.70,113.0,29.0,1,0,0,29.7
Status,1732147951000,27,7,1,15,1575420030,32.20,307.0,24.0,1,0,0,27.2
Status,1732147951000,27,8,2,131,1575420030,33.00,3.0,23.0,0,0,0,28.0
Status,1732147951000,27,9,1,2,1575420030,31.80,76.0,20.0,1,0,0,26.8
Status,1732147951000,27,10,1,21,1575420030,29.10,57.0,14.0,1,0,0,24.1
Status,1732147951000,27,11,3,9,1602000000,29.80,38.0,49.0,1,0,0,24.8
Status,1732147951000,27,12,3,8,1602000000,32.00,285.0,40.0,1,0,0,27.0
Status,1732147951000,27,13,3,20,1602000000,0.00,143.0,22.0,0,0,0,0.0
Status,1732147951000,27,14,3,11,1602000000,0.00,282.0,8.0,0,0,0,0.0
Status,1732147951000,27,15,3,16,1602000000,24.30,78.0,7.0,1,0,0,19.3
Status,1732147951000,27,16,3,17,1602000000,27.60,0.0,0.0,0,0,0,22.6
Status,1732147951000,27,17,6,21,1575420030,25.30,286.0,62.0,1,0,0,20.3
Status,1732147951000,27,18,6,19,1575420030,0.00,283.0,54.0,0,0,0,0.0
Status,1732147951000,27,19,6,27,1575420030,0.00,44.0,51.0,0,0,0,0.0
Status,1732147951000,27,20,6,29,1575420030,0.00,198.0,51.0,0,0,0,0.0
Status,1732147951000,27,21,6,15,1575420030,0.00,87.0,16.0,0,0,0,0.0
Status,1732147951000,27,22,6,7,1575420030,0.00,162.0,8.0,0,0,0,0.0
Status,1732147951000,27,23,6,13,1575420030,0.00,137.0,8.0,0,0,0,0.0
Status,1732147951000,27,24,6,4,1575420030,0.00,324.0,7.0,0,0,0,0.0
Status,1732147951000,27,25,6,34,1575420030,0.00,39.0,6.0,0,0,0,0.0
Status,1732147951000,27,26,6,30,1575420030,0.00,64.0,4.0,0,0,0,0.0
Fix,FLP,37.4244239000,-122.1708295000,2.0,0.250449,2.716,205.51154,1732147952206,2.3,179.9,26836054000000,1.0906318,0,,,
Fix,GPS,37.4244133333,-122.1708350000,-8.0,0.34126082,2.5,177.83,1732147952000,2.3,179.9,26836054000000,43.1,0,,,
Raw,1732147951999,18907000000,,701136.561364062,-1416183151092999936,0.0,109.78997830057517,2328.1885390331477,0.0,0,2,0.0,16431,346369920664017,235,26.791000366210938,619.9213146281173,0.14999,16,0.0,0.0,1575420030,,,,0,12.456948573318709,1,6.0,26.791000366210938,0.0,0.0,0.0,66.7128,C,26836054000000,
Raw,1732147951999,18907000000,,701136.561364062,-1416183151092999936,0.0,109.78997830057517,2328.1885390331477,0.0,0,13,0.0,16431,346369930799310,235,28.113000869750977,576.0744653680221,0.14999,16,0.0,0.0,1575420030,,,,0,14.17937984750413,1,6.0,28.113000869750977,0.0,0.0,0.0,66.7128,C,26836054000000,
Raw,1732147951999,18907000000,,701136.561364062,-1416183151092999936,0.0,109.78997830057517,2328.1885390331477,0.0,0,19,0.0,16431,346369923768505,396,23.101999282836914,41.19477057071673,0.14999,16,0.0,0.0,1575420030,,,,0,7.2671372811696955,1,6.0,23.101999282836914,0.0,0.0,0.0,66.7128,C,26836054000000,
Raw,1732147951999,18907000000,,701136.561364062,-1416183151092999936,0.0,109.78997830057517,2328.1885390331477,0.0,0,22,0.0,16431,346369930914356,316,27.20599937438965,634.4404524038185,0.14999,16,0.0,0.0,1575420030,,,,0,13.019540907950395,1,6.0,27.20599937438965,0.0,0.0,0.0,66.7128,C,26836054000000,
Raw,1732147951999,18907000000,,701136.561364062,-1416183151092999936,0.0,109.78997830057517,2328.1885390331477,0.0,0,7,0.0,16431,346369924440013,74,29.740999221801758,1141.875209492078,0.14999,16,0.0,0.0,1575420030,,,,0,16.222864907512403,1,6.0,29.740999221801758,0.0,0.0,0.0,66.7128,C,26836054000000,
Raw,1732147951999,18907000000,,701136.561364062,-1416183151092999936,0.0,109.78997830057517,2328.1885390331477,0.0,0,15,0.0,16431,346369924058881,235,27.249000549316406,373.28391996397636,0.14999,16,0.0,0.0,1575420030,,,,0,13.079859828401506,1,6.0,27.249000549316406,0.0,0.0,0.0,66.7128,C,26836054000000,
Raw,1732147951999,18907000000,,701136.561364062,-1416183151092999936,0.0,109.78997830057517,2328.1885390331477,0.0,0,30,0.0,16431,346369930946836,51,37.44200134277344,901.1342008673381,0.14999,16,0.0,0.0,1575420030,,,,0,25.04559532589797,1,6.0,37.44200134277344,0.0,0.0,0.0,66.7128,C,26836054000000,
Raw,1732147951999,18907000000,,701136.561364062,-1416183151092999936,0.0,109.78997830057517,2328.1885390331477,0.0,0,21,0.0,16431,346369919778320,316,24.072999954223633,848.6544022485843,0.14999,16,0.0,0.0,1575420030,,,,0,8.672887938922543,1,6.0,24.072999954223633,0.0,0.0,0.0,66.7128,C,26836054000000,
Raw,1732147951999,18907000000,,701136.561364062,-1416183151092999936,0.0,109.78997830057517,2328.1885390331477,0.0,0,14,0.0,16431,346369932401833,316,25.584999084472656,775.2646461202078,0.14999,16,0.0,0.0,1575420030,,,,0,10.828000234233762,1,6.0,25.584999084472656,0.0,0.0,0.0,66.7128,C,26836054000000,
Raw,1732147951999,18907000000,,701136.561364062,-1416183151092999936,0.0,109.78997830057517,2328.1885390331477,0.0,0,17,0.0,16431,346369931066926,51,36.64899826049805,357.64666748533614,0.14999,16,0.0,0.0,1575420030,,,,0,24.177478101051367,1,6.0,36.64899826049805,0.0,0.0,0.0,66.7128,C,26836054000000,
