# 
# Header Description:
# 
# Version: v3.1.0.3 Platform: 13 Manufacturer: samsung Model: SM-S135DL GNSS Hardware Model Name: MediaTek,MT6631,MTK_MNLD_default,MNL_VER_default
# 
# Raw,utcTimeMillis,TimeNanos,LeapSecond,TimeUncertaintyNanos,FullBiasNanos,BiasNanos,BiasUncertaintyNanos,DriftNanosPerSecond,DriftUncertaintyNanosPerSecond,HardwareClockDiscontinuityCount,Svid,TimeOffsetNanos,State,ReceivedSvTimeNanos,ReceivedSvTimeUncertaintyNanos,Cn0DbHz,PseudorangeRateMetersPerSecond,PseudorangeRateUncertaintyMetersPerSecond,AccumulatedDeltaRangeState,AccumulatedDeltaRangeMeters,AccumulatedDeltaRangeUncertaintyMeters,CarrierFrequencyHz,CarrierCycles,CarrierPhase,CarrierPhaseUncertainty,MultipathIndicator,SnrInDb,ConstellationType,AgcDb,BasebandCn0DbHz,FullInterSignalBiasNanos,FullInterSignalBiasUncertaintyNanos,SatelliteInterSignalBiasNanos,SatelliteInterSignalBiasUncertaintyNanos,CodeType,ChipsetElapsedRealtimeNanos,IsFullTracking
# 
# UncalAccel,utcTimeMillis,elapsedRealtimeNanos,UncalAccelXMps2,UncalAccelYMps2,UncalAccelZMps2,BiasXMps2,BiasYMps2,BiasZMps2
# 
# Accel,utcTimeMillis,elapsedRealtimeNanos,AccelXMps2,AccelYMps2,AccelZMps2
# 
# UncalGyro,utcTimeMillis,elapsedRealtimeNanos,UncalGyroXRadPerSec,UncalGyroYRadPerSec,UncalGyroZRadPerSec,DriftXRadPerSec,DriftYRadPerSec,DriftZRadPerSec
# 
# Gyro,utcTimeMillis,elapsedRealtimeNanos,GyroXRadPerSec,GyroYRadPerSec,GyroZRadPerSec
# 
# UncalMag,utcTimeMillis,elapsedRealtimeNanos,UncalMagXMicroT,UncalMagYMicroT,UncalMagZMicroT,BiasXMicroT,BiasYMicroT,BiasZMicroT
# 
# Mag,utcTimeMillis,elapsedRealtimeNanos,MagXMicroT,MagYMicroT,MagZMicroT
# 
# Pressure,utcTimeMillis,elapsedRealtimeNanos,PressureHpa
# 
# OrientationDeg,utcTimeMillis,elapsedRealtimeNanos,yawDeg,rollDeg,pitchDeg
# 
# Fix,Provider,LatitudeDegrees,LongitudeDegrees,AltitudeMeters,SpeedMps,AccuracyMeters,BearingDegrees,UnixTimeMillis,SpeedAccuracyMps,BearingAccuracyDegrees,elapsedRealtimeNanos,VerticalAccuracyMeters,MockLocation,NumberOfUsedSignals,VerticalSpeedAccuracyMps,SolutionType
# 
# Nav,Svid,Type,Status,MessageId,Sub-messageId,Data(Bytes)
# 
# Status,UnixTimeMillis,SignalCount,SignalIndex,ConstellationType,Svid,CarrierFrequencyHz,Cn0DbHz,AzimuthDegrees,ElevationDegrees,UsedInFix,HasAlmanacData,HasEphemerisData,BasebandCn0DbHz
# 
# Agc,utcTimeMillis,TimeNanos,LeapSecond,TimeUncertaintyNanos,FullBiasNanos,BiasNanos,BiasUncertaintyNanos,DriftNanosPerSecond,DriftUncertaintyNanosPerSecond,HardwareClockDiscontinuityCount,AgcDb,CarrierFrequencyHz,ConstellationType
# 
Fix,FLP,37.4244019000,-122.1708326000,2.0,0.48051322,2.516,62.892838,1732147977206,2.5,123.3,26861054000000,1.1188291,0,,,
Status,,27,0,1,14,1575420030,28.30,0.0,71.0,1,0,0,23.3
Status,,27,1,1,22,1575420030,30.50,295.0,66.0,1,0,0,25.5
Status,,27,2,1,30,1575420030,26.30,100.0,62.0,1,0,0,21.3
Status,,27,3,1,17,1575420030,27.80,171.0,58.0,1,0,0,22.8
Status,,27,4,1,13,1575420030,0.00,286.0,55.0,0,0,0,0.0
Status,,27,5,1,19,1575420030,25.20,193.0,29.0,1,0,0,20.2
Status,,27,6,1,7,1575420030,39.00,113.0,28.0,1,0,0,34.0
Status,,27,7,1,15,1575420030,25.70,307.0,24.0,1,0,0,20.7
Status,,27,8,2,131,1575420030,31.00,3.0,23.0,0,0,0,26.0
Status,,27,9,1,2,1575420030,44.90,76.0,20.0,1,0,0,39.9
Status,,27,10,1,21,1575420030,30.20,57.0,14.0,1,0,0,25.2
Status,,27,11,3,9,1602000000,29.00,38.0,49.0,1,0,0,24.0
Status,,27,12,3,8,1602000000,25.20,285.0,40.0,1,0,0,20.2
Status,,27,13,3,20,1602000000,0.00,143.0,22.0,0,0,0,0.0
Status,,27,14,3,11,1602000000,0.00,282.0,8.0,0,0,0,0.0
Status,,27,15,3,16,1602000000,29.40,78.0,7.0,1,0,0,24.4
Status,,27,16,3,17,1602000000,28.90,0.0,0.0,0,0,0,23.9
Status,,27,17,6,21,1575420030,23.30,286.0,62.0,1,0,0,18.3
Status,,27,18,6,19,1575420030,0.00,283.0,54.0,0,0,0,0.0
Status,,27,19,6,27,1575420030,26.10,44.0,51.0,1,0,0,21.1
Status,,27,20,6,29,1575420030,0.00,198.0,51.0,0,0,0,0.0
Status,,27,21,6,15,1575420030,27.30,87.0,16.0,1,0,0,22.3
Status,,27,22,6,4,1575420030,0.00,324.0,8.0,0,0,0,0.0
Status,,27,23,6,13,1575420030,0.00,136.0,8.0,0,0,0,0.0
Status,,27,24,6,7,1575420030,0.00,162.0,7.0,0,0,0,0.0
Status,,27,25,6,34,1575420030,0.00,39.0,6.0,0,0,0,0.0
Status,,27,26,6,30,1575420030,0.00,64.0,4.0,0,0,0,0.0
Fix,GPS,37.4244000000,-122.1708150000,-7.5,0.0,2.6,56.15,1732147977999,2.5,179.9,26862054000000,39.4,0,,,
Fix,FLP,37.4244015000,-122.1708219000,2.0,0.3740856,2.533,74.08471,1732147978207,2.5,179.9,26862054000000,1.1288302,0,,,
Raw,1732147977999,16158000000,,694738.0723467033,-1416183179841999872,0.0,104.09840986431439,2288.1239423177817,0.0,0,7,0.0,16431,346395924058136,58,33.952999114990234,1130.6427723711913,0.14999,16,0.0,0.0,1575420030,,,,0,21.176544450072313,1,6.0,33.952999114990234,0.0,0.0,0.0,66.7128,C,26862054000000,
Raw,1732147977999,16158000000,,694738.0723467033,-1416183179841999872,0.0,104.09840986431439,2288.1239423177817,0.0,0,2,0.0,16431,346395920327306,42,39.92100143432617,610.5676558587849,0.14999,16,0.0,0.0,1575420030,,,,0,27.717856275273896,1,6.0,39.92100143432617,0.0,0.0,0.0,66.7128,C,26862054000000,
Raw,1732147977999,16158000000,,694738.0723467033,-1416183179841999872,0.0,104.09840986431439,2288.1239423177817,0.0,0,22,0.0,16431,346395930576498,396,25.527999877929688,622.0164033655478,0.14999,16,0.0,0.0,1575420030,,,,0,10.771593742286871,1,6.0,25.527999877929688,0.0,0.0,0.0,66.7128,C,26862054000000,
Raw,1732147977999,16158000000,,694738.0723467033,-1416183179841999872,0.0,104.09840986431439,2288.1239423177817,0.0,0,30,0.0,16431,346395930585765,396,21.33099937438965,890.3128278130823,0.14999,16,0.0,0.0,1575420030,,,,0,4.494637956618733,1,6.0,21.33099937438965,0.0,0.0,0.0,66.7128,C,26862054000000,
Raw,1732147977999,16158000000,,694738.0723467033,-1416183179841999872,0.0,104.09840986431439,2288.1239423177817,0.0,0,17,0.0,16431,346395930752995,487,22.834999084472656,346.937770256726,0.14999,16,0.0,0.0,1575420030,,,,0,6.8623404798183465,1,6.0,22.834999084472656,0.0,0.0,0.0,66.7128,C,26862054000000,
Raw,1732147977999,16158000000,,694738.0723467033,-1416183179841999872,0.0,104.09840986431439,2288.1239423177817,0.0,0,15,0.0,16431,346395909195543,396,22.299999237060547,362.5546274906498,0.14999,16,0.0,0.0,1575420030,,,,0,7.620651060184892,6,6.0,22.299999237060547,0.0,0.0,20.426734383026275,66.7128,C,26862054000000,
Raw,1732147977999,16158000000,,694738.0723467033,-1416183179841999872,0.0,104.09840986431439,2288.1239423177817,0.0,0,14,0.0,16431,346395932051715,396,23.332000732421875,763.4230462459685,0.14999,16,0.0,0.0,1575420030,,,,0,7.620651060184892,1,6.0,23.332000732421875,0.0,0.0,0.0,66.7128,C,26862054000000,
Raw,1732147977999,16158000000,,694738.0723467033,-1416183179841999872,0.0,104.09840986431439,2288.1239423177817,0.0,0,27,0.0,16431,346395918107684,396,21.100000381469727,965.0532694759479,0.14999,16,0.0,0.0,1575420030,,,,0,5.827853703164502,6,6.0,21.100000381469727,0.0,0.0,20.426734383026275,66.7128,C,26862054000000,
Raw,1732147977999,16158000000,,694738.0723467033,-1416183179841999872,0.0,104.09840986431439,2288.1239423177817,0.0,0,15,0.0,16431,346395923743567,487,20.665000915527344,362.88764141804694,0.14999,16,0.0,0.0,1575420030,,,,0,3.3861106246026926,1,6.0,20.665000915527344,0.0,0.0,0.0,66.7128,C,26862054000000,
Raw,1732147977999,16158000000,,694738.0723467033,-1416183179841999872,0.0,104.09840986431439,2288.1239423177817,0.0,0,19,0.0,16431,346395923482100,487,20.198999404907227,29.63470869871333,0.14999,16,0.0,0.0,1575420030,,,,0,2.626204253374032,1,6.0,20.198999404907227,0.0,0.0,0.0,66.7128,C,26862054000000,
Raw,1732147977999,16158000000,,694738.0723467033,-1416183179841999872,0.0,104.09840986431439,2288.1239423177817,0.0,0,21,0.0,16431,346395919421783,396,25.239999771118164,838.5270250156815,0.14999,16,0.0,0.0,1575420030,,,,0,10.37400078014862,1,6.0,25.239999771118164,0.0,0.0,0.0,66.7128,C,26862054000000,
Raw,1732147977999,16158000000,,694738.0723467033,-1416183179841999872,0.0,104.09840986431439,2288.1239423177817,0.0,0,21,0.0,16431,346395919888034,487,18.299999237060547,569.0920906204916,0.14999,16,0.0,0.0,1575420030,,,,0,1.4592718960001188,6,6.0,18.299999237060547,0.0,0.0,20.426734383026275,66.7128,C,26862054000000,
Raw,1732147977999,16158000000,,694738.0723467033,-1416183179841999872,0.0,104.09840986431439,2288.1239423177817,0.0,0,16,0.0,17,152132,396,5.0,1176.21216391177,0.14999,16,0.0,0.0,1601437440,,,,0,10.303261898189056,3,6.0,23.0,0.0,0.0,49.63121501623323,66.7128,C,26862054000000,
Raw,1732147977999,16158000000,,694738.0723467033,-1416183179841999872,0.0,104.09840986431439,2288.1239423177817,0.0,0,9,0.0,17,272449,316,5.0,876.9993202382639,0.14999,16,0.0,0.0,1600875010,,,,0,9.860760973725888,3,6.0,24.0,0.0,0.0,49.63121501623323,66.7128,C,26862054000000,
Raw,1732147977999,16158000000,,694738.0723467033,-1416183179841999872,0.0,104.09840986431439,2288.1239423177817,0.0,0,8,0.0,17,30211,487,5.0,750.0358572636853,0.14999,16,0.0,0.0,1605374980,,,,0,4.5035283254993566,3,6.0,19.0,0.0,0.0,49.63121501623323,66.7128,C,26862054000000,
Fix,NLP,37.4243210000,-122.1708510000,2.0,,19.936,,1732147977079,,,26860927000000,1.0,0,,,
Status,1732147977999,27,0,1,14,1575420030,32.10,0.0,71.0,1,0,0,27.099998
Status,1732147977999,27,1,1,22,1575420030,28.00,295.0,66.0,1,0,0,23.0
Status,1732147977999,27,2,1,30,1575420030,32.00,100.0,62.0,1,0,0,27.0
Status,1732147977999,27,3,1,17,1575420030,26.90,171.0,58.0,1,0,0,21.9
Status,1732147977999,27,4,1,13,1575420030,0.00,286.0,55.0,0,0,0,0.0
Status,1732147977999,27,5,1,19,1575420030,25.90,193.0,29.0,1,0,0,20.9
Status,1732147977999,27,6,1,7,1575420030,31.60,113.0,28.0,1,0,0,26.6
Status,1732147977999,27,7,1,15,1575420030,27.70,307.0,24.0,1,0,0,22.7
Status,1732147977999,27,8,2,131,1575420030,32.00,3.0,23.0,0,0,0,27.0
Status,1732147977999,27,9,1,2,1575420030,43.20,76.0,20.0,1,0,0,38.2
Status,1732147977999,27,10,1,21,1575420030,30.20,57.0,14.0,1,0,0,25.2
Status,1732147977999,27,11,3,9,1602000000,32.30,38.0,49.0,1,0,0,27.3
Status,1732147977999,27,12,3,8,1602000000,21.70,285.0,40.0,1,0,0,16.7
Status,1732147977999,27,13,3,20,1602000000,0.00,143.0,22.0,0,0,0,0.0
Status,1732147977999,27,14,3,11,1602000000,0.00,282.0,8.0,0,0,0,0.0
Status,1732147977999,27,15,3,16,1602000000,33.50,78.0,7.0,1,0,0,28.5
Status,1732147977999,27,16,3,17,1602000000,26.50,0.0,0.0,0,0,0,21.5
Status,1732147977999,27,17,6,21,1575420030,21.90,286.0,62.0,1,0,0,16.9
Status,1732147977999,27,18,6,19,1575420030,0.00,283.0,54.0,0,0,0,0.0
Status,1732147977999,27,19,6,27,1575420030,26.00,44.0,51.0,1,0,0,21.0
Status,1732147977999,27,20,6,29,1575420030,0.00,198.0,51.0,0,0,0,0.0
Status,1732147977999,27,21,6,15,1575420030,36.50,87.0,16.0,1,0,0,31.5
Status,1732147977999,27,22,6,4,1575420030,0.00,324.0,8.0,0,0,0,0.0
Status,1732147977999,27,23,6,13,1575420030,0.00,136.0,8.0,0,0,0,0.0
Status,1732147977999,27,24,6,7,1575420030,0.00,162.0,7.0,0,0,0,0.0
Status,1732147977999,27,25,6,34,1575420030,0.00,39.0,6.0,0,0,0,0.0
Status,1732147977999,27,26,6,30,1575420030,0.00,64.0,4.0,0,0,0,0.0
Fix,GPS,37.4244033333,-122.1708083333,-7.599999999999998,0.9553245,2.6,71.86,1732147978999,2.4,119.9,26863054000000,39.4,0,,,
Fix,FLP,37.4244031000,-122.1708121000,2.0,0.58029574,2.55,73.50162,1732147979206,2.4,119.9,26863054000000,0.91944414,0,,,
Raw,1732147978999,17158000000,,694204.1613168267,-1416183179841999872,0.0,104.40053309026415,2286.875425210005,0.0,0,7,0.0,16431,346396924054363,396,26.642000198364258,1129.1215379907935,0.14999,16,0.0,0.0,1575420030,,,,0,12.299987460179587,1,6.0,26.642000198364258,0.0,0.0,0.0,66.7128,C,26863054000000,
Raw,1732147978999,17158000000,,694204.1613168267,-1416183179841999872,0.0,104.40053309026415,2286.875425210005,0.0,0,2,0.0,16431,346396920325272,51,38.231998443603516,609.1291639176579,0.14999,16,0.0,0.0,1575420030,,,,0,25.906459575733148,1,6.0,38.231998443603516,0.0,0.0,0.0,66.7128,C,26863054000000,
Raw,1732147978999,17158000000,,694204.1613168267,-1416183179841999872,0.0,104.40053309026415,2286.875425210005,0.0,0,22,0.0,16431,346396930574422,487,23.01300048828125,622.117078753476,0.14999,16,0.0,0.0,1575420030,,,,0,7.161883599211402,1,6.0,23.01300048828125,0.0,0.0,0.0,66.7128,C,26863054000000,
Raw,1732147978999,17158000000,,694204.1613168267,-1416183179841999872,0.0,104.40053309026415,2286.875425210005,0.0,0,30,0.0,16431,346396930582797,316,26.9950008392334,889.4815009134109,0.14999,16,0.0,0.0,1575420030,,,,0,12.74470050477137,1,6.0,26.9950008392334,0.0,0.0,0.0,66.7128,C,26863054000000,
Raw,1732147978999,17158000000,,694204.1613168267,-1416183179841999872,0.0,104.40053309026415,2286.875425210005,0.0,0,17,0.0,16431,346396930751839,487,21.895999908447266,346.2791757485254,0.14999,16,0.0,0.0,1575420030,,,,0,5.405784131145509,1,6.0,21.895999908447266,0.0,0.0,0.0,66.7128,C,26863054000000,
Raw,1732147978999,17158000000,,694204.1613168267,-1416183179841999872,0.0,104.40053309026415,2286.875425210005,0.0,0,15,0.0,16431,346396909194335,58,31.5,361.74917792880774,0.14999,16,0.0,0.0,1575420030,,,,0,18.679724458465493,6,6.0,31.5,0.0,0.0,19.564284271698813,66.7128,C,26863054000000,
Raw,1732147978999,17158000000,,694204.1613168267,-1416183179841999872,0.0,104.40053309026415,2286.875425210005,0.0,0,14,0.0,16431,346396932049167,316,27.14699935913086,763.3619534286516,0.14999,16,0.0,0.0,1575420030,,,,0,12.958800173440752,1,6.0,27.14699935913086,0.0,0.0,0.0,66.7128,C,26863054000000,
Raw,1732147978999,17158000000,,694204.1613168267,-1416183179841999872,0.0,104.40053309026415,2286.875425210005,0.0,0,27,0.0,16431,346396918104461,396,21.0,964.3340002761763,0.14999,16,0.0,0.0,1575420030,,,,0,5.758917709268904,6,6.0,21.0,0.0,0.0,19.564284271698813,66.7128,C,26863054000000,
Raw,1732147978999,17158000000,,694204.1613168267,-1416183179841999872,0.0,104.40053309026415,2286.875425210005,0.0,0,15,0.0,16431,346396923742333,396,22.687000274658203,362.7189741379946,0.14999,16,0.0,0.0,1575420030,,,,0,6.615038660937113,1,6.0,22.687000274658203,0.0,0.0,0.0,66.7128,C,26863054000000,
Raw,1732147978999,17158000000,,694204.1613168267,-1416183179841999872,0.0,104.40053309026415,2286.875425210005,0.0,0,19,0.0,16431,346396923482001,487,20.86199951171875,29.00487195014706,0.14999,16,0.0,0.0,1575420030,,,,0,3.742504807842275,1,6.0,20.86199951171875,0.0,0.0,0.0,66.7128,C,26863054000000,
Raw,1732147978999,17158000000,,694204.1613168267,-1416183179841999872,0.0,104.40053309026415,2286.875425210005,0.0,0,21,0.0,16431,346396919418987,797,25.239999771118164,837.6637347256573,0.14999,16,0.0,0.0,1575420030,,,,0,10.37400078014862,1,6.0,25.239999771118164,0.0,0.0,0.0,66.7128,C,26863054000000,
Raw,1732147978999,17158000000,,694204.1613168267,-1416183179841999872,0.0,104.40053309026415,2286.875425210005,0.0,0,21,0.0,16431,346396919886135,487,16.899999618530273,568.7226532947855,0.14999,16,0.0,0.0,1575420030,,,,0,0.0,6,6.0,16.899999618530273,0.0,0.0,19.564284271698813,66.7128,C,26863054000000,
Raw,1732147978999,17158000000,,694204.1613168267,-1416183179841999872,0.0,104.40053309026415,2286.875425210005,0.0,0,16,0.0,17,148209,235,5.0,1176.1671915330307,0.14999,16,0.0,0.0,1601437440,,,,0,15.318768552373825,3,6.0,29.0,0.0,0.0,48.97778370717208,66.7128,C,26863054000000,
Raw,1732147978999,17158000000,,694204.1613168267,-1416183179841999872,0.0,104.40053309026415,2286.875425210005,0.0,0,9,0.0,17,269517,235,5.0,875.8733355692925,0.14999,16,0.0,0.0,1600875010,,,,0,13.898731426965224,3,6.0,28.0,0.0,0.0,48.97778370717208,66.7128,C,26863054000000,
Raw,1732147978999,17158000000,,694204.1613168267,-1416183179841999872,0.0,104.40053309026415,2286.875425210005,0.0,0,8,0.0,17,27712,797,5.0,749.927349399169,0.14999,16,0.0,0.0,1605374980,,,,0,0.0,3,6.0,17.0,0.0,0.0,48.97778370717208,66.7128,C,26863054000000,
Status,1732147978999,27,0,1,14,1575420030,32.10,0.0,71.0,1,0,0,27.099998
Status,1732147978999,27,1,1,22,1575420030,29.20,295.0,66.0,1,0,0,24.2
Status,1732147978999,27,2,1,30,1575420030,28.20,100.0,62.0,1,0,0,23.2
Status,1732147978999,27,3,1,17,1575420030,29.00,171.0,58.0,1,0,0,24.0
Status,1732147978999,27,4,1,13,1575420030,0.00,286.0,55.0,0,0,0,0.0
Status,1732147978999,27,5,1,19,1575420030,24.30,193.0,29.0,1,0,0,19.3
Status,1732147978999,27,6,1,7,1575420030,37.30,113.0,28.0,1,0,0,32.3
Status,1732147978999,27,7,1,15,1575420030,29.10,307.0,24.0,1,0,0,24.1
Status,1732147978999,27,8,2,131,1575420030,29.00,3.0,23.0,0,0,0,24.0
Status,1732147978999,27,9,1,2,1575420030,31.60,76.0,20.0,1,0,0,26.6
Status,1732147978999,27,10,1,21,1575420030,30.20,57.0,14.0,1,0,0,25.2
Status,1732147978999,27,11,3,9,1602000000,27.60,38.0,49.0,1,0,0,22.6
Status,1732147978999,27,12,3,8,1602000000,21.70,285.0,40.0,1,0,0,16.7
Status,1732147978999,27,13,3,20,1602000000,0.00,143.0,22.0,0,0,0,0.0
Status,1732147978999,27,14,3,11,1602000000,0.00,282.0,8.0,0,0,0,0.0
Status,1732147978999,27,15,3,16,1602000000,34.00,78.0,7.0,1,0,0,29.0
Status,1732147978999,27,16,3,17,1602000000,24.90,0.0,0.0,0,0,0,19.9
Status,1732147978999,27,17,6,21,1575420030,21.70,286.0,62.0,1,0,0,16.7
Status,1732147978999,27,18,6,19,1575420030,0.00,283.0,54.0,0,0,0,0.0
Status,1732147978999,27,19,6,27,1575420030,25.80,44.0,51.0,1,0,0,20.8
Status,1732147978999,27,20,6,29,1575420030,0.00,198.0,51.0,0,0,0,0.0
Status,1732147978999,27,21,6,15,1575420030,39.10,87.0,16.0,1,0,0,34.1
Status,1732147978999,27,22,6,4,1575420030,0.00,324.0,8.0,0,0,0,0.0
Status,1732147978999,27,23,6,13,1575420030,0.00,136.0,8.0,0,0,0,0.0
Status,1732147978999,27,24,6,7,1575420030,0.00,162.0,7.0,0,0,0,0.0
Status,1732147978999,27,25,6,34,1575420030,0.00,39.0,6.0,0,0,0,0.0
Status,1732147978999,27,26,6,30,1575420030,0.00,64.0,4.0,0,0,0,0.0
Fix,GPS,37.4244066667,-122.1707966667,-7.5,0.0,2.7,71.86,1732147979999,3.0,114.4,26864054000000,39.9,0,,,
Fix,FLP,37.4244052000,-122.1708017000,2.0,0.50594175,2.583,82.95373,1732147980206,3.0,114.4,26864054000000,0.9354652,0,,,
Raw,1732147979999,18158000000,,693497.9435840244,-1416183179841999872,0.0,105.79222641294041,2284.278902334196,0.0,0,7,0.0,16431,346397924050597,74,32.27399826049805,1128.008858922551,0.14999,16,0.0,0.0,1575420030,,,,0,19.254457658739966,1,6.0,32.27399826049805,0.0,0.0,0.0,66.7128,C,26864054000000,
Raw,1732147979999,18158000000,,693497.9435840244,-1416183179841999872,0.0,105.79222641294041,2284.278902334196,0.0,0,2,0.0,16431,346397920323241,316,26.642000198364258,607.7855865208492,0.14999,16,0.0,0.0,1575420030,,,,0,12.299987460179587,1,6.0,26.642000198364258,0.0,0.0,0.0,66.7128,C,26864054000000,
Raw,1732147979999,18158000000,,693497.9435840244,-1416183179841999872,0.0,105.79222641294041,2284.278902334196,0.0,0,22,0.0,16431,346397930572345,487,24.238000869750977,621.1559934973286,0.14999,16,0.0,0.0,1575420030,,,,0,8.963575780370393,1,6.0,24.238000869750977,0.0,0.0,0.0,66.7128,C,26864054000000,
Raw,1732147979999,18158000000,,693497.9435840244,-1416183179841999872,0.0,105.79222641294041,2284.278902334196,0.0,0,30,0.0,16431,346397930579829,487,23.158000946044922,889.021005091932,0.14999,16,0.0,0.0,1575420030,,,,0,7.33677319152501,1,6.0,23.158000946044922,0.0,0.0,0.0,66.7128,C,26864054000000,
Raw,1732147979999,18158000000,,693497.9435840244,-1416183179841999872,0.0,105.79222641294041,2284.278902334196,0.0,0,17,0.0,16431,346397930750679,396,24.049999237060547,345.3705188150716,0.14999,16,0.0,0.0,1575420030,,,,0,8.671585608964625,1,6.0,24.049999237060547,0.0,0.0,0.0,66.7128,C,26864054000000,
Raw,1732147979999,18158000000,,693497.9435840244,-1416183179841999872,0.0,105.79222641294041,2284.278902334196,0.0,0,15,0.0,16431,346397909193130,58,34.099998474121094,360.5756151061214,0.14999,16,0.0,0.0,1575420030,,,,0,21.498920629643045,6,6.0,34.099998474121094,0.0,0.0,18.692963311871143,66.7128,C,26864054000000,
Raw,1732147979999,18158000000,,693497.9435840244,-1416183179841999872,0.0,105.79222641294041,2284.278902334196,0.0,0,14,0.0,16431,346397932046623,487,27.14699935913086,761.4714675562124,0.14999,16,0.0,0.0,1575420030,,,,0,12.958800173440752,1,6.0,27.14699935913086,0.0,0.0,0.0,66.7128,C,26864054000000,
Raw,1732147979999,18158000000,,693497.9435840244,-1416183179841999872,0.0,105.79222641294041,2284.278902334196,0.0,0,27,0.0,16431,346397918101248,396,20.799999237060547,963.0630838423208,0.14999,16,0.0,0.0,1575420030,,,,0,5.477568751614386,6,6.0,20.799999237060547,0.0,0.0,18.692963311871143,66.7128,C,26864054000000,
Raw,1732147979999,18158000000,,693497.9435840244,-1416183179841999872,0.0,105.79222641294041,2284.278902334196,0.0,0,15,0.0,16431,346397923741112,487,24.145000457763672,361.7546600219206,0.14999,16,0.0,0.0,1575420030,,,,0,8.818807601892006,1,6.0,24.145000457763672,0.0,0.0,0.0,66.7128,C,26864054000000,
Raw,1732147979999,18158000000,,693497.9435840244,-1416183179841999872,0.0,105.79222641294041,2284.278902334196,0.0,0,19,0.0,16431,346397923481903,487,19.274999618530273,27.486146324224563,0.14999,16,0.0,0.0,1575420030,,,,0,0.9928033243476406,1,6.0,19.274999618530273,0.0,0.0,0.0,66.7128,C,26864054000000,
Raw,1732147979999,18158000000,,693497.9435840244,-1416183179841999872,0.0,105.79222641294041,2284.278902334196,0.0,0,21,0.0,16431,346397919416193,396,25.239999771118164,836.622787452044,0.14999,16,0.0,0.0,1575420030,,,,0,10.37400078014862,1,6.0,25.239999771118164,0.0,0.0,0.0,66.7128,C,26864054000000,
Raw,1732147979999,18158000000,,693497.9435840244,-1416183179841999872,0.0,105.79222641294041,2284.278902334196,0.0,0,21,0.0,16431,346397919884236,487,16.700000762939453,567.9935349107773,0.14999,16,0.0,0.0,1575420030,,,,0,0.0,6,6.0,16.700000762939453,0.0,0.0,18.692963311871143,66.7128,C,26864054000000,
Raw,1732147979999,18158000000,,693497.9435840244,-1416183179841999872,0.0,105.79222641294041,2284.278902334196,0.0,0,16,0.0,17,144291,235,5.0,1175.0973607997685,0.14999,16,0.0,0.0,1601437440,,,,0,15.821354502313527,3,6.0,29.0,0.0,0.0,47.59741799654836,66.7128,C,26864054000000,
Raw,1732147979999,18158000000,,693497.9435840244,-1416183179841999872,0.0,105.79222641294041,2284.278902334196,0.0,0,9,0.0,17,266591,396,5.0,875.3950161114893,0.14999,16,0.0,0.0,1600875010,,,,0,7.952054424884874,3,6.0,22.0,0.0,0.0,47.59741799654836,66.7128,C,26864054000000,
Raw,1732147979999,18158000000,,693497.9435840244,-1416183179841999872,0.0,105.79222641294041,2284.278902334196,0.0,0,8,0.0,17,25212,797,5.0,749.087781195358,0.14999,16,0.0,0.0,1605374980,,,,0,0.0,3,6.0,17.0,0.0,0.0,47.59741799654836,66.7128,C,26864054000000,
Status,1732147979999,27,0,1,14,1575420030,26.20,0.0,71.0,1,0,0,21.2
Status,1732147979999,27,1,1,22,1575420030,27.30,295.0,66.0,1,0,0,22.3
Status,1732147979999,27,2,1,30,1575420030,29.10,100.0,62.0,1,0,0,24.1
Status,1732147979999,27,3,1,17,1575420030,29.20,171.0,58.0,1,0,0,24.2
Status,1732147979999,27,4,1,13,1575420030,0.00,286.0,55.0,0,0,0,0.0
Status,1732147979999,27,5,1,19,1575420030,24.30,193.0,29.0,1,0,0,19.3
Status,1732147979999,27,6,1,7,1575420030,33.10,113.0,28.0,1,0,0,28.099998
Status,1732147979999,27,7,1,15,1575420030,27.60,307.0,24.0,1,0,0,22.6
Status,1732147979999,27,8,2,131,1575420030,29.00,3.0,23.0,0,0,0,24.0
Status,1732147979999,27,9,1,2,1575420030,32.80,76.0,20.0,1,0,0,27.8
Status,1732147979999,27,10,1,21,1575420030,29.90,57.0,14.0,1,0,0,24.9
Status,1732147979999,27,11,3,9,1602000000,28.90,38.0,49.0,1,0,0,23.9
Status,1732147979999,27,12,3,8,1602000000,21.80,285.0,40.0,1,0,0,16.8
Status,1732147979999,27,13,3,20,1602000000,0.00,143.0,22.0,0,0,0,0.0
Status,1732147979999,27,14,3,11,1602000000,0.00,282.0,8.0,0,0,0,0.0
Status,1732147979999,27,15,3,16,1602000000,31.10,78.0,7.0,1,0,0,26.1
Status,1732147979999,27,16,3,17,1602000000,28.10,0.0,0.0,0,0,0,23.1
Status,1732147979999,27,17,6,21,1575420030,21.80,286.0,62.0,1,0,0,16.8
Status,1732147979999,27,18,6,19,1575420030,0.00,283.0,54.0,0,0,0,0.0
Status,1732147979999,27,19,6,27,1575420030,0.00,44.0,51.0,0,0,0,0.0
Status,1732147979999,27,20,6,29,1575420030,0.00,198.0,51.0,0,0,0,0.0
Status,1732147979999,27,21,6,15,1575420030,30.30,87.0,16.0,1,0,0,25.3
Status,1732147979999,27,22,6,4,1575420030,0.00,324.0,8.0,0,0,0,0.0
Status,1732147979999,27,23,6,13,1575420030,0.00,136.0,8.0,0,0,0,0.0
Status,1732147979999,27,24,6,7,1575420030,0.00,162.0,7.0,0,0,0,0.0
Status,1732147979999,27,25,6,34,1575420030,0.00,39.0,6.0,0,0,0,0.0
Status,1732147979999,27,26,6,30,1575420030,0.00,64.0,4.0,0,0,0,0.0
Fix,GPS,37.4244150000,-122.1707900000,-7.599999999999998,0.0,2.7,71.86,1732147980999,3.0,131.0,26865054000000,35.0,0,,,
Fix,FLP,37.4244101000,-122.1707934000,2.0,0.4393592,2.616,84.40358,1732147981207,3.0,131.0,26865054000000,0.9453458,0,,,
Raw,1732147980999,19158000000,,693107.1002793539,-1416183179841999872,0.0,90.70972624960098,2276.0663214802016,0.0,0,7,0.0,16431,346398924046828,235,28.052000045776367,1126.9159711396144,0.14999,16,0.0,0.0,1575420030,,,,0,14.116750670843759,1,6.0,28.052000045776367,0.0,0.0,0.0,66.7128,C,26865054000000,
Raw,1732147980999,19158000000,,693107.1002793539,-1416183179841999872,0.0,90.70972624960098,2276.0663214802016,0.0,0,2,0.0,16431,346398920321209,316,27.761999130249023,606.6196196492133,0.14999,16,0.0,0.0,1575420030,,,,0,13.73845618855352,1,6.0,27.761999130249023,0.0,0.0,0.0,66.7128,C,26865054000000,
Raw,1732147980999,19158000000,,693107.1002793539,-1416183179841999872,0.0,90.70972624960098,2276.0663214802016,0.0,0,22,0.0,16431,346398930570276,487,22.341999053955078,619.0729374896968,0.14999,16,0.0,0.0,1575420030,,,,0,6.098253426413763,1,6.0,22.341999053955078,0.0,0.0,0.0,66.7128,C,26865054000000,
Raw,1732147980999,19158000000,,693107.1002793539,-1416183179841999872,0.0,90.70972624960098,2276.0663214802016,0.0,0,30,0.0,16431,346398930576863,316,24.145000457763672,887.0247798641976,0.14999,16,0.0,0.0,1575420030,,,,0,8.818807601892006,1,6.0,24.145000457763672,0.0,0.0,0.0,66.7128,C,26865054000000,
Raw,1732147980999,19158000000,,693107.1002793539,-1416183179841999872,0.0,90.70972624960098,2276.0663214802016,0.0,0,17,0.0,16431,346398930749526,396,24.238000869750977,343.31282910269067,0.14999,16,0.0,0.0,1575420030,,,,0,8.963575780370393,1,6.0,24.238000869750977,0.0,0.0,0.0,66.7128,C,26865054000000,
Raw,1732147980999,19158000000,,693107.1002793539,-1416183179841999872,0.0,90.70972624960098,2276.0663214802016,0.0,0,15,0.0,16431,346398909191928,316,25.299999237060547,358.88241489812026,0.14999,16,0.0,0.0,1575420030,,,,0,11.516022503940828,6,6.0,25.299999237060547,0.0,0.0,18.070405251212225,66.7128,C,26865054000000,
Raw,1732147980999,19158000000,,693107.1002793539,-1416183179841999872,0.0,90.70972624960098,2276.0663214802016,0.0,0,14,0.0,16431,346398932044083,487,21.194000244140625,759.0886153887739,0.14999,16,0.0,0.0,1575420030,,,,0,4.251092385601996,1,6.0,21.194000244140625,0.0,0.0,0.0,66.7128,C,26865054000000,
Raw,1732147980999,19158000000,,693107.1002793539,-1416183179841999872,0.0,90.70972624960098,2276.0663214802016,0.0,0,15,0.0,16431,346398923739904,487,22.64900016784668,359.19898254617885,0.14999,16,0.0,0.0,1575420030,,,,0,6.552097156253396,1,6.0,22.64900016784668,0.0,0.0,0.0,66.7128,C,26865054000000,
Raw,1732147980999,19158000000,,693107.1002793539,-1416183179841999872,0.0,90.70972624960098,2276.0663214802016,0.0,0,19,0.0,16431,346398923481815,797,19.274999618530273,25.39036071055097,0.14999,16,0.0,0.0,1575420030,,,,0,0.9928033243476406,1,6.0,19.274999618530273,0.0,0.0,0.0,66.7128,C,26865054000000,
Raw,1732147980999,19158000000,,693107.1002793539,-1416183179841999872,0.0,90.70972624960098,2276.0663214802016,0.0,0,21,0.0,16431,346398919413440,316,24.854000091552734,834.7528361995699,0.14999,16,0.0,0.0,1575420030,,,,0,9.82833073205179,1,6.0,24.854000091552734,0.0,0.0,0.0,66.7128,C,26865054000000,
Raw,1732147980999,19158000000,,693107.1002793539,-1416183179841999872,0.0,90.70972624960098,2276.0663214802016,0.0,0,21,0.0,16431,346398919882346,396,16.764999389648438,564.7614693534263,0.14999,16,0.0,0.0,1575420030,,,,0,0.8721640289493777,6,6.0,16.764999389648438,0.0,0.0,18.070405251212225,66.7128,C,26865054000000,
Raw,1732147980999,19158000000,,693107.1002793539,-1416183179841999872,0.0,90.70972624960098,2276.0663214802016,0.0,0,16,0.0,17,140377,316,5.0,1173.001026381054,0.14999,16,0.0,0.0,1601437440,,,,0,12.441373387116233,3,6.0,24.0,0.0,0.0,47.33007790204201,66.7128,C,26865054000000,
Raw,1732147980999,19158000000,,693107.1002793539,-1416183179841999872,0.0,90.70972624960098,2276.0663214802016,0.0,0,9,0.0,17,263671,316,5.0,873.1999220751627,0.14999,16,0.0,0.0,1600875010,,,,0,9.68166412066736,3,6.0,24.0,0.0,0.0,47.33007790204201,66.7128,C,26865054000000,
Raw,1732147980999,19158000000,,693107.1002793539,-1416183179841999872,0.0,90.70972624960098,2276.0663214802016,0.0,0,8,0.0,17,22717,487,5.0,746.5249439734836,0.14999,16,0.0,0.0,1605374980,,,,0,1.1085067050061115,3,6.0,18.0,0.0,0.0,47.33007790204201,66.7128,C,26865054000000,
Status,1732147980999,27,0,1,14,1575420030,30.00,0.0,71.0,1,0,0,25.0
Status,1732147980999,27,1,1,22,1575420030,35.90,295.0,66.0,1,0,0,30.900002
Status,1732147980999,27,2,1,30,1575420030,36.40,100.0,62.0,1,0,0,31.400002
Status,1732147980999,27,3,1,17,1575420030,29.30,171.0,58.0,1,0,0,24.3
Status,1732147980999,27,4,1,13,1575420030,0.00,286.0,55.0,0,0,0,0.0
Status,1732147980999,27,5,1,19,1575420030,0.00,193.0,29.0,0,0,0,0.0
Status,1732147980999,27,6,1,7,1575420030,25.70,113.0,28.0,1,0,0,20.7
Status,1732147980999,27,7,1,15,1575420030,27.60,307.0,24.0,1,0,0,22.6
Status,1732147980999,27,8,2,131,1575420030,28.00,3.0,23.0,0,0,0,23.0
Status,1732147980999,27,9,1,2,1575420030,34.00,76.0,20.0,1,0,0,29.0
Status,1732147980999,27,10,1,21,1575420030,28.20,57.0,14.0,1,0,0,23.2
Status,1732147980999,27,11,3,9,1602000000,29.30,38.0,49.0,1,0,0,24.3
Status,1732147980999,27,12,3,8,1602000000,21.80,285.0,40.0,1,0,0,16.8
Status,1732147980999,27,13,3,20,1602000000,0.00,143.0,22.0,0,0,0,0.0
Status,1732147980999,27,14,3,11,1602000000,0.00,282.0,8.0,0,0,0,0.0
Status,1732147980999,27,15,3,16,1602000000,30.50,78.0,7.0,1,0,0,25.5
Status,1732147980999,27,16,3,17,1602000000,28.20,0.0,0.0,0,0,0,23.2
Status,1732147980999,27,17,6,21,1575420030,25.70,286.0,62.0,1,0,0,20.7
Status,1732147980999,27,18,6,19,1575420030,0.00,283.0,54.0,0,0,0,0.0
Status,1732147980999,27,19,6,27,1575420030,0.00,44.0,51.0,0,0,0,0.0
Status,1732147980999,27,20,6,29,1575420030,0.00,198.0,51.0,0,0,0,0.0
Status,1732147980999,27,21,6,15,1575420030,27.30,87.0,16.0,1,0,0,22.3
Status,1732147980999,27,22,6,4,1575420030,0.00,324.0,8.0,0,0,0,0.0
Status,1732147980999,27,23,6,13,1575420030,0.00,136.0,8.0,0,0,0,0.0
Status,1732147980999,27,24,6,7,1575420030,0.00,162.0,7.0,0,0,0,0.0
Status,1732147980999,27,25,6,34,1575420030,0.00,39.0,6.0,0,0,0,0.0
Status,1732147980999,27,26,6,30,1575420030,0.00,64.0,4.0,0,0,0,0.0
Fix,GPS,37.4244150000,-122.1707966667,-7.599999999999998,0.0,2.8,71.86,1732147981999,2.9,179.9,26866054000000,34.2,0,,,
Fix,FLP,37.4244126000,-122.1707935000,2.0,0.27837595,2.666,84.988,1732147982207,2.9,179.9,26866054000000,0.95534,0,,,
Raw,1732147981999,20158000000,,692769.0539166265,-1416183179841999872,0.0,90.01283936362363,2269.989360686102,0.0,0,7,0.0,16431,346399924043073,396,20.71500015258789,1125.4133201257007,0.14999,16,0.0,0.0,1575420030,,,,0,3.476589459803618,1,6.0,20.71500015258789,0.0,0.0,0.0,66.7128,C,26866054000000,
Raw,1732147981999,20158000000,,692769.0539166265,-1416183179841999872,0.0,90.01283936362363,2269.989360686102,0.0,0,2,0.0,16431,346399920319191,235,29.02400016784668,607.3846039305361,0.14999,16,0.0,0.0,1575420030,,,,0,15.347360869649599,1,6.0,29.02400016784668,0.0,0.0,0.0,66.7128,C,26866054000000,
Raw,1732147981999,20158000000,,692769.0539166265,-1416183179841999872,0.0,90.01283936362363,2269.989360686102,0.0,0,22,0.0,16431,346399930568218,74,30.851999282836914,617.8150294123802,0.14999,16,0.0,0.0,1575420030,,,,0,17.581097115710897,1,6.0,30.851999282836914,0.0,0.0,0.0,66.7128,C,26866054000000,
Raw,1732147981999,20158000000,,692769.0539166265,-1416183179841999872,0.0,90.01283936362363,2269.989360686102,0.0,0,30,0.0,16431,346399930573908,235,31.42099952697754,886.0292689216382,0.14999,16,0.0,0.0,1575420030,,,,0,18.246943025796668,1,6.0,31.42099952697754,0.0,0.0,0.0,66.7128,C,26866054000000,
Raw,1732147981999,20158000000,,692769.0539166265,-1416183179841999872,0.0,90.01283936362363,2269.989360686102,0.0,0,17,0.0,16431,346399930748379,316,24.268999099731445,342.45499767657117,0.14999,16,0.0,0.0,1575420030,,,,0,9.011300568777635,1,6.0,24.268999099731445,0.0,0.0,0.0,66.7128,C,26866054000000,
Raw,1732147981999,20158000000,,692769.0539166265,-1416183179841999872,0.0,90.01283936362363,2269.989360686102,0.0,0,15,0.0,16431,346399909190728,316,22.299999237060547,357.6341004837512,0.14999,16,0.0,0.0,1575420030,,,,0,7.508210789191873,6,6.0,22.299999237060547,0.0,0.0,15.97547679827854,66.7128,C,26866054000000,
Raw,1732147981999,20158000000,,692769.0539166265,-1416183179841999872,0.0,90.01283936362363,2269.989360686102,0.0,0,14,0.0,16431,346399932041550,316,25.018999099731445,758.8396911947178,0.14999,16,0.0,0.0,1575420030,,,,0,10.084444312776164,1,6.0,25.018999099731445,0.0,0.0,0.0,66.7128,C,26866054000000,
Raw,1732147981999,20158000000,,692769.0539166265,-1416183179841999872,0.0,90.01283936362363,2269.989360686102,0.0,0,15,0.0,16431,346399923738708,487,22.64900016784668,358.3168765975894,0.14999,16,0.0,0.0,1575420030,,,,0,6.552097156253396,1,6.0,22.64900016784668,0.0,0.0,0.0,66.7128,C,26866054000000,
Raw,1732147981999,20158000000,,692769.0539166265,-1416183179841999872,0.0,90.01283936362363,2269.989360686102,0.0,0,21,0.0,16431,346399919410659,487,23.229000091552734,833.9192792959203,0.14999,16,0.0,0.0,1575420030,,,,0,7.451440066583858,1,6.0,23.229000091552734,0.0,0.0,0.0,66.7128,C,26866054000000,
Raw,1732147981999,20158000000,,692769.0539166265,-1416183179841999872,0.0,90.01283936362363,2269.989360686102,0.0,0,21,0.0,16431,346399919880465,235,20.700000762939453,564.1506340970901,0.14999,16,0.0,0.0,1575420030,,,,0,5.333401298610896,6,6.0,20.700000762939453,0.0,0.0,15.97547679827854,66.7128,C,26866054000000,
Raw,1732147981999,20158000000,,692769.0539166265,-1416183179841999872,0.0,90.01283936362363,2269.989360686102,0.0,0,16,0.0,17,136467,316,5.0,1172.115198490073,0.14999,16,0.0,0.0,1601437440,,,,0,11.715842038463862,3,6.0,25.0,0.0,0.0,41.57679605111329,66.7128,C,26866054000000,
Raw,1732147981999,20158000000,,692769.0539166265,-1416183179841999872,0.0,90.01283936362363,2269.989360686102,0.0,0,9,0.0,17,260753,316,5.0,871.8274168062607,0.14999,16,0.0,0.0,1600875010,,,,0,10.151286037657817,3,6.0,24.0,0.0,0.0,41.57679605111329,66.7128,C,26866054000000,
Raw,1732147981999,20158000000,,692769.0539166265,-1416183179841999872,0.0,90.01283936362363,2269.989360686102,0.0,0,8,0.0,17,20231,797,5.0,744.2384370738081,0.14999,16,0.0,0.0,1605374980,,,,0,1.1085067050061115,3,6.0,17.0,0.0,0.0,41.57679605111329,66.7128,C,26866054000000,
Status,1732147981999,27,0,1,14,1575420030,33.90,0.0,71.0,1,0,0,28.900002
Status,1732147981999,27,1,1,22,1575420030,30.00,295.0,66.0,1,0,0,25.0
Status,1732147981999,27,2,1,30,1575420030,33.30,100.0,62.0,1,0,0,28.3
Status,1732147981999,27,3,1,17,1575420030,26.50,171.0,58.0,1,0,0,21.5
Status,1732147981999,27,4,1,13,1575420030,30.00,286.0,55.0,1,0,0,25.0
Status,1732147981999,27,5,1,19,1575420030,0.00,193.0,29.0,0,0,0,0.0
Status,1732147981999,27,6,1,7,1575420030,29.40,113.0,28.0,1,0,0,24.4
Status,1732147981999,27,7,1,15,1575420030,25.60,307.0,24.0,1,0,0,20.6
Status,1732147981999,27,8,2,131,1575420030,30.00,3.0,23.0,0,0,0,25.0
Status,1732147981999,27,9,1,2,1575420030,36.20,76.0,20.0,1,0,0,31.2
Status,1732147981999,27,10,1,21,1575420030,36.80,57.0,14.0,1,0,0,31.8
Status,1732147981999,27,11,3,9,1602000000,27.40,38.0,49.0,1,0,0,22.4
Status,1732147981999,27,12,3,8,1602000000,21.90,285.0,40.0,1,0,0,16.9
Status,1732147981999,27,13,3,20,1602000000,0.00,143.0,22.0,0,0,0,0.0
Status,1732147981999,27,14,3,11,1602000000,0.00,282.0,8.0,0,0,0,0.0
Status,1732147981999,27,15,3,16,1602000000,29.70,78.0,7.0,1,0,0,24.7
Status,1732147981999,27,16,3,17,1602000000,27.50,0.0,0.0,0,0,0,22.5
Status,1732147981999,27,17,6,21,1575420030,29.00,286.0,62.0,1,0,0,24.0
Status,1732147981999,27,18,6,19,1575420030,0.00,283.0,54.0,0,0,0,0.0
Status,1732147981999,27,19,6,27,1575420030,24.50,44.0,51.0,1,0,0,19.5
Status,1732147981999,27,20,6,29,1575420030,0.00,198.0,51.0,0,0,0,0.0
Status,1732147981999,27,21,6,15,1575420030,32.30,87.0,16.0,1,0,0,27.3
Status,1732147981999,27,22,6,4,1575420030,0.00,324.0,8.0,0,0,0,0.0
Status,1732147981999,27,23,6,13,1575420030,0.00,136.0,8.0,0,0,0,0.0
Status,1732147981999,27,24,6,7,1575420030,0.00,162.0,7.0,0,0,0,0.0
Status,1732147981999,27,25,6,34,1575420030,0.00,39.0,6.0,0,0,0,0.0
Status,1732147981999,27,26,6,30,1575420030,0.00,64.0,4.0,0,0,0,0.0
Fix,GPS,37.4244133333,-122.1708033333,-7.5,0.76950973,2.7,294.92,1732147982999,3.0,179.9,26867054000000,33.7,0,,,
Fix,FLP,37.4244132000,-122.1707985000,2.0,0.07883501,2.683,,1732147983206,3.0,,26867054000000,0.9653434,0,,,
Raw,1732147982999,21158000000,,692312.6965388836,-1416183179841999872,0.0,90.08886165239474,2267.5882641770936,0.0,0,7,0.0,16431,346400924039314,316,24.417999267578125,1125.3101824417133,0.14999,16,0.0,0.0,1575420030,,,,0,9.199619915821895,1,6.0,24.417999267578125,0.0,0.0,0.0,66.7128,C,26867054000000,
Raw,1732147982999,21158000000,,692312.6965388836,-1416183179841999872,0.0,90.08886165239474,2267.5882641770936,0.0,0,2,0.0,16431,346400920317160,74,31.173999786376953,606.8991599395521,0.14999,16,0.0,0.0,1575420030,,,,0,17.962955953891345,1,6.0,31.173999786376953,0.0,0.0,0.0,66.7128,C,26867054000000,
Raw,1732147982999,21158000000,,692312.6965388836,-1416183179841999872,0.0,90.08886165239474,2267.5882641770936,0.0,0,22,0.0,16431,346400930566159,316,24.992000579833984,617.5180672159624,0.14999,16,0.0,0.0,1575420030,,,,0,10.042279717169524,1,6.0,24.992000579833984,0.0,0.0,0.0,66.7128,C,26867054000000,
Raw,1732147982999,21158000000,,692312.6965388836,-1416183179841999872,0.0,90.08886165239474,2267.5882641770936,0.0,0,30,0.0,16431,346400930570954,235,28.334999084472656,886.2872989652716,0.14999,16,0.0,0.0,1575420030,,,,0,14.479254709496654,1,6.0,28.334999084472656,0.0,0.0,0.0,66.7128,C,26867054000000,
Raw,1732147982999,21158000000,,692312.6965388836,-1416183179841999872,0.0,90.08886165239474,2267.5882641770936,0.0,0,17,0.0,16431,346400930747234,396,21.506999969482422,342.6808088085625,0.14999,16,0.0,0.0,1575420030,,,,0,4.809093641875393,1,6.0,21.506999969482422,0.0,0.0,0.0,66.7128,C,26867054000000,
Raw,1732147982999,21158000000,,692312.6965388836,-1416183179841999872,0.0,90.08886165239474,2267.5882641770936,0.0,0,15,0.0,16431,346400909189530,235,27.299999237060547,358.71981044138334,0.14999,16,0.0,0.0,1575420030,,,,0,13.820917785487655,6,6.0,27.299999237060547,0.0,0.0,15.772080290309018,66.7128,C,26867054000000,
Raw,1732147982999,21158000000,,692312.6965388836,-1416183179841999872,0.0,90.08886165239474,2267.5882641770936,0.0,0,14,0.0,16431,346400932039026,235,28.871000289916992,759.9127876923488,0.14999,16,0.0,0.0,1575420030,,,,0,15.161807439234705,1,6.0,28.871000289916992,0.0,0.0,0.0,66.7128,C,26867054000000,
Raw,1732147982999,21158000000,,692312.6965388836,-1416183179841999872,0.0,90.08886165239474,2267.5882641770936,0.0,0,27,0.0,16431,346400918091631,396,19.5,959.612803104029,0.14999,16,0.0,0.0,1575420030,,,,0,3.3861106246026926,6,6.0,19.5,0.0,0.0,15.772080290309018,66.7128,C,26867054000000,
Raw,1732147982999,21158000000,,692312.6965388836,-1416183179841999872,0.0,90.08886165239474,2267.5882641770936,0.0,0,13,0.0,16431,346400930456916,316,25.018999099731445,562.2562457176892,0.14999,16,0.0,0.0,1575420030,,,,0,10.084444312776164,1,6.0,25.018999099731445,0.0,0.0,0.0,66.7128,C,26867054000000,
Raw,1732147982999,21158000000,,692312.6965388836,-1416183179841999872,0.0,90.08886165239474,2267.5882641770936,0.0,0,21,0.0,16431,346400919407860,74,31.773000717163086,834.7912108513598,0.14999,16,0.0,0.0,1575420030,,,,0,18.664074202631344,1,6.0,31.773000717163086,0.0,0.0,0.0,66.7128,C,26867054000000,
Raw,1732147982999,21158000000,,692312.6965388836,-1416183179841999872,0.0,90.08886165239474,2267.5882641770936,0.0,0,21,0.0,16431,346400919878585,316,24.0,564.3864105593586,0.14999,16,0.0,0.0,1575420030,,,,0,9.871544202470332,6,6.0,24.0,0.0,0.0,15.772080290309018,66.7128,C,26867054000000,
Raw,1732147982999,21158000000,,692312.6965388836,-1416183179841999872,0.0,90.08886165239474,2267.5882641770936,0.0,0,16,0.0,17,132557,316,5.0,1172.44709830146,0.14999,16,0.0,0.0,1601437440,,,,0,10.704714569614985,3,6.0,24.0,0.0,0.0,40.02353386557476,66.7128,C,26867054000000,
Raw,1732147982999,21158000000,,692312.6965388836,-1416183179841999872,0.0,90.08886165239474,2267.5882641770936,0.0,0,9,0.0,17,257844,487,5.0,871.0969989456352,0.14999,16,0.0,0.0,1600875010,,,,0,7.652511305491819,3,6.0,20.0,0.0,0.0,40.02353386557476,66.7128,C,26867054000000,
Raw,1732147982999,21158000000,,692312.6965388836,-1416183179841999872,0.0,90.08886165239474,2267.5882641770936,0.0,0,8,0.0,17,17747,797,5.0,744.3417019112576,0.14999,16,0.0,0.0,1605374980,,,,0,1.1085067050061115,3,6.0,16.0,0.0,0.0,40.02353386557476,66.7128,C,26867054000000,
Raw,1732147982999,21158000000,,692312.6965388836,-1416183179841999872,0.0,90.08886165239474,2267.5882641770936,0.0,0,15,0.0,16431,346400923737608,487,20.562000274658203,358.96508764976693,0.14999,16,0.0,0.0,1575420030,,,,0,3.2022754103781215,1,6.0,20.562000274658203,0.0,0.0,0.0,66.7128,C,26867054000000,
Status,1732147982999,27,0,1,14,1575420030,33.10,0.0,71.0,1,0,0,28.099998
Status,1732147982999,27,1,1,22,1575420030,32.50,295.0,66.0,1,0,0,27.5
Status,1732147982999,27,2,1,30,1575420030,37.50,100.0,62.0,1,0,0,32.5
Status,1732147982999,27,3,1,17,1575420030,30.40,171.0,58.0,1,0,0,25.4
Status,1732147982999,27,4,1,13,1575420030,31.00,286.0,55.0,1,0,0,26.0
Status,1732147982999,27,5,1,19,1575420030,0.00,193.0,29.0,0,0,0,0.0
Status,1732147982999,27,6,1,7,1575420030,33.40,113.0,28.0,1,0,0,28.400002
Status,1732147982999,27,7,1,15,1575420030,26.40,307.0,24.0,1,0,0,21.4
Status,1732147982999,27,8,2,131,1575420030,29.00,3.0,23.0,0,0,0,24.0
Status,1732147982999,27,9,1,2,1575420030,38.80,76.0,20.0,1,0,0,33.8
Status,1732147982999,27,10,1,21,1575420030,32.30,57.0,14.0,1,0,0,27.3
Status,1732147982999,27,11,3,9,1602000000,31.50,38.0,49.0,1,0,0,26.5
Status,1732147982999,27,12,3,8,1602000000,21.80,285.0,40.0,1,0,0,16.8
Status,1732147982999,27,13,3,20,1602000000,0.00,143.0,22.0,0,0,0,0.0
Status,1732147982999,27,14,3,11,1602000000,0.00,282.0,8.0,0,0,0,0.0
Status,1732147982999,27,15,3,16,1602000000,27.90,78.0,7.0,1,0,0,22.9
Status,1732147982999,27,16,3,17,1602000000,30.00,0.0,0.0,0,0,0,25.0
Status,1732147982999,27,17,6,21,1575420030,26.30,286.0,62.0,1,0,0,21.3
Status,1732147982999,27,18,6,19,1575420030,0.00,283.0,54.0,0,0,0,0.0
Status,1732147982999,27,19,6,27,1575420030,26.40,44.0,51.0,1,0,0,21.4
Status,1732147982999,27,20,6,29,1575420030,0.00,198.0,51.0,0,0,0,0.0
Status,1732147982999,27,21,6,15,1575420030,40.60,87.0,16.0,1,0,0,35.6
Status,1732147982999,27,22,6,4,1575420030,0.00,324.0,8.0,0,0,0,0.0
Status,1732147982999,27,23,6,13,1575420030,0.00,136.0,8.0,0,0,0,0.0
Status,1732147982999,27,24,6,7,1575420030,0.00,162.0,7.0,0,0,0,0.0
Status,1732147982999,27,25,6,34,1575420030,0.00,39.0,6.0,0,0,0,0.0
Status,1732147982999,27,26,6,30,1575420030,0.00,64.0,4.0,0,0,0,0.0
Fix,GPS,37.4244150000,-122.1708250000,-7.5,0.8621597,2.7,273.42,1732147983999,2.7,94.6,26868054000000,33.8,0,,,
Raw,1732147983999,22158000000,,691739.4353696516,-1416183179841999872,0.0,89.41527961567411,2267.7641967484274,0.0,0,7,0.0,16431,346401924035550,235,28.408000946044922,1126.7135982786012,0.14999,16,0.0,0.0,1575420030,,,,0,14.580107971884278,1,6.0,28.408000946044922,0.0,0.0,0.0,66.7128,C,26868054000000,
Raw,1732147983999,22158000000,,691739.4353696516,-1416183179841999872,0.0,89.41527961567411,2267.7641967484274,0.0,0,2,0.0,16431,346401920315137,58,33.76100158691406,607.1317307711021,0.14999,16,0.0,0.0,1575420030,,,,0,20.962800221499478,1,6.0,33.76100158691406,0.0,0.0,0.0,66.7128,C,26868054000000,
Raw,1732147983999,22158000000,,691739.4353696516,-1416183179841999872,0.0,89.41527961567411,2267.7641967484274,0.0,0,22,0.0,16431,346401930564104,316,27.540000915527344,617.7272694641584,0.14999,16,0.0,0.0,1575420030,,,,0,13.457789132305649,1,6.0,27.540000915527344,0.0,0.0,0.0,66.7128,C,26868054000000,
Raw,1732147983999,22158000000,,691739.4353696516,-1416183179841999872,0.0,89.41527961567411,2267.7641967484274,0.0,0,30,0.0,16431,346401930568004,74,32.47999954223633,886.0922665340197,0.14999,16,0.0,0.0,1575420030,,,,0,19.48551739201578,1,6.0,32.47999954223633,0.0,0.0,0.0,66.7128,C,26868054000000,
Raw,1732147983999,22158000000,,691739.4353696516,-1416183179841999872,0.0,89.41527961567411,2267.7641967484274,0.0,0,17,0.0,16431,346401930746094,396,25.39900016784668,343.0789574354868,0.14999,16,0.0,0.0,1575420030,,,,0,10.61473368449057,1,6.0,25.39900016784668,0.0,0.0,0.0,66.7128,C,26868054000000,
Raw,1732147983999,22158000000,,691739.4353696516,-1416183179841999872,0.0,89.41527961567411,2267.7641967484274,0.0,0,15,0.0,16431,346401909188330,51,35.599998474121094,359.54286774296924,0.14999,16,0.0,0.0,1575420030,,,,0,23.066519049728434,6,6.0,35.599998474121094,0.0,0.0,17.891482721642145,66.7128,C,26868054000000,
Raw,1732147983999,22158000000,,691739.4353696516,-1416183179841999872,0.0,89.41527961567411,2267.7641967484274,0.0,0,14,0.0,16431,346401932036492,235,28.128999710083008,758.9488220143963,0.14999,16,0.0,0.0,1575420030,,,,0,14.221876185710233,1,6.0,28.128999710083008,0.0,0.0,0.0,66.7128,C,26868054000000,
Raw,1732147983999,22158000000,,691739.4353696516,-1416183179841999872,0.0,89.41527961567411,2267.7641967484274,0.0,0,27,0.0,16431,346401918088429,396,21.399999618530273,960.0382692796851,0.14999,16,0.0,0.0,1575420030,,,,0,6.295668506939647,6,6.0,21.399999618530273,0.0,0.0,17.891482721642145,66.7128,C,26868054000000,
Raw,1732147983999,22158000000,,691739.4353696516,-1416183179841999872,0.0,89.41527961567411,2267.7641967484274,0.0,0,13,0.0,16431,346401930455066,316,26.006000518798828,562.192411853816,0.14999,16,0.0,0.0,1575420030,,,,0,11.444385894678387,1,6.0,26.006000518798828,0.0,0.0,0.0,66.7128,C,26868054000000,
Raw,1732147983999,22158000000,,691739.4353696516,-1416183179841999872,0.0,89.41527961567411,2267.7641967484274,0.0,0,21,0.0,16431,346401919405073,396,27.31599998474121,834.6890023356965,0.14999,16,0.0,0.0,1575420030,,,,0,13.167749175390176,1,6.0,27.31599998474121,0.0,0.0,0.0,66.7128,C,26868054000000,
Raw,1732147983999,22158000000,,691739.4353696516,-1416183179841999872,0.0,89.41527961567411,2267.7641967484274,0.0,0,21,0.0,16431,346401919876703,396,21.299999237060547,564.1848274914211,0.14999,16,0.0,0.0,1575420030,,,,0,6.1645582494433,6,6.0,21.299999237060547,0.0,0.0,17.891482721642145,66.7128,C,26868054000000,
Raw,1732147983999,22158000000,,691739.4353696516,-1416183179841999872,0.0,89.41527961567411,2267.7641967484274,0.0,0,16,0.0,17,128639,396,5.0,1172.3074279870016,0.14999,16,0.0,0.0,1601437440,,,,0,8.312516507550324,3,6.0,23.0,0.0,0.0,41.71849470392462,66.7128,C,26868054000000,
Raw,1732147983999,22158000000,,691739.4353696516,-1416183179841999872,0.0,89.41527961567411,2267.7641967484274,0.0,0,9,0.0,17,254938,316,5.0,871.6269816597295,0.14999,16,0.0,0.0,1600875010,,,,0,12.917828919935367,3,6.0,25.0,0.0,0.0,41.71849470392462,66.7128,C,26868054000000,
Raw,1732147983999,22158000000,,691739.4353696516,-1416183179841999872,0.0,89.41527961567411,2267.7641967484274,0.0,0,8,0.0,17,15264,797,5.0,745.0861661632275,0.14999,16,0.0,0.0,1605374980,,,,0,0.0,3,6.0,17.0,0.0,0.0,41.71849470392462,66.7128,C,26868054000000,
Raw,1732147983999,22158000000,,691739.4353696516,-1416183179841999872,0.0,89.41527961567411,2267.7641967484274,0.0,0,15,0.0,16431,346401923736284,487,21.375999450683594,359.45415539721523,0.14999,16,0.0,0.0,1575420030,,,,0,4.5743255764505095,1,6.0,21.375999450683594,0.0,0.0,0.0,66.7128,C,26868054000000,
Fix,FLP,37.4244144000,-122.1708141000,2.0,0.42214158,2.7,278.91187,1732147984206,2.7,94.6,26868054000000,0.9753416,0,,,
Status,1732147983999,27,0,1,14,1575420030,30.90,0.0,71.0,1,0,0,25.9
Status,1732147983999,27,1,1,22,1575420030,32.50,295.0,66.0,1,0,0,27.5
Status,1732147983999,27,2,1,30,1575420030,41.10,100.0,62.0,1,0,0,36.1
Status,1732147983999,27,3,1,17,1575420030,29.10,171.0,58.0,1,0,0,24.1
Status,1732147983999,27,4,1,13,1575420030,30.60,286.0,55.0,1,0,0,25.6
Status,1732147983999,27,5,1,19,1575420030,27.40,193.0,29.0,1,0,0,22.4
Status,1732147983999,27,6,1,7,1575420030,34.70,113.0,28.0,1,0,0,29.7
Status,1732147983999,27,7,1,15,1575420030,28.80,307.0,24.0,1,0,0,23.8
Status,1732147983999,27,8,2,131,1575420030,29.00,3.0,23.0,0,0,0,24.0
Status,1732147983999,27,9,1,2,1575420030,32.60,76.0,20.0,1,0,0,27.599998
Status,1732147983999,27,10,1,21,1575420030,27.50,57.0,14.0,1,0,0,22.5
Status,1732147983999,27,11,3,9,1602000000,30.60,38.0,49.0,1,0,0,25.6
Status,1732147983999,27,12,3,8,1602000000,21.80,285.0,40.0,1,0,0,16.8
Status,1732147983999,27,13,3,20,1602000000,0.00,143.0,22.0,0,0,0,0.0
Status,1732147983999,27,14,3,11,1602000000,0.00,282.0,8.0,0,0,0,0.0
Status,1732147983999,27,15,3,16,1602000000,29.70,78.0,7.0,1,0,0,24.7
Status,1732147983999,27,16,3,17,1602000000,31.20,0.0,0.0,0,0,0,26.2
Status,1732147983999,27,17,6,21,1575420030,25.30,286.0,62.0,1,0,0,20.3
Status,1732147983999,27,18,6,19,1575420030,0.00,283.0,54.0,0,0,0,0.0
Status,1732147983999,27,19,6,27,1575420030,24.70,44.0,51.0,1,0,0,19.7
Status,1732147983999,27,20,6,29,1575420030,0.00,198.0,51.0,0,0,0,0.0
Status,1732147983999,27,21,6,15,1575420030,38.50,87.0,16.0,1,0,0,33.5
Status,1732147983999,27,22,6,4,1575420030,0.00,324.0,8.0,0,0,0,0.0
Status,1732147983999,27,23,6,13,1575420030,0.00,136.0,8.0,0,0,0,0.0
Status,1732147983999,27,24,6,7,1575420030,0.00,162.0,7.0,0,0,0,0.0
Status,1732147983999,27,25,6,34,1575420030,0.00,39.0,6.0,0,0,0,0.0
Status,1732147983999,27,26,6,30,1575420030,0.00,64.0,4.0,0,0,0,0.0
Fix,GPS,37.4244233333,-122.1708300000,-7.300000000000001,0.81480527,2.7,287.36,1732147984998,2.6,179.9,26869054000000,37.0,0,,,
Fix,FLP,37.4244192000,-122.1708254000,2.0,0.6048077,2.716,283.85898,1732147985206,2.6,179.9,26869054000000,0.9794245,0,,,
Raw,1732147984999,23158000000,,690917.7731882768,-1416183179841999872,0.0,98.40934178452586,2270.098662773061,0.0,0,7,0.0,16431,346402924031787,235,29.663000106811523,1127.0822922696482,0.14999,16,0.0,0.0,1575420030,,,,0,16.136533890653613,1,6.0,29.663000106811523,0.0,0.0,0.0,66.7128,C,26869054000000,
Raw,1732147984999,23158000000,,690917.7731882768,-1416183179841999872,0.0,98.40934178452586,2270.098662773061,0.0,0,2,0.0,16431,346402920313111,235,27.601999282836914,606.168508427809,0.14999,16,0.0,0.0,1575420030,,,,0,13.542945595156477,1,6.0,27.601999282836914,0.0,0.0,0.0,66.7128,C,26869054000000,
Raw,1732147984999,23158000000,,690917.7731882768,-1416183179841999872,0.0,98.40934178452586,2270.098662773061,0.0,0,22,0.0,16431,346402930562042,396,27.540000915527344,618.3435868136074,0.14999,16,0.0,0.0,1575420030,,,,0,13.457789132305649,1,6.0,27.540000915527344,0.0,0.0,0.0,66.7128,C,26869054000000,
Raw,1732147984999,23158000000,,690917.7731882768,-1416183179841999872,0.0,98.40934178452586,2270.098662773061,0.0,0,30,0.0,16431,346402930565050,51,36.095001220703125,886.8408974528363,0.14999,16,0.0,0.0,1575420030,,,,0,23.5705886675385,1,6.0,36.095001220703125,0.0,0.0,0.0,66.7128,C,26869054000000,
Raw,1732147984999,23158000000,,690917.7731882768,-1416183179841999872,0.0,98.40934178452586,2270.098662773061,0.0,0,17,0.0,16431,346402930744948,316,24.082000732421875,343.16599727825724,0.14999,16,0.0,0.0,1575420030,,,,0,8.720937387404593,1,6.0,24.082000732421875,0.0,0.0,0.0,66.7128,C,26869054000000,
Raw,1732147984999,23158000000,,690917.7731882768,-1416183179841999872,0.0,98.40934178452586,2270.098662773061,0.0,0,15,0.0,16431,346402909187133,58,33.5,359.48853462521106,0.14999,16,0.0,0.0,1575420030,,,,0,20.82954128133383,6,6.0,33.5,0.0,0.0,18.074310391312405,66.7128,C,26869054000000,
Raw,1732147984999,23158000000,,690917.7731882768,-1416183179841999872,0.0,98.40934178452586,2270.098662773061,0.0,0,14,0.0,16431,346402932033959,316,25.860000610351562,759.7363386275812,0.14999,16,0.0,0.0,1575420030,,,,0,11.225861422226066,1,6.0,25.860000610351562,0.0,0.0,0.0,66.7128,C,26869054000000,
Raw,1732147984999,23158000000,,690917.7731882768,-1416183179841999872,0.0,98.40934178452586,2270.098662773061,0.0,0,27,0.0,16431,346402918085239,316,19.700000762939453,960.4616912850279,0.14999,16,0.0,0.0,1575420030,,,,0,3.8293644280579193,6,6.0,19.700000762939453,0.0,0.0,18.074310391312405,66.7128,C,26869054000000,
Raw,1732147984999,23158000000,,690917.7731882768,-1416183179841999872,0.0,98.40934178452586,2270.098662773061,0.0,0,19,0.0,16431,346402923481468,396,22.41900062561035,25.453729990262143,0.14999,16,0.0,0.0,1575420030,,,,0,6.2303607583842995,1,6.0,22.41900062561035,0.0,0.0,0.0,66.7128,C,26869054000000,
Raw,1732147984999,23158000000,,690917.7731882768,-1416183179841999872,0.0,98.40934178452586,2270.098662773061,0.0,0,13,0.0,16431,346402930453168,316,25.606000900268555,563.4167304962123,0.14999,16,0.0,0.0,1575420030,,,,0,10.88740731990478,1,6.0,25.606000900268555,0.0,0.0,0.0,66.7128,C,26869054000000,
Raw,1732147984999,23158000000,,690917.7731882768,-1416183179841999872,0.0,98.40934178452586,2270.098662773061,0.0,0,21,0.0,16431,346402919402290,396,22.493999481201172,834.3653730083739,0.14999,16,0.0,0.0,1575420030,,,,0,6.360488879696302,1,6.0,22.493999481201172,0.0,0.0,0.0,66.7128,C,26869054000000,
Raw,1732147984999,23158000000,,690917.7731882768,-1416183179841999872,0.0,98.40934178452586,2270.098662773061,0.0,0,21,0.0,16431,346402919874817,487,20.299999237060547,565.763438015839,0.14999,16,0.0,0.0,1575420030,,,,0,4.7315405406113555,6,6.0,20.299999237060547,0.0,0.0,18.074310391312405,66.7128,C,26869054000000,
Raw,1732147984999,23158000000,,690917.7731882768,-1416183179841999872,0.0,98.40934178452586,2270.098662773061,0.0,0,16,0.0,17,124726,316,5.0,1172.5315586225072,0.14999,16,0.0,0.0,1601437440,,,,0,10.704714569614985,3,6.0,25.0,0.0,0.0,44.55112794300507,66.7128,C,26869054000000,
Raw,1732147984999,23158000000,,690917.7731882768,-1416183179841999872,0.0,98.40934178452586,2270.098662773061,0.0,0,9,0.0,17,252031,316,5.0,872.3818138379298,0.14999,16,0.0,0.0,1600875010,,,,0,11.825198208608274,3,6.0,25.0,0.0,0.0,44.55112794300507,66.7128,C,26869054000000,
Raw,1732147984999,23158000000,,690917.7731882768,-1416183179841999872,0.0,98.40934178452586,2270.098662773061,0.0,0,8,0.0,17,12733,797,5.0,746.1305771549679,0.14999,16,0.0,0.0,1605374980,,,,0,0.0,3,6.0,17.0,0.0,0.0,44.55112794300507,66.7128,C,26869054000000,
Raw,1732147984999,23158000000,,690917.7731882768,-1416183179841999872,0.0,98.40934178452586,2270.098662773061,0.0,0,15,0.0,16431,346402923735117,396,23.798999786376953,360.01653452544383,0.14999,16,0.0,0.0,1575420030,,,,0,8.318041297074915,1,6.0,23.798999786376953,0.0,0.0,0.0,66.7128,C,26869054000000,
Status,1732147984998,27,0,1,14,1575420030,31.70,0.0,71.0,1,0,0,26.7
Status,1732147984998,27,1,1,22,1575420030,30.60,295.0,66.0,1,0,0,25.6
Status,1732147984998,27,2,1,30,1575420030,35.50,100.0,62.0,1,0,0,30.5
Status,1732147984998,27,3,1,17,1575420030,29.00,171.0,58.0,1,0,0,24.0
Status,1732147984998,27,4,1,13,1575420030,30.20,286.0,55.0,1,0,0,25.2
Status,1732147984998,27,5,1,19,1575420030,0.00,193.0,29.0,0,0,0,0.0
Status,1732147984998,27,6,1,7,1575420030,32.90,113.0,28.0,1,0,0,27.900002
Status,1732147984998,27,7,1,15,1575420030,24.90,307.0,24.0,1,0,0,19.9
Status,1732147984998,27,8,2,131,1575420030,30.00,3.0,23.0,0,0,0,25.0
Status,1732147984998,27,9,1,2,1575420030,30.70,76.0,20.0,1,0,0,25.7
Status,1732147984998,27,10,1,21,1575420030,29.40,57.0,14.0,1,0,0,24.4
Status,1732147984998,27,11,3,9,1602000000,29.40,38.0,49.0,1,0,0,24.4
Status,1732147984998,27,12,3,8,1602000000,21.80,285.0,40.0,1,0,0,16.8
Status,1732147984998,27,13,3,20,1602000000,0.00,143.0,22.0,0,0,0,0.0
Status,1732147984998,27,14,3,11,1602000000,0.00,282.0,8.0,0,0,0,0.0
Status,1732147984998,27,15,3,16,1602000000,29.90,78.0,7.0,1,0,0,24.9
Status,1732147984998,27,16,3,17,1602000000,26.30,0.0,0.0,0,0,0,21.3
Status,1732147984998,27,17,6,21,1575420030,22.30,286.0,62.0,1,0,0,17.3
Status,1732147984998,27,18,6,19,1575420030,0.00,283.0,54.0,0,0,0,0.0
Status,1732147984998,27,19,6,27,1575420030,25.40,44.0,51.0,1,0,0,20.4
Status,1732147984998,27,20,6,29,1575420030,0.00,198.0,51.0,0,0,0,0.0
Status,1732147984998,27,21,6,15,1575420030,27.70,87.0,16.0,1,0,0,22.7
Status,1732147984998,27,22,6,4,1575420030,0.00,324.0,8.0,0,0,0,0.0
Status,1732147984998,27,23,6,13,1575420030,0.00,136.0,8.0,0,0,0,0.0
Status,1732147984998,27,24,6,7,1575420030,0.00,162.0,7.0,0,0,0,0.0
Status,1732147984998,27,25,6,34,1575420030,0.00,39.0,6.0,0,0,0,0.0
Status,1732147984998,27,26,6,30,1575420030,0.00,64.0,4.0,0,0,0,0.0
Fix,GPS,37.4244250000,-122.1708333333,-7.300000000000001,0.0,2.7,287.36,1732147985998,2.7,179.9,26870054000000,39.5,0,,,
Fix,FLP,37.4244223000,-122.1708318000,2.0,0.45279476,2.716,275.64594,1732147986207,2.7,179.9,26870054000000,0.98598206,0,,,
Raw,1732147985999,24158000000,,690552.7811009842,-1416183179841999872,0.0,106.3573896846641,2272.1882620749407,0.0,0,7,0.0,16431,346403924028026,235,27.860000610351562,1127.1491923889914,0.14999,16,0.0,0.0,1575420030,,,,0,13.875460442816147,1,6.0,27.860000610351562,0.0,0.0,0.0,66.7128,C,26870054000000,
Raw,1732147985999,24158000000,,690552.7811009842,-1416183179841999872,0.0,106.3573896846641,2272.1882620749407,0.0,0,2,0.0,16431,346403920311090,316,25.68400001525879,606.7950466288243,0.14999,16,0.0,0.0,1575420030,,,,0,11.001696990393366,1,6.0,25.68400001525879,0.0,0.0,0.0,66.7128,C,26870054000000,
Raw,1732147985999,24158000000,,690552.7811009842,-1416183179841999872,0.0,106.3573896846641,2272.1882620749407,0.0,0,22,0.0,16431,346403930559975,316,25.579999923706055,619.104993796882,0.14999,16,0.0,0.0,1575420030,,,,0,10.848974117207353,1,6.0,25.579999923706055,0.0,0.0,0.0,66.7128,C,26870054000000,
Raw,1732147985999,24158000000,,690552.7811009842,-1416183179841999872,0.0,106.3573896846641,2272.1882620749407,0.0,0,30,0.0,16431,346403930562092,74,30.458999633789062,886.8433132904793,0.14999,16,0.0,0.0,1575420030,,,,0,17.107037962538083,1,6.0,30.458999633789062,0.0,0.0,0.0,66.7128,C,26870054000000,
Raw,1732147985999,24158000000,,690552.7811009842,-1416183179841999872,0.0,106.3573896846641,2272.1882620749407,0.0,0,17,0.0,16431,346403930743804,396,23.98699951171875,344.7268839168908,0.14999,16,0.0,0.0,1575420030,,,,0,8.572032775465617,1,6.0,23.98699951171875,0.0,0.0,0.0,66.7128,C,26870054000000,
Raw,1732147985999,24158000000,,690552.7811009842,-1416183179841999872,0.0,106.3573896846641,2272.1882620749407,0.0,0,15,0.0,16431,346403909185933,396,22.700000762939453,359.89818171014747,0.14999,16,0.0,0.0,1575420030,,,,0,8.162003155162516,6,6.0,22.700000762939453,0.0,0.0,17.62623306606886,66.7128,C,26870054000000,
Raw,1732147985999,24158000000,,690552.7811009842,-1416183179841999872,0.0,106.3573896846641,2272.1882620749407,0.0,0,14,0.0,16431,346403932031427,316,26.687999725341797,760.3413665818911,0.14999,16,0.0,0.0,1575420030,,,,0,12.332518920072712,1,6.0,26.687999725341797,0.0,0.0,0.0,66.7128,C,26870054000000,
Raw,1732147985999,24158000000,,690552.7811009842,-1416183179841999872,0.0,106.3573896846641,2272.1882620749407,0.0,0,27,0.0,16431,346403918082036,487,20.399999618530273,962.2233015108991,0.14999,16,0.0,0.0,1575420030,,,,0,4.885960423510596,6,6.0,20.399999618530273,0.0,0.0,17.62623306606886,66.7128,C,26870054000000,
Raw,1732147985999,24158000000,,690552.7811009842,-1416183179841999872,0.0,106.3573896846641,2272.1882620749407,0.0,0,13,0.0,16431,346403930451285,316,25.21299934387207,564.1926325053445,0.14999,16,0.0,0.0,1575420030,,,,0,10.333221880654373,1,6.0,25.21299934387207,0.0,0.0,0.0,66.7128,C,26870054000000,
Raw,1732147985999,24158000000,,690552.7811009842,-1416183179841999872,0.0,106.3573896846641,2272.1882620749407,0.0,0,15,0.0,16431,346403923733923,487,19.92300033569336,360.73046100735115,0.14999,16,0.0,0.0,1575420030,,,,0,2.115122163926268,1,6.0,19.92300033569336,0.0,0.0,0.0,66.7128,C,26870054000000,
Raw,1732147985999,24158000000,,690552.7811009842,-1416183179841999872,0.0,106.3573896846641,2272.1882620749407,0.0,0,21,0.0,16431,346403919399498,316,24.38800048828125,835.6034898003848,0.14999,16,0.0,0.0,1575420030,,,,0,9.15292147194906,1,6.0,24.38800048828125,0.0,0.0,0.0,66.7128,C,26870054000000,
