# 
# Header Description:
# 
# Version: v3.1.0.3 Platform: 13 Manufacturer: samsung Model: SM-S135DL GNSS Hardware Model Name: MediaTek,MT6631,MTK_MNLD_default,MNL_VER_default
# 
# Raw,utcTimeMillis,TimeNanos,LeapSecond,TimeUncertaintyNanos,FullBiasNanos,BiasNanos,BiasUncertaintyNanos,DriftNanosPerSecond,DriftUncertaintyNanosPerSecond,HardwareClockDiscontinuityCount,Svid,TimeOffsetNanos,State,ReceivedSvTimeNanos,ReceivedSvTimeUncertaintyNanos,Cn0DbHz,PseudorangeRateMetersPerSecond,PseudorangeRateUncertaintyMetersPerSecond,AccumulatedDeltaRangeState,AccumulatedDeltaRangeMeters,AccumulatedDeltaRangeUncertaintyMeters,CarrierFrequencyHz,CarrierCycles,CarrierPhase,CarrierPhaseUncertainty,MultipathIndicator,SnrInDb,ConstellationType,AgcDb,BasebandCn0DbHz,FullInterSignalBiasNanos,FullInterSignalBiasUncertaintyNanos,SatelliteInterSignalBiasNanos,SatelliteInterSignalBiasUncertaintyNanos,CodeType,ChipsetElapsedRealtimeNanos,IsFullTracking
# 
# UncalAccel,utcTimeMillis,elapsedRealtimeNanos,UncalAccelXMps2,UncalAccelYMps2,UncalAccelZMps2,BiasXMps2,BiasYMps2,BiasZMps2
# 
# Accel,utcTimeMillis,elapsedRealtimeNanos,AccelXMps2,AccelYMps2,AccelZMps2
# 
# UncalGyro,utcTimeMillis,elapsedRealtimeNanos,UncalGyroXRadPerSec,UncalGyroYRadPerSec,UncalGyroZRadPerSec,DriftXRadPerSec,DriftYRadPerSec,DriftZRadPerSec
# 
# Gyro,utcTimeMillis,elapsedRealtimeNanos,GyroXRadPerSec,GyroYRadPerSec,GyroZRadPerSec
# 
# UncalMag,utcTimeMillis,elapsedRealtimeNanos,UncalMagXMicroT,UncalMagYMicroT,UncalMagZMicroT,BiasXMicroT,BiasYMicroT,BiasZMicroT
# 
# Mag,utcTimeMillis,elapsedRealtimeNanos,MagXMicroT,MagYMicroT,MagZMicroT
# 
# Pressure,utcTimeMillis,elapsedRealtimeNanos,PressureHpa
# 
# OrientationDeg,utcTimeMillis,elapsedRealtimeNanos,yawDeg,rollDeg,pitchDeg
# 
# Fix,Provider,LatitudeDegrees,LongitudeDegrees,AltitudeMeters,SpeedMps,AccuracyMeters,BearingDegrees,UnixTimeMillis,SpeedAccuracyMps,BearingAccuracyDegrees,elapsedRealtimeNanos,VerticalAccuracyMeters,MockLocation,NumberOfUsedSignals,VerticalSpeedAccuracyMps,SolutionType
# 
# Nav,Svid,Type,Status,MessageId,Sub-messageId,Data(Bytes)
# 
# Status,UnixTimeMillis,SignalCount,SignalIndex,ConstellationType,Svid,CarrierFrequencyHz,Cn0DbHz,AzimuthDegrees,ElevationDegrees,UsedInFix,HasAlmanacData,HasEphemerisData,BasebandCn0DbHz
# 
# Agc,utcTimeMillis,TimeNanos,LeapSecond,TimeUncertaintyNanos,FullBiasNanos,BiasNanos,BiasUncertaintyNanos,DriftNanosPerSecond,DriftUncertaintyNanosPerSecond,HardwareClockDiscontinuityCount,AgcDb,CarrierFrequencyHz,ConstellationType
# 
Fix,FLP,37.4243900000,-122.1707794000,2.0,0.17436069,2.55,145.14322,1732148863209,2.9,179.9,27747057000000,0.88242644,0,,,
Status,,29,0,1,22,1575420030,26.70,312.0,68.0,1,0,0,21.7
Status,,29,1,1,14,1575420030,0.00,17.0,67.0,0,0,0,0.0
Status,,29,2,1,17,1575420030,0.00,167.0,65.0,0,0,0,0.0
Status,,29,3,1,30,1575420030,31.70,110.0,57.0,1,0,0,26.7
Status,,29,4,1,13,1575420030,32.30,274.0,56.0,1,0,0,27.3
Status,,29,5,2,135,1575420030,0.00,197.0,45.0,0,0,0,0.0
Status,,29,6,1,19,1575420030,30.70,194.0,36.0,1,0,0,25.7
Status,,29,7,1,15,1575420030,30.90,301.0,27.0,1,0,0,25.9
Status,,29,8,1,7,1575420030,33.00,118.0,23.0,1,0,0,28.0
Status,,29,9,1,2,1575420030,30.90,69.0,21.0,1,0,0,25.9
Status,,29,10,1,21,1575420030,31.10,51.0,13.0,1,0,0,26.1
Status,,29,11,3,9,1602000000,29.40,49.0,46.0,1,0,0,24.4
Status,,29,12,3,8,1602000000,28.80,274.0,38.0,1,0,0,23.8
Status,,29,13,3,19,1602000000,17.50,60.0,35.0,1,0,0,12.5
Status,,29,14,3,20,1602000000,0.00,139.0,30.0,0,0,0,0.0
Status,,29,15,3,11,1602000000,0.00,289.0,13.0,0,0,0,0.0
Status,,29,16,3,18,1602000000,0.00,24.0,10.0,0,0,0,0.0
Status,,29,17,3,16,1602000000,22.30,84.0,3.0,0,0,0,17.3
Status,,29,18,3,17,1602000000,27.50,0.0,0.0,0,0,0,22.5
Status,,29,19,6,21,1575420030,24.80,297.0,64.0,1,0,0,19.8
Status,,29,20,6,19,1575420030,0.00,273.0,54.0,0,0,0,0.0
Status,,29,21,6,27,1575420030,22.80,49.0,47.0,1,0,0,17.8
Status,,29,22,6,29,1575420030,0.00,196.0,45.0,0,0,0,0.0
Status,,29,23,6,15,1575420030,0.00,81.0,19.0,0,0,0,0.0
Status,,29,24,6,13,1575420030,0.00,133.0,13.0,0,0,0,0.0
Status,,29,25,6,4,1575420030,0.00,322.0,12.0,0,0,0,0.0
Status,,29,26,6,34,1575420030,0.00,34.0,5.0,0,0,0,0.0
Status,,29,27,6,7,1575420030,0.00,162.0,3.0,0,0,0,0.0
Status,,29,28,6,30,1575420030,0.00,68.0,1.0,0,0,0,0.0
Fix,GPS,37.4243983333,-122.1707633333,3.6000000000000014,0.0,2.7,60.77,1732148864000,3.2,179.9,27748057000000,40.6,0,,,
Fix,FLP,37.4243935000,-122.1707710000,2.0,0.1675699,2.583,137.4095,1732148864209,3.2,179.9,27748057000000,0.8924194,0,,,
Raw,1732148864000,18798000000,,694454.1259106658,-1416184063202999808,0.0,101.73867140413975,2057.6506409822546,0.0,0,22,0.0,16431,347281931354791,487,21.663000106811523,603.7165261370492,0.14999,16,0.0,0.0,1575420030,,,,0,5.039037771950441,1,6.0,21.663000106811523,0.0,0.0,0.0,66.7128,C,27748057000000,
Raw,1732148864000,18798000000,,694454.1259106658,-1416184063202999808,0.0,101.73867140413975,2057.6506409822546,0.0,0,30,0.0,16431,347281930542623,396,26.694000244140625,892.4349553487473,0.14999,16,0.0,0.0,1575420030,,,,0,12.342751372866077,1,6.0,26.694000244140625,0.0,0.0,0.0,66.7128,C,27748057000000,
Raw,1732148864000,18798000000,,694454.1259106658,-1416184063202999808,0.0,101.73867140413975,2057.6506409822546,0.0,0,2,0.0,16431,347281921081612,316,25.861000061035156,634.7884259412356,0.14999,16,0.0,0.0,1575420030,,,,0,11.233168444129475,1,6.0,25.861000061035156,0.0,0.0,0.0,66.7128,C,27748057000000,
Raw,1732148864000,18798000000,,694454.1259106658,-1416184063202999808,0.0,101.73867140413975,2057.6506409822546,0.0,0,21,0.0,16431,347281919491338,316,26.139999389648438,866.9751857643777,0.14999,16,0.0,0.0,1575420030,,,,0,11.60681270348456,1,6.0,26.139999389648438,0.0,0.0,0.0,66.7128,C,27748057000000,
Raw,1732148864000,18798000000,,694454.1259106658,-1416184063202999808,0.0,101.73867140413975,2057.6506409822546,0.0,0,13,0.0,16431,347281931315307,235,27.32200050354004,613.1557148506253,0.14999,16,0.0,0.0,1575420030,,,,0,13.17518583888865,1,6.0,27.32200050354004,0.0,0.0,0.0,66.7128,C,27748057000000,
Raw,1732148864000,18798000000,,694454.1259106658,-1416184063202999808,0.0,101.73867140413975,2057.6506409822546,0.0,0,15,0.0,16431,347281925206022,316,25.861000061035156,401.90204882837884,0.14999,16,0.0,0.0,1575420030,,,,0,11.233168444129475,1,6.0,25.861000061035156,0.0,0.0,0.0,66.7128,C,27748057000000,
Raw,1732148864000,18798000000,,694454.1259106658,-1416184063202999808,0.0,101.73867140413975,2057.6506409822546,0.0,0,7,0.0,16431,347281923334644,316,27.964000701904297,1113.1450461569839,0.14999,16,0.0,0.0,1575420030,,,,0,14.018291327601556,1,6.0,27.964000701904297,0.0,0.0,0.0,66.7128,C,27748057000000,
Raw,1732148864000,18798000000,,694454.1259106658,-1416184063202999808,0.0,101.73867140413975,2057.6506409822546,0.0,0,27,0.0,16431,347281917928377,487,17.799999237060547,909.7458258129559,0.14999,16,0.0,0.0,1575420030,,,,0,0.5499733303289425,6,6.0,17.799999237060547,0.0,0.0,7.989746540658257,66.7128,C,27748057000000,
Raw,1732148864000,18798000000,,694454.1259106658,-1416184063202999808,0.0,101.73867140413975,2057.6506409822546,0.0,0,19,0.0,16431,347281926030759,396,25.679000854492188,1.9660272571975597,0.14999,16,0.0,0.0,1575420030,,,,0,11.001015035448619,1,6.0,25.679000854492188,0.0,0.0,0.0,66.7128,C,27748057000000,
Raw,1732148864000,18798000000,,694454.1259106658,-1416184063202999808,0.0,101.73867140413975,2057.6506409822546,0.0,0,21,0.0,16431,347281920854146,316,19.799999237060547,530.4177355876128,0.14999,16,0.0,0.0,1575420030,,,,0,3.873632738237588,6,6.0,19.799999237060547,0.0,0.0,7.989746540658257,66.7128,C,27748057000000,
Raw,1732148864000,18798000000,,694454.1259106658,-1416184063202999808,0.0,101.73867140413975,2057.6506409822546,0.0,0,16,0.0,17,361163,487,5.0,1113.0791708164174,0.14999,16,0.0,0.0,1601437440,,,,0,0.0,3,6.0,19.0,0.0,0.0,50.40964300182366,66.7128,C,27748057000000,
Raw,1732148864000,18798000000,,694454.1259106658,-1416184063202999808,0.0,101.73867140413975,2057.6506409822546,0.0,0,8,0.0,17,292412,316,5.0,825.1507000244151,0.14999,16,0.0,0.0,1605374980,,,,0,9.580546684869596,3,6.0,24.0,0.0,0.0,50.40964300182366,66.7128,C,27748057000000,
Raw,1732148864000,18798000000,,694454.1259106658,-1416184063202999808,0.0,101.73867140413975,2057.6506409822546,0.0,0,9,0.0,17,322823,316,5.0,842.9994112352101,0.14999,16,0.0,0.0,1600875010,,,,0,10.303261898189056,3,6.0,25.0,0.0,0.0,50.40964300182366,66.7128,C,27748057000000,
Raw,1732148864000,18798000000,,694454.1259106658,-1416184063202999808,0.0,101.73867140413975,2057.6506409822546,0.0,0,19,0.0,17,291467,797,15.0,717.8297313033071,0.14999,16,0.0,0.0,1603687550,,,,0,0.0,3,6.0,15.0,0.0,0.0,50.40964300182366,66.7128,C,27748057000000,
Status,1732148864000,29,0,1,22,1575420030,30.40,312.0,68.0,1,0,0,25.4
Status,1732148864000,29,1,1,14,1575420030,0.00,17.0,67.0,0,0,0,0.0
Status,1732148864000,29,2,1,17,1575420030,29.30,167.0,65.0,1,0,0,24.3
Status,1732148864000,29,3,1,30,1575420030,29.00,110.0,57.0,1,0,0,24.0
Status,1732148864000,29,4,1,13,1575420030,0.00,274.0,56.0,0,0,0,0.0
Status,1732148864000,29,5,2,135,1575420030,0.00,197.0,45.0,0,0,0,0.0
Status,1732148864000,29,6,1,19,1575420030,0.00,194.0,36.0,0,0,0,0.0
Status,1732148864000,29,7,1,15,1575420030,0.00,301.0,27.0,0,0,0,0.0
Status,1732148864000,29,8,1,7,1575420030,34.90,118.0,23.0,1,0,0,29.900002
Status,1732148864000,29,9,1,2,1575420030,33.90,69.0,21.0,1,0,0,28.900002
Status,1732148864000,29,10,1,21,1575420030,31.30,51.0,13.0,1,0,0,26.3
Status,1732148864000,29,11,3,9,1602000000,27.50,49.0,46.0,1,0,0,22.5
Status,1732148864000,29,12,3,8,1602000000,26.40,274.0,38.0,1,0,0,21.4
Status,1732148864000,29,13,3,19,1602000000,17.50,60.0,35.0,1,0,0,12.5
Status,1732148864000,29,14,3,20,1602000000,0.00,139.0,30.0,0,0,0,0.0
Status,1732148864000,29,15,3,11,1602000000,0.00,289.0,13.0,0,0,0,0.0
Status,1732148864000,29,16,3,18,1602000000,22.70,24.0,10.0,1,0,0,17.7
Status,1732148864000,29,17,3,16,1602000000,21.00,84.0,3.0,0,0,0,16.0
Status,1732148864000,29,18,3,17,1602000000,35.00,0.0,0.0,0,0,0,30.0
Status,1732148864000,29,19,6,21,1575420030,23.00,297.0,64.0,1,0,0,18.0
Status,1732148864000,29,20,6,19,1575420030,22.50,273.0,54.0,1,0,0,17.5
Status,1732148864000,29,21,6,27,1575420030,20.50,49.0,47.0,1,0,0,15.5
Status,1732148864000,29,22,6,29,1575420030,0.00,196.0,45.0,0,0,0,0.0
Status,1732148864000,29,23,6,15,1575420030,0.00,81.0,19.0,0,0,0,0.0
Status,1732148864000,29,24,6,13,1575420030,0.00,133.0,13.0,0,0,0,0.0
Status,1732148864000,29,25,6,4,1575420030,0.00,322.0,12.0,0,0,0,0.0
Status,1732148864000,29,26,6,34,1575420030,0.00,34.0,5.0,0,0,0,0.0
Status,1732148864000,29,27,6,7,1575420030,0.00,162.0,3.0,0,0,0,0.0
Status,1732148864000,29,28,6,30,1575420030,0.00,68.0,1.0,0,0,0,0.0
Fix,GPS,37.4243866667,-122.1707583333,3.6000000000000014,0.0,2.8,60.77,1732148865000,3.0,179.9,27749057000000,41.6,0,,,
Fix,FLP,37.4243896000,-122.1707641000,2.0,0.17426103,2.633,135.0144,1732148865209,3.0,179.9,27749057000000,0.900733,0,,,
Raw,1732148865000,19798000000,,694286.6141916085,-1416184063202999808,0.0,104.7624803668721,2060.0233890717955,0.0,0,22,0.0,16431,347282931352770,316,25.437000274658203,603.8869356077095,0.14999,16,0.0,0.0,1575420030,,,,0,10.640719111993459,1,6.0,25.437000274658203,0.0,0.0,0.0,66.7128,C,27749057000000,
Raw,1732148865000,19798000000,,694286.6141916085,-1416184063202999808,0.0,104.7624803668721,2060.0233890717955,0.0,0,30,0.0,16431,347282930539645,316,23.97800064086914,892.4487070399456,0.14999,16,0.0,0.0,1575420030,,,,0,8.573836651724132,1,6.0,23.97800064086914,0.0,0.0,0.0,66.7128,C,27749057000000,
Raw,1732148865000,19798000000,,694286.6141916085,-1416184063202999808,0.0,104.7624803668721,2060.0233890717955,0.0,0,2,0.0,16431,347282921079492,235,28.944000244140625,635.6160826260262,0.14999,16,0.0,0.0,1575420030,,,,0,15.255706456877844,1,6.0,28.944000244140625,0.0,0.0,0.0,66.7128,C,27749057000000,
Raw,1732148865000,19798000000,,694286.6141916085,-1416184063202999808,0.0,104.7624803668721,2060.0233890717955,0.0,0,21,0.0,16431,347282919488449,316,26.288999557495117,868.9741984970848,0.14999,16,0.0,0.0,1575420030,,,,0,11.823519735279913,1,6.0,26.288999557495117,0.0,0.0,0.0,66.7128,C,27749057000000,
Raw,1732148865000,19798000000,,694286.6141916085,-1416184063202999808,0.0,104.7624803668721,2060.0233890717955,0.0,0,27,0.0,16431,347282917925340,487,15.5,910.1114535485328,0.14999,16,0.0,0.0,1575420030,,,,0,0.0,6,6.0,15.5,0.0,0.0,7.93173905295613,66.7128,C,27749057000000,
Raw,1732148865000,19798000000,,694286.6141916085,-1416184063202999808,0.0,104.7624803668721,2060.0233890717955,0.0,0,19,0.0,16431,347282920897546,487,17.5,637.8079442444232,0.14999,16,0.0,0.0,1575420030,,,,0,0.011140771148355988,6,6.0,17.5,0.0,0.0,7.93173905295613,66.7128,C,27749057000000,
Raw,1732148865000,19798000000,,694286.6141916085,-1416184063202999808,0.0,104.7624803668721,2060.0233890717955,0.0,0,21,0.0,16431,347282920852376,396,18.0,530.8331667453674,0.14999,16,0.0,0.0,1575420030,,,,0,0.9332365160691296,6,6.0,18.0,0.0,0.0,7.93173905295613,66.7128,C,27749057000000,
Raw,1732148865000,19798000000,,694286.6141916085,-1416184063202999808,0.0,104.7624803668721,2060.0233890717955,0.0,0,16,0.0,17,357448,797,5.0,1113.3936118384972,0.14999,16,0.0,0.0,1601437440,,,,0,0.0,3,6.0,17.0,0.0,0.0,48.043025211195804,66.7128,C,27749057000000,
Raw,1732148865000,19798000000,,694286.6141916085,-1416184063202999808,0.0,104.7624803668721,2060.0233890717955,0.0,0,8,0.0,17,289663,396,5.0,825.4302673459338,0.14999,16,0.0,0.0,1605374980,,,,0,6.338935792612265,3,6.0,22.0,0.0,0.0,48.043025211195804,66.7128,C,27749057000000,
Raw,1732148865000,19798000000,,694286.6141916085,-1416184063202999808,0.0,104.7624803668721,2060.0233890717955,0.0,0,18,0.0,17,823591,487,5.0,1217.5932962131346,0.14999,16,0.0,0.0,1600312450,,,,0,0.3641718149243376,3,6.0,19.0,0.0,0.0,48.043025211195804,66.7128,C,27749057000000,
Raw,1732148865000,19798000000,,694286.6141916085,-1416184063202999808,0.0,104.7624803668721,2060.0233890717955,0.0,0,9,0.0,17,319999,396,5.0,843.8700971226508,0.14999,16,0.0,0.0,1600875010,,,,0,7.7852918219940594,3,6.0,22.0,0.0,0.0,48.043025211195804,66.7128,C,27749057000000,
Raw,1732148865000,19798000000,,694286.6141916085,-1416184063202999808,0.0,104.7624803668721,2060.0233890717955,0.0,0,19,0.0,17,289069,797,16.0,719.4441378311144,0.14999,16,0.0,0.0,1603687550,,,,0,0.0,3,6.0,16.0,0.0,0.0,48.043025211195804,66.7128,C,27749057000000,
Raw,1732148865000,19798000000,,694286.6141916085,-1416184063202999808,0.0,104.7624803668721,2060.0233890717955,0.0,0,17,0.0,16431,347282932276353,396,24.301000595092773,376.4197469121472,0.14999,16,0.0,0.0,1575420030,,,,0,9.028434618743677,1,6.0,24.301000595092773,0.0,0.0,0.0,66.7128,C,27749057000000,
Raw,1732148865000,19798000000,,694286.6141916085,-1416184063202999808,0.0,104.7624803668721,2060.0233890717955,0.0,0,7,0.0,16431,347282923330955,74,29.93199920654297,1112.7660383975383,0.14999,16,0.0,0.0,1575420030,,,,0,16.464960986669446,1,6.0,29.93199920654297,0.0,0.0,0.0,66.7128,C,27749057000000,
Status,1732148865000,29,0,1,22,1575420030,31.60,312.0,68.0,1,0,0,26.6
Status,1732148865000,29,1,1,14,1575420030,0.00,17.0,67.0,0,0,0,0.0
Status,1732148865000,29,2,1,17,1575420030,28.60,167.0,65.0,1,0,0,23.6
Status,1732148865000,29,3,1,30,1575420030,28.20,110.0,57.0,1,0,0,23.2
Status,1732148865000,29,4,1,13,1575420030,34.30,274.0,56.0,1,0,0,29.3
Status,1732148865000,29,5,2,135,1575420030,0.00,197.0,45.0,0,0,0,0.0
Status,1732148865000,29,6,1,19,1575420030,25.50,194.0,36.0,1,0,0,20.5
Status,1732148865000,29,7,1,15,1575420030,22.10,301.0,27.0,1,0,0,17.1
Status,1732148865000,29,8,1,7,1575420030,39.90,118.0,23.0,1,0,0,34.9
Status,1732148865000,29,9,1,2,1575420030,30.90,69.0,21.0,1,0,0,25.9
Status,1732148865000,29,10,1,21,1575420030,31.80,51.0,13.0,1,0,0,26.8
Status,1732148865000,29,11,3,9,1602000000,29.00,49.0,46.0,1,0,0,24.0
Status,1732148865000,29,12,3,8,1602000000,26.40,274.0,38.0,1,0,0,21.4
Status,1732148865000,29,13,3,19,1602000000,15.90,60.0,35.0,1,0,0,10.9
Status,1732148865000,29,14,3,20,1602000000,0.00,139.0,30.0,0,0,0,0.0
Status,1732148865000,29,15,3,11,1602000000,0.00,289.0,13.0,0,0,0,0.0
Status,1732148865000,29,16,3,18,1602000000,22.70,24.0,10.0,1,0,0,17.7
Status,1732148865000,29,17,3,16,1602000000,23.90,84.0,3.0,0,0,0,18.9
Status,1732148865000,29,18,3,17,1602000000,25.40,0.0,0.0,0,0,0,20.4
Status,1732148865000,29,19,6,21,1575420030,23.90,297.0,64.0,1,0,0,18.9
Status,1732148865000,29,20,6,19,1575420030,22.20,273.0,54.0,1,0,0,17.2
Status,1732148865000,29,21,6,27,1575420030,22.50,49.0,47.0,1,0,0,17.5
Status,1732148865000,29,22,6,29,1575420030,0.00,196.0,45.0,0,0,0,0.0
Status,1732148865000,29,23,6,15,1575420030,0.00,81.0,19.0,0,0,0,0.0
Status,1732148865000,29,24,6,13,1575420030,0.00,133.0,13.0,0,0,0,0.0
Status,1732148865000,29,25,6,4,1575420030,0.00,322.0,12.0,0,0,0,0.0
Status,1732148865000,29,26,6,34,1575420030,0.00,34.0,5.0,0,0,0,0.0
Status,1732148865000,29,27,6,7,1575420030,0.00,162.0,3.0,0,0,0,0.0
Status,1732148865000,29,28,6,30,1575420030,0.00,68.0,1.0,0,0,0,0.0
Fix,FLP,37.4243844000,-122.1707565000,2.0,0.1837736,2.666,133.13654,1732148866209,2.8,174.3,27750057000000,0.91060054,0,,,
Fix,GPS,37.4243800000,-122.1707500000,3.6000000000000014,0.0,2.7,60.77,1732148866000,2.8,174.3,27750057000000,41.5,0,,,
Raw,1732148866000,20798000000,,694107.7404455586,-1416184063202999808,0.0,103.95763279647286,2058.5489189299574,0.0,0,22,0.0,16431,347283931350753,396,26.576000213623047,604.894386363235,0.14999,16,0.0,0.0,1575420030,,,,0,12.207296157722402,1,6.0,26.576000213623047,0.0,0.0,0.0,66.7128,C,27750057000000,
Raw,1732148866000,20798000000,,694107.7404455586,-1416184063202999808,0.0,103.95763279647286,2058.5489189299574,0.0,0,30,0.0,16431,347283930536664,396,23.225000381469727,890.7708148800857,0.14999,16,0.0,0.0,1575420030,,,,0,7.469380830550487,1,6.0,23.225000381469727,0.0,0.0,0.0,66.7128,C,27750057000000,
Raw,1732148866000,20798000000,,694107.7404455586,-1416184063202999808,0.0,103.95763279647286,2058.5489189299574,0.0,0,2,0.0,16431,347283921077376,316,25.91200065612793,634.3834479271283,0.14999,16,0.0,0.0,1575420030,,,,0,11.309194221732453,1,6.0,25.91200065612793,0.0,0.0,0.0,66.7128,C,27750057000000,
Raw,1732148866000,20798000000,,694107.7404455586,-1416184063202999808,0.0,103.95763279647286,2058.5489189299574,0.0,0,21,0.0,16431,347283919485549,396,26.78700065612793,868.3989503875658,0.14999,16,0.0,0.0,1575420030,,,,0,12.476126579106364,1,6.0,26.78700065612793,0.0,0.0,0.0,66.7128,C,27750057000000,
Raw,1732148866000,20798000000,,694107.7404455586,-1416184063202999808,0.0,103.95763279647286,2058.5489189299574,0.0,0,27,0.0,16431,347283917922304,487,17.5,909.1046996692505,0.14999,16,0.0,0.0,1575420030,,,,0,0.011140771148355988,6,6.0,17.5,0.0,0.0,9.602026183784416,66.7128,C,27750057000000,
Raw,1732148866000,20798000000,,694107.7404455586,-1416184063202999808,0.0,103.95763279647286,2058.5489189299574,0.0,0,19,0.0,16431,347283920895415,487,17.200000762939453,637.4585304961038,0.14999,16,0.0,0.0,1575420030,,,,0,0.0,6,6.0,17.200000762939453,0.0,0.0,9.602026183784416,66.7128,C,27750057000000,
Raw,1732148866000,20798000000,,694107.7404455586,-1416184063202999808,0.0,103.95763279647286,2058.5489189299574,0.0,0,21,0.0,16431,347283920850603,487,18.899999618530273,529.5122610556695,0.14999,16,0.0,0.0,1575420030,,,,0,2.527269933938893,6,6.0,18.899999618530273,0.0,0.0,9.602026183784416,66.7128,C,27750057000000,
Raw,1732148866000,20798000000,,694107.7404455586,-1416184063202999808,0.0,103.95763279647286,2058.5489189299574,0.0,0,16,0.0,17,353737,487,5.0,1112.127438280983,0.14999,16,0.0,0.0,1601437440,,,,0,2.430319652541007,3,6.0,20.0,0.0,0.0,37.336567268762614,66.7128,C,27750057000000,
Raw,1732148866000,20798000000,,694107.7404455586,-1416184063202999808,0.0,103.95763279647286,2058.5489189299574,0.0,0,8,0.0,17,286907,487,5.0,826.5647672201467,0.14999,16,0.0,0.0,1605374980,,,,0,6.338935792612265,3,6.0,19.0,0.0,0.0,37.336567268762614,66.7128,C,27750057000000,
Raw,1732148866000,20798000000,,694107.7404455586,-1416184063202999808,0.0,103.95763279647286,2058.5489189299574,0.0,0,18,0.0,17,819540,487,5.0,1213.6854494209201,0.14999,16,0.0,0.0,1600312450,,,,0,0.3641718149243376,3,6.0,19.0,0.0,0.0,37.336567268762614,66.7128,C,27750057000000,
Raw,1732148866000,20798000000,,694107.7404455586,-1416184063202999808,0.0,103.95763279647286,2058.5489189299574,0.0,0,9,0.0,17,317184,396,5.0,843.1942685788497,0.14999,16,0.0,0.0,1600875010,,,,0,9.830443701626901,3,6.0,22.0,0.0,0.0,37.336567268762614,66.7128,C,27750057000000,
Raw,1732148866000,20798000000,,694107.7404455586,-1416184063202999808,0.0,103.95763279647286,2058.5489189299574,0.0,0,19,0.0,17,286669,1797,12.0,719.4107297068853,0.14999,16,0.0,0.0,1603687550,,,,0,0.0,3,6.0,12.0,0.0,0.0,37.336567268762614,66.7128,C,27750057000000,
Raw,1732148866000,20798000000,,694107.7404455586,-1416184063202999808,0.0,103.95763279647286,2058.5489189299574,0.0,0,17,0.0,16431,347283932275084,396,23.576000213623047,376.290174389336,0.14999,16,0.0,0.0,1575420030,,,,0,7.983827261916197,1,6.0,23.576000213623047,0.0,0.0,0.0,66.7128,C,27750057000000,
Raw,1732148866000,20798000000,,694107.7404455586,-1416184063202999808,0.0,103.95763279647286,2058.5489189299574,0.0,0,19,0.0,16431,347283926030675,487,20.492000579833984,1.9064211091994392,0.14999,16,0.0,0.0,1575420030,,,,0,3.1300011305850903,1,6.0,20.492000579833984,0.0,0.0,0.0,66.7128,C,27750057000000,
Raw,1732148866000,20798000000,,694107.7404455586,-1416184063202999808,0.0,103.95763279647286,2058.5489189299574,0.0,0,15,0.0,16431,347283925203241,487,17.10700035095215,403.2948256879545,0.14999,16,0.0,0.0,1575420030,,,,0,0.0,1,6.0,17.10700035095215,0.0,0.0,0.0,66.7128,C,27750057000000,
Raw,1732148866000,20798000000,,694107.7404455586,-1416184063202999808,0.0,103.95763279647286,2058.5489189299574,0.0,0,13,0.0,16431,347283931311193,235,29.257999420166016,613.38712422177,0.14999,16,0.0,0.0,1575420030,,,,0,15.631879543570992,1,6.0,29.257999420166016,0.0,0.0,0.0,66.7128,C,27750057000000,
Raw,1732148866000,20798000000,,694107.7404455586,-1416184063202999808,0.0,103.95763279647286,2058.5489189299574,0.0,0,7,0.0,16431,347283923327237,58,34.88100051879883,1112.779604255072,0.14999,16,0.0,0.0,1575420030,,,,0,22.225627858766458,1,6.0,34.88100051879883,0.0,0.0,0.0,66.7128,C,27750057000000,
Status,1732148866000,29,0,1,22,1575420030,31.60,312.0,68.0,1,0,0,26.6
Status,1732148866000,29,1,1,14,1575420030,0.00,17.0,67.0,0,0,0,0.0
Status,1732148866000,29,2,1,17,1575420030,28.10,167.0,65.0,1,0,0,23.1
Status,1732148866000,29,3,1,30,1575420030,28.10,110.0,57.0,1,0,0,23.1
Status,1732148866000,29,4,1,13,1575420030,30.70,274.0,56.0,1,0,0,25.7
Status,1732148866000,29,5,2,135,1575420030,0.00,197.0,45.0,0,0,0,0.0
Status,1732148866000,29,6,1,19,1575420030,28.40,194.0,36.0,1,0,0,23.4
Status,1732148866000,29,7,1,15,1575420030,24.70,301.0,27.0,1,0,0,19.7
Status,1732148866000,29,8,1,7,1575420030,30.80,118.0,23.0,1,0,0,25.8
Status,1732148866000,29,9,1,2,1575420030,30.40,69.0,21.0,1,0,0,25.4
Status,1732148866000,29,10,1,21,1575420030,28.70,51.0,13.0,1,0,0,23.7
Status,1732148866000,29,11,3,9,1602000000,25.00,49.0,46.0,1,0,0,20.0
Status,1732148866000,29,12,3,8,1602000000,24.30,274.0,38.0,1,0,0,19.3
Status,1732148866000,29,13,3,19,1602000000,15.90,60.0,35.0,1,0,0,10.9
Status,1732148866000,29,14,3,20,1602000000,0.00,139.0,30.0,0,0,0,0.0
Status,1732148866000,29,15,3,11,1602000000,0.00,289.0,13.0,0,0,0,0.0
Status,1732148866000,29,16,3,18,1602000000,21.80,24.0,10.0,1,0,0,16.8
Status,1732148866000,29,17,3,16,1602000000,28.40,84.0,3.0,0,0,0,23.4
Status,1732148866000,29,18,3,17,1602000000,25.50,0.0,0.0,0,0,0,20.5
Status,1732148866000,29,19,6,21,1575420030,23.00,297.0,64.0,1,0,0,18.0
Status,1732148866000,29,20,6,19,1575420030,21.80,273.0,54.0,1,0,0,16.8
Status,1732148866000,29,21,6,27,1575420030,22.70,49.0,47.0,1,0,0,17.7
Status,1732148866000,29,22,6,29,1575420030,0.00,196.0,45.0,0,0,0,0.0
Status,1732148866000,29,23,6,15,1575420030,0.00,81.0,19.0,0,0,0,0.0
Status,1732148866000,29,24,6,13,1575420030,0.00,133.0,13.0,0,0,0,0.0
Status,1732148866000,29,25,6,4,1575420030,0.00,322.0,12.0,0,0,0,0.0
Status,1732148866000,29,26,6,34,1575420030,0.00,34.0,5.0,0,0,0,0.0
Status,1732148866000,29,27,6,7,1575420030,0.00,162.0,3.0,0,0,0,0.0
Status,1732148866000,29,28,6,30,1575420030,0.00,68.0,1.0,0,0,0,0.0
Fix,GPS,37.4243766667,-122.1707483333,3.6000000000000014,0.0,2.8,60.77,1732148867000,2.7,179.9,27751057000000,37.3,0,,,
Fix,FLP,37.4243801000,-122.1707517000,2.0,0.1860913,2.7,132.14249,1732148867209,2.7,179.9,27751057000000,0.92490894,0,,,
Raw,1732148867000,21798000000,,694010.0687089333,-1416184063202999808,0.0,91.28125175153399,2058.9789290144195,0.0,0,22,0.0,16431,347284931348735,396,26.576000213623047,605.297784791191,0.14999,16,0.0,0.0,1575420030,,,,0,12.207296157722402,1,6.0,26.576000213623047,0.0,0.0,0.0,66.7128,C,27751057000000,
Raw,1732148867000,21798000000,,694010.0687089333,-1416184063202999808,0.0,91.28125175153399,2058.9789290144195,0.0,0,30,0.0,16431,347284930533683,396,23.114999771118164,893.9790472699207,0.14999,16,0.0,0.0,1575420030,,,,0,7.290897366118185,1,6.0,23.114999771118164,0.0,0.0,0.0,66.7128,C,27751057000000,
Raw,1732148867000,21798000000,,694010.0687089333,-1416184063202999808,0.0,91.28125175153399,2058.9789290144195,0.0,0,2,0.0,16431,347284921075258,316,25.437000274658203,634.898207178741,0.14999,16,0.0,0.0,1575420030,,,,0,10.640719111993459,1,6.0,25.437000274658203,0.0,0.0,0.0,66.7128,C,27751057000000,
Raw,1732148867000,21798000000,,694010.0687089333,-1416184063202999808,0.0,91.28125175153399,2058.9789290144195,0.0,0,21,0.0,16431,347284919482651,396,23.68000030517578,868.9012587836343,0.14999,16,0.0,0.0,1575420030,,,,0,8.14875417213085,1,6.0,23.68000030517578,0.0,0.0,0.0,66.7128,C,27751057000000,
Raw,1732148867000,21798000000,,694010.0687089333,-1416184063202999808,0.0,91.28125175153399,2058.9789290144195,0.0,0,27,0.0,16431,347284917919270,487,17.700000762939453,909.7211099355319,0.14999,16,0.0,0.0,1575420030,,,,0,0.2847347169722063,6,6.0,17.700000762939453,0.0,0.0,10.220286071514648,66.7128,C,27751057000000,
Raw,1732148867000,21798000000,,694010.0687089333,-1416184063202999808,0.0,91.28125175153399,2058.9789290144195,0.0,0,19,0.0,16431,347284920893284,487,16.799999237060547,637.7422055854853,0.14999,16,0.0,0.0,1575420030,,,,0,0.0,6,6.0,16.799999237060547,0.0,0.0,10.220286071514648,66.7128,C,27751057000000,
Raw,1732148867000,21798000000,,694010.0687089333,-1416184063202999808,0.0,91.28125175153399,2058.9789290144195,0.0,0,21,0.0,16431,347284920848830,487,18.0,530.8269877760115,0.14999,16,0.0,0.0,1575420030,,,,0,0.807351854115363,6,6.0,18.0,0.0,0.0,10.220286071514648,66.7128,C,27751057000000,
Raw,1732148867000,21798000000,,694010.0687089333,-1416184063202999808,0.0,91.28125175153399,2058.9789290144195,0.0,0,16,0.0,17,350027,396,5.0,1111.4571487417647,0.14999,16,0.0,0.0,1601437440,,,,0,9.002589998462401,3,6.0,22.0,0.0,0.0,37.86905865308227,66.7128,C,27751057000000,
Raw,1732148867000,21798000000,,694010.0687089333,-1416184063202999808,0.0,91.28125175153399,2058.9789290144195,0.0,0,8,0.0,17,284154,487,5.0,824.561474965167,0.14999,16,0.0,0.0,1605374980,,,,0,3.1219099426333767,3,6.0,18.0,0.0,0.0,37.86905865308227,66.7128,C,27751057000000,
Raw,1732148867000,21798000000,,694010.0687089333,-1416184063202999808,0.0,91.28125175153399,2058.9789290144195,0.0,0,18,0.0,17,815490,487,5.0,1213.6173946010754,0.14999,16,0.0,0.0,1600312450,,,,0,0.0,3,6.0,19.0,0.0,0.0,37.86905865308227,66.7128,C,27751057000000,
Raw,1732148867000,21798000000,,694010.0687089333,-1416184063202999808,0.0,91.28125175153399,2058.9789290144195,0.0,0,9,0.0,17,314365,396,5.0,844.1879404480807,0.14999,16,0.0,0.0,1600875010,,,,0,4.224948220159668,3,6.0,22.0,0.0,0.0,37.86905865308227,66.7128,C,27751057000000,
Raw,1732148867000,21798000000,,694010.0687089333,-1416184063202999808,0.0,91.28125175153399,2058.9789290144195,0.0,0,19,0.0,17,284269,1797,14.0,719.4117794157067,0.14999,16,0.0,0.0,1603687550,,,,0,0.0,3,6.0,14.0,0.0,0.0,37.86905865308227,66.7128,C,27751057000000,
Raw,1732148867000,21798000000,,694010.0687089333,-1416184063202999808,0.0,91.28125175153399,2058.9789290144195,0.0,0,17,0.0,16431,347284932273839,396,23.114999771118164,376.59456993234744,0.14999,16,0.0,0.0,1575420030,,,,0,7.290897366118185,1,6.0,23.114999771118164,0.0,0.0,0.0,66.7128,C,27751057000000,
Raw,1732148867000,21798000000,,694010.0687089333,-1416184063202999808,0.0,91.28125175153399,2058.9789290144195,0.0,0,19,0.0,16431,347284926030745,487,23.437000274658203,2.8388879809611534,0.14999,16,0.0,0.0,1575420030,,,,0,7.758937297922944,1,6.0,23.437000274658203,0.0,0.0,0.0,66.7128,C,27751057000000,
Raw,1732148867000,21798000000,,694010.0687089333,-1416184063202999808,0.0,91.28125175153399,2058.9789290144195,0.0,0,15,0.0,16431,347284925202031,487,19.70400047302246,403.420263411723,0.14999,16,0.0,0.0,1575420030,,,,0,1.7667691273392028,1,6.0,19.70400047302246,0.0,0.0,0.0,66.7128,C,27751057000000,
Raw,1732148867000,21798000000,,694010.0687089333,-1416184063202999808,0.0,91.28125175153399,2058.9789290144195,0.0,0,13,0.0,16431,347284931309150,316,25.73200035095215,613.5949791758959,0.14999,16,0.0,0.0,1575420030,,,,0,11.04014073060586,1,6.0,25.73200035095215,0.0,0.0,0.0,66.7128,C,27751057000000,
Raw,1732148867000,21798000000,,694010.0687089333,-1416184063202999808,0.0,91.28125175153399,2058.9789290144195,0.0,0,7,0.0,16431,347284923323521,316,25.836000442504883,1113.2352684012649,0.14999,16,0.0,0.0,1575420030,,,,0,11.194904551243864,1,6.0,25.836000442504883,0.0,0.0,0.0,66.7128,C,27751057000000,
Status,1732148867000,29,0,1,22,1575420030,27.30,312.0,68.0,1,0,0,22.3
Status,1732148867000,29,1,1,14,1575420030,28.50,17.0,67.0,1,0,0,23.5
Status,1732148867000,29,2,1,17,1575420030,0.00,167.0,65.0,0,0,0,0.0
Status,1732148867000,29,3,1,30,1575420030,31.20,110.0,57.0,1,0,0,26.2
Status,1732148867000,29,4,1,13,1575420030,28.00,274.0,56.0,1,0,0,23.0
Status,1732148867000,29,5,2,135,1575420030,0.00,197.0,45.0,0,0,0,0.0
Status,1732148867000,29,6,1,19,1575420030,29.40,194.0,36.0,1,0,0,24.4
Status,1732148867000,29,7,1,15,1575420030,24.10,301.0,27.0,1,0,0,19.1
Status,1732148867000,29,8,1,7,1575420030,30.40,118.0,23.0,1,0,0,25.4
Status,1732148867000,29,9,1,2,1575420030,34.00,69.0,21.0,1,0,0,29.0
Status,1732148867000,29,10,1,21,1575420030,30.20,51.0,13.0,1,0,0,25.2
Status,1732148867000,29,11,3,9,1602000000,25.20,49.0,46.0,1,0,0,20.2
Status,1732148867000,29,12,3,8,1602000000,24.20,274.0,38.0,1,0,0,19.2
Status,1732148867000,29,13,3,19,1602000000,15.90,60.0,35.0,1,0,0,10.9
Status,1732148867000,29,14,3,20,1602000000,0.00,139.0,30.0,0,0,0,0.0
Status,1732148867000,29,15,3,11,1602000000,0.00,289.0,13.0,0,0,0,0.0
Status,1732148867000,29,16,3,18,1602000000,24.30,24.0,10.0,1,0,0,19.3
Status,1732148867000,29,17,3,16,1602000000,23.40,84.0,3.0,0,0,0,18.4
Status,1732148867000,29,18,3,17,1602000000,26.30,0.0,0.0,0,0,0,21.3
Status,1732148867000,29,19,6,21,1575420030,23.90,297.0,64.0,1,0,0,18.9
Status,1732148867000,29,20,6,19,1575420030,21.70,273.0,54.0,1,0,0,16.7
Status,1732148867000,29,21,6,27,1575420030,24.00,49.0,47.0,1,0,0,19.0
Status,1732148867000,29,22,6,29,1575420030,0.00,196.0,45.0,0,0,0,0.0
Status,1732148867000,29,23,6,15,1575420030,0.00,81.0,19.0,0,0,0,0.0
Status,1732148867000,29,24,6,13,1575420030,0.00,133.0,13.0,0,0,0,0.0
Status,1732148867000,29,25,6,4,1575420030,0.00,322.0,12.0,0,0,0,0.0
Status,1732148867000,29,26,6,34,1575420030,0.00,34.0,5.0,0,0,0,0.0
Status,1732148867000,29,27,6,7,1575420030,0.00,162.0,3.0,0,0,0,0.0
Status,1732148867000,29,28,6,30,1575420030,0.00,68.0,1.0,0,0,0,0.0
Fix,GPS,37.4243783333,-122.1707400000,3.6000000000000014,0.0,2.8,60.77,1732148868000,2.6,179.9,27752057000000,34.4,0,,,
Raw,1732148868000,22798000000,,693667.9570337957,-1416184063202999808,0.0,85.52847229842938,2060.4500281346736,0.0,0,22,0.0,16431,347285931346717,396,22.30500030517578,604.8528060807265,0.14999,16,0.0,0.0,1575420030,,,,0,6.06641494060799,1,6.0,22.30500030517578,0.0,0.0,0.0,66.7128,C,27752057000000,
Raw,1732148868000,22798000000,,693667.9570337957,-1416184063202999808,0.0,85.52847229842938,2060.4500281346736,0.0,0,30,0.0,16431,347285930530699,396,26.21500015258789,894.566746234984,0.14999,16,0.0,0.0,1575420030,,,,0,11.715842038463862,1,6.0,26.21500015258789,0.0,0.0,0.0,66.7128,C,27752057000000,
Raw,1732148868000,22798000000,,693667.9570337957,-1416184063202999808,0.0,85.52847229842938,2060.4500281346736,0.0,0,2,0.0,16431,347285921073137,235,29.0310001373291,634.9413670474006,0.14999,16,0.0,0.0,1575420030,,,,0,15.351288050144436,1,6.0,29.0310001373291,0.0,0.0,0.0,66.7128,C,27752057000000,
Raw,1732148868000,22798000000,,693667.9570337957,-1416184063202999808,0.0,85.52847229842938,2060.4500281346736,0.0,0,21,0.0,16431,347285919479747,396,25.160999298095703,869.6012012822622,0.14999,16,0.0,0.0,1575420030,,,,0,10.264828695491628,1,6.0,25.160999298095703,0.0,0.0,0.0,66.7128,C,27752057000000,
Raw,1732148868000,22798000000,,693667.9570337957,-1416184063202999808,0.0,85.52847229842938,2060.4500281346736,0.0,0,14,0.0,16431,347285932407535,396,23.541000366210938,743.0440155167996,0.14999,16,0.0,0.0,1575420030,,,,0,7.928148291523977,1,6.0,23.541000366210938,0.0,0.0,0.0,66.7128,C,27752057000000,
Raw,1732148868000,22798000000,,693667.9570337957,-1416184063202999808,0.0,85.52847229842938,2060.4500281346736,0.0,0,27,0.0,16431,347285917916235,487,19.0,910.571577702682,0.14999,16,0.0,0.0,1575420030,,,,0,2.6306746032606982,6,6.0,19.0,0.0,0.0,6.9472397930632726,66.7128,C,27752057000000,
Raw,1732148868000,22798000000,,693667.9570337957,-1416184063202999808,0.0,85.52847229842938,2060.4500281346736,0.0,0,19,0.0,16431,347285920891158,797,16.684999465942383,637.6460366639295,0.14999,16,0.0,0.0,1575420030,,,,0,0.0,6,6.0,16.684999465942383,0.0,0.0,6.9472397930632726,66.7128,C,27752057000000,
Raw,1732148868000,22798000000,,693667.9570337957,-1416184063202999808,0.0,85.52847229842938,2060.4500281346736,0.0,0,21,0.0,16431,347285920847057,487,18.899999618530273,531.608929379251,0.14999,16,0.0,0.0,1575420030,,,,0,2.4226193952653525,6,6.0,18.899999618530273,0.0,0.0,6.9472397930632726,66.7128,C,27752057000000,
Raw,1732148868000,22798000000,,693667.9570337957,-1416184063202999808,0.0,85.52847229842938,2060.4500281346736,0.0,0,16,0.0,17,346316,487,5.0,1114.593332307915,0.14999,16,0.0,0.0,1601437440,,,,0,1.5309767422105436,3,6.0,18.0,0.0,0.0,35.54196657848791,66.7128,C,27752057000000,
Raw,1732148868000,22798000000,,693667.9570337957,-1416184063202999808,0.0,85.52847229842938,2060.4500281346736,0.0,0,8,0.0,17,281400,797,5.0,825.7981910714159,0.14999,16,0.0,0.0,1605374980,,,,0,0.7446181647112402,3,6.0,17.0,0.0,0.0,35.54196657848791,66.7128,C,27752057000000,
Raw,1732148868000,22798000000,,693667.9570337957,-1416184063202999808,0.0,85.52847229842938,2060.4500281346736,0.0,0,18,0.0,17,811437,797,5.0,1214.4838129526472,0.14999,16,0.0,0.0,1600312450,,,,0,3.1551256222626667,3,6.0,17.0,0.0,0.0,35.54196657848791,66.7128,C,27752057000000,
Raw,1732148868000,22798000000,,693667.9570337957,-1416184063202999808,0.0,85.52847229842938,2060.4500281346736,0.0,0,9,0.0,17,311552,487,5.0,844.8345083865488,0.14999,16,0.0,0.0,1600875010,,,,0,4.565615006135274,3,6.0,20.0,0.0,0.0,35.54196657848791,66.7128,C,27752057000000,
Raw,1732148868000,22798000000,,693667.9570337957,-1416184063202999808,0.0,85.52847229842938,2060.4500281346736,0.0,0,19,0.0,17,281869,1797,13.0,720.1481273341656,0.14999,16,0.0,0.0,1603687550,,,,0,0.0,3,6.0,13.0,0.0,0.0,35.54196657848791,66.7128,C,27752057000000,
Raw,1732148868000,22798000000,,693667.9570337957,-1416184063202999808,0.0,85.52847229842938,2060.4500281346736,0.0,0,19,0.0,16431,347285926030729,316,24.393999099731445,3.5134641843381695,0.14999,16,0.0,0.0,1575420030,,,,0,9.174829482553609,1,6.0,24.393999099731445,0.0,0.0,0.0,66.7128,C,27752057000000,
Raw,1732148868000,22798000000,,693667.9570337957,-1416184063202999808,0.0,85.52847229842938,2060.4500281346736,0.0,0,15,0.0,16431,347285925200633,487,19.06800079345703,404.61791492321447,0.14999,16,0.0,0.0,1575420030,,,,0,0.6796158808873498,1,6.0,19.06800079345703,0.0,0.0,0.0,66.7128,C,27752057000000,
Raw,1732148868000,22798000000,,693667.9570337957,-1416184063202999808,0.0,85.52847229842938,2060.4500281346736,0.0,0,13,0.0,16431,347285931307101,396,23.003000259399414,614.1653491517127,0.14999,16,0.0,0.0,1575420030,,,,0,7.108669221473033,1,6.0,23.003000259399414,0.0,0.0,0.0,66.7128,C,27752057000000,
Raw,1732148868000,22798000000,,693667.9570337957,-1416184063202999808,0.0,85.52847229842938,2060.4500281346736,0.0,0,7,0.0,16431,347285923319807,316,25.437000274658203,1114.0940986833327,0.14999,16,0.0,0.0,1575420030,,,,0,10.640719111993459,1,6.0,25.437000274658203,0.0,0.0,0.0,66.7128,C,27752057000000,
Fix,FLP,37.4243787000,-122.1707452000,2.0,0.18637875,2.733,128.68861,1732148868209,2.6,179.9,27752057000000,0.9349044,0,,,
Status,1732148868000,29,0,1,22,1575420030,36.20,312.0,68.0,1,0,0,31.2
Status,1732148868000,29,1,1,14,1575420030,37.00,17.0,67.0,1,0,0,32.0
Status,1732148868000,29,2,1,17,1575420030,31.50,167.0,65.0,1,0,0,26.5
Status,1732148868000,29,3,1,30,1575420030,31.70,110.0,57.0,1,0,0,26.7
Status,1732148868000,29,4,1,13,1575420030,0.00,274.0,56.0,0,0,0,0.0
Status,1732148868000,29,5,2,135,1575420030,0.00,197.0,45.0,0,0,0,0.0
Status,1732148868000,29,6,1,19,1575420030,0.00,194.0,36.0,0,0,0,0.0
Status,1732148868000,29,7,1,15,1575420030,0.00,301.0,27.0,0,0,0,0.0
Status,1732148868000,29,8,1,7,1575420030,25.10,118.0,23.0,1,0,0,20.1
Status,1732148868000,29,9,1,2,1575420030,32.40,69.0,21.0,1,0,0,27.400002
Status,1732148868000,29,10,1,21,1575420030,28.60,51.0,13.0,1,0,0,23.6
Status,1732148868000,29,11,3,9,1602000000,28.00,49.0,46.0,1,0,0,23.0
Status,1732148868000,29,12,3,8,1602000000,24.20,274.0,38.0,1,0,0,19.2
Status,1732148868000,29,13,3,19,1602000000,0.00,60.0,35.0,0,0,0,0.0
Status,1732148868000,29,14,3,20,1602000000,0.00,139.0,30.0,0,0,0,0.0
Status,1732148868000,29,15,3,11,1602000000,0.00,289.0,13.0,0,0,0,0.0
Status,1732148868000,29,16,3,18,1602000000,21.40,24.0,10.0,1,0,0,16.4
Status,1732148868000,29,17,3,16,1602000000,20.60,84.0,3.0,0,0,0,15.6
Status,1732148868000,29,18,3,17,1602000000,22.80,0.0,0.0,0,0,0,17.8
Status,1732148868000,29,19,6,21,1575420030,29.40,297.0,64.0,1,0,0,24.4
Status,1732148868000,29,20,6,19,1575420030,21.70,273.0,54.0,1,0,0,16.7
Status,1732148868000,29,21,6,27,1575420030,24.00,49.0,47.0,1,0,0,19.0
Status,1732148868000,29,22,6,29,1575420030,0.00,196.0,45.0,0,0,0,0.0
Status,1732148868000,29,23,6,15,1575420030,0.00,81.0,19.0,0,0,0,0.0
Status,1732148868000,29,24,6,13,1575420030,0.00,133.0,13.0,0,0,0,0.0
Status,1732148868000,29,25,6,4,1575420030,0.00,322.0,12.0,0,0,0,0.0
Status,1732148868000,29,26,6,34,1575420030,0.00,34.0,5.0,0,0,0,0.0
Status,1732148868000,29,27,6,7,1575420030,0.00,162.0,3.0,0,0,0,0.0
Status,1732148868000,29,28,6,30,1575420030,0.00,68.0,1.0,0,0,0,0.0
Fix,GPS,37.4243850000,-122.1707466667,3.6000000000000014,0.0,2.8,60.77,1732148869000,2.7,154.5,27753057000000,33.3,0,,,
Fix,FLP,37.4243813000,-122.1707452000,2.0,0.17041528,2.766,125.985535,1732148869209,2.7,154.5,27753057000000,0.94074214,0,,,
Raw,1732148869000,23798000000,,693580.7091751454,-1416184063202999808,0.0,85.36166734680155,2061.0623821812433,0.0,0,22,0.0,16431,347286931344708,74,31.22100067138672,604.2647819067497,0.14999,16,0.0,0.0,1575420030,,,,0,18.011925480894853,1,6.0,31.22100067138672,0.0,0.0,0.0,66.7128,C,27753057000000,
Raw,1732148869000,23798000000,,693580.7091751454,-1416184063202999808,0.0,85.36166734680155,2061.0623821812433,0.0,0,30,0.0,16431,347286930527718,316,26.740999221801758,894.314291201296,0.14999,16,0.0,0.0,1575420030,,,,0,12.409694976977717,1,6.0,26.740999221801758,0.0,0.0,0.0,66.7128,C,27753057000000,
Raw,1732148869000,23798000000,,693580.7091751454,-1416184063202999808,0.0,85.36166734680155,2061.0623821812433,0.0,0,2,0.0,16431,347286921071017,316,27.364999771118164,635.6216576359715,0.14999,16,0.0,0.0,1575420030,,,,0,13.236032950335026,1,6.0,27.364999771118164,0.0,0.0,0.0,66.7128,C,27753057000000,
Raw,1732148869000,23798000000,,693580.7091751454,-1416184063202999808,0.0,85.36166734680155,2061.0623821812433,0.0,0,21,0.0,16431,347286919476848,396,23.611000061035156,870.0191411944921,0.14999,16,0.0,0.0,1575420030,,,,0,8.039151586779237,1,6.0,23.611000061035156,0.0,0.0,0.0,66.7128,C,27753057000000,
Raw,1732148869000,23798000000,,693580.7091751454,-1416184063202999808,0.0,85.36166734680155,2061.0623821812433,0.0,0,7,0.0,16431,347286923316050,487,20.052000045776367,1114.3378195347734,0.14999,16,0.0,0.0,1575420030,,,,0,2.316692599066384,1,6.0,20.052000045776367,0.0,0.0,0.0,66.7128,C,27753057000000,
Raw,1732148869000,23798000000,,693580.7091751454,-1416184063202999808,0.0,85.36166734680155,2061.0623821812433,0.0,0,17,0.0,16431,347286932271413,316,26.503999710083008,377.9477874505199,0.14999,16,0.0,0.0,1575420030,,,,0,12.104300212105777,1,6.0,26.503999710083008,0.0,0.0,0.0,66.7128,C,27753057000000,
Raw,1732148869000,23798000000,,693580.7091751454,-1416184063202999808,0.0,85.36166734680155,2061.0623821812433,0.0,0,27,0.0,16431,347286917913200,487,18.959999084472656,909.939371574889,0.14999,16,0.0,0.0,1575420030,,,,0,1.300300555686725,6,6.0,18.959999084472656,0.0,0.0,4.954673236866211,66.7128,C,27753057000000,
Raw,1732148869000,23798000000,,693580.7091751454,-1416184063202999808,0.0,85.36166734680155,2061.0623821812433,0.0,0,14,0.0,16431,347286932405153,74,32.04899978637695,743.0532607416255,0.14999,16,0.0,0.0,1575420030,,,,0,18.98722168980458,1,6.0,32.04899978637695,0.0,0.0,0.0,66.7128,C,27753057000000,
Raw,1732148869000,23798000000,,693580.7091751454,-1416184063202999808,0.0,85.36166734680155,2061.0623821812433,0.0,0,19,0.0,16431,347286920889024,487,16.65999984741211,638.6288180004473,0.14999,16,0.0,0.0,1575420030,,,,0,0.0,6,6.0,16.65999984741211,0.0,0.0,4.954673236866211,66.7128,C,27753057000000,
Raw,1732148869000,23798000000,,693580.7091751454,-1416184063202999808,0.0,85.36166734680155,2061.0623821812433,0.0,0,21,0.0,16431,347286920845283,316,24.399999618530273,531.1602804539059,0.14999,16,0.0,0.0,1575420030,,,,0,10.391941544115248,6,6.0,24.399999618530273,0.0,0.0,4.954673236866211,66.7128,C,27753057000000,
Raw,1732148869000,23798000000,,693580.7091751454,-1416184063202999808,0.0,85.36166734680155,2061.0623821812433,0.0,0,16,0.0,17,342602,797,5.0,1114.4866600193197,0.14999,16,0.0,0.0,1601437440,,,,0,0.0,3,6.0,17.0,0.0,0.0,37.68345090169162,66.7128,C,27753057000000,
Raw,1732148869000,23798000000,,693580.7091751454,-1416184063202999808,0.0,85.36166734680155,2061.0623821812433,0.0,0,8,0.0,17,278646,797,5.0,826.5600257000165,0.14999,16,0.0,0.0,1605374980,,,,0,0.7446181647112402,3,6.0,17.0,0.0,0.0,37.68345090169162,66.7128,C,27753057000000,
Raw,1732148869000,23798000000,,693580.7091751454,-1416184063202999808,0.0,85.36166734680155,2061.0623821812433,0.0,0,18,0.0,17,807386,797,5.0,1214.7704847340901,0.14999,16,0.0,0.0,1600312450,,,,0,0.0,3,6.0,15.0,0.0,0.0,37.68345090169162,66.7128,C,27753057000000,
Raw,1732148869000,23798000000,,693580.7091751454,-1416184063202999808,0.0,85.36166734680155,2061.0623821812433,0.0,0,9,0.0,17,308737,396,5.0,844.972581867964,0.14999,16,0.0,0.0,1600875010,,,,0,8.451777304392213,3,6.0,23.0,0.0,0.0,37.68345090169162,66.7128,C,27753057000000,
Status,1732148869000,29,0,1,22,1575420030,30.30,312.0,68.0,1,0,0,25.3
Status,1732148869000,29,1,1,14,1575420030,35.30,17.0,67.0,1,0,0,30.3
Status,1732148869000,29,2,1,17,1575420030,29.00,167.0,65.0,1,0,0,24.0
Status,1732148869000,29,3,1,30,1575420030,34.50,110.0,57.0,1,0,0,29.5
Status,1732148869000,29,4,1,13,1575420030,26.40,274.0,56.0,1,0,0,21.4
Status,1732148869000,29,5,2,138,1575420030,0.00,156.0,43.0,0,0,0,0.0
Status,1732148869000,29,6,1,19,1575420030,33.90,194.0,36.0,1,0,0,28.900002
Status,1732148869000,29,7,1,15,1575420030,0.00,301.0,27.0,0,0,0,0.0
Status,1732148869000,29,8,1,7,1575420030,30.70,118.0,23.0,1,0,0,25.7
Status,1732148869000,29,9,1,2,1575420030,36.90,69.0,21.0,1,0,0,31.900002
Status,1732148869000,29,10,1,21,1575420030,32.20,51.0,13.0,1,0,0,27.2
Status,1732148869000,29,11,3,9,1602000000,28.00,49.0,46.0,1,0,0,23.0
Status,1732148869000,29,12,3,8,1602000000,24.10,274.0,38.0,1,0,0,19.1
Status,1732148869000,29,13,3,19,1602000000,0.00,60.0,35.0,0,0,0,0.0
Status,1732148869000,29,14,3,20,1602000000,0.00,139.0,30.0,0,0,0,0.0
Status,1732148869000,29,15,3,11,1602000000,0.00,289.0,13.0,0,0,0,0.0
Status,1732148869000,29,16,3,18,1602000000,21.40,24.0,10.0,1,0,0,16.4
Status,1732148869000,29,17,3,16,1602000000,21.70,84.0,3.0,0,0,0,16.7
Status,1732148869000,29,18,3,17,1602000000,22.80,0.0,0.0,0,0,0,17.8
Status,1732148869000,29,19,6,21,1575420030,23.60,297.0,64.0,1,0,0,18.6
Status,1732148869000,29,20,6,19,1575420030,21.70,273.0,54.0,1,0,0,16.7
Status,1732148869000,29,21,6,27,1575420030,24.00,49.0,47.0,1,0,0,19.0
Status,1732148869000,29,22,6,29,1575420030,0.00,196.0,45.0,0,0,0,0.0
Status,1732148869000,29,23,6,15,1575420030,0.00,81.0,19.0,0,0,0,0.0
Status,1732148869000,29,24,6,13,1575420030,0.00,133.0,13.0,0,0,0,0.0
Status,1732148869000,29,25,6,4,1575420030,0.00,322.0,12.0,0,0,0,0.0
Status,1732148869000,29,26,6,34,1575420030,0.00,34.0,5.0,0,0,0,0.0
Status,1732148869000,29,27,6,7,1575420030,0.00,162.0,3.0,0,0,0,0.0
Status,1732148869000,29,28,6,30,1575420030,0.00,68.0,1.0,0,0,0,0.0
Fix,GPS,37.4243783333,-122.1707600000,3.6000000000000014,0.0,2.7,60.77,1732148870000,2.8,179.9,27754057000000,34.2,0,,,
Raw,1732148870000,24798000000,,692827.4797526761,-1416184063202999808,0.0,85.95373649008044,2060.5315796681884,0.0,0,22,0.0,16431,347287931342690,316,25.327999114990234,604.5601645170163,0.14999,16,0.0,0.0,1575420030,,,,0,10.517220970313133,1,6.0,25.327999114990234,0.0,0.0,0.0,66.7128,C,27754057000000,
Raw,1732148870000,24798000000,,692827.4797526761,-1416184063202999808,0.0,85.95373649008044,2060.5315796681884,0.0,0,30,0.0,16431,347287930524738,235,29.461000442504883,893.7772319099021,0.14999,16,0.0,0.0,1575420030,,,,0,15.881360887005513,1,6.0,29.461000442504883,0.0,0.0,0.0,66.7128,C,27754057000000,
Raw,1732148870000,24798000000,,692827.4797526761,-1416184063202999808,0.0,85.95373649008044,2060.5315796681884,0.0,0,2,0.0,16431,347287921068900,74,31.886999130249023,636.1293552083202,0.14999,16,0.0,0.0,1575420030,,,,0,18.79753139271312,1,6.0,31.886999130249023,0.0,0.0,0.0,66.7128,C,27754057000000,
Raw,1732148870000,24798000000,,692827.4797526761,-1416184063202999808,0.0,85.95373649008044,2060.5315796681884,0.0,0,21,0.0,16431,347287919473940,316,27.21299934387207,869.2172689306983,0.14999,16,0.0,0.0,1575420030,,,,0,13.052197736110456,1,6.0,27.21299934387207,0.0,0.0,0.0,66.7128,C,27754057000000,
Raw,1732148870000,24798000000,,692827.4797526761,-1416184063202999808,0.0,85.95373649008044,2060.5315796681884,0.0,0,19,0.0,16431,347287926030769,235,28.854999542236328,2.9765907266091887,0.14999,16,0.0,0.0,1575420030,,,,0,15.134731108024537,1,6.0,28.854999542236328,0.0,0.0,0.0,66.7128,C,27754057000000,
Raw,1732148870000,24798000000,,692827.4797526761,-1416184063202999808,0.0,85.95373649008044,2060.5315796681884,0.0,0,13,0.0,16431,347287931303069,487,21.388999938964844,613.8924059564758,0.14999,16,0.0,0.0,1575420030,,,,0,4.55858961694108,1,6.0,21.388999938964844,0.0,0.0,0.0,66.7128,C,27754057000000,
Raw,1732148870000,24798000000,,692827.4797526761,-1416184063202999808,0.0,85.95373649008044,2060.5315796681884,0.0,0,7,0.0,16431,347287923312372,316,25.73200035095215,1114.7780594867843,0.14999,16,0.0,0.0,1575420030,,,,0,11.04014073060586,1,6.0,25.73200035095215,0.0,0.0,0.0,66.7128,C,27754057000000,
Raw,1732148870000,24798000000,,692827.4797526761,-1416184063202999808,0.0,85.95373649008044,2060.5315796681884,0.0,0,17,0.0,16431,347287932270123,396,24.042999267578125,376.8282093074703,0.14999,16,0.0,0.0,1575420030,,,,0,8.67693447504887,1,6.0,24.042999267578125,0.0,0.0,0.0,66.7128,C,27754057000000,
Raw,1732148870000,24798000000,,692827.4797526761,-1416184063202999808,0.0,85.95373649008044,2060.5315796681884,0.0,0,27,0.0,16431,347287917910162,487,18.98699951171875,910.1488990319986,0.14999,16,0.0,0.0,1575420030,,,,0,3.416375079047504,6,6.0,18.98699951171875,0.0,0.0,6.357453462178694,66.7128,C,27754057000000,
Raw,1732148870000,24798000000,,692827.4797526761,-1416184063202999808,0.0,85.95373649008044,2060.5315796681884,0.0,0,14,0.0,16431,347287932402645,316,30.333999633789062,743.6160579956,0.14999,16,0.0,0.0,1575420030,,,,0,16.952718012462668,1,6.0,30.333999633789062,0.0,0.0,0.0,66.7128,C,27754057000000,
Raw,1732148870000,24798000000,,692827.4797526761,-1416184063202999808,0.0,85.95373649008044,2060.5315796681884,0.0,0,19,0.0,16431,347287920886885,487,16.656999588012695,639.5199833401978,0.14999,16,0.0,0.0,1575420030,,,,0,0.0,6,6.0,16.656999588012695,0.0,0.0,6.357453462178694,66.7128,C,27754057000000,
Raw,1732148870000,24798000000,,692827.4797526761,-1416184063202999808,0.0,85.95373649008044,2060.5315796681884,0.0,0,21,0.0,16431,347287920843510,487,18.600000381469727,531.2931050658518,0.14999,16,0.0,0.0,1575420030,,,,0,1.8795744743930562,6,6.0,18.600000381469727,0.0,0.0,6.357453462178694,66.7128,C,27754057000000,
Raw,1732148870000,24798000000,,692827.4797526761,-1416184063202999808,0.0,85.95373649008044,2060.5315796681884,0.0,0,16,0.0,17,338893,797,5.0,1110.7804606933762,0.14999,16,0.0,0.0,1601437440,,,,0,0.0,3,6.0,17.0,0.0,0.0,29.909186114205962,66.7128,C,27754057000000,
Raw,1732148870000,24798000000,,692827.4797526761,-1416184063202999808,0.0,85.95373649008044,2060.5315796681884,0.0,0,8,0.0,17,275888,487,5.0,826.8777075487352,0.14999,16,0.0,0.0,1605374980,,,,0,0.7446181647112402,3,6.0,20.0,0.0,0.0,29.909186114205962,66.7128,C,27754057000000,
Raw,1732148870000,24798000000,,692827.4797526761,-1416184063202999808,0.0,85.95373649008044,2060.5315796681884,0.0,0,18,0.0,17,803334,797,5.0,1214.9344017195226,0.14999,16,0.0,0.0,1600312450,,,,0,0.0,3,6.0,16.0,0.0,0.0,29.909186114205962,66.7128,C,27754057000000,
Raw,1732148870000,24798000000,,692827.4797526761,-1416184063202999808,0.0,85.95373649008044,2060.5315796681884,0.0,0,9,0.0,17,305918,396,5.0,845.0747196684546,0.14999,16,0.0,0.0,1600875010,,,,0,8.451777304392213,3,6.0,22.0,0.0,0.0,29.909186114205962,66.7128,C,27754057000000,
Fix,FLP,37.4243794000,-122.1707517000,2.0,0.1501701,2.766,129.90987,1732148870209,2.8,179.9,27754057000000,0.9507022,0,,,
Status,1732148870000,29,0,1,22,1575420030,33.80,312.0,68.0,1,0,0,28.8
Status,1732148870000,29,1,1,14,1575420030,34.50,17.0,67.0,1,0,0,29.5
Status,1732148870000,29,2,1,17,1575420030,33.70,167.0,65.0,1,0,0,28.7
Status,1732148870000,29,3,1,30,1575420030,30.00,110.0,57.0,1,0,0,25.0
Status,1732148870000,29,4,1,13,1575420030,37.90,274.0,56.0,1,0,0,32.9
Status,1732148870000,29,5,2,138,1575420030,0.00,156.0,43.0,0,0,0,0.0
Status,1732148870000,29,6,1,19,1575420030,28.70,194.0,36.0,1,0,0,23.7
Status,1732148870000,29,7,1,15,1575420030,0.00,301.0,27.0,0,0,0,0.0
Status,1732148870000,29,8,1,7,1575420030,33.20,118.0,23.0,1,0,0,28.2
Status,1732148870000,29,9,1,2,1575420030,32.90,69.0,21.0,1,0,0,27.900002
Status,1732148870000,29,10,1,21,1575420030,30.60,51.0,13.0,1,0,0,25.6
Status,1732148870000,29,11,3,9,1602000000,28.00,49.0,46.0,1,0,0,23.0
Status,1732148870000,29,12,3,8,1602000000,24.10,274.0,38.0,1,0,0,19.1
Status,1732148870000,29,13,3,19,1602000000,0.00,60.0,35.0,0,0,0,0.0
Status,1732148870000,29,14,3,20,1602000000,0.00,139.0,30.0,0,0,0,0.0
Status,1732148870000,29,15,3,11,1602000000,0.00,289.0,13.0,0,0,0,0.0
Status,1732148870000,29,16,3,18,1602000000,0.00,24.0,10.0,0,0,0,0.0
Status,1732148870000,29,17,3,16,1602000000,22.50,84.0,3.0,0,0,0,17.5
Status,1732148870000,29,18,3,17,1602000000,30.10,0.0,0.0,0,0,0,25.1
Status,1732148870000,29,19,6,21,1575420030,25.30,297.0,64.0,1,0,0,20.3
Status,1732148870000,29,20,6,19,1575420030,21.70,273.0,54.0,1,0,0,16.7
Status,1732148870000,29,21,6,27,1575420030,24.00,49.0,47.0,1,0,0,19.0
Status,1732148870000,29,22,6,29,1575420030,0.00,196.0,45.0,0,0,0,0.0
Status,1732148870000,29,23,6,15,1575420030,0.00,81.0,19.0,0,0,0,0.0
Status,1732148870000,29,24,6,13,1575420030,0.00,133.0,13.0,0,0,0,0.0
Status,1732148870000,29,25,6,4,1575420030,0.00,322.0,12.0,0,0,0,0.0
Status,1732148870000,29,26,6,34,1575420030,0.00,34.0,5.0,0,0,0,0.0
Status,1732148870000,29,27,6,7,1575420030,0.00,162.0,3.0,0,0,0,0.0
Status,1732148870000,29,28,6,30,1575420030,0.00,68.0,1.0,0,0,0,0.0
Fix,GPS,37.4243783333,-122.1707783333,3.6999999999999993,0.0,2.6,60.77,1732148871000,2.6,179.9,27755057000000,32.9,0,,,
Fix,FLP,37.4243785000,-122.1707642000,2.0,0.11950373,2.733,138.70985,1732148871210,2.6,179.9,27755057000000,0.9607004,0,,,
Raw,1732148871000,25798000000,,692292.2657380527,-1416184063202999808,0.0,84.19540056490175,2063.632941704684,0.0,0,22,0.0,16431,347288931340668,235,28.783000946044922,606.3882567364848,0.14999,16,0.0,0.0,1575420030,,,,0,15.036722850815202,1,6.0,28.783000946044922,0.0,0.0,0.0,66.7128,C,27755057000000,
Raw,1732148871000,25798000000,,692292.2657380527,-1416184063202999808,0.0,84.19540056490175,2063.632941704684,0.0,0,30,0.0,16431,347288930521752,316,24.959999084472656,895.4017898079522,0.14999,16,0.0,0.0,1575420030,,,,0,10.004882423516433,1,6.0,24.959999084472656,0.0,0.0,0.0,66.7128,C,27755057000000,
Raw,1732148871000,25798000000,,692292.2657380527,-1416184063202999808,0.0,84.19540056490175,2063.632941704684,0.0,0,2,0.0,16431,347288921066778,235,27.885000228881836,636.8735261191807,0.14999,16,0.0,0.0,1575420030,,,,0,13.906753491389587,1,6.0,27.885000228881836,0.0,0.0,0.0,66.7128,C,27755057000000,
Raw,1732148871000,25798000000,,692292.2657380527,-1416184063202999808,0.0,84.19540056490175,2063.632941704684,0.0,0,21,0.0,16431,347288919471036,316,25.597999572753906,870.7613608518717,0.14999,16,0.0,0.0,1575420030,,,,0,10.882569250395665,1,6.0,25.597999572753906,0.0,0.0,0.0,66.7128,C,27755057000000,
Raw,1732148871000,25798000000,,692292.2657380527,-1416184063202999808,0.0,84.19540056490175,2063.632941704684,0.0,0,19,0.0,16431,347288926030749,316,23.74799919128418,5.085663447318996,0.14999,16,0.0,0.0,1575420030,,,,0,8.256990957609286,1,6.0,23.74799919128418,0.0,0.0,0.0,66.7128,C,27755057000000,
Raw,1732148871000,25798000000,,692292.2657380527,-1416184063202999808,0.0,84.19540056490175,2063.632941704684,0.0,0,13,0.0,16431,347288931301008,58,32.87200164794922,615.3408399986718,0.14999,16,0.0,0.0,1575420030,,,,0,19.948376140961823,1,6.0,32.87200164794922,0.0,0.0,0.0,66.7128,C,27755057000000,
Raw,1732148871000,25798000000,,692292.2657380527,-1416184063202999808,0.0,84.19540056490175,2063.632941704684,0.0,0,7,0.0,16431,347288923308597,235,28.16200065612793,1116.5003658925414,0.14999,16,0.0,0.0,1575420030,,,,0,14.264134803692581,1,6.0,28.16200065612793,0.0,0.0,0.0,66.7128,C,27755057000000,
Raw,1732148871000,25798000000,,692292.2657380527,-1416184063202999808,0.0,84.19540056490175,2063.632941704684,0.0,0,17,0.0,16431,347288932268870,235,28.746999740600586,378.3754139425298,0.14999,16,0.0,0.0,1575420030,,,,0,15.012047011383707,1,6.0,28.746999740600586,0.0,0.0,0.0,66.7128,C,27755057000000,
Raw,1732148871000,25798000000,,692292.2657380527,-1416184063202999808,0.0,84.19540056490175,2063.632941704684,0.0,0,27,0.0,16431,347288917907123,316,18.992000579833984,911.1666170975066,0.14999,16,0.0,0.0,1575420030,,,,0,2.732862718830304,6,6.0,18.992000579833984,0.0,0.0,9.423017931119047,66.7128,C,27755057000000,
Raw,1732148871000,25798000000,,692292.2657380527,-1416184063202999808,0.0,84.19540056490175,2063.632941704684,0.0,0,14,0.0,16431,347288932400163,235,29.527000427246094,744.3695670481187,0.14999,16,0.0,0.0,1575420030,,,,0,15.970333645892278,1,6.0,29.527000427246094,0.0,0.0,0.0,66.7128,C,27755057000000,
Raw,1732148871000,25798000000,,692292.2657380527,-1416184063202999808,0.0,84.19540056490175,2063.632941704684,0.0,0,19,0.0,16431,347288920884753,797,16.698999404907227,639.8612668656804,0.14999,16,0.0,0.0,1575420030,,,,0,0.011140771148355988,6,6.0,16.698999404907227,0.0,0.0,9.423017931119047,66.7128,C,27755057000000,
Raw,1732148871000,25798000000,,692292.2657380527,-1416184063202999808,0.0,84.19540056490175,2063.632941704684,0.0,0,21,0.0,16431,347288920841733,396,20.299999237060547,533.0870038909893,0.14999,16,0.0,0.0,1575420030,,,,0,4.721709709299334,6,6.0,20.299999237060547,0.0,0.0,9.423017931119047,66.7128,C,27755057000000,
Raw,1732148871000,25798000000,,692292.2657380527,-1416184063202999808,0.0,84.19540056490175,2063.632941704684,0.0,0,16,0.0,17,335184,487,5.0,1114.5056727322828,0.14999,16,0.0,0.0,1601437440,,,,0,0.0,3,6.0,19.0,0.0,0.0,35.03636834853835,66.7128,C,27755057000000,
Raw,1732148871000,25798000000,,692292.2657380527,-1416184063202999808,0.0,84.19540056490175,2063.632941704684,0.0,0,8,0.0,17,273119,487,5.0,827.8350386996242,0.14999,16,0.0,0.0,1605374980,,,,0,3.0158019820072655,3,6.0,18.0,0.0,0.0,35.03636834853835,66.7128,C,27755057000000,
Raw,1732148871000,25798000000,,692292.2657380527,-1416184063202999808,0.0,84.19540056490175,2063.632941704684,0.0,0,9,0.0,17,303096,396,5.0,845.4945179155918,0.14999,16,0.0,0.0,1600875010,,,,0,7.406720536001265,3,6.0,22.0,0.0,0.0,35.03636834853835,66.7128,C,27755057000000,
Status,1732148871000,29,0,1,22,1575420030,29.80,312.0,68.0,1,0,0,24.8
Status,1732148871000,29,1,1,14,1575420030,29.70,17.0,67.0,1,0,0,24.7
Status,1732148871000,29,2,1,17,1575420030,30.50,167.0,65.0,1,0,0,25.5
Status,1732148871000,29,3,1,30,1575420030,35.30,110.0,57.0,1,0,0,30.3
Status,1732148871000,29,4,1,13,1575420030,29.70,274.0,56.0,1,0,0,24.7
Status,1732148871000,29,5,2,138,1575420030,0.00,156.0,43.0,0,0,0,0.0
Status,1732148871000,29,6,1,19,1575420030,30.50,194.0,36.0,1,0,0,25.5
Status,1732148871000,29,7,1,15,1575420030,0.00,301.0,27.0,0,0,0,0.0
Status,1732148871000,29,8,1,7,1575420030,31.40,118.0,23.0,1,0,0,26.4
Status,1732148871000,29,9,1,2,1575420030,29.50,69.0,21.0,1,0,0,24.5
Status,1732148871000,29,10,1,21,1575420030,28.50,51.0,13.0,1,0,0,23.5
Status,1732148871000,29,11,3,9,1602000000,28.00,49.0,46.0,1,0,0,23.0
Status,1732148871000,29,12,3,8,1602000000,24.00,274.0,38.0,1,0,0,19.0
Status,1732148871000,29,13,3,19,1602000000,0.00,60.0,35.0,0,0,0,0.0
Status,1732148871000,29,14,3,20,1602000000,0.00,139.0,30.0,0,0,0,0.0
Status,1732148871000,29,15,3,11,1602000000,0.00,289.0,13.0,0,0,0,0.0
Status,1732148871000,29,16,3,18,1602000000,22.40,24.0,10.0,1,0,0,17.4
Status,1732148871000,29,17,3,16,1602000000,22.50,84.0,3.0,0,0,0,17.5
Status,1732148871000,29,18,3,17,1602000000,28.00,0.0,0.0,0,0,0,23.0
Status,1732148871000,29,19,6,21,1575420030,22.70,297.0,64.0,1,0,0,17.7
Status,1732148871000,29,20,6,19,1575420030,19.40,273.0,54.0,1,0,0,14.4
Status,1732148871000,29,21,6,27,1575420030,26.50,49.0,47.0,1,0,0,21.5
Status,1732148871000,29,22,6,29,1575420030,0.00,196.0,45.0,0,0,0,0.0
Status,1732148871000,29,23,6,15,1575420030,0.00,81.0,19.0,0,0,0,0.0
Status,1732148871000,29,24,6,13,1575420030,0.00,133.0,13.0,0,0,0,0.0
Status,1732148871000,29,25,6,4,1575420030,0.00,322.0,12.0,0,0,0,0.0
Status,1732148871000,29,26,6,34,1575420030,0.00,34.0,5.0,0,0,0,0.0
Status,1732148871000,29,27,6,7,1575420030,0.00,162.0,3.0,0,0,0,0.0
Status,1732148871000,29,28,6,30,1575420030,0.00,68.0,1.0,0,0,0,0.0
Fix,GPS,37.4243900000,-122.1707916667,3.6999999999999993,0.0,2.6,60.77,1732148872000,2.8,179.9,27756057000000,33.8,0,,,
Fix,FLP,37.4243837000,-122.1707773000,2.0,0.08242703,2.716,,1732148872209,2.8,,27756057000000,0.9716956,0,,,
Raw,1732148872000,26798000000,,691889.434973711,-1416184063202999808,0.0,85.38186742771613,2067.818486055916,0.0,0,22,0.0,16431,347289931338647,396,24.78700065612793,607.2999102377842,0.14999,16,0.0,0.0,1575420030,,,,0,9.736915990359682,1,6.0,24.78700065612793,0.0,0.0,0.0,66.7128,C,27756057000000,
Raw,1732148872000,26798000000,,691889.434973711,-1416184063202999808,0.0,85.38186742771613,2067.818486055916,0.0,0,30,0.0,16431,347289930518764,74,30.333999633789062,897.1984296796461,0.14999,16,0.0,0.0,1575420030,,,,0,16.952718012462668,1,6.0,30.333999633789062,0.0,0.0,0.0,66.7128,C,27756057000000,
Raw,1732148872000,26798000000,,691889.434973711,-1416184063202999808,0.0,85.38186742771613,2067.818486055916,0.0,0,2,0.0,16431,347289921064649,316,24.45400047302246,637.2954614552048,0.14999,16,0.0,0.0,1575420030,,,,0,9.271073011709477,1,6.0,24.45400047302246,0.0,0.0,0.0,66.7128,C,27756057000000,
