# 
# Header Description:
# 
# Version: v3.1.0.3 Platform: 13 Manufacturer: samsung Model: SM-S135DL GNSS Hardware Model Name: MediaTek,MT6631,MTK_MNLD_default,MNL_VER_default
# 
# Raw,utcTimeMillis,TimeNanos,LeapSecond,TimeUncertaintyNanos,FullBiasNanos,BiasNanos,BiasUncertaintyNanos,DriftNanosPerSecond,DriftUncertaintyNanosPerSecond,HardwareClockDiscontinuityCount,Svid,TimeOffsetNanos,State,ReceivedSvTimeNanos,ReceivedSvTimeUncertaintyNanos,Cn0DbHz,PseudorangeRateMetersPerSecond,PseudorangeRateUncertaintyMetersPerSecond,AccumulatedDeltaRangeState,AccumulatedDeltaRangeMeters,AccumulatedDeltaRangeUncertaintyMeters,CarrierFrequencyHz,CarrierCycles,CarrierPhase,CarrierPhaseUncertainty,MultipathIndicator,SnrInDb,ConstellationType,AgcDb,BasebandCn0DbHz,FullInterSignalBiasNanos,FullInterSignalBiasUncertaintyNanos,SatelliteInterSignalBiasNanos,SatelliteInterSignalBiasUncertaintyNanos,CodeType,ChipsetElapsedRealtimeNanos,IsFullTracking
# 
# UncalAccel,utcTimeMillis,elapsedRealtimeNanos,UncalAccelXMps2,UncalAccelYMps2,UncalAccelZMps2,BiasXMps2,BiasYMps2,BiasZMps2
# 
# Accel,utcTimeMillis,elapsedRealtimeNanos,AccelXMps2,AccelYMps2,AccelZMps2
# 
# UncalGyro,utcTimeMillis,elapsedRealtimeNanos,UncalGyroXRadPerSec,UncalGyroYRadPerSec,UncalGyroZRadPerSec,DriftXRadPerSec,DriftYRadPerSec,DriftZRadPerSec
# 
# Gyro,utcTimeMillis,elapsedRealtimeNanos,GyroXRadPerSec,GyroYRadPerSec,GyroZRadPerSec
# 
# UncalMag,utcTimeMillis,elapsedRealtimeNanos,UncalMagXMicroT,UncalMagYMicroT,UncalMagZMicroT,BiasXMicroT,BiasYMicroT,BiasZMicroT
# 
# Mag,utcTimeMillis,elapsedRealtimeNanos,MagXMicroT,MagYMicroT,MagZMicroT
# 
# Pressure,utcTimeMillis,elapsedRealtimeNanos,PressureHpa
# 
# OrientationDeg,utcTimeMillis,elapsedRealtimeNanos,yawDeg,rollDeg,pitchDeg
# 
# Fix,Provider,LatitudeDegrees,LongitudeDegrees,AltitudeMeters,SpeedMps,AccuracyMeters,BearingDegrees,UnixTimeMillis,SpeedAccuracyMps,BearingAccuracyDegrees,elapsedRealtimeNanos,VerticalAccuracyMeters,MockLocation,NumberOfUsedSignals,VerticalSpeedAccuracyMps,SolutionType
# 
# Nav,Svid,Type,Status,MessageId,Sub-messageId,Data(Bytes)
# 
# Status,UnixTimeMillis,SignalCount,SignalIndex,ConstellationType,Svid,CarrierFrequencyHz,Cn0DbHz,AzimuthDegrees,ElevationDegrees,UsedInFix,HasAlmanacData,HasEphemerisData,BasebandCn0DbHz
# 
# Agc,utcTimeMillis,TimeNanos,LeapSecond,TimeUncertaintyNanos,FullBiasNanos,BiasNanos,BiasUncertaintyNanos,DriftNanosPerSecond,DriftUncertaintyNanosPerSecond,HardwareClockDiscontinuityCount,AgcDb,CarrierFrequencyHz,ConstellationType
# 
Fix,FLP,37.4243970000,-122.1708266000,2.0,0.09655324,2.683,,1732148580208,2.4,,27464056000000,1.0479689,0,,,
Status,,29,0,1,14,1575420030,28.20,12.0,69.0,1,0,0,23.2
Status,,29,1,1,22,1575420030,32.10,306.0,68.0,1,0,0,27.099998
Status,,29,2,1,17,1575420030,26.90,168.0,63.0,1,0,0,21.9
Status,,29,3,1,30,1575420030,35.20,107.0,59.0,1,0,0,30.2
Status,,29,4,1,13,1575420030,28.60,278.0,56.0,1,0,0,23.6
Status,,29,5,1,19,1575420030,0.00,194.0,34.0,0,0,0,0.0
Status,,29,6,1,15,1575420030,28.20,303.0,27.0,1,0,0,23.2
Status,,29,7,1,7,1575420030,41.20,117.0,25.0,1,0,0,36.2
Status,,29,8,2,131,1575420030,32.00,3.0,23.0,0,0,0,27.0
Status,,29,9,1,2,1575420030,38.80,71.0,21.0,1,0,0,33.8
Status,,29,10,1,21,1575420030,27.00,53.0,14.0,1,0,0,22.0
Status,,29,11,3,9,1602000000,27.80,45.0,47.0,1,0,0,22.8
Status,,29,12,3,8,1602000000,28.60,277.0,39.0,1,0,0,23.6
Status,,29,13,3,19,1602000000,0.00,63.0,36.0,0,0,0,0.0
Status,,29,14,3,20,1602000000,0.00,140.0,27.0,0,0,0,0.0
Status,,29,15,3,18,1602000000,23.40,25.0,11.0,1,0,0,18.4
Status,,29,16,3,11,1602000000,0.00,287.0,11.0,0,0,0,0.0
Status,,29,17,3,16,1602000000,22.60,82.0,4.0,0,0,0,17.6
Status,,29,18,3,17,1602000000,30.30,0.0,0.0,0,0,0,25.3
Status,,29,19,6,21,1575420030,23.80,294.0,64.0,1,0,0,18.8
Status,,29,20,6,19,1575420030,0.00,276.0,54.0,0,0,0,0.0
Status,,29,21,6,27,1575420030,23.60,47.0,48.0,1,0,0,18.6
Status,,29,22,6,29,1575420030,25.00,197.0,46.0,1,0,0,20.0
Status,,29,23,6,15,1575420030,0.00,83.0,18.0,0,0,0,0.0
Status,,29,24,6,13,1575420030,0.00,134.0,11.0,0,0,0,0.0
Status,,29,25,6,4,1575420030,0.00,323.0,10.0,0,0,0,0.0
Status,,29,26,6,34,1575420030,0.00,36.0,5.0,0,0,0,0.0
Status,,29,27,6,7,1575420030,0.00,162.0,4.0,0,0,0,0.0
Status,,29,28,6,30,1575420030,0.00,67.0,2.0,0,0,0,0.0
Fix,GPS,37.4243983333,-122.1708283333,1.6000000000000014,0.0,2.5,305.16,1732148581000,2.4,179.9,27465056000000,31.1,0,,,
Fix,FLP,37.4243980000,-122.1708278000,2.0,0.09335863,2.633,,1732148581208,2.4,,27465056000000,1.0579675,0,,,
Raw,1732148581000,12228000000,,692139.0868512109,-1416183786772000000,0.0,77.13438116277646,2100.861604794736,0.0,0,7,0.0,16431,346998923371811,51,36.22200012207031,1109.756555112252,0.14999,16,0.0,0.0,1575420030,,,,0,23.70618581347222,1,6.0,36.22200012207031,0.0,0.0,0.0,66.7128,C,27465056000000,
Raw,1732148581000,12228000000,,692139.0868512109,-1416183786772000000,0.0,77.13438116277646,2100.861604794736,0.0,0,30,0.0,16431,346998930368988,74,30.224000930786133,883.1859209327208,0.14999,16,0.0,0.0,1575420030,,,,0,16.805369331968087,1,6.0,30.224000930786133,0.0,0.0,0.0,66.7128,C,27465056000000,
Raw,1732148581000,12228000000,,692139.0868512109,-1416183786772000000,0.0,77.13438116277646,2100.861604794736,0.0,0,22,0.0,16431,346998930911924,487,27.086000442504883,601.7745643394487,0.14999,16,0.0,0.0,1575420030,,,,0,12.86523492788534,1,6.0,27.086000442504883,0.0,0.0,0.0,66.7128,C,27465056000000,
Raw,1732148581000,12228000000,,692139.0868512109,-1416183786772000000,0.0,77.13438116277646,2100.861604794736,0.0,0,2,0.0,16431,346998920660276,58,33.83599853515625,617.245216937558,0.14999,16,0.0,0.0,1575420030,,,,0,21.040806520977874,1,6.0,33.83599853515625,0.0,0.0,0.0,66.7128,C,27465056000000,
Raw,1732148581000,12228000000,,692139.0868512109,-1416183786772000000,0.0,77.13438116277646,2100.861604794736,0.0,0,29,0.0,16431,346998918000604,396,20.0,1063.5559831116823,0.14999,16,0.0,0.0,1575420030,,,,0,4.272384040699811,6,6.0,20.0,0.0,0.0,17.48856819004235,66.7128,C,27465056000000,
Raw,1732148581000,12228000000,,692139.0868512109,-1416183786772000000,0.0,77.13438116277646,2100.861604794736,0.0,0,27,0.0,16431,346998917779461,487,18.600000381469727,918.2751264450486,0.14999,16,0.0,0.0,1575420030,,,,0,1.9681813724051969,6,6.0,18.600000381469727,0.0,0.0,17.48856819004235,66.7128,C,27465056000000,
Raw,1732148581000,12228000000,,692139.0868512109,-1416183786772000000,0.0,77.13438116277646,2100.861604794736,0.0,0,14,0.0,16431,346998932105357,396,23.243999481201172,740.7750329274932,0.14999,16,0.0,0.0,1575420030,,,,0,7.479364914841848,1,6.0,23.243999481201172,0.0,0.0,0.0,66.7128,C,27465056000000,
Raw,1732148581000,12228000000,,692139.0868512109,-1416183786772000000,0.0,77.13438116277646,2100.861604794736,0.0,0,13,0.0,16431,346998930870791,316,23.590999603271484,588.8915990658502,0.14999,16,0.0,0.0,1575420030,,,,0,7.988781285684821,1,6.0,23.590999603271484,0.0,0.0,0.0,66.7128,C,27465056000000,
Raw,1732148581000,12228000000,,692139.0868512109,-1416183786772000000,0.0,77.13438116277646,2100.861604794736,0.0,0,21,0.0,16431,346998920344990,487,18.834999084472656,533.5342126054319,0.14999,16,0.0,0.0,1575420030,,,,0,0.5371356006128964,6,6.0,18.834999084472656,0.0,0.0,17.48856819004235,66.7128,C,27465056000000,
Raw,1732148581000,12228000000,,692139.0868512109,-1416183786772000000,0.0,77.13438116277646,2100.861604794736,0.0,0,16,0.0,17,404796,487,5.0,1125.3734491506411,0.14999,16,0.0,0.0,1601437440,,,,0,3.2045136090990205,3,6.0,20.0,0.0,0.0,39.075349504686486,66.7128,C,27465056000000,
Raw,1732148581000,12228000000,,692139.0868512109,-1416183786772000000,0.0,77.13438116277646,2100.861604794736,0.0,0,18,0.0,17,953817,487,5.0,1195.6620816889695,0.14999,16,0.0,0.0,1600312450,,,,0,1.2092403443414472,3,6.0,18.0,0.0,0.0,39.075349504686486,66.7128,C,27465056000000,
Raw,1732148581000,12228000000,,692139.0868512109,-1416183786772000000,0.0,77.13438116277646,2100.861604794736,0.0,0,8,0.0,17,44308,487,5.0,792.7371213163749,0.14999,16,0.0,0.0,1605374980,,,,0,9.280900903274013,3,6.0,20.0,0.0,0.0,39.075349504686486,66.7128,C,27465056000000,
Raw,1732148581000,12228000000,,692139.0868512109,-1416183786772000000,0.0,77.13438116277646,2100.861604794736,0.0,0,9,0.0,17,107890,396,5.0,845.1986200441615,0.14999,16,0.0,0.0,1600875010,,,,0,8.238179090696267,3,6.0,21.0,0.0,0.0,39.075349504686486,66.7128,C,27465056000000,
Raw,1732148581000,12228000000,,692139.0868512109,-1416183786772000000,0.0,77.13438116277646,2100.861604794736,0.0,0,21,0.0,16431,346998919290158,396,22.000999450683594,849.5701905489265,0.14999,16,0.0,0.0,1575420030,,,,0,5.526578774446983,1,6.0,22.000999450683594,0.0,0.0,0.0,66.7128,C,27465056000000,
Raw,1732148581000,12228000000,,692139.0868512109,-1416183786772000000,0.0,77.13438116277646,2100.861604794736,0.0,0,15,0.0,16431,346998924563274,487,23.20800018310547,380.68084315935346,0.14999,16,0.0,0.0,1575420030,,,,0,7.420873854495515,1,6.0,23.20800018310547,0.0,0.0,0.0,66.7128,C,27465056000000,
Raw,1732148581000,12228000000,,692139.0868512109,-1416183786772000000,0.0,77.13438116277646,2100.861604794736,0.0,0,17,0.0,16431,346998931611792,487,21.875999450683594,357.2123045229757,0.14999,16,0.0,0.0,1575420030,,,,0,5.304799331134738,1,6.0,21.875999450683594,0.0,0.0,0.0,66.7128,C,27465056000000,
Status,1732148581000,29,0,1,14,1575420030,28.50,12.0,69.0,1,0,0,23.5
Status,1732148581000,29,1,1,22,1575420030,28.20,306.0,68.0,1,0,0,23.2
Status,1732148581000,29,2,1,17,1575420030,26.00,168.0,63.0,1,0,0,21.0
Status,1732148581000,29,3,1,30,1575420030,33.20,107.0,59.0,1,0,0,28.2
Status,1732148581000,29,4,1,13,1575420030,32.20,278.0,56.0,1,0,0,27.2
Status,1732148581000,29,5,1,19,1575420030,0.00,194.0,34.0,0,0,0,0.0
Status,1732148581000,29,6,1,15,1575420030,25.50,303.0,27.0,1,0,0,20.5
Status,1732148581000,29,7,1,7,1575420030,40.90,117.0,25.0,1,0,0,35.9
Status,1732148581000,29,8,2,131,1575420030,32.00,3.0,23.0,0,0,0,27.0
Status,1732148581000,29,9,1,2,1575420030,35.60,71.0,21.0,1,0,0,30.599998
Status,1732148581000,29,10,1,21,1575420030,0.00,53.0,14.0,0,0,0,0.0
Status,1732148581000,29,11,3,9,1602000000,29.00,45.0,47.0,1,0,0,24.0
Status,1732148581000,29,12,3,8,1602000000,25.50,277.0,39.0,1,0,0,20.5
Status,1732148581000,29,13,3,19,1602000000,0.00,63.0,36.0,0,0,0,0.0
Status,1732148581000,29,14,3,20,1602000000,0.00,140.0,27.0,0,0,0,0.0
Status,1732148581000,29,15,3,18,1602000000,23.30,25.0,11.0,1,0,0,18.3
Status,1732148581000,29,16,3,11,1602000000,0.00,287.0,11.0,0,0,0,0.0
Status,1732148581000,29,17,3,16,1602000000,25.20,82.0,4.0,0,0,0,20.2
Status,1732148581000,29,18,3,17,1602000000,29.20,0.0,0.0,0,0,0,24.2
Status,1732148581000,29,19,6,21,1575420030,23.90,294.0,64.0,1,0,0,18.9
Status,1732148581000,29,20,6,19,1575420030,0.00,276.0,54.0,0,0,0,0.0
Status,1732148581000,29,21,6,27,1575420030,23.80,47.0,48.0,1,0,0,18.8
Status,1732148581000,29,22,6,29,1575420030,20.80,197.0,46.0,1,0,0,15.799999
Status,1732148581000,29,23,6,15,1575420030,0.00,83.0,18.0,0,0,0,0.0
Status,1732148581000,29,24,6,13,1575420030,0.00,134.0,11.0,0,0,0,0.0
Status,1732148581000,29,25,6,4,1575420030,0.00,323.0,10.0,0,0,0,0.0
Status,1732148581000,29,26,6,34,1575420030,0.00,36.0,5.0,0,0,0,0.0
Status,1732148581000,29,27,6,7,1575420030,0.00,162.0,4.0,0,0,0,0.0
Status,1732148581000,29,28,6,30,1575420030,0.00,67.0,2.0,0,0,0,0.0
Fix,GPS,37.4243900000,-122.1708233333,1.6000000000000014,0.0,2.5,305.16,1732148582000,2.6,179.9,27466056000000,31.5,0,,,
Fix,FLP,37.4243944000,-122.1708260000,2.0,0.08177541,2.583,,1732148582208,2.6,,27466056000000,1.0679724,0,,,
Raw,1732148582000,13228000000,,691941.1895278567,-1416183786772000000,0.0,78.00994492195224,2101.77851023793,0.0,0,7,0.0,16431,346999923368113,51,35.93899917602539,1109.41489991944,0.14999,16,0.0,0.0,1575420030,,,,0,23.39463316622322,1,6.0,35.93899917602539,0.0,0.0,0.0,66.7128,C,27466056000000,
Raw,1732148582000,13228000000,,691941.1895278567,-1416183786772000000,0.0,78.00994492195224,2101.77851023793,0.0,0,30,0.0,16431,346999930366041,316,28.236000061035156,882.8516990865022,0.14999,16,0.0,0.0,1575420030,,,,0,14.333116420829949,1,6.0,28.236000061035156,0.0,0.0,0.0,66.7128,C,27466056000000,
Raw,1732148582000,13228000000,,691941.1895278567,-1416183786772000000,0.0,78.00994492195224,2101.77851023793,0.0,0,22,0.0,16431,346999930909909,487,23.243999481201172,601.8653905431403,0.14999,16,0.0,0.0,1575420030,,,,0,7.479364914841848,1,6.0,23.243999481201172,0.0,0.0,0.0,66.7128,C,27466056000000,
Raw,1732148582000,13228000000,,691941.1895278567,-1416183786772000000,0.0,78.00994492195224,2101.77851023793,0.0,0,2,0.0,16431,346999920658215,74,30.62299919128418,617.4969286365866,0.14999,16,0.0,0.0,1575420030,,,,0,17.28965805438933,1,6.0,30.62299919128418,0.0,0.0,0.0,66.7128,C,27466056000000,
Raw,1732148582000,13228000000,,691941.1895278567,-1416183786772000000,0.0,78.00994492195224,2101.77851023793,0.0,0,29,0.0,16431,346999917997049,487,15.800000190734863,1063.4107541026083,0.14999,16,0.0,0.0,1575420030,,,,0,0.0,6,6.0,15.800000190734863,0.0,0.0,18.91215488301473,66.7128,C,27466056000000,
Raw,1732148582000,13228000000,,691941.1895278567,-1416183786772000000,0.0,78.00994492195224,2101.77851023793,0.0,0,27,0.0,16431,346999917776395,396,18.799999237060547,918.8980408895995,0.14999,16,0.0,0.0,1575420030,,,,0,2.2919165942707007,6,6.0,18.799999237060547,0.0,0.0,18.91215488301473,66.7128,C,27466056000000,
Raw,1732148582000,13228000000,,691941.1895278567,-1416183786772000000,0.0,78.00994492195224,2101.77851023793,0.0,0,14,0.0,16431,346999932102884,396,23.452999114990234,740.1956964773477,0.14999,16,0.0,0.0,1575420030,,,,0,7.766053963325629,1,6.0,23.452999114990234,0.0,0.0,0.0,66.7128,C,27466056000000,
Raw,1732148582000,13228000000,,691941.1895278567,-1416183786772000000,0.0,78.00994492195224,2101.77851023793,0.0,0,13,0.0,16431,346999930868816,316,27.239999771118164,589.3190164949872,0.14999,16,0.0,0.0,1575420030,,,,0,13.051368257082173,1,6.0,27.239999771118164,0.0,0.0,0.0,66.7128,C,27466056000000,
Raw,1732148582000,13228000000,,691941.1895278567,-1416183786772000000,0.0,78.00994492195224,2101.77851023793,0.0,0,21,0.0,16431,346999920343211,487,18.87299919128418,533.5308675994647,0.14999,16,0.0,0.0,1575420030,,,,0,3.5701116523733227,6,6.0,18.87299919128418,0.0,0.0,18.91215488301473,66.7128,C,27466056000000,
Raw,1732148582000,13228000000,,691941.1895278567,-1416183786772000000,0.0,78.00994492195224,2101.77851023793,0.0,0,16,0.0,17,401068,487,5.0,1124.245300576656,0.14999,16,0.0,0.0,1601437440,,,,0,4.515831287383572,3,6.0,20.0,0.0,0.0,36.730591783368894,66.7128,C,27466056000000,
Raw,1732148582000,13228000000,,691941.1895278567,-1416183786772000000,0.0,78.00994492195224,2101.77851023793,0.0,0,18,0.0,17,949825,797,5.0,1198.3540888771834,0.14999,16,0.0,0.0,1600312450,,,,0,0.0,3,6.0,17.0,0.0,0.0,36.730591783368894,66.7128,C,27466056000000,
Raw,1732148582000,13228000000,,691941.1895278567,-1416183786772000000,0.0,78.00994492195224,2101.77851023793,0.0,0,8,0.0,17,41665,487,5.0,793.5592279604757,0.14999,16,0.0,0.0,1605374980,,,,0,4.940302929010755,3,6.0,20.0,0.0,0.0,36.730591783368894,66.7128,C,27466056000000,
Raw,1732148582000,13228000000,,691941.1895278567,-1416183786772000000,0.0,78.00994492195224,2101.77851023793,0.0,0,9,0.0,17,105061,396,5.0,845.2242230738279,0.14999,16,0.0,0.0,1600875010,,,,0,9.755476173878744,3,6.0,23.0,0.0,0.0,36.730591783368894,66.7128,C,27466056000000,
Raw,1732148582000,13228000000,,691941.1895278567,-1416183786772000000,0.0,78.00994492195224,2101.77851023793,0.0,0,15,0.0,16431,346999924562005,487,20.496000289916992,380.82235549513075,0.14999,16,0.0,0.0,1575420030,,,,0,3.1004897353828653,1,6.0,20.496000289916992,0.0,0.0,0.0,66.7128,C,27466056000000,
Raw,1732148582000,13228000000,,691941.1895278567,-1416183786772000000,0.0,78.00994492195224,2101.77851023793,0.0,0,17,0.0,16431,346999931610573,487,20.954999923706055,356.86591057170995,0.14999,16,0.0,0.0,1575420030,,,,0,3.840161060446265,1,6.0,20.954999923706055,0.0,0.0,0.0,66.7128,C,27466056000000,
Status,1732148582000,29,0,1,14,1575420030,28.50,12.0,69.0,1,0,0,23.5
Status,1732148582000,29,1,1,22,1575420030,27.50,306.0,68.0,1,0,0,22.5
Status,1732148582000,29,2,1,17,1575420030,0.00,168.0,63.0,0,0,0,0.0
Status,1732148582000,29,3,1,30,1575420030,31.20,107.0,59.0,1,0,0,26.2
Status,1732148582000,29,4,1,13,1575420030,30.80,278.0,56.0,1,0,0,25.8
Status,1732148582000,29,5,1,19,1575420030,0.00,194.0,34.0,0,0,0,0.0
Status,1732148582000,29,6,1,15,1575420030,0.00,303.0,27.0,0,0,0,0.0
Status,1732148582000,29,7,1,7,1575420030,29.10,117.0,25.0,1,0,0,24.1
Status,1732148582000,29,8,2,131,1575420030,32.00,3.0,23.0,0,0,0,27.0
Status,1732148582000,29,9,1,2,1575420030,33.70,71.0,21.0,1,0,0,28.7
Status,1732148582000,29,10,1,21,1575420030,0.00,53.0,14.0,0,0,0,0.0
Status,1732148582000,29,11,3,9,1602000000,26.80,45.0,47.0,1,0,0,21.8
Status,1732148582000,29,12,3,8,1602000000,26.10,277.0,39.0,1,0,0,21.1
Status,1732148582000,29,13,3,19,1602000000,0.00,63.0,36.0,0,0,0,0.0
Status,1732148582000,29,14,3,20,1602000000,0.00,140.0,27.0,0,0,0,0.0
Status,1732148582000,29,15,3,18,1602000000,23.30,25.0,11.0,1,0,0,18.3
Status,1732148582000,29,16,3,11,1602000000,0.00,287.0,11.0,0,0,0,0.0
Status,1732148582000,29,17,3,16,1602000000,28.40,82.0,4.0,0,0,0,23.4
Status,1732148582000,29,18,3,17,1602000000,29.90,0.0,0.0,0,0,0,24.9
Status,1732148582000,29,19,6,21,1575420030,0.00,294.0,64.0,0,0,0,0.0
Status,1732148582000,29,20,6,19,1575420030,0.00,276.0,54.0,0,0,0,0.0
Status,1732148582000,29,21,6,27,1575420030,23.50,47.0,48.0,1,0,0,18.5
Status,1732148582000,29,22,6,29,1575420030,20.80,197.0,46.0,1,0,0,15.799999
Status,1732148582000,29,23,6,15,1575420030,0.00,83.0,18.0,0,0,0,0.0
Status,1732148582000,29,24,6,13,1575420030,0.00,134.0,11.0,0,0,0,0.0
Status,1732148582000,29,25,6,4,1575420030,0.00,323.0,10.0,0,0,0,0.0
Status,1732148582000,29,26,6,34,1575420030,0.00,36.0,5.0,0,0,0,0.0
Status,1732148582000,29,27,6,7,1575420030,0.00,162.0,4.0,0,0,0,0.0
Status,1732148582000,29,28,6,30,1575420030,0.00,67.0,2.0,0,0,0,0.0
Fix,GPS,37.4244000000,-122.1708250000,1.6000000000000014,0.0,2.7,305.16,1732148583000,2.7,111.0,27467056000000,32.0,0,,,
Raw,1732148583000,14228000000,,691922.4786668916,-1416183786772000000,0.0,78.84227732685571,2099.3588312654874,0.0,0,7,0.0,16431,347000923364413,396,24.086000442504883,1109.3119480691173,0.14999,16,0.0,0.0,1575420030,,,,0,8.726208484747346,1,6.0,24.086000442504883,0.0,0.0,0.0,66.7128,C,27467056000000,
Raw,1732148583000,14228000000,,691922.4786668916,-1416183786772000000,0.0,78.84227732685571,2099.3588312654874,0.0,0,30,0.0,16431,347000930363096,396,26.1560001373291,882.2087146061484,0.14999,16,0.0,0.0,1575420030,,,,0,11.619864380828488,1,6.0,26.1560001373291,0.0,0.0,0.0,66.7128,C,27467056000000,
Raw,1732148583000,14228000000,,691922.4786668916,-1416183786772000000,0.0,78.84227732685571,2099.3588312654874,0.0,0,22,0.0,16431,347000930907900,487,22.530000686645508,600.6482264968404,0.14999,16,0.0,0.0,1575420030,,,,0,6.361065459711654,1,6.0,22.530000686645508,0.0,0.0,0.0,66.7128,C,27467056000000,
Raw,1732148583000,14228000000,,691922.4786668916,-1416183786772000000,0.0,78.84227732685571,2099.3588312654874,0.0,0,2,0.0,16431,347000920656153,235,28.738000869750977,616.3418794927602,0.14999,16,0.0,0.0,1575420030,,,,0,14.971133654352819,1,6.0,28.738000869750977,0.0,0.0,0.0,66.7128,C,27467056000000,
Raw,1732148583000,14228000000,,691922.4786668916,-1416183786772000000,0.0,78.84227732685571,2099.3588312654874,0.0,0,29,0.0,16431,347000917993499,487,15.835000038146973,1063.2543750736436,0.14999,16,0.0,0.0,1575420030,,,,0,0.0,6,6.0,15.835000038146973,0.0,0.0,20.996520452047527,66.7128,C,27467056000000,
Raw,1732148583000,14228000000,,691922.4786668916,-1416183786772000000,0.0,78.84227732685571,2099.3588312654874,0.0,0,27,0.0,16431,347000917773329,487,18.5,918.0067826330165,0.14999,16,0.0,0.0,1575420030,,,,0,1.8575316004059754,6,6.0,18.5,0.0,0.0,20.996520452047527,66.7128,C,27467056000000,
Raw,1732148583000,14228000000,,691922.4786668916,-1416183786772000000,0.0,78.84227732685571,2099.3588312654874,0.0,0,14,0.0,16431,347000932100417,487,23.452999114990234,739.0016687223207,0.14999,16,0.0,0.0,1575420030,,,,0,7.766053963325629,1,6.0,23.452999114990234,0.0,0.0,0.0,66.7128,C,27467056000000,
Raw,1732148583000,14228000000,,691922.4786668916,-1416183786772000000,0.0,78.84227732685571,2099.3588312654874,0.0,0,13,0.0,16431,347000930866846,316,25.804000854492188,588.7642565470171,0.14999,16,0.0,0.0,1575420030,,,,0,11.136156690458822,1,6.0,25.804000854492188,0.0,0.0,0.0,66.7128,C,27467056000000,
Raw,1732148583000,14228000000,,691922.4786668916,-1416183786772000000,0.0,78.84227732685571,2099.3588312654874,0.0,0,16,0.0,17,397375,487,5.0,1120.921732099092,0.14999,16,0.0,0.0,1601437440,,,,0,8.991447098104082,3,6.0,20.0,0.0,0.0,38.27025762263635,66.7128,C,27467056000000,
Raw,1732148583000,14228000000,,691922.4786668916,-1416183786772000000,0.0,78.84227732685571,2099.3588312654874,0.0,0,18,0.0,17,945834,487,5.0,1194.720473738053,0.14999,16,0.0,0.0,1600312450,,,,0,0.0,3,6.0,18.0,0.0,0.0,38.27025762263635,66.7128,C,27467056000000,
Raw,1732148583000,14228000000,,691922.4786668916,-1416183786772000000,0.0,78.84227732685571,2099.3588312654874,0.0,0,8,0.0,17,39025,396,5.0,790.4342014624029,0.14999,16,0.0,0.0,1605374980,,,,0,5.8494604049482515,3,6.0,23.0,0.0,0.0,38.27025762263635,66.7128,C,27467056000000,
Raw,1732148583000,14228000000,,691922.4786668916,-1416183786772000000,0.0,78.84227732685571,2099.3588312654874,0.0,0,9,0.0,17,102240,396,5.0,844.2357632499219,0.14999,16,0.0,0.0,1600875010,,,,0,6.917245148337253,3,6.0,22.0,0.0,0.0,38.27025762263635,66.7128,C,27467056000000,
Fix,FLP,37.4243974000,-122.1708258000,2.0,0.08220199,2.583,,1732148583209,2.7,,27467056000000,1.0779619,0,,,
Status,1732148583000,29,0,1,14,1575420030,25.80,12.0,69.0,1,0,0,20.8
Status,1732148583000,29,1,1,22,1575420030,27.00,306.0,68.0,1,0,0,22.0
Status,1732148583000,29,2,1,17,1575420030,0.00,168.0,63.0,0,0,0,0.0
Status,1732148583000,29,3,1,30,1575420030,29.40,107.0,59.0,1,0,0,24.4
Status,1732148583000,29,4,1,13,1575420030,31.20,278.0,56.0,1,0,0,26.2
Status,1732148583000,29,5,1,19,1575420030,26.10,194.0,34.0,1,0,0,21.1
Status,1732148583000,29,6,1,15,1575420030,25.40,303.0,27.0,1,0,0,20.4
Status,1732148583000,29,7,1,7,1575420030,30.90,117.0,25.0,1,0,0,25.9
Status,1732148583000,29,8,2,131,1575420030,31.00,3.0,23.0,0,0,0,26.0
Status,1732148583000,29,9,1,2,1575420030,36.50,71.0,21.0,1,0,0,31.5
Status,1732148583000,29,10,1,21,1575420030,30.40,53.0,14.0,1,0,0,25.4
Status,1732148583000,29,11,3,9,1602000000,29.00,45.0,47.0,1,0,0,24.0
Status,1732148583000,29,12,3,8,1602000000,22.30,277.0,39.0,1,0,0,17.3
Status,1732148583000,29,13,3,19,1602000000,0.00,63.0,36.0,0,0,0,0.0
Status,1732148583000,29,14,3,20,1602000000,0.00,140.0,27.0,0,0,0,0.0
Status,1732148583000,29,15,3,18,1602000000,23.20,25.0,11.0,1,0,0,18.2
Status,1732148583000,29,16,3,11,1602000000,0.00,287.0,11.0,0,0,0,0.0
Status,1732148583000,29,17,3,16,1602000000,23.40,82.0,4.0,0,0,0,18.4
Status,1732148583000,29,18,3,17,1602000000,23.50,0.0,0.0,0,0,0,18.5
Status,1732148583000,29,19,6,21,1575420030,0.00,294.0,64.0,0,0,0,0.0
Status,1732148583000,29,20,6,19,1575420030,0.00,276.0,54.0,0,0,0,0.0
Status,1732148583000,29,21,6,27,1575420030,22.40,47.0,48.0,1,0,0,17.4
Status,1732148583000,29,22,6,29,1575420030,18.60,197.0,46.0,1,0,0,13.6
Status,1732148583000,29,23,6,15,1575420030,0.00,83.0,18.0,0,0,0,0.0
Status,1732148583000,29,24,6,13,1575420030,0.00,134.0,11.0,0,0,0,0.0
Status,1732148583000,29,25,6,4,1575420030,0.00,323.0,10.0,0,0,0,0.0
Status,1732148583000,29,26,6,34,1575420030,0.00,36.0,5.0,0,0,0,0.0
Status,1732148583000,29,27,6,7,1575420030,0.00,162.0,4.0,0,0,0,0.0
Status,1732148583000,29,28,6,30,1575420030,0.00,67.0,2.0,0,0,0,0.0
Fix,GPS,37.4244083333,-122.1708183333,1.6000000000000014,0.0,2.7,305.16,1732148584000,2.8,100.0,27468056000000,34.8,0,,,
Fix,FLP,37.4244030000,-122.1708225000,2.0,0.08459025,2.6,,1732148584208,2.8,,27468056000000,1.0879681,0,,,
Raw,1732148584000,15228000000,,691785.87374603,-1416183786772000000,0.0,87.9224777305114,2094.583925882056,0.0,0,7,0.0,16431,347001923360711,396,25.905000686645508,1107.6148221249464,0.14999,16,0.0,0.0,1575420030,,,,0,11.287879144439254,1,6.0,25.905000686645508,0.0,0.0,0.0,66.7128,C,27468056000000,
Raw,1732148584000,15228000000,,691785.87374603,-1416183786772000000,0.0,87.9224777305114,2094.583925882056,0.0,0,30,0.0,16431,347001930360153,396,24.399999618530273,881.0538512959869,0.14999,16,0.0,0.0,1575420030,,,,0,9.16921104398006,1,6.0,24.399999618530273,0.0,0.0,0.0,66.7128,C,27468056000000,
Raw,1732148584000,15228000000,,691785.87374603,-1416183786772000000,0.0,87.9224777305114,2094.583925882056,0.0,0,22,0.0,16431,347001930905896,396,22.000999450683594,599.2296652162678,0.14999,16,0.0,0.0,1575420030,,,,0,5.526578774446983,1,6.0,22.000999450683594,0.0,0.0,0.0,66.7128,C,27468056000000,
Raw,1732148584000,15228000000,,691785.87374603,-1416183786772000000,0.0,87.9224777305114,2094.583925882056,0.0,0,2,0.0,16431,347001920654101,74,31.538999557495117,614.7887281804258,0.14999,16,0.0,0.0,1575420030,,,,0,18.38567332394185,1,6.0,31.538999557495117,0.0,0.0,0.0,66.7128,C,27468056000000,
Raw,1732148584000,15228000000,,691785.87374603,-1416183786772000000,0.0,87.9224777305114,2094.583925882056,0.0,0,29,0.0,16431,347001917989957,797,13.600000381469727,1062.0641104503295,0.14999,16,0.0,0.0,1575420030,,,,0,0.0,6,6.0,13.600000381469727,0.0,0.0,25.292156299076716,66.7128,C,27468056000000,
Raw,1732148584000,15228000000,,691785.87374603,-1416183786772000000,0.0,87.9224777305114,2094.583925882056,0.0,0,15,0.0,16431,347001924559460,487,20.39299964904785,378.13429476239713,0.14999,16,0.0,0.0,1575420030,,,,0,2.90529298959974,1,6.0,20.39299964904785,0.0,0.0,0.0,66.7128,C,27468056000000,
Raw,1732148584000,15228000000,,691785.87374603,-1416183786772000000,0.0,87.9224777305114,2094.583925882056,0.0,0,27,0.0,16431,347001917770269,487,17.399999618530273,916.7208136723089,0.14999,16,0.0,0.0,1575420030,,,,0,0.0,6,6.0,17.399999618530273,0.0,0.0,25.292156299076716,66.7128,C,27468056000000,
Raw,1732148584000,15228000000,,691785.87374603,-1416183786772000000,0.0,87.9224777305114,2094.583925882056,0.0,0,19,0.0,16431,347001925019887,396,21.101999282836914,-1.2222280136668415,0.14999,16,0.0,0.0,1575420030,,,,0,4.102067022249219,1,6.0,21.101999282836914,0.0,0.0,0.0,66.7128,C,27468056000000,
Raw,1732148584000,15228000000,,691785.87374603,-1416183786772000000,0.0,87.9224777305114,2094.583925882056,0.0,0,14,0.0,16431,347001932097954,487,20.80900001525879,738.0931279349074,0.14999,16,0.0,0.0,1575420030,,,,0,3.5701116523733227,1,6.0,20.80900001525879,0.0,0.0,0.0,66.7128,C,27468056000000,
Raw,1732148584000,15228000000,,691785.87374603,-1416183786772000000,0.0,87.9224777305114,2094.583925882056,0.0,0,21,0.0,16431,347001919281664,316,25.406999588012695,848.095600418404,0.14999,16,0.0,0.0,1575420030,,,,0,10.583231615371123,1,6.0,25.406999588012695,0.0,0.0,0.0,66.7128,C,27468056000000,
Raw,1732148584000,15228000000,,691785.87374603,-1416183786772000000,0.0,87.9224777305114,2094.583925882056,0.0,0,13,0.0,16431,347001930864880,396,26.229999542236328,587.4122701768742,0.14999,16,0.0,0.0,1575420030,,,,0,11.72776501856261,1,6.0,26.229999542236328,0.0,0.0,0.0,66.7128,C,27468056000000,
Raw,1732148584000,15228000000,,691785.87374603,-1416183786772000000,0.0,87.9224777305114,2094.583925882056,0.0,0,16,0.0,17,393638,487,5.0,1121.9396435008014,0.14999,16,0.0,0.0,1601437440,,,,0,1.6319113922121953,3,6.0,20.0,0.0,0.0,40.98069594086827,66.7128,C,27468056000000,
Raw,1732148584000,15228000000,,691785.87374603,-1416183786772000000,0.0,87.9224777305114,2094.583925882056,0.0,0,18,0.0,17,941853,797,5.0,1194.1066082864693,0.14999,16,0.0,0.0,1600312450,,,,0,0.0,3,6.0,17.0,0.0,0.0,40.98069594086827,66.7128,C,27468056000000,
Raw,1732148584000,15228000000,,691785.87374603,-1416183786772000000,0.0,87.9224777305114,2094.583925882056,0.0,0,8,0.0,17,36392,487,5.0,789.51717323262,0.14999,16,0.0,0.0,1605374980,,,,0,0.0,3,6.0,19.0,0.0,0.0,40.98069594086827,66.7128,C,27468056000000,
Raw,1732148584000,15228000000,,691785.87374603,-1416183786772000000,0.0,87.9224777305114,2094.583925882056,0.0,0,9,0.0,17,99415,396,5.0,842.6998557881133,0.14999,16,0.0,0.0,1600875010,,,,0,9.875698018917044,3,6.0,23.0,0.0,0.0,40.98069594086827,66.7128,C,27468056000000,
Status,1732148584000,29,0,1,14,1575420030,25.90,12.0,69.0,1,0,0,20.9
Status,1732148584000,29,1,1,22,1575420030,29.90,306.0,68.0,1,0,0,24.9
Status,1732148584000,29,2,1,17,1575420030,0.00,168.0,63.0,0,0,0,0.0
Status,1732148584000,29,3,1,30,1575420030,31.40,107.0,59.0,1,0,0,26.4
Status,1732148584000,29,4,1,13,1575420030,32.80,278.0,56.0,1,0,0,27.8
Status,1732148584000,29,5,1,19,1575420030,27.30,194.0,34.0,1,0,0,22.3
Status,1732148584000,29,6,1,15,1575420030,0.00,303.0,27.0,0,0,0,0.0
Status,1732148584000,29,7,1,7,1575420030,27.50,117.0,25.0,1,0,0,22.5
Status,1732148584000,29,8,2,131,1575420030,33.00,3.0,23.0,0,0,0,28.0
Status,1732148584000,29,9,1,2,1575420030,31.00,71.0,21.0,1,0,0,26.0
Status,1732148584000,29,10,1,21,1575420030,32.90,53.0,14.0,1,0,0,27.900002
Status,1732148584000,29,11,3,9,1602000000,28.40,45.0,47.0,1,0,0,23.4
Status,1732148584000,29,12,3,8,1602000000,22.30,277.0,39.0,1,0,0,17.3
Status,1732148584000,29,13,3,19,1602000000,0.00,63.0,36.0,0,0,0,0.0
Status,1732148584000,29,14,3,20,1602000000,0.00,140.0,27.0,0,0,0,0.0
Status,1732148584000,29,15,3,18,1602000000,23.30,25.0,11.0,1,0,0,18.3
Status,1732148584000,29,16,3,11,1602000000,0.00,287.0,11.0,0,0,0,0.0
Status,1732148584000,29,17,3,16,1602000000,23.00,82.0,4.0,0,0,0,18.0
Status,1732148584000,29,18,3,17,1602000000,27.50,0.0,0.0,0,0,0,22.5
Status,1732148584000,29,19,6,21,1575420030,27.10,294.0,64.0,1,0,0,22.1
Status,1732148584000,29,20,6,19,1575420030,0.00,276.0,54.0,0,0,0,0.0
Status,1732148584000,29,21,6,27,1575420030,25.10,47.0,48.0,1,0,0,20.1
Status,1732148584000,29,22,6,29,1575420030,18.60,197.0,46.0,1,0,0,13.6
Status,1732148584000,29,23,6,15,1575420030,0.00,83.0,18.0,0,0,0,0.0
Status,1732148584000,29,24,6,13,1575420030,0.00,134.0,11.0,0,0,0,0.0
Status,1732148584000,29,25,6,4,1575420030,0.00,323.0,10.0,0,0,0,0.0
Status,1732148584000,29,26,6,34,1575420030,0.00,36.0,5.0,0,0,0,0.0
Status,1732148584000,29,27,6,7,1575420030,0.00,162.0,4.0,0,0,0,0.0
Status,1732148584000,29,28,6,30,1575420030,0.00,67.0,2.0,0,0,0,0.0
Fix,GPS,37.4244166667,-122.1708166667,1.6000000000000014,0.0,2.8,305.16,1732148585000,2.9,103.6,27469056000000,34.5,0,,,
Fix,FLP,37.4244100000,-122.1708199000,2.0,0.09130918,2.633,,1732148585209,2.9,,27469056000000,1.0979651,0,,,
Raw,1732148585000,16228000000,,691697.0623056835,-1416183786772000000,0.0,85.33376896733371,2091.1623800924167,0.0,0,7,0.0,16431,347002923357016,487,22.490999221801758,1106.770301035071,0.14999,16,0.0,0.0,1575420030,,,,0,6.294506592733104,1,6.0,22.490999221801758,0.0,0.0,0.0,66.7128,C,27469056000000,
Raw,1732148585000,16228000000,,691697.0623056835,-1416183786772000000,0.0,85.33376896733371,2091.1623800924167,0.0,0,30,0.0,16431,347002930357211,235,26.35099983215332,879.99357732123,0.14999,16,0.0,0.0,1575420030,,,,0,11.86957861178968,1,6.0,26.35099983215332,0.0,0.0,0.0,66.7128,C,27469056000000,
Raw,1732148585000,16228000000,,691697.0623056835,-1416183786772000000,0.0,85.33376896733371,2091.1623800924167,0.0,0,22,0.0,16431,347002930903894,316,24.905000686645508,598.4910228569365,0.14999,16,0.0,0.0,1575420030,,,,0,9.904964069828226,1,6.0,24.905000686645508,0.0,0.0,0.0,66.7128,C,27469056000000,
Raw,1732148585000,16228000000,,691697.0623056835,-1416183786772000000,0.0,85.33376896733371,2091.1623800924167,0.0,0,2,0.0,16431,347002920652049,316,26.030000686645508,614.7909117259876,0.14999,16,0.0,0.0,1575420030,,,,0,11.436996792031092,1,6.0,26.030000686645508,0.0,0.0,0.0,66.7128,C,27469056000000,
Raw,1732148585000,16228000000,,691697.0623056835,-1416183786772000000,0.0,85.33376896733371,2091.1623800924167,0.0,0,29,0.0,16431,347002917986416,487,13.600000381469727,1060.338180288108,0.14999,16,0.0,0.0,1575420030,,,,0,0.0,6,6.0,13.600000381469727,0.0,0.0,26.956356299105586,66.7128,C,27469056000000,
Raw,1732148585000,16228000000,,691697.0623056835,-1416183786772000000,0.0,85.33376896733371,2091.1623800924167,0.0,0,27,0.0,16431,347002917767211,487,20.100000381469727,915.9398476958097,0.14999,16,0.0,0.0,1575420030,,,,0,4.356306332571975,6,6.0,20.100000381469727,0.0,0.0,26.956356299105586,66.7128,C,27469056000000,
Raw,1732148585000,16228000000,,691697.0623056835,-1416183786772000000,0.0,85.33376896733371,2091.1623800924167,0.0,0,19,0.0,16431,347002925019888,487,22.29400062561035,-2.9960103445851938,0.14999,16,0.0,0.0,1575420030,,,,0,6.023050448947625,1,6.0,22.29400062561035,0.0,0.0,0.0,66.7128,C,27469056000000,
Raw,1732148585000,16228000000,,691697.0623056835,-1416183786772000000,0.0,85.33376896733371,2091.1623800924167,0.0,0,14,0.0,16431,347002932095494,487,20.92799949645996,737.1100678478924,0.14999,16,0.0,0.0,1575420030,,,,0,7.420873854495515,1,6.0,20.92799949645996,0.0,0.0,0.0,66.7128,C,27469056000000,
Raw,1732148585000,16228000000,,691697.0623056835,-1416183786772000000,0.0,85.33376896733371,2091.1623800924167,0.0,0,21,0.0,16431,347002919278817,235,27.94300079345703,847.9459114013737,0.14999,16,0.0,0.0,1575420030,,,,0,13.981850622388377,1,6.0,27.94300079345703,0.0,0.0,0.0,66.7128,C,27469056000000,
Raw,1732148585000,16228000000,,691697.0623056835,-1416183786772000000,0.0,85.33376896733371,2091.1623800924167,0.0,0,13,0.0,16431,347002930863113,316,27.823999404907227,586.2476970577247,0.14999,16,0.0,0.0,1575420030,,,,0,13.81480913509306,1,6.0,27.823999404907227,0.0,0.0,0.0,66.7128,C,27469056000000,
Raw,1732148585000,16228000000,,691697.0623056835,-1416183786772000000,0.0,85.33376896733371,2091.1623800924167,0.0,0,21,0.0,16431,347002920337876,487,22.100000381469727,531.2292712019785,0.14999,16,0.0,0.0,1575420030,,,,0,7.242999591295867,6,6.0,22.100000381469727,0.0,0.0,26.956356299105586,66.7128,C,27469056000000,
Raw,1732148585000,16228000000,,691697.0623056835,-1416183786772000000,0.0,85.33376896733371,2091.1623800924167,0.0,0,16,0.0,17,389950,487,5.0,1121.628858769676,0.14999,16,0.0,0.0,1601437440,,,,0,0.8344811514583501,3,6.0,18.0,0.0,0.0,43.09997114064278,66.7128,C,27469056000000,
Raw,1732148585000,16228000000,,691697.0623056835,-1416183786772000000,0.0,85.33376896733371,2091.1623800924167,0.0,0,18,0.0,17,937890,487,5.0,1193.02294504628,0.14999,16,0.0,0.0,1600312450,,,,0,2.84732243200341,3,6.0,19.0,0.0,0.0,43.09997114064278,66.7128,C,27469056000000,
Raw,1732148585000,16228000000,,691697.0623056835,-1416183786772000000,0.0,85.33376896733371,2091.1623800924167,0.0,0,8,0.0,17,33753,487,5.0,790.843248756706,0.14999,16,0.0,0.0,1605374980,,,,0,0.0,3,6.0,20.0,0.0,0.0,43.09997114064278,66.7128,C,27469056000000,
Raw,1732148585000,16228000000,,691697.0623056835,-1416183786772000000,0.0,85.33376896733371,2091.1623800924167,0.0,0,9,0.0,17,96597,396,5.0,842.5184400350486,0.14999,16,0.0,0.0,1600875010,,,,0,8.996953208994055,3,6.0,21.0,0.0,0.0,43.09997114064278,66.7128,C,27469056000000,
Fix,NLP,37.4243620000,-122.1708618000,2.0,,11.003,,1732148584932,,,27468780000000,1.0,0,,,
Status,1732148585000,29,0,1,14,1575420030,31.40,12.0,69.0,1,0,0,26.4
Status,1732148585000,29,1,1,22,1575420030,31.10,306.0,68.0,1,0,0,26.1
Status,1732148585000,29,2,1,17,1575420030,28.70,168.0,63.0,1,0,0,23.7
Status,1732148585000,29,3,1,30,1575420030,32.90,107.0,59.0,1,0,0,27.900002
Status,1732148585000,29,4,1,13,1575420030,34.90,278.0,56.0,1,0,0,29.900002
Status,1732148585000,29,5,1,19,1575420030,27.80,194.0,34.0,1,0,0,22.8
Status,1732148585000,29,6,1,15,1575420030,26.40,303.0,27.0,0,0,0,21.4
Status,1732148585000,29,7,1,7,1575420030,31.30,117.0,25.0,1,0,0,26.3
Status,1732148585000,29,8,2,131,1575420030,35.00,3.0,23.0,0,0,0,30.0
Status,1732148585000,29,9,1,2,1575420030,30.40,71.0,21.0,1,0,0,25.4
Status,1732148585000,29,10,1,21,1575420030,33.30,53.0,14.0,1,0,0,28.3
Status,1732148585000,29,11,3,9,1602000000,29.80,45.0,47.0,1,0,0,24.8
Status,1732148585000,29,12,3,8,1602000000,23.30,277.0,39.0,1,0,0,18.3
Status,1732148585000,29,13,3,19,1602000000,0.00,63.0,36.0,0,0,0,0.0
Status,1732148585000,29,14,3,20,1602000000,0.00,140.0,27.0,0,0,0,0.0
Status,1732148585000,29,15,3,18,1602000000,28.30,25.0,11.0,1,0,0,23.3
Status,1732148585000,29,16,3,11,1602000000,0.00,287.0,11.0,0,0,0,0.0
Status,1732148585000,29,17,3,16,1602000000,23.20,82.0,4.0,0,0,0,18.2
Status,1732148585000,29,18,3,17,1602000000,26.30,0.0,0.0,0,0,0,21.3
Status,1732148585000,29,19,6,21,1575420030,25.10,294.0,64.0,1,0,0,20.1
Status,1732148585000,29,20,6,19,1575420030,0.00,276.0,54.0,0,0,0,0.0
Status,1732148585000,29,21,6,27,1575420030,22.00,47.0,48.0,1,0,0,17.0
Status,1732148585000,29,22,6,29,1575420030,21.70,197.0,46.0,1,0,0,16.7
Status,1732148585000,29,23,6,15,1575420030,0.00,83.0,18.0,0,0,0,0.0
Status,1732148585000,29,24,6,13,1575420030,0.00,134.0,11.0,0,0,0,0.0
Status,1732148585000,29,25,6,4,1575420030,0.00,323.0,10.0,0,0,0,0.0
Status,1732148585000,29,26,6,34,1575420030,0.00,36.0,5.0,0,0,0,0.0
Status,1732148585000,29,27,6,7,1575420030,0.00,162.0,4.0,0,0,0,0.0
Status,1732148585000,29,28,6,30,1575420030,0.00,67.0,2.0,0,0,0,0.0
Fix,GPS,37.4244166667,-122.1708183333,1.6000000000000014,0.0,2.8,305.16,1732148586000,2.8,179.9,27470056000000,35.3,0,,,
Raw,1732148586000,17228000000,,691508.8591888458,-1416183786772000000,0.0,89.26907556546404,2087.9031530445586,0.0,0,7,0.0,16431,347003923353324,316,26.253999710083008,1105.9386953849025,0.14999,16,0.0,0.0,1575420030,,,,0,11.763436073370954,1,6.0,26.253999710083008,0.0,0.0,0.0,66.7128,C,27470056000000,
Raw,1732148586000,17228000000,,691508.8591888458,-1416183786772000000,0.0,89.26907556546404,2087.9031530445586,0.0,0,30,0.0,16431,347003930354274,235,27.902999877929688,880.6088725855222,0.14999,16,0.0,0.0,1575420030,,,,0,13.926526297525339,1,6.0,27.902999877929688,0.0,0.0,0.0,66.7128,C,27470056000000,
Raw,1732148586000,17228000000,,691508.8591888458,-1416183786772000000,0.0,89.26907556546404,2087.9031530445586,0.0,0,22,0.0,16431,347003930901889,316,26.131000518798828,598.204513804166,0.14999,16,0.0,0.0,1575420030,,,,0,11.583597565559122,1,6.0,26.131000518798828,0.0,0.0,0.0,66.7128,C,27470056000000,
Raw,1732148586000,17228000000,,691508.8591888458,-1416183786772000000,0.0,89.26907556546404,2087.9031530445586,0.0,0,2,0.0,16431,347003920649996,316,25.35300064086914,614.7779498278649,0.14999,16,0.0,0.0,1575420030,,,,0,10.501288652550222,1,6.0,25.35300064086914,0.0,0.0,0.0,66.7128,C,27470056000000,
Raw,1732148586000,17228000000,,691508.8591888458,-1416183786772000000,0.0,89.26907556546404,2087.9031530445586,0.0,0,29,0.0,16431,347003917982879,487,16.700000762939453,1059.7149870930598,0.14999,16,0.0,0.0,1575420030,,,,0,0.0,6,6.0,16.700000762939453,0.0,0.0,28.328602171594106,66.7128,C,27470056000000,
Raw,1732148586000,17228000000,,691508.8591888458,-1416183786772000000,0.0,89.26907556546404,2087.9031530445586,0.0,0,27,0.0,16431,347003917764156,396,17.0,915.1411346043182,0.14999,16,0.0,0.0,1575420030,,,,0,0.0,6,6.0,17.0,0.0,0.0,28.328602171594106,66.7128,C,27470056000000,
Raw,1732148586000,17228000000,,691508.8591888458,-1416183786772000000,0.0,89.26907556546404,2087.9031530445586,0.0,0,19,0.0,16431,347003925019923,396,22.764999389648438,-2.9267873044314916,0.14999,16,0.0,0.0,1575420030,,,,0,6.750050889724504,1,6.0,22.764999389648438,0.0,0.0,0.0,66.7128,C,27470056000000,
Raw,1732148586000,17228000000,,691508.8591888458,-1416183786772000000,0.0,89.26907556546404,2087.9031530445586,0.0,0,14,0.0,16431,347003932093037,235,26.422000885009766,737.0480458622513,0.14999,16,0.0,0.0,1575420030,,,,0,11.97443972003712,1,6.0,26.422000885009766,0.0,0.0,0.0,66.7128,C,27470056000000,
Raw,1732148586000,17228000000,,691508.8591888458,-1416183786772000000,0.0,89.26907556546404,2087.9031530445586,0.0,0,21,0.0,16431,347003919275989,316,28.27400016784668,846.3327822737114,0.14999,16,0.0,0.0,1575420030,,,,0,14.385918344154119,1,6.0,28.27400016784668,0.0,0.0,0.0,66.7128,C,27470056000000,
Raw,1732148586000,17228000000,,691508.8591888458,-1416183786772000000,0.0,89.26907556546404,2087.9031530445586,0.0,0,13,0.0,16431,347003930860999,235,29.868000030517578,585.9557988286739,0.14999,16,0.0,0.0,1575420030,,,,0,16.37660148083822,1,6.0,29.868000030517578,0.0,0.0,0.0,66.7128,C,27470056000000,
Raw,1732148586000,17228000000,,691508.8591888458,-1416183786772000000,0.0,89.26907556546404,2087.9031530445586,0.0,0,21,0.0,16431,347003920336096,396,20.100000381469727,529.9297828421535,0.14999,16,0.0,0.0,1575420030,,,,0,4.356306332571975,6,6.0,20.100000381469727,0.0,0.0,28.328602171594106,66.7128,C,27470056000000,
Raw,1732148586000,17228000000,,691508.8591888458,-1416183786772000000,0.0,89.26907556546404,2087.9031530445586,0.0,0,16,0.0,17,386208,487,5.0,1121.1771240222579,0.14999,16,0.0,0.0,1601437440,,,,0,1.3216680686472437,3,6.0,20.0,0.0,0.0,43.97268781734586,66.7128,C,27470056000000,
Raw,1732148586000,17228000000,,691508.8591888458,-1416183786772000000,0.0,89.26907556546404,2087.9031530445586,0.0,0,18,0.0,17,933933,396,5.0,1194.389438263566,0.14999,16,0.0,0.0,1600312450,,,,0,8.867922345283034,3,6.0,23.0,0.0,0.0,43.97268781734586,66.7128,C,27470056000000,
Raw,1732148586000,17228000000,,691508.8591888458,-1416183786772000000,0.0,89.26907556546404,2087.9031530445586,0.0,0,8,0.0,17,31113,487,5.0,790.0730252847982,0.14999,16,0.0,0.0,1605374980,,,,0,1.448377569636155,3,6.0,19.0,0.0,0.0,43.97268781734586,66.7128,C,27470056000000,
Raw,1732148586000,17228000000,,691508.8591888458,-1416183786772000000,0.0,89.26907556546404,2087.9031530445586,0.0,0,9,0.0,17,93788,316,5.0,841.9516072461129,0.14999,16,0.0,0.0,1600875010,,,,0,10.781888685820956,3,6.0,25.0,0.0,0.0,43.97268781734586,66.7128,C,27470056000000,
Raw,1732148586000,17228000000,,691508.8591888458,-1416183786772000000,0.0,89.26907556546404,2087.9031530445586,0.0,0,15,0.0,16431,347003924556687,487,21.385000228881836,376.9048656942176,0.14999,16,0.0,0.0,1575420030,,,,0,4.521756851891772,1,6.0,21.385000228881836,0.0,0.0,0.0,66.7128,C,27470056000000,
Raw,1732148586000,17228000000,,691508.8591888458,-1416183786772000000,0.0,89.26907556546404,2087.9031530445586,0.0,0,17,0.0,16431,347003931605864,396,23.72800064086914,353.69498429009207,0.14999,16,0.0,0.0,1575420030,,,,0,8.205939837448987,1,6.0,23.72800064086914,0.0,0.0,0.0,66.7128,C,27470056000000,
Fix,FLP,37.4244136000,-122.1708194000,2.0,0.092763364,2.666,,1732148586208,2.8,,27470056000000,0.8789843,0,,,
Status,1732148586000,29,0,1,14,1575420030,33.40,12.0,69.0,1,0,0,28.400002
Status,1732148586000,29,1,1,22,1575420030,27.90,306.0,68.0,1,0,0,22.9
Status,1732148586000,29,2,1,17,1575420030,28.60,168.0,63.0,1,0,0,23.6
Status,1732148586000,29,3,1,30,1575420030,35.50,107.0,59.0,1,0,0,30.5
Status,1732148586000,29,4,1,13,1575420030,30.50,278.0,56.0,1,0,0,25.5
Status,1732148586000,29,5,1,19,1575420030,31.60,194.0,34.0,1,0,0,26.6
Status,1732148586000,29,6,1,15,1575420030,28.40,303.0,27.0,1,0,0,23.4
Status,1732148586000,29,7,1,7,1575420030,29.90,117.0,25.0,1,0,0,24.9
Status,1732148586000,29,8,2,131,1575420030,31.00,3.0,23.0,0,0,0,26.0
Status,1732148586000,29,9,1,2,1575420030,32.20,71.0,21.0,1,0,0,27.2
Status,1732148586000,29,10,1,21,1575420030,31.30,53.0,14.0,1,0,0,26.3
Status,1732148586000,29,11,3,9,1602000000,31.10,45.0,47.0,1,0,0,26.1
Status,1732148586000,29,12,3,8,1602000000,23.20,277.0,39.0,1,0,0,18.2
Status,1732148586000,29,13,3,19,1602000000,0.00,63.0,36.0,0,0,0,0.0
Status,1732148586000,29,14,3,20,1602000000,0.00,140.0,27.0,0,0,0,0.0
Status,1732148586000,29,15,3,18,1602000000,23.40,25.0,11.0,1,0,0,18.4
Status,1732148586000,29,16,3,11,1602000000,0.00,287.0,11.0,0,0,0,0.0
Status,1732148586000,29,17,3,16,1602000000,32.10,82.0,4.0,0,0,0,27.099998
Status,1732148586000,29,18,3,17,1602000000,28.70,0.0,0.0,0,0,0,23.7
Status,1732148586000,29,19,6,21,1575420030,23.40,294.0,64.0,1,0,0,18.4
Status,1732148586000,29,20,6,19,1575420030,0.00,276.0,54.0,0,0,0,0.0
Status,1732148586000,29,21,6,27,1575420030,28.70,47.0,48.0,1,0,0,23.7
Status,1732148586000,29,22,6,29,1575420030,21.70,197.0,46.0,1,0,0,16.7
Status,1732148586000,29,23,6,15,1575420030,0.00,83.0,18.0,0,0,0,0.0
Status,1732148586000,29,24,6,13,1575420030,0.00,134.0,11.0,0,0,0,0.0
Status,1732148586000,29,25,6,4,1575420030,0.00,323.0,10.0,0,0,0,0.0
Status,1732148586000,29,26,6,34,1575420030,0.00,36.0,5.0,0,0,0,0.0
Status,1732148586000,29,27,6,7,1575420030,0.00,162.0,4.0,0,0,0,0.0
Status,1732148586000,29,28,6,30,1575420030,0.00,67.0,2.0,0,0,0,0.0
Fix,GPS,37.4244283333,-122.1708200000,1.6000000000000014,0.0,2.7,305.16,1732148587000,2.7,154.7,27471056000000,38.5,0,,,
Fix,FLP,37.4244211000,-122.1708199000,2.0,0.102858655,2.7,337.6354,1732148587208,2.7,154.7,27471056000000,0.8888783,0,,,
Raw,1732148587000,18228000000,,690561.5371584832,-1416183786772000000,0.0,98.02870227556295,2085.056705723766,0.0,0,7,0.0,16431,347004923349634,396,24.87700080871582,1105.8663131724466,0.14999,16,0.0,0.0,1575420030,,,,0,9.860760973725888,1,6.0,24.87700080871582,0.0,0.0,0.0,66.7128,C,27471056000000,
Raw,1732148587000,18228000000,,690561.5371584832,-1416183786772000000,0.0,98.02870227556295,2085.056705723766,0.0,0,30,0.0,16431,347004930351342,74,30.461999893188477,878.9237329127336,0.14999,16,0.0,0.0,1575420030,,,,0,17.099170384155578,1,6.0,30.461999893188477,0.0,0.0,0.0,66.7128,C,27471056000000,
Raw,1732148587000,18228000000,,690561.5371584832,-1416183786772000000,0.0,98.02870227556295,2085.056705723766,0.0,0,22,0.0,16431,347004930899887,396,22.915000915527344,597.7094064626103,0.14999,16,0.0,0.0,1575420030,,,,0,6.938200260161128,1,6.0,22.915000915527344,0.0,0.0,0.0,66.7128,C,27471056000000,
Raw,1732148587000,18228000000,,690561.5371584832,-1416183786772000000,0.0,98.02870227556295,2085.056705723766,0.0,0,2,0.0,16431,347004920647946,316,27.152000427246094,614.0928275640081,0.14999,16,0.0,0.0,1575420030,,,,0,12.958800173440752,1,6.0,27.152000427246094,0.0,0.0,0.0,66.7128,C,27471056000000,
Raw,1732148587000,18228000000,,690561.5371584832,-1416183786772000000,0.0,98.02870227556295,2085.056705723766,0.0,0,29,0.0,16431,347004917979346,396,16.700000762939453,1059.3539122822715,0.14999,16,0.0,0.0,1575420030,,,,0,0.0,6,6.0,16.700000762939453,0.0,0.0,27.04854255773231,66.7128,C,27471056000000,
Raw,1732148587000,18228000000,,690561.5371584832,-1416183786772000000,0.0,98.02870227556295,2085.056705723766,0.0,0,27,0.0,16431,347004917761106,316,23.700000762939453,913.7277766663611,0.14999,16,0.0,0.0,1575420030,,,,0,9.452471677326347,6,6.0,23.700000762939453,0.0,0.0,27.04854255773231,66.7128,C,27471056000000,
Raw,1732148587000,18228000000,,690561.5371584832,-1416183786772000000,0.0,98.02870227556295,2085.056705723766,0.0,0,19,0.0,16431,347004925019989,235,26.634000778198242,-3.92345970739617,0.14999,16,0.0,0.0,1575420030,,,,0,12.24803366586097,1,6.0,26.634000778198242,0.0,0.0,0.0,66.7128,C,27471056000000,
Raw,1732148587000,18228000000,,690561.5371584832,-1416183786772000000,0.0,98.02870227556295,2085.056705723766,0.0,0,14,0.0,16431,347004932090585,316,28.424999237060547,736.654961202694,0.14999,16,0.0,0.0,1575420030,,,,0,14.593973552149462,1,6.0,28.424999237060547,0.0,0.0,0.0,66.7128,C,27471056000000,
Raw,1732148587000,18228000000,,690561.5371584832,-1416183786772000000,0.0,98.02870227556295,2085.056705723766,0.0,0,21,0.0,16431,347004919273162,396,26.32699966430664,846.9215033239312,0.14999,16,0.0,0.0,1575420030,,,,0,11.834341688663951,1,6.0,26.32699966430664,0.0,0.0,0.0,66.7128,C,27471056000000,
Raw,1732148587000,18228000000,,690561.5371584832,-1416183786772000000,0.0,98.02870227556295,2085.056705723766,0.0,0,21,0.0,16431,347004920334345,487,18.399999618530273,530.031155106325,0.14999,16,0.0,0.0,1575420030,,,,0,1.516864814430368,6,6.0,18.399999618530273,0.0,0.0,27.04854255773231,66.7128,C,27471056000000,
Raw,1732148587000,18228000000,,690561.5371584832,-1416183786772000000,0.0,98.02870227556295,2085.056705723766,0.0,0,16,0.0,17,382468,316,5.0,1120.559576480057,0.14999,16,0.0,0.0,1601437440,,,,0,13.634931422624822,3,6.0,24.0,0.0,0.0,44.460331020940814,66.7128,C,27471056000000,
Raw,1732148587000,18228000000,,690561.5371584832,-1416183786772000000,0.0,98.02870227556295,2085.056705723766,0.0,0,18,0.0,17,929945,487,5.0,1191.902601721739,0.14999,16,0.0,0.0,1600312450,,,,0,1.687483492449675,3,6.0,20.0,0.0,0.0,44.460331020940814,66.7128,C,27471056000000,
Raw,1732148587000,18228000000,,690561.5371584832,-1416183786772000000,0.0,98.02870227556295,2085.056705723766,0.0,0,8,0.0,17,28475,797,5.0,788.2454428238717,0.14999,16,0.0,0.0,1605374980,,,,0,1.2674149900882141,3,6.0,17.0,0.0,0.0,44.460331020940814,66.7128,C,27471056000000,
Raw,1732148587000,18228000000,,690561.5371584832,-1416183786772000000,0.0,98.02870227556295,2085.056705723766,0.0,0,9,0.0,17,90979,316,5.0,840.7375664429676,0.14999,16,0.0,0.0,1600875010,,,,0,12.491475806956501,3,6.0,26.0,0.0,0.0,44.460331020940814,66.7128,C,27471056000000,
Raw,1732148587000,18228000000,,690561.5371584832,-1416183786772000000,0.0,98.02870227556295,2085.056705723766,0.0,0,15,0.0,16431,347004924555457,396,23.385000228881836,376.38418299453804,0.14999,16,0.0,0.0,1575420030,,,,0,7.652511305491819,1,6.0,23.385000228881836,0.0,0.0,0.0,66.7128,C,27471056000000,
Raw,1732148587000,18228000000,,690561.5371584832,-1416183786772000000,0.0,98.02870227556295,2085.056705723766,0.0,0,13,0.0,16431,347004930859037,316,25.540000915527344,585.0899533257581,0.14999,16,0.0,0.0,1575420030,,,,0,10.784769418688464,1,6.0,25.540000915527344,0.0,0.0,0.0,66.7128,C,27471056000000,
Raw,1732148587000,18228000000,,690561.5371584832,-1416183786772000000,0.0,98.02870227556295,2085.056705723766,0.0,0,17,0.0,16431,347004931604691,396,23.590999603271484,353.449149580714,0.14999,16,0.0,0.0,1575420030,,,,0,7.988781285684821,1,6.0,23.590999603271484,0.0,0.0,0.0,66.7128,C,27471056000000,
Status,1732148587000,29,0,1,14,1575420030,32.10,12.0,69.0,1,0,0,27.099998
Status,1732148587000,29,1,1,22,1575420030,30.40,306.0,68.0,1,0,0,25.4
Status,1732148587000,29,2,1,17,1575420030,28.10,168.0,63.0,1,0,0,23.1
Status,1732148587000,29,3,1,30,1575420030,34.80,107.0,59.0,1,0,0,29.8
Status,1732148587000,29,4,1,13,1575420030,0.00,278.0,56.0,0,0,0,0.0
Status,1732148587000,29,5,1,19,1575420030,30.70,194.0,34.0,1,0,0,25.7
Status,1732148587000,29,6,1,15,1575420030,0.00,303.0,27.0,0,0,0,0.0
Status,1732148587000,29,7,1,7,1575420030,30.70,117.0,25.0,1,0,0,25.7
Status,1732148587000,29,8,2,131,1575420030,33.00,3.0,23.0,0,0,0,28.0
Status,1732148587000,29,9,1,2,1575420030,33.50,71.0,21.0,1,0,0,28.5
Status,1732148587000,29,10,1,21,1575420030,31.30,53.0,14.0,1,0,0,26.3
Status,1732148587000,29,11,3,9,1602000000,30.20,45.0,47.0,1,0,0,25.2
Status,1732148587000,29,12,3,8,1602000000,23.60,277.0,39.0,1,0,0,18.6
Status,1732148587000,29,13,3,19,1602000000,0.00,63.0,36.0,0,0,0,0.0
Status,1732148587000,29,14,3,20,1602000000,0.00,140.0,27.0,0,0,0,0.0
Status,1732148587000,29,15,3,18,1602000000,23.40,25.0,11.0,1,0,0,18.4
Status,1732148587000,29,16,3,11,1602000000,0.00,287.0,11.0,0,0,0,0.0
Status,1732148587000,29,17,3,16,1602000000,29.70,82.0,4.0,0,0,0,24.7
Status,1732148587000,29,18,3,17,1602000000,31.20,0.0,0.0,0,0,0,26.2
Status,1732148587000,29,19,6,21,1575420030,23.50,294.0,64.0,1,0,0,18.5
Status,1732148587000,29,20,6,19,1575420030,0.00,276.0,54.0,0,0,0,0.0
Status,1732148587000,29,21,6,27,1575420030,28.80,47.0,48.0,1,0,0,23.8
Status,1732148587000,29,22,6,29,1575420030,21.70,197.0,46.0,1,0,0,16.7
Status,1732148587000,29,23,6,15,1575420030,0.00,83.0,18.0,0,0,0,0.0
Status,1732148587000,29,24,6,13,1575420030,0.00,134.0,11.0,0,0,0,0.0
Status,1732148587000,29,25,6,4,1575420030,0.00,323.0,10.0,0,0,0,0.0
Status,1732148587000,29,26,6,34,1575420030,0.00,36.0,5.0,0,0,0,0.0
Status,1732148587000,29,27,6,7,1575420030,0.00,162.0,4.0,0,0,0,0.0
Status,1732148587000,29,28,6,30,1575420030,0.00,67.0,2.0,0,0,0,0.0
Fix,GPS,37.4244266667,-122.1708183333,1.6000000000000014,0.0,2.7,305.16,1732148588000,2.8,169.6,27472056000000,35.8,0,,,
Fix,FLP,37.4244242000,-122.1708193000,2.0,0.10268921,2.733,339.215,1732148588208,2.8,169.6,27472056000000,0.898669,0,,,
Raw,1732148588000,19228000000,,690010.8436850669,-1416183786772000000,0.0,91.01699015755986,2082.454455883288,0.0,0,7,0.0,16431,347005923345944,235,25.72599983215332,1105.755463391368,0.14999,16,0.0,0.0,1575420030,,,,0,11.020599913279625,1,6.0,25.72599983215332,0.0,0.0,0.0,66.7128,C,27472056000000,
Raw,1732148588000,19228000000,,690010.8436850669,-1416183786772000000,0.0,91.01699015755986,2082.454455883288,0.0,0,30,0.0,16431,347005930348406,74,29.820999145507812,879.5018614440576,0.14999,16,0.0,0.0,1575420030,,,,0,16.31358386725906,1,6.0,29.820999145507812,0.0,0.0,0.0,66.7128,C,27472056000000,
Raw,1732148588000,19228000000,,690010.8436850669,-1416183786772000000,0.0,91.01699015755986,2082.454455883288,0.0,0,22,0.0,16431,347005930897894,396,25.406999588012695,596.6821644217791,0.14999,16,0.0,0.0,1575420030,,,,0,10.583231615371123,1,6.0,25.406999588012695,0.0,0.0,0.0,66.7128,C,27472056000000,
Raw,1732148588000,19228000000,,690010.8436850669,-1416183786772000000,0.0,91.01699015755986,2082.454455883288,0.0,0,2,0.0,16431,347005920645898,235,28.499000549316406,614.1990315034653,0.14999,16,0.0,0.0,1575420030,,,,0,14.670727126446323,1,6.0,28.499000549316406,0.0,0.0,0.0,66.7128,C,27472056000000,
Raw,1732148588000,19228000000,,690010.8436850669,-1416183786772000000,0.0,91.01699015755986,2082.454455883288,0.0,0,29,0.0,16431,347005917975812,487,16.700000762939453,1058.5326204005016,0.14999,16,0.0,0.0,1575420030,,,,0,0.0,6,6.0,16.700000762939453,0.0,0.0,25.613013417728645,66.7128,C,27472056000000,
Raw,1732148588000,19228000000,,690010.8436850669,-1416183786772000000,0.0,91.01699015755986,2082.454455883288,0.0,0,27,0.0,16431,347005917758056,316,23.78499984741211,914.1068773426391,0.14999,16,0.0,0.0,1575420030,,,,0,11.547178687726607,6,6.0,23.78499984741211,0.0,0.0,25.613013417728645,66.7128,C,27472056000000,
Raw,1732148588000,19228000000,,690010.8436850669,-1416183786772000000,0.0,91.01699015755986,2082.454455883288,0.0,0,14,0.0,16431,347005932088125,235,27.06399917602539,735.6682309007983,0.14999,16,0.0,0.0,1575420030,,,,0,12.833821187900723,1,6.0,27.06399917602539,0.0,0.0,0.0,66.7128,C,27472056000000,
Raw,1732148588000,19228000000,,690010.8436850669,-1416183786772000000,0.0,91.01699015755986,2082.454455883288,0.0,0,21,0.0,16431,347005919270338,316,26.30299949645996,845.466611561882,0.14999,16,0.0,0.0,1575420030,,,,0,11.798961233887017,1,6.0,26.30299949645996,0.0,0.0,0.0,66.7128,C,27472056000000,
Raw,1732148588000,19228000000,,690010.8436850669,-1416183786772000000,0.0,91.01699015755986,2082.454455883288,0.0,0,21,0.0,16431,347005920332557,396,18.510000228881836,529.9896677406489,0.14999,16,0.0,0.0,1575420030,,,,0,5.153736573325819,6,6.0,18.510000228881836,0.0,0.0,25.613013417728645,66.7128,C,27472056000000,
Raw,1732148588000,19228000000,,690010.8436850669,-1416183786772000000,0.0,91.01699015755986,2082.454455883288,0.0,0,16,0.0,17,378730,487,5.0,1120.0464160446047,0.14999,16,0.0,0.0,1601437440,,,,0,10.704714569614985,3,6.0,20.0,0.0,0.0,46.538773994226446,66.7128,C,27472056000000,
Raw,1732148588000,19228000000,,690010.8436850669,-1416183786772000000,0.0,91.01699015755986,2082.454455883288,0.0,0,18,0.0,17,925963,487,5.0,1192.126524032196,0.14999,16,0.0,0.0,1600312450,,,,0,1.687483492449675,3,6.0,20.0,0.0,0.0,46.538773994226446,66.7128,C,27472056000000,
Raw,1732148588000,19228000000,,690010.8436850669,-1416183786772000000,0.0,91.01699015755986,2082.454455883288,0.0,0,8,0.0,17,25842,487,5.0,790.4803401005922,0.14999,16,0.0,0.0,1605374980,,,,0,2.004753593333359,3,6.0,20.0,0.0,0.0,46.538773994226446,66.7128,C,27472056000000,
Raw,1732148588000,19228000000,,690010.8436850669,-1416183786772000000,0.0,91.01699015755986,2082.454455883288,0.0,0,9,0.0,17,88176,316,5.0,840.8289143952416,0.14999,16,0.0,0.0,1600875010,,,,0,11.275336341338274,3,6.0,24.0,0.0,0.0,46.538773994226446,66.7128,C,27472056000000,
Raw,1732148588000,19228000000,,690010.8436850669,-1416183786772000000,0.0,91.01699015755986,2082.454455883288,0.0,0,17,0.0,16431,347005931603506,396,23.135000228881836,353.2572066341402,0.14999,16,0.0,0.0,1575420030,,,,0,7.3026966622851095,1,6.0,23.135000228881836,0.0,0.0,0.0,66.7128,C,27472056000000,
Raw,1732148588000,19228000000,,690010.8436850669,-1416183786772000000,0.0,91.01699015755986,2082.454455883288,0.0,0,19,0.0,16431,347005925019996,316,25.700000762939453,-3.67318821927,0.14999,16,0.0,0.0,1575420030,,,,0,10.981736807559582,1,6.0,25.700000762939453,0.0,0.0,0.0,66.7128,C,27472056000000,
Status,1732148588000,29,0,1,14,1575420030,31.40,12.0,69.0,1,0,0,26.4
Status,1732148588000,29,1,1,22,1575420030,30.40,306.0,68.0,1,0,0,25.4
Status,1732148588000,29,2,1,17,1575420030,31.10,168.0,63.0,1,0,0,26.1
Status,1732148588000,29,3,1,30,1575420030,37.70,107.0,59.0,1,0,0,32.7
Status,1732148588000,29,4,1,13,1575420030,28.50,278.0,56.0,1,0,0,23.5
Status,1732148588000,29,5,1,19,1575420030,0.00,194.0,34.0,0,0,0,0.0
Status,1732148588000,29,6,1,15,1575420030,0.00,303.0,27.0,0,0,0,0.0
Status,1732148588000,29,7,1,7,1575420030,31.10,117.0,25.0,1,0,0,26.1
Status,1732148588000,29,8,2,131,1575420030,32.00,3.0,23.0,0,0,0,27.0
Status,1732148588000,29,9,1,2,1575420030,33.60,71.0,21.0,1,0,0,28.599998
Status,1732148588000,29,10,1,21,1575420030,27.50,53.0,14.0,1,0,0,22.5
Status,1732148588000,29,11,3,9,1602000000,30.20,45.0,47.0,1,0,0,25.2
Status,1732148588000,29,12,3,8,1602000000,23.70,277.0,39.0,1,0,0,18.7
Status,1732148588000,29,13,3,19,1602000000,0.00,63.0,36.0,0,0,0,0.0
Status,1732148588000,29,14,3,20,1602000000,0.00,140.0,27.0,0,0,0,0.0
Status,1732148588000,29,15,3,18,1602000000,24.90,25.0,11.0,1,0,0,19.9
Status,1732148588000,29,16,3,11,1602000000,0.00,287.0,11.0,0,0,0,0.0
Status,1732148588000,29,17,3,16,1602000000,23.60,82.0,4.0,0,0,0,18.6
Status,1732148588000,29,18,3,17,1602000000,30.10,0.0,0.0,0,0,0,25.1
Status,1732148588000,29,19,6,21,1575420030,26.80,294.0,64.0,1,0,0,21.8
Status,1732148588000,29,20,6,19,1575420030,0.00,276.0,54.0,0,0,0,0.0
Status,1732148588000,29,21,6,27,1575420030,25.80,47.0,48.0,1,0,0,20.8
Status,1732148588000,29,22,6,29,1575420030,23.80,197.0,46.0,1,0,0,18.8
Status,1732148588000,29,23,6,15,1575420030,0.00,83.0,18.0,0,0,0,0.0
Status,1732148588000,29,24,6,13,1575420030,0.00,134.0,11.0,0,0,0,0.0
Status,1732148588000,29,25,6,4,1575420030,0.00,323.0,10.0,0,0,0,0.0
Status,1732148588000,29,26,6,34,1575420030,0.00,36.0,5.0,0,0,0,0.0
Status,1732148588000,29,27,6,7,1575420030,0.00,162.0,4.0,0,0,0,0.0
Status,1732148588000,29,28,6,30,1575420030,0.00,67.0,2.0,0,0,0,0.0
Fix,GPS,37.4244283333,-122.1708216667,1.5,0.74017054,2.7,296.36,1732148589000,2.6,144.6,27473056000000,41.4,0,,,
Raw,1732148589000,20228000000,,689741.1779618552,-1416183786772000000,0.0,110.32563991081827,2085.4814846928202,0.0,0,7,0.0,16431,347006923342250,396,26.05500030517578,1107.629502984469,0.14999,16,0.0,0.0,1575420030,,,,0,11.4738796059985,1,6.0,26.05500030517578,0.0,0.0,0.0,66.7128,C,27473056000000,
Raw,1732148589000,20228000000,,689741.1779618552,-1416183786772000000,0.0,110.32563991081827,2085.4814846928202,0.0,0,30,0.0,16431,347006930345467,58,32.667999267578125,880.9056489482753,0.14999,16,0.0,0.0,1575420030,,,,0,19.707985399253875,1,6.0,32.667999267578125,0.0,0.0,0.0,66.7128,C,27473056000000,
Raw,1732148589000,20228000000,,689741.1779618552,-1416183786772000000,0.0,110.32563991081827,2085.4814846928202,0.0,0,22,0.0,16431,347006930895901,316,25.43400001525879,597.9263208078974,0.14999,16,0.0,0.0,1575420030,,,,0,10.623915013580184,1,6.0,25.43400001525879,0.0,0.0,0.0,66.7128,C,27473056000000,
Raw,1732148589000,20228000000,,689741.1779618552,-1416183786772000000,0.0,110.32563991081827,2085.4814846928202,0.0,0,2,0.0,16431,347006920643853,235,28.591999053955078,613.9886213364479,0.14999,16,0.0,0.0,1575420030,,,,0,14.797161522451901,1,6.0,28.591999053955078,0.0,0.0,0.0,66.7128,C,27473056000000,
Raw,1732148589000,20228000000,,689741.1779618552,-1416183786772000000,0.0,110.32563991081827,2085.4814846928202,0.0,0,29,0.0,16431,347006917972278,487,18.799999237060547,1059.4395816017638,0.14999,16,0.0,0.0,1575420030,,,,0,2.2919165942707007,6,6.0,18.799999237060547,0.0,0.0,24.041084275320976,66.7128,C,27473056000000,
