# 
# Header Description:
# 
# Version: v3.1.0.3 Platform: 13 Manufacturer: samsung Model: SM-S135DL GNSS Hardware Model Name: MediaTek,MT6631,MTK_MNLD_default,MNL_VER_default
# 
# Raw,utcTimeMillis,TimeNanos,LeapSecond,TimeUncertaintyNanos,FullBiasNanos,BiasNanos,BiasUncertaintyNanos,DriftNanosPerSecond,DriftUncertaintyNanosPerSecond,HardwareClockDiscontinuityCount,Svid,TimeOffsetNanos,State,ReceivedSvTimeNanos,ReceivedSvTimeUncertaintyNanos,Cn0DbHz,PseudorangeRateMetersPerSecond,PseudorangeRateUncertaintyMetersPerSecond,AccumulatedDeltaRangeState,AccumulatedDeltaRangeMeters,AccumulatedDeltaRangeUncertaintyMeters,CarrierFrequencyHz,CarrierCycles,CarrierPhase,CarrierPhaseUncertainty,MultipathIndicator,SnrInDb,ConstellationType,AgcDb,BasebandCn0DbHz,FullInterSignalBiasNanos,FullInterSignalBiasUncertaintyNanos,SatelliteInterSignalBiasNanos,SatelliteInterSignalBiasUncertaintyNanos,CodeType,ChipsetElapsedRealtimeNanos,IsFullTracking
# 
# UncalAccel,utcTimeMillis,elapsedRealtimeNanos,UncalAccelXMps2,UncalAccelYMps2,UncalAccelZMps2,BiasXMps2,BiasYMps2,BiasZMps2
# 
# Accel,utcTimeMillis,elapsedRealtimeNanos,AccelXMps2,AccelYMps2,AccelZMps2
# 
# UncalGyro,utcTimeMillis,elapsedRealtimeNanos,UncalGyroXRadPerSec,UncalGyroYRadPerSec,UncalGyroZRadPerSec,DriftXRadPerSec,DriftYRadPerSec,DriftZRadPerSec
# 
# Gyro,utcTimeMillis,elapsedRealtimeNanos,GyroXRadPerSec,GyroYRadPerSec,GyroZRadPerSec
# 
# UncalMag,utcTimeMillis,elapsedRealtimeNanos,UncalMagXMicroT,UncalMagYMicroT,UncalMagZMicroT,BiasXMicroT,BiasYMicroT,BiasZMicroT
# 
# Mag,utcTimeMillis,elapsedRealtimeNanos,MagXMicroT,MagYMicroT,MagZMicroT
# 
# Pressure,utcTimeMillis,elapsedRealtimeNanos,PressureHpa
# 
# OrientationDeg,utcTimeMillis,elapsedRealtimeNanos,yawDeg,rollDeg,pitchDeg
# 
# Fix,Provider,LatitudeDegrees,LongitudeDegrees,AltitudeMeters,SpeedMps,AccuracyMeters,BearingDegrees,UnixTimeMillis,SpeedAccuracyMps,BearingAccuracyDegrees,elapsedRealtimeNanos,VerticalAccuracyMeters,MockLocation,NumberOfUsedSignals,VerticalSpeedAccuracyMps,SolutionType
# 
# Nav,Svid,Type,Status,MessageId,Sub-messageId,Data(Bytes)
# 
# Status,UnixTimeMillis,SignalCount,SignalIndex,ConstellationType,Svid,CarrierFrequencyHz,Cn0DbHz,AzimuthDegrees,ElevationDegrees,UsedInFix,HasAlmanacData,HasEphemerisData,BasebandCn0DbHz
# 
# Agc,utcTimeMillis,TimeNanos,LeapSecond,TimeUncertaintyNanos,FullBiasNanos,BiasNanos,BiasUncertaintyNanos,DriftNanosPerSecond,DriftUncertaintyNanosPerSecond,HardwareClockDiscontinuityCount,AgcDb,CarrierFrequencyHz,ConstellationType
# 
Fix,FLP,37.4243848000,-122.1707789000,2.0,0.051457297,2.466,,1732148971210,2.2,,27855057000000,0.91367114,0,,,
Status,,28,0,1,22,1575420030,28.10,314.0,68.0,1,0,0,23.1
Status,,28,1,1,14,1575420030,27.40,18.0,67.0,1,0,0,22.4
Status,,28,2,1,17,1575420030,32.30,166.0,66.0,1,0,0,27.3
Status,,28,3,1,13,1575420030,29.30,272.0,56.0,1,0,0,24.3
Status,,28,4,1,30,1575420030,0.00,111.0,56.0,0,0,0,0.0
Status,,28,5,2,133,1575420030,29.00,191.0,45.0,0,0,0,24.0
Status,,28,6,1,19,1575420030,28.00,194.0,37.0,1,0,0,23.0
Status,,28,7,1,15,1575420030,0.00,300.0,28.0,0,0,0,0.0
Status,,28,8,1,7,1575420030,32.40,119.0,22.0,1,0,0,27.400002
Status,,28,9,1,2,1575420030,33.10,68.0,21.0,1,0,0,28.099998
Status,,28,10,1,21,1575420030,34.10,50.0,13.0,1,0,0,29.099998
Status,,28,11,3,9,1602000000,31.10,50.0,45.0,1,0,0,26.1
Status,,28,12,3,8,1602000000,23.50,273.0,38.0,1,0,0,18.5
Status,,28,13,3,19,1602000000,0.00,58.0,35.0,0,0,0,0.0
Status,,28,14,3,20,1602000000,0.00,138.0,31.0,0,0,0,0.0
Status,,28,15,3,11,1602000000,0.00,289.0,13.0,0,0,0,0.0
Status,,28,16,3,18,1602000000,0.00,23.0,9.0,0,0,0,0.0
Status,,28,17,3,16,1602000000,0.00,85.0,2.0,0,0,0,0.0
Status,,28,18,3,17,1602000000,36.40,0.0,0.0,0,0,0,31.400002
Status,,28,19,6,21,1575420030,23.90,299.0,64.0,1,0,0,18.9
Status,,28,20,6,19,1575420030,23.10,271.0,54.0,1,0,0,18.1
Status,,28,21,6,27,1575420030,25.20,49.0,46.0,1,0,0,20.2
Status,,28,22,6,29,1575420030,0.00,196.0,44.0,0,0,0,0.0
Status,,28,23,6,15,1575420030,0.00,81.0,19.0,0,0,0,0.0
Status,,28,24,6,13,1575420030,0.00,133.0,13.0,0,0,0,0.0
Status,,28,25,6,4,1575420030,0.00,322.0,12.0,0,0,0,0.0
Status,,28,26,6,34,1575420030,0.00,34.0,5.0,0,0,0,0.0
Status,,28,27,6,7,1575420030,0.00,162.0,2.0,0,0,0,0.0
Fix,GPS,37.4243850000,-122.1707766667,0.6999999999999993,0.0,2.5,107.76,1732148972000,2.8,179.9,27856057000000,31.0,0,,,
Fix,FLP,37.4243848000,-122.1707777000,2.0,0.043816544,2.466,,1732148972209,2.8,,27856057000000,0.92366946,0,,,
Raw,1732148972000,14220000000,,699144.6104024405,-1416184175780999936,0.0,80.72780695837903,2063.7825093832053,0.0,0,7,0.0,16431,347389923392852,316,27.43400001525879,1121.873002976793,0.14999,16,0.0,0.0,1575420030,,,,0,13.320137112794015,1,6.0,27.43400001525879,0.0,0.0,0.0,66.7128,C,27856057000000,
Raw,1732148972000,14220000000,,699144.6104024405,-1416184175780999936,0.0,80.72780695837903,2063.7825093832053,0.0,0,17,0.0,16431,347389932600172,487,27.266000747680664,389.79540368965843,0.14999,16,0.0,0.0,1575420030,,,,0,13.11118811084459,1,6.0,27.266000747680664,0.0,0.0,0.0,66.7128,C,27856057000000,
Raw,1732148972000,14220000000,,699144.6104024405,-1416184175780999936,0.0,80.72780695837903,2063.7825093832053,0.0,0,13,0.0,16431,347389931552142,396,24.34600067138672,628.3593709307726,0.14999,16,0.0,0.0,1575420030,,,,0,9.115963717774232,1,6.0,24.34600067138672,0.0,0.0,0.0,66.7128,C,27856057000000,
Raw,1732148972000,14220000000,,699144.6104024405,-1416184175780999936,0.0,80.72780695837903,2063.7825093832053,0.0,0,14,0.0,16431,347389932609387,487,22.363000869750977,749.5519104595719,0.14999,16,0.0,0.0,1575420030,,,,0,6.116493683677874,1,6.0,22.363000869750977,0.0,0.0,0.0,66.7128,C,27856057000000,
Raw,1732148972000,14220000000,,699144.6104024405,-1416184175780999936,0.0,80.72780695837903,2063.7825093832053,0.0,0,27,0.0,16431,347389918060617,487,20.200000762939453,912.1401996676146,0.14999,16,0.0,0.0,1575420030,,,,0,4.485423285826736,6,6.0,20.200000762939453,0.0,0.0,7.146268496303784,66.7128,C,27856057000000,
Raw,1732148972000,14220000000,,699144.6104024405,-1416184175780999936,0.0,80.72780695837903,2063.7825093832053,0.0,0,19,0.0,16431,347389921128337,487,18.100000381469727,648.7332912341583,0.14999,16,0.0,0.0,1575420030,,,,0,1.0245519663532177,6,6.0,18.100000381469727,0.0,0.0,7.146268496303784,66.7128,C,27856057000000,
Raw,1732148972000,14220000000,,699144.6104024405,-1416184175780999936,0.0,80.72780695837903,2063.7825093832053,0.0,0,22,0.0,16431,347389931596351,396,23.118999481201172,612.09051628375,0.14999,16,0.0,0.0,1575420030,,,,0,7.314271536615241,1,6.0,23.118999481201172,0.0,0.0,0.0,66.7128,C,27856057000000,
Raw,1732148972000,14220000000,,699144.6104024405,-1416184175780999936,0.0,80.72780695837903,2063.7825093832053,0.0,0,2,0.0,16431,347389921311232,316,28.07699966430664,647.789906634587,0.14999,16,0.0,0.0,1575420030,,,,0,14.162725153059366,1,6.0,28.07699966430664,0.0,0.0,0.0,66.7128,C,27856057000000,
Raw,1732148972000,14220000000,,699144.6104024405,-1416184175780999936,0.0,80.72780695837903,2063.7825093832053,0.0,0,19,0.0,16431,347389926489172,487,22.98200035095215,8.5882563622639,0.14999,16,0.0,0.0,1575420030,,,,0,3.538498562006532,1,6.0,22.98200035095215,0.0,0.0,0.0,66.7128,C,27856057000000,
Raw,1732148972000,14220000000,,699144.6104024405,-1416184175780999936,0.0,80.72780695837903,2063.7825093832053,0.0,0,21,0.0,16431,347389921122459,487,18.899999618530273,537.7890137372417,0.14999,16,0.0,0.0,1575420030,,,,0,2.3721606400036475,6,6.0,18.899999618530273,0.0,0.0,7.146268496303784,66.7128,C,27856057000000,
Raw,1732148972000,14220000000,,699144.6104024405,-1416184175780999936,0.0,80.72780695837903,2063.7825093832053,0.0,0,9,0.0,17,478389,396,5.0,849.474691756016,0.14999,16,0.0,0.0,1600875010,,,,0,12.389747526396658,3,6.0,22.0,0.0,0.0,39.17304975253502,66.7128,C,27856057000000,
Raw,1732148972000,14220000000,,699144.6104024405,-1416184175780999936,0.0,80.72780695837903,2063.7825093832053,0.0,0,8,0.0,17,452368,487,5.0,842.900398265395,0.14999,16,0.0,0.0,1605374980,,,,0,1.689667797663767,3,6.0,19.0,0.0,0.0,39.17304975253502,66.7128,C,27856057000000,
Raw,1732148972000,14220000000,,699144.6104024405,-1416184175780999936,0.0,80.72780695837903,2063.7825093832053,0.0,0,21,0.0,16431,347389919636837,235,29.079999923706055,881.1555023106555,0.14999,16,0.0,0.0,1575420030,,,,0,15.40746757104131,1,6.0,29.079999923706055,0.0,0.0,0.0,66.7128,C,27856057000000,
Status,1732148972000,28,0,1,22,1575420030,30.50,314.0,68.0,1,0,0,25.5
Status,1732148972000,28,1,1,14,1575420030,27.70,18.0,67.0,1,0,0,22.7
Status,1732148972000,28,2,1,17,1575420030,25.70,166.0,66.0,1,0,0,20.7
Status,1732148972000,28,3,1,13,1575420030,30.00,272.0,56.0,1,0,0,25.0
Status,1732148972000,28,4,1,30,1575420030,29.30,111.0,56.0,1,0,0,24.3
Status,1732148972000,28,5,2,133,1575420030,29.00,191.0,45.0,0,0,0,24.0
Status,1732148972000,28,6,1,19,1575420030,28.00,194.0,37.0,1,0,0,23.0
Status,1732148972000,28,7,1,15,1575420030,0.00,300.0,28.0,0,0,0,0.0
Status,1732148972000,28,8,1,7,1575420030,39.90,119.0,22.0,1,0,0,34.9
Status,1732148972000,28,9,1,2,1575420030,29.90,68.0,21.0,1,0,0,24.9
Status,1732148972000,28,10,1,21,1575420030,35.40,50.0,13.0,1,0,0,30.400002
Status,1732148972000,28,11,3,9,1602000000,29.20,50.0,45.0,1,0,0,24.2
Status,1732148972000,28,12,3,8,1602000000,27.90,273.0,38.0,1,0,0,22.9
Status,1732148972000,28,13,3,19,1602000000,0.00,58.0,35.0,0,0,0,0.0
Status,1732148972000,28,14,3,20,1602000000,0.00,138.0,31.0,0,0,0,0.0
Status,1732148972000,28,15,3,11,1602000000,0.00,289.0,13.0,0,0,0,0.0
Status,1732148972000,28,16,3,18,1602000000,0.00,23.0,9.0,0,0,0,0.0
Status,1732148972000,28,17,3,16,1602000000,0.00,85.0,2.0,0,0,0,0.0
Status,1732148972000,28,18,3,17,1602000000,29.10,0.0,0.0,0,0,0,24.1
Status,1732148972000,28,19,6,21,1575420030,22.10,299.0,64.0,1,0,0,17.1
Status,1732148972000,28,20,6,19,1575420030,23.10,271.0,54.0,1,0,0,18.1
Status,1732148972000,28,21,6,27,1575420030,22.80,49.0,46.0,1,0,0,17.8
Status,1732148972000,28,22,6,29,1575420030,0.00,196.0,44.0,0,0,0,0.0
Status,1732148972000,28,23,6,15,1575420030,0.00,81.0,19.0,0,0,0,0.0
Status,1732148972000,28,24,6,13,1575420030,0.00,133.0,13.0,0,0,0,0.0
Status,1732148972000,28,25,6,4,1575420030,0.00,322.0,12.0,0,0,0,0.0
Status,1732148972000,28,26,6,34,1575420030,0.00,34.0,5.0,0,0,0,0.0
Status,1732148972000,28,27,6,7,1575420030,0.00,162.0,2.0,0,0,0,0.0
Fix,GPS,37.4243850000,-122.1707816667,0.5,0.0,2.5,107.76,1732148973000,2.4,139.1,27857057000000,32.1,0,,,
Raw,1732148973000,15220000000,,698680.2266386568,-1416184175780999936,0.0,84.2185145472522,2065.982984418547,0.0,0,7,0.0,16431,347390923389115,58,34.8650016784668,1120.5546989584027,0.14999,16,0.0,0.0,1575420030,,,,0,22.209410288461964,1,6.0,34.8650016784668,0.0,0.0,0.0,66.7128,C,27857057000000,
Raw,1732148973000,15220000000,,698680.2266386568,-1416184175780999936,0.0,84.2185145472522,2065.982984418547,0.0,0,17,0.0,16431,347390932598868,487,20.709999084472656,389.6365391354265,0.14999,16,0.0,0.0,1575420030,,,,0,3.4470673005168644,1,6.0,20.709999084472656,0.0,0.0,0.0,66.7128,C,27857057000000,
Raw,1732148973000,15220000000,,698680.2266386568,-1416184175780999936,0.0,84.2185145472522,2065.982984418547,0.0,0,13,0.0,16431,347390931550044,316,25.04599952697754,628.6669721045025,0.14999,16,0.0,0.0,1575420030,,,,0,10.109719401556383,1,6.0,25.04599952697754,0.0,0.0,0.0,66.7128,C,27857057000000,
Raw,1732148973000,15220000000,,698680.2266386568,-1416184175780999936,0.0,84.2185145472522,2065.982984418547,0.0,0,14,0.0,16431,347390932606876,396,22.674999237060547,749.6447808335768,0.14999,16,0.0,0.0,1575420030,,,,0,6.641084157867102,1,6.0,22.674999237060547,0.0,0.0,0.0,66.7128,C,27857057000000,
Raw,1732148973000,15220000000,,698680.2266386568,-1416184175780999936,0.0,84.2185145472522,2065.982984418547,0.0,0,27,0.0,16431,347390918057571,396,17.799999237060547,913.8955844657136,0.14999,16,0.0,0.0,1575420030,,,,0,0.5245065869521053,6,6.0,17.799999237060547,0.0,0.0,12.602428464579427,66.7128,C,27857057000000,
Raw,1732148973000,15220000000,,698680.2266386568,-1416184175780999936,0.0,84.2185145472522,2065.982984418547,0.0,0,19,0.0,16431,347390921126174,797,18.100000381469727,647.3491556399977,0.14999,16,0.0,0.0,1575420030,,,,0,1.0245519663532177,6,6.0,18.100000381469727,0.0,0.0,12.602428464579427,66.7128,C,27857057000000,
Raw,1732148973000,15220000000,,698680.2266386568,-1416184175780999936,0.0,84.2185145472522,2065.982984418547,0.0,0,21,0.0,16431,347390919633813,74,30.427000045776367,882.2341738182317,0.14999,16,0.0,0.0,1575420030,,,,0,17.06997695825389,1,6.0,30.427000045776367,0.0,0.0,0.0,66.7128,C,27857057000000,
Raw,1732148973000,15220000000,,698680.2266386568,-1416184175780999936,0.0,84.2185145472522,2065.982984418547,0.0,0,22,0.0,16431,347390931594306,316,25.509000778198242,611.4105973625088,0.14999,16,0.0,0.0,1575420030,,,,0,10.76712162189441,1,6.0,25.509000778198242,0.0,0.0,0.0,66.7128,C,27857057000000,
Raw,1732148973000,15220000000,,698680.2266386568,-1416184175780999936,0.0,84.2185145472522,2065.982984418547,0.0,0,30,0.0,16431,347390930676633,396,24.253000259399414,904.9877406583374,0.14999,16,0.0,0.0,1575420030,,,,0,8.971195539295845,1,6.0,24.253000259399414,0.0,0.0,0.0,66.7128,C,27857057000000,
Raw,1732148973000,15220000000,,698680.2266386568,-1416184175780999936,0.0,84.2185145472522,2065.982984418547,0.0,0,2,0.0,16431,347390921309073,396,24.934999465942383,648.1298428659995,0.14999,16,0.0,0.0,1575420030,,,,0,9.937289130786946,1,6.0,24.934999465942383,0.0,0.0,0.0,66.7128,C,27857057000000,
Raw,1732148973000,15220000000,,698680.2266386568,-1416184175780999936,0.0,84.2185145472522,2065.982984418547,0.0,0,19,0.0,16431,347390926489126,396,23.006000518798828,10.936915135371452,0.14999,16,0.0,0.0,1575420030,,,,0,7.8287179679809515,1,6.0,23.006000518798828,0.0,0.0,0.0,66.7128,C,27857057000000,
Raw,1732148973000,15220000000,,698680.2266386568,-1416184175780999936,0.0,84.2185145472522,2065.982984418547,0.0,0,21,0.0,16431,347390921120663,487,17.100000381469727,536.5753805305737,0.14999,16,0.0,0.0,1575420030,,,,0,0.0,6,6.0,17.100000381469727,0.0,0.0,12.602428464579427,66.7128,C,27857057000000,
Raw,1732148973000,15220000000,,698680.2266386568,-1416184175780999936,0.0,84.2185145472522,2065.982984418547,0.0,0,9,0.0,17,475545,316,5.0,851.0554959591324,0.14999,16,0.0,0.0,1600875010,,,,0,10.070069647289188,3,6.0,24.0,0.0,0.0,40.930409343716306,66.7128,C,27857057000000,
Raw,1732148973000,15220000000,,698680.2266386568,-1416184175780999936,0.0,84.2185145472522,2065.982984418547,0.0,0,8,0.0,17,449551,487,5.0,844.6986197747466,0.14999,16,0.0,0.0,1605374980,,,,0,8.439882218292723,3,6.0,18.0,0.0,0.0,40.930409343716306,66.7128,C,27857057000000,
Fix,FLP,37.4243848000,-122.1707795000,2.0,0.03497323,2.466,,1732148973209,2.4,,27857057000000,0.9337241,0,,,
Status,1732148973000,28,0,1,22,1575420030,30.20,314.0,68.0,1,0,0,25.2
Status,1732148973000,28,1,1,14,1575420030,28.40,18.0,67.0,1,0,0,23.4
Status,1732148973000,28,2,1,17,1575420030,30.40,166.0,66.0,1,0,0,25.4
Status,1732148973000,28,3,1,13,1575420030,32.70,272.0,56.0,1,0,0,27.7
Status,1732148973000,28,4,1,30,1575420030,25.60,111.0,56.0,1,0,0,20.6
Status,1732148973000,28,5,2,133,1575420030,29.00,191.0,45.0,0,0,0,24.0
Status,1732148973000,28,6,1,19,1575420030,25.60,194.0,37.0,1,0,0,20.6
Status,1732148973000,28,7,1,15,1575420030,0.00,300.0,28.0,0,0,0,0.0
Status,1732148973000,28,8,1,7,1575420030,32.50,119.0,22.0,1,0,0,27.5
Status,1732148973000,28,9,1,2,1575420030,34.20,68.0,21.0,1,0,0,29.2
Status,1732148973000,28,10,1,21,1575420030,30.80,50.0,13.0,1,0,0,25.8
Status,1732148973000,28,11,3,9,1602000000,25.70,50.0,45.0,1,0,0,20.7
Status,1732148973000,28,12,3,8,1602000000,0.00,273.0,38.0,0,0,0,0.0
Status,1732148973000,28,13,3,19,1602000000,0.00,58.0,35.0,0,0,0,0.0
Status,1732148973000,28,14,3,20,1602000000,0.00,138.0,31.0,0,0,0,0.0
Status,1732148973000,28,15,3,11,1602000000,0.00,289.0,13.0,0,0,0,0.0
Status,1732148973000,28,16,3,18,1602000000,0.00,23.0,9.0,0,0,0,0.0
Status,1732148973000,28,17,3,16,1602000000,0.00,85.0,2.0,0,0,0,0.0
Status,1732148973000,28,18,3,17,1602000000,31.80,0.0,0.0,0,0,0,26.8
Status,1732148973000,28,19,6,21,1575420030,23.50,299.0,64.0,1,0,0,18.5
Status,1732148973000,28,20,6,19,1575420030,19.20,271.0,54.0,1,0,0,14.200001
Status,1732148973000,28,21,6,27,1575420030,25.80,49.0,46.0,1,0,0,20.8
Status,1732148973000,28,22,6,29,1575420030,0.00,196.0,44.0,0,0,0,0.0
Status,1732148973000,28,23,6,15,1575420030,0.00,81.0,19.0,0,0,0,0.0
Status,1732148973000,28,24,6,13,1575420030,0.00,133.0,13.0,0,0,0,0.0
Status,1732148973000,28,25,6,4,1575420030,0.00,322.0,12.0,0,0,0,0.0
Status,1732148973000,28,26,6,34,1575420030,0.00,34.0,5.0,0,0,0,0.0
Status,1732148973000,28,27,6,7,1575420030,0.00,162.0,2.0,0,0,0,0.0
Fix,GPS,37.4243816667,-122.1707816667,0.40000000000000213,0.0,2.6,107.76,1732148974000,2.7,179.9,27858057000000,32.4,0,,,
Fix,FLP,37.4243832000,-122.1707805000,2.0,0.03218013,2.5,,1732148974209,2.7,,27858057000000,0.94371164,0,,,
Raw,1732148974000,16220000000,,698354.7410488892,-1416184175780999936,0.0,84.74162983952252,2064.432648518589,0.0,0,7,0.0,16431,347391923385374,316,27.53700065612793,1119.9124578127082,0.14999,16,0.0,0.0,1575420030,,,,0,13.46636766483821,1,6.0,27.53700065612793,0.0,0.0,0.0,66.7128,C,27858057000000,
Raw,1732148974000,16220000000,,698354.7410488892,-1416184175780999936,0.0,84.74162983952252,2064.432648518589,0.0,0,17,0.0,16431,347391932597569,316,25.378000259399414,389.780072412309,0.14999,16,0.0,0.0,1575420030,,,,0,10.566977060746467,1,6.0,25.378000259399414,0.0,0.0,0.0,66.7128,C,27858057000000,
Raw,1732148974000,16220000000,,698354.7410488892,-1416184175780999936,0.0,84.74162983952252,2064.432648518589,0.0,0,13,0.0,16431,347391931547938,396,27.68199920654297,628.2811349578741,0.14999,16,0.0,0.0,1575420030,,,,0,13.638655421903067,1,6.0,27.68199920654297,0.0,0.0,0.0,66.7128,C,27858057000000,
Raw,1732148974000,16220000000,,698354.7410488892,-1416184175780999936,0.0,84.74162983952252,2064.432648518589,0.0,0,14,0.0,16431,347391932604375,487,23.367000579833984,749.2275842560061,0.14999,16,0.0,0.0,1575420030,,,,0,7.660598726595712,1,6.0,23.367000579833984,0.0,0.0,0.0,66.7128,C,27858057000000,
Raw,1732148974000,16220000000,,698354.7410488892,-1416184175780999936,0.0,84.74162983952252,2064.432648518589,0.0,0,27,0.0,16431,347391918054524,396,20.799999237060547,912.7858787361087,0.14999,16,0.0,0.0,1575420030,,,,0,5.412798137254058,6,6.0,20.799999237060547,0.0,0.0,16.68052810034198,66.7128,C,27858057000000,
Raw,1732148974000,16220000000,,698354.7410488892,-1416184175780999936,0.0,84.74162983952252,2064.432648518589,0.0,0,19,0.0,16431,347391921124003,797,14.199999809265137,651.2223937994703,0.14999,16,0.0,0.0,1575420030,,,,0,0.0,6,6.0,14.199999809265137,0.0,0.0,16.68052810034198,66.7128,C,27858057000000,
Raw,1732148974000,16220000000,,698354.7410488892,-1416184175780999936,0.0,84.74162983952252,2064.432648518589,0.0,0,21,0.0,16431,347391919630891,396,25.847999572753906,881.4294211326328,0.14999,16,0.0,0.0,1575420030,,,,0,11.229451037411044,1,6.0,25.847999572753906,0.0,0.0,0.0,66.7128,C,27858057000000,
Raw,1732148974000,16220000000,,698354.7410488892,-1416184175780999936,0.0,84.74162983952252,2064.432648518589,0.0,0,22,0.0,16431,347391931592260,396,25.15999984741211,611.0407883694729,0.14999,16,0.0,0.0,1575420030,,,,0,10.278793151293836,1,6.0,25.15999984741211,0.0,0.0,0.0,66.7128,C,27858057000000,
Raw,1732148974000,16220000000,,698354.7410488892,-1416184175780999936,0.0,84.74162983952252,2064.432648518589,0.0,0,30,0.0,16431,347391930673569,487,20.606000900268555,904.4922151910358,0.14999,16,0.0,0.0,1575420030,,,,0,3.261265785112258,1,6.0,20.606000900268555,0.0,0.0,0.0,66.7128,C,27858057000000,
Raw,1732148974000,16220000000,,698354.7410488892,-1416184175780999936,0.0,84.74162983952252,2064.432648518589,0.0,0,2,0.0,16431,347391921306912,235,29.166000366210938,647.6593120266192,0.14999,16,0.0,0.0,1575420030,,,,0,15.522666734961588,1,6.0,29.166000366210938,0.0,0.0,0.0,66.7128,C,27858057000000,
Raw,1732148974000,16220000000,,698354.7410488892,-1416184175780999936,0.0,84.74162983952252,2064.432648518589,0.0,0,19,0.0,16431,347391926489092,396,20.55299949645996,9.729879023805458,0.14999,16,0.0,0.0,1575420030,,,,0,3.1668530116605713,1,6.0,20.55299949645996,0.0,0.0,0.0,66.7128,C,27858057000000,
Raw,1732148974000,16220000000,,698354.7410488892,-1416184175780999936,0.0,84.74162983952252,2064.432648518589,0.0,0,21,0.0,16431,347391921118875,487,18.5,534.3612653308119,0.14999,16,0.0,0.0,1575420030,,,,0,1.8358242652366559,6,6.0,18.5,0.0,0.0,16.68052810034198,66.7128,C,27858057000000,
Raw,1732148974000,16220000000,,698354.7410488892,-1416184175780999936,0.0,84.74162983952252,2064.432648518589,0.0,0,9,0.0,17,472704,396,5.0,849.0730899478202,0.14999,16,0.0,0.0,1600875010,,,,0,5.312101466611521,3,6.0,21.0,0.0,0.0,41.96292153057671,66.7128,C,27858057000000,
Status,1732148974000,28,0,1,22,1575420030,28.10,314.0,68.0,1,0,0,23.1
Status,1732148974000,28,1,1,14,1575420030,25.20,18.0,67.0,1,0,0,20.2
Status,1732148974000,28,2,1,17,1575420030,25.80,166.0,66.0,1,0,0,20.8
Status,1732148974000,28,3,1,13,1575420030,31.40,272.0,56.0,1,0,0,26.4
Status,1732148974000,28,4,1,30,1575420030,29.30,111.0,56.0,1,0,0,24.3
Status,1732148974000,28,5,2,135,1575420030,0.00,197.0,45.0,0,0,0,0.0
Status,1732148974000,28,6,1,19,1575420030,27.50,194.0,37.0,1,0,0,22.5
Status,1732148974000,28,7,1,15,1575420030,0.00,300.0,28.0,0,0,0,0.0
Status,1732148974000,28,8,1,7,1575420030,31.70,119.0,22.0,1,0,0,26.7
Status,1732148974000,28,9,1,2,1575420030,30.40,68.0,21.0,1,0,0,25.4
Status,1732148974000,28,10,1,21,1575420030,33.70,50.0,13.0,1,0,0,28.7
Status,1732148974000,28,11,3,9,1602000000,26.80,50.0,45.0,1,0,0,21.8
Status,1732148974000,28,12,3,8,1602000000,0.00,273.0,38.0,0,0,0,0.0
Status,1732148974000,28,13,3,19,1602000000,0.00,58.0,35.0,0,0,0,0.0
Status,1732148974000,28,14,3,20,1602000000,0.00,138.0,31.0,0,0,0,0.0
Status,1732148974000,28,15,3,11,1602000000,0.00,289.0,13.0,0,0,0,0.0
Status,1732148974000,28,16,3,18,1602000000,0.00,23.0,9.0,0,0,0,0.0
Status,1732148974000,28,17,3,16,1602000000,0.00,85.0,2.0,0,0,0,0.0
Status,1732148974000,28,18,3,17,1602000000,27.00,0.0,0.0,0,0,0,22.0
Status,1732148974000,28,19,6,21,1575420030,21.50,299.0,64.0,1,0,0,16.5
Status,1732148974000,28,20,6,19,1575420030,19.20,271.0,54.0,1,0,0,14.200001
Status,1732148974000,28,21,6,27,1575420030,23.50,49.0,46.0,1,0,0,18.5
Status,1732148974000,28,22,6,29,1575420030,0.00,196.0,44.0,0,0,0,0.0
Status,1732148974000,28,23,6,15,1575420030,0.00,81.0,19.0,0,0,0,0.0
Status,1732148974000,28,24,6,13,1575420030,0.00,133.0,13.0,0,0,0,0.0
Status,1732148974000,28,25,6,4,1575420030,0.00,322.0,12.0,0,0,0,0.0
Status,1732148974000,28,26,6,34,1575420030,0.00,34.0,5.0,0,0,0,0.0
Status,1732148974000,28,27,6,7,1575420030,0.00,162.0,2.0,0,0,0,0.0
Fix,GPS,37.4243750000,-122.1707916667,0.40000000000000213,0.0,2.7,107.76,1732148975000,2.9,179.9,27859057000000,32.7,0,,,
Raw,1732148975000,17220000000,,698153.2474876336,-1416184175780999936,0.0,85.2768079202697,2063.552076529629,0.0,0,7,0.0,16431,347392923381639,316,26.73699951171875,1121.1769629851267,0.14999,16,0.0,0.0,1575420030,,,,0,12.419721638681363,1,6.0,26.73699951171875,0.0,0.0,0.0,66.7128,C,27859057000000,
Raw,1732148975000,17220000000,,698153.2474876336,-1416184175780999936,0.0,85.2768079202697,2063.552076529629,0.0,0,17,0.0,16431,347392932596268,487,20.760000228881836,390.63532539632877,0.14999,16,0.0,0.0,1575420030,,,,0,3.538498562006532,1,6.0,20.760000228881836,0.0,0.0,0.0,66.7128,C,27859057000000,
Raw,1732148975000,17220000000,,698153.2474876336,-1416184175780999936,0.0,85.2768079202697,2063.552076529629,0.0,0,13,0.0,16431,347392931545837,396,26.410999298095703,628.4982351368259,0.14999,16,0.0,0.0,1575420030,,,,0,11.983658779425209,1,6.0,26.410999298095703,0.0,0.0,0.0,66.7128,C,27859057000000,
Raw,1732148975000,17220000000,,698153.2474876336,-1416184175780999936,0.0,85.2768079202697,2063.552076529629,0.0,0,14,0.0,16431,347392932601874,487,20.183000564575195,749.6769300575944,0.14999,16,0.0,0.0,1575420030,,,,0,2.5777534248950578,1,6.0,20.183000564575195,0.0,0.0,0.0,66.7128,C,27859057000000,
Raw,1732148975000,17220000000,,698153.2474876336,-1416184175780999936,0.0,85.2768079202697,2063.552076529629,0.0,0,27,0.0,16431,347392918051477,487,18.5,911.8057919877311,0.14999,16,0.0,0.0,1575420030,,,,0,1.8358242652366559,6,6.0,18.5,0.0,0.0,16.322940418654504,66.7128,C,27859057000000,
Raw,1732148975000,17220000000,,698153.2474876336,-1416184175780999936,0.0,85.2768079202697,2063.552076529629,0.0,0,19,0.0,16431,347392921121836,487,14.199999809265137,648.3725416322834,0.14999,16,0.0,0.0,1575420030,,,,0,0.0,6,6.0,14.199999809265137,0.0,0.0,16.322940418654504,66.7128,C,27859057000000,
Raw,1732148975000,17220000000,,698153.2474876336,-1416184175780999936,0.0,85.2768079202697,2063.552076529629,0.0,0,21,0.0,16431,347392919627961,235,28.658000946044922,882.3647219677833,0.14999,16,0.0,0.0,1575420030,,,,0,14.881613556879955,1,6.0,28.658000946044922,0.0,0.0,0.0,66.7128,C,27859057000000,
Raw,1732148975000,17220000000,,698153.2474876336,-1416184175780999936,0.0,85.2768079202697,2063.552076529629,0.0,0,22,0.0,16431,347392931590223,396,23.118999481201172,611.1082459898107,0.14999,16,0.0,0.0,1575420030,,,,0,7.314271536615241,1,6.0,23.118999481201172,0.0,0.0,0.0,66.7128,C,27859057000000,
Raw,1732148975000,17220000000,,698153.2474876336,-1416184175780999936,0.0,85.2768079202697,2063.552076529629,0.0,0,30,0.0,16431,347392930670506,396,24.284000396728516,903.0044308703095,0.14999,16,0.0,0.0,1575420030,,,,0,9.019720188618365,1,6.0,24.284000396728516,0.0,0.0,0.0,66.7128,C,27859057000000,
Raw,1732148975000,17220000000,,698153.2474876336,-1416184175780999936,0.0,85.2768079202697,2063.552076529629,0.0,0,2,0.0,16431,347392921304748,316,25.40399932861328,648.3843885284172,0.14999,16,0.0,0.0,1575420030,,,,0,10.607376620266614,1,6.0,25.40399932861328,0.0,0.0,0.0,66.7128,C,27859057000000,
Raw,1732148975000,17220000000,,698153.2474876336,-1416184175780999936,0.0,85.2768079202697,2063.552076529629,0.0,0,19,0.0,16431,347392926489055,487,22.479999542236328,9.585997308801419,0.14999,16,0.0,0.0,1575420030,,,,0,6.316946186847138,1,6.0,22.479999542236328,0.0,0.0,0.0,66.7128,C,27859057000000,
Raw,1732148975000,17220000000,,698153.2474876336,-1416184175780999936,0.0,85.2768079202697,2063.552076529629,0.0,0,21,0.0,16431,347392921117089,316,16.5,535.1556577895959,0.14999,16,0.0,0.0,1575420030,,,,0,0.0,6,6.0,16.5,0.0,0.0,16.322940418654504,66.7128,C,27859057000000,
Raw,1732148975000,17220000000,,698153.2474876336,-1416184175780999936,0.0,85.2768079202697,2063.552076529629,0.0,0,9,0.0,17,469867,396,5.0,849.0548935088788,0.14999,16,0.0,0.0,1600875010,,,,0,6.917245148337253,3,6.0,22.0,0.0,0.0,41.951214529756555,66.7128,C,27859057000000,
Fix,FLP,37.4243791000,-122.1707859000,2.0,0.031616718,2.55,,1732148975209,2.9,,27859057000000,0.95398605,0,,,
Status,1732148975000,28,0,1,22,1575420030,30.80,314.0,68.0,1,0,0,25.8
Status,1732148975000,28,1,1,14,1575420030,29.10,18.0,67.0,1,0,0,24.1
Status,1732148975000,28,2,1,17,1575420030,29.10,166.0,66.0,1,0,0,24.1
Status,1732148975000,28,3,1,13,1575420030,31.40,272.0,56.0,1,0,0,26.4
Status,1732148975000,28,4,1,30,1575420030,28.80,111.0,56.0,1,0,0,23.8
Status,1732148975000,28,5,2,135,1575420030,0.00,197.0,45.0,0,0,0,0.0
Status,1732148975000,28,6,1,19,1575420030,29.70,194.0,37.0,1,0,0,24.7
Status,1732148975000,28,7,1,15,1575420030,0.00,300.0,28.0,0,0,0,0.0
Status,1732148975000,28,8,1,7,1575420030,29.60,119.0,22.0,1,0,0,24.6
Status,1732148975000,28,9,1,2,1575420030,34.50,68.0,21.0,1,0,0,29.5
Status,1732148975000,28,10,1,21,1575420030,31.30,50.0,13.0,1,0,0,26.3
Status,1732148975000,28,11,3,9,1602000000,29.50,50.0,45.0,1,0,0,24.5
Status,1732148975000,28,12,3,8,1602000000,23.50,273.0,38.0,1,0,0,18.5
Status,1732148975000,28,13,3,19,1602000000,0.00,58.0,35.0,0,0,0,0.0
Status,1732148975000,28,14,3,20,1602000000,0.00,138.0,31.0,0,0,0,0.0
Status,1732148975000,28,15,3,11,1602000000,0.00,289.0,13.0,0,0,0,0.0
Status,1732148975000,28,16,3,18,1602000000,0.00,23.0,9.0,0,0,0,0.0
Status,1732148975000,28,17,3,16,1602000000,0.00,85.0,2.0,0,0,0,0.0
Status,1732148975000,28,18,3,17,1602000000,25.30,0.0,0.0,0,0,0,20.3
Status,1732148975000,28,19,6,21,1575420030,24.40,299.0,64.0,1,0,0,19.4
Status,1732148975000,28,20,6,19,1575420030,21.70,271.0,54.0,1,0,0,16.7
Status,1732148975000,28,21,6,27,1575420030,24.80,49.0,46.0,1,0,0,19.8
Status,1732148975000,28,22,6,29,1575420030,0.00,196.0,44.0,0,0,0,0.0
Status,1732148975000,28,23,6,15,1575420030,0.00,81.0,19.0,0,0,0,0.0
Status,1732148975000,28,24,6,13,1575420030,0.00,133.0,13.0,0,0,0,0.0
Status,1732148975000,28,25,6,4,1575420030,0.00,322.0,12.0,0,0,0,0.0
Status,1732148975000,28,26,6,34,1575420030,0.00,34.0,5.0,0,0,0,0.0
Status,1732148975000,28,27,6,7,1575420030,0.00,162.0,2.0,0,0,0,0.0
Fix,GPS,37.4243666667,-122.1707983333,0.40000000000000213,0.0,2.7,107.76,1732148976000,2.8,179.9,27860057000000,33.3,0,,,
Raw,1732148976000,18220000000,,697854.2906673122,-1416184175780999936,0.0,89.02976027614064,2061.3227153894913,0.0,0,7,0.0,16431,347393923377898,396,24.615999221801758,1119.216603654707,0.14999,16,0.0,0.0,1575420030,,,,0,9.49061541641343,1,6.0,24.615999221801758,0.0,0.0,0.0,66.7128,C,27860057000000,
Raw,1732148976000,18220000000,,697854.2906673122,-1416184175780999936,0.0,89.02976027614064,2061.3227153894913,0.0,0,17,0.0,16431,347393932594963,396,24.062999725341797,390.3216381700752,0.14999,16,0.0,0.0,1575420030,,,,0,8.724420712869456,1,6.0,24.062999725341797,0.0,0.0,0.0,66.7128,C,27860057000000,
Raw,1732148976000,18220000000,,697854.2906673122,-1416184175780999936,0.0,89.02976027614064,2061.3227153894913,0.0,0,13,0.0,16431,347393931543748,316,26.410999298095703,628.8058827689721,0.14999,16,0.0,0.0,1575420030,,,,0,11.983658779425209,1,6.0,26.410999298095703,0.0,0.0,0.0,66.7128,C,27860057000000,
Raw,1732148976000,18220000000,,697854.2906673122,-1416184175780999936,0.0,89.02976027614064,2061.3227153894913,0.0,0,14,0.0,16431,347393932599375,316,24.12700080871582,749.0751541924193,0.14999,16,0.0,0.0,1575420030,,,,0,8.77433975623558,1,6.0,24.12700080871582,0.0,0.0,0.0,66.7128,C,27860057000000,
Raw,1732148976000,18220000000,,697854.2906673122,-1416184175780999936,0.0,89.02976027614064,2061.3227153894913,0.0,0,27,0.0,16431,347393918048436,316,19.799999237060547,912.0229386250992,0.14999,16,0.0,0.0,1575420030,,,,0,3.894892745246115,6,6.0,19.799999237060547,0.0,0.0,18.465508541574856,66.7128,C,27860057000000,
Raw,1732148976000,18220000000,,697854.2906673122,-1416184175780999936,0.0,89.02976027614064,2061.3227153894913,0.0,0,19,0.0,16431,347393921119664,487,16.700000762939453,648.7208403786138,0.14999,16,0.0,0.0,1575420030,,,,0,0.0,6,6.0,16.700000762939453,0.0,0.0,18.465508541574856,66.7128,C,27860057000000,
Raw,1732148976000,18220000000,,697854.2906673122,-1416184175780999936,0.0,89.02976027614064,2061.3227153894913,0.0,0,21,0.0,16431,347393919625026,316,26.34000015258789,881.625196898544,0.14999,16,0.0,0.0,1575420030,,,,0,11.87984212951978,1,6.0,26.34000015258789,0.0,0.0,0.0,66.7128,C,27860057000000,
Raw,1732148976000,18220000000,,697854.2906673122,-1416184175780999936,0.0,89.02976027614064,2061.3227153894913,0.0,0,22,0.0,16431,347393931588184,396,25.77199935913086,611.1754248596511,0.14999,16,0.0,0.0,1575420030,,,,0,11.116155218448986,1,6.0,25.77199935913086,0.0,0.0,0.0,66.7128,C,27860057000000,
Raw,1732148976000,18220000000,,697854.2906673122,-1416184175780999936,0.0,89.02976027614064,2061.3227153894913,0.0,0,30,0.0,16431,347393930667485,396,23.77400016784668,902.1926165054466,0.14999,16,0.0,0.0,1575420030,,,,0,8.261749176051467,1,6.0,23.77400016784668,0.0,0.0,0.0,66.7128,C,27860057000000,
Raw,1732148976000,18220000000,,697854.2906673122,-1416184175780999936,0.0,89.02976027614064,2061.3227153894913,0.0,0,2,0.0,16431,347393921302590,235,29.513999938964844,648.2312615885872,0.14999,16,0.0,0.0,1575420030,,,,0,15.946997644974228,1,6.0,29.513999938964844,0.0,0.0,0.0,66.7128,C,27860057000000,
Raw,1732148976000,18220000000,,697854.2906673122,-1416184175780999936,0.0,89.02976027614064,2061.3227153894913,0.0,0,19,0.0,16431,347393926489026,396,24.674999237060547,7.536948861835628,0.14999,16,0.0,0.0,1575420030,,,,0,9.581806696424437,1,6.0,24.674999237060547,0.0,0.0,0.0,66.7128,C,27860057000000,
Raw,1732148976000,18220000000,,697854.2906673122,-1416184175780999936,0.0,89.02976027614064,2061.3227153894913,0.0,0,21,0.0,16431,347393921115302,396,19.399999618530273,534.3581526169258,0.14999,16,0.0,0.0,1575420030,,,,0,3.3546633477819605,6,6.0,19.399999618530273,0.0,0.0,18.465508541574856,66.7128,C,27860057000000,
Raw,1732148976000,18220000000,,697854.2906673122,-1416184175780999936,0.0,89.02976027614064,2061.3227153894913,0.0,0,9,0.0,17,467031,316,5.0,848.7125444264824,0.14999,16,0.0,0.0,1600875010,,,,0,10.508724990127867,3,6.0,25.0,0.0,0.0,42.52303023565304,66.7128,C,27860057000000,
Raw,1732148976000,18220000000,,697854.2906673122,-1416184175780999936,0.0,89.02976027614064,2061.3227153894913,0.0,0,8,0.0,17,441104,487,5.0,844.2818219186923,0.14999,16,0.0,0.0,1605374980,,,,0,1.689667797663767,3,6.0,19.0,0.0,0.0,42.52303023565304,66.7128,C,27860057000000,
Fix,FLP,37.4243730000,-122.1707919000,2.0,0.036522046,2.583,,1732148976209,2.8,,27860057000000,0.9639868,0,,,
Status,1732148976000,28,0,1,22,1575420030,30.10,314.0,69.0,1,0,0,25.1
Status,1732148976000,28,1,1,14,1575420030,38.20,18.0,67.0,1,0,0,33.2
Status,1732148976000,28,2,1,17,1575420030,29.00,166.0,66.0,1,0,0,24.0
Status,1732148976000,28,3,1,13,1575420030,31.40,272.0,56.0,1,0,0,26.4
Status,1732148976000,28,4,1,30,1575420030,0.00,111.0,56.0,0,0,0,0.0
Status,1732148976000,28,5,2,135,1575420030,0.00,197.0,45.0,0,0,0,0.0
Status,1732148976000,28,6,1,19,1575420030,29.40,194.0,37.0,1,0,0,24.4
Status,1732148976000,28,7,1,15,1575420030,0.00,300.0,28.0,0,0,0,0.0
Status,1732148976000,28,8,1,7,1575420030,30.60,119.0,22.0,1,0,0,25.6
Status,1732148976000,28,9,1,2,1575420030,35.70,68.0,21.0,1,0,0,30.7
Status,1732148976000,28,10,1,21,1575420030,33.00,50.0,13.0,1,0,0,28.0
Status,1732148976000,28,11,3,9,1602000000,29.50,50.0,45.0,1,0,0,24.5
Status,1732148976000,28,12,3,8,1602000000,22.50,273.0,38.0,1,0,0,17.5
Status,1732148976000,28,13,3,19,1602000000,0.00,58.0,35.0,0,0,0,0.0
Status,1732148976000,28,14,3,20,1602000000,0.00,138.0,31.0,0,0,0,0.0
Status,1732148976000,28,15,3,11,1602000000,0.00,289.0,13.0,0,0,0,0.0
Status,1732148976000,28,16,3,18,1602000000,0.00,23.0,9.0,0,0,0,0.0
Status,1732148976000,28,17,3,16,1602000000,0.00,85.0,2.0,0,0,0,0.0
Status,1732148976000,28,18,3,17,1602000000,29.80,0.0,0.0,0,0,0,24.8
Status,1732148976000,28,19,6,21,1575420030,23.10,299.0,64.0,1,0,0,18.1
Status,1732148976000,28,20,6,19,1575420030,21.70,271.0,54.0,1,0,0,16.7
Status,1732148976000,28,21,6,27,1575420030,29.40,49.0,46.0,1,0,0,24.4
Status,1732148976000,28,22,6,29,1575420030,0.00,196.0,44.0,0,0,0,0.0
Status,1732148976000,28,23,6,15,1575420030,0.00,81.0,19.0,0,0,0,0.0
Status,1732148976000,28,24,6,13,1575420030,0.00,133.0,13.0,0,0,0,0.0
Status,1732148976000,28,25,6,4,1575420030,0.00,322.0,12.0,0,0,0,0.0
Status,1732148976000,28,26,6,34,1575420030,0.00,34.0,5.0,0,0,0,0.0
Status,1732148976000,28,27,6,7,1575420030,0.00,162.0,2.0,0,0,0,0.0
Fix,GPS,37.4243633333,-122.1707983333,0.5,0.0,2.7,107.76,1732148977000,2.9,179.9,27861057000000,31.6,0,,,
Fix,FLP,37.4243682000,-122.1707950000,2.0,0.040239338,2.616,,1732148977209,2.9,,27861057000000,0.9739911,0,,,
Raw,1732148977000,19220000000,,697409.8686298506,-1416184175780999936,0.0,83.91004181555354,2063.869495639981,0.0,0,7,0.0,16431,347394923374155,316,25.589000701904297,1120.3186902040532,0.14999,16,0.0,0.0,1575420030,,,,0,10.845905741513373,1,6.0,25.589000701904297,0.0,0.0,0.0,66.7128,C,27861057000000,
Raw,1732148977000,19220000000,,697409.8686298506,-1416184175780999936,0.0,83.91004181555354,2063.869495639981,0.0,0,17,0.0,16431,347394932593663,396,24.049999237060547,391.38335235573464,0.14999,16,0.0,0.0,1575420030,,,,0,8.314391092566357,1,6.0,24.049999237060547,0.0,0.0,0.0,66.7128,C,27861057000000,
Raw,1732148977000,19220000000,,697409.8686298506,-1416184175780999936,0.0,83.91004181555354,2063.869495639981,0.0,0,13,0.0,16431,347394931541651,316,26.36400032043457,629.945600635449,0.14999,16,0.0,0.0,1575420030,,,,0,11.914585734396896,1,6.0,26.36400032043457,0.0,0.0,0.0,66.7128,C,27861057000000,
Raw,1732148977000,19220000000,,697409.8686298506,-1416184175780999936,0.0,83.91004181555354,2063.869495639981,0.0,0,14,0.0,16431,347394932596882,58,33.236000061035156,750.0644397072065,0.14999,16,0.0,0.0,1575420030,,,,0,20.362148782508516,1,6.0,33.236000061035156,0.0,0.0,0.0,66.7128,C,27861057000000,
Raw,1732148977000,19220000000,,697409.8686298506,-1416184175780999936,0.0,83.91004181555354,2063.869495639981,0.0,0,27,0.0,16431,347394918045395,316,24.399999618530273,912.9515494483155,0.14999,16,0.0,0.0,1575420030,,,,0,10.36211167637789,6,6.0,24.399999618530273,0.0,0.0,17.964881446240362,66.7128,C,27861057000000,
Raw,1732148977000,19220000000,,697409.8686298506,-1416184175780999936,0.0,83.91004181555354,2063.869495639981,0.0,0,19,0.0,16431,347394921117495,487,16.700000762939453,649.4030822206656,0.14999,16,0.0,0.0,1575420030,,,,0,0.0,6,6.0,16.700000762939453,0.0,0.0,17.964881446240362,66.7128,C,27861057000000,
Raw,1732148977000,19220000000,,697409.8686298506,-1416184175780999936,0.0,83.91004181555354,2063.869495639981,0.0,0,21,0.0,16431,347394919622084,316,27.999000549316406,881.7119812200253,0.14999,16,0.0,0.0,1575420030,,,,0,14.05499180742833,1,6.0,27.999000549316406,0.0,0.0,0.0,66.7128,C,27861057000000,
Raw,1732148977000,19220000000,,697409.8686298506,-1416184175780999936,0.0,83.91004181555354,2063.869495639981,0.0,0,22,0.0,16431,347394931586144,316,25.131999969482422,612.04503349428,0.14999,16,0.0,0.0,1575420030,,,,0,10.236832250180003,1,6.0,25.131999969482422,0.0,0.0,0.0,66.7128,C,27861057000000,
Raw,1732148977000,19220000000,,697409.8686298506,-1416184175780999936,0.0,83.91004181555354,2063.869495639981,0.0,0,2,0.0,16431,347394921300427,74,30.715999603271484,649.0678847477066,0.14999,16,0.0,0.0,1575420030,,,,0,17.408065071798546,1,6.0,30.715999603271484,0.0,0.0,0.0,66.7128,C,27861057000000,
Raw,1732148977000,19220000000,,697409.8686298506,-1416184175780999936,0.0,83.91004181555354,2063.869495639981,0.0,0,19,0.0,16431,347394926488993,316,24.375999450683594,10.5311008697724,0.14999,16,0.0,0.0,1575420030,,,,0,9.163688506181476,1,6.0,24.375999450683594,0.0,0.0,0.0,66.7128,C,27861057000000,
Raw,1732148977000,19220000000,,697409.8686298506,-1416184175780999936,0.0,83.91004181555354,2063.869495639981,0.0,0,21,0.0,16431,347394921113517,487,18.100000381469727,536.1046638575286,0.14999,16,0.0,0.0,1575420030,,,,0,1.1451912617514792,6,6.0,18.100000381469727,0.0,0.0,17.964881446240362,66.7128,C,27861057000000,
Raw,1732148977000,19220000000,,697409.8686298506,-1416184175780999936,0.0,83.91004181555354,2063.869495639981,0.0,0,9,0.0,17,464202,316,5.0,850.0727968169012,0.14999,16,0.0,0.0,1600875010,,,,0,10.453046019735648,3,6.0,24.0,0.0,0.0,41.55316149477869,66.7128,C,27861057000000,
Raw,1732148977000,19220000000,,697409.8686298506,-1416184175780999936,0.0,83.91004181555354,2063.869495639981,0.0,0,8,0.0,17,438279,487,5.0,847.0703828536848,0.14999,16,0.0,0.0,1605374980,,,,0,0.0,3,6.0,19.0,0.0,0.0,41.55316149477869,66.7128,C,27861057000000,
Status,1732148977000,28,0,1,22,1575420030,33.00,314.0,69.0,1,0,0,28.0
Status,1732148977000,28,1,1,14,1575420030,34.10,18.0,67.0,1,0,0,29.099998
Status,1732148977000,28,2,1,17,1575420030,32.80,166.0,66.0,1,0,0,27.8
Status,1732148977000,28,3,1,13,1575420030,35.60,272.0,56.0,1,0,0,30.599998
Status,1732148977000,28,4,1,30,1575420030,35.20,111.0,56.0,1,0,0,30.2
Status,1732148977000,28,5,2,135,1575420030,0.00,197.0,45.0,0,0,0,0.0
Status,1732148977000,28,6,1,19,1575420030,29.30,194.0,37.0,1,0,0,24.3
Status,1732148977000,28,7,1,15,1575420030,0.00,300.0,28.0,0,0,0,0.0
Status,1732148977000,28,8,1,7,1575420030,38.30,119.0,22.0,1,0,0,33.3
Status,1732148977000,28,9,1,2,1575420030,31.00,68.0,21.0,1,0,0,26.0
Status,1732148977000,28,10,1,21,1575420030,29.70,50.0,13.0,1,0,0,24.7
Status,1732148977000,28,11,3,9,1602000000,26.50,50.0,45.0,1,0,0,21.5
Status,1732148977000,28,12,3,8,1602000000,24.60,273.0,38.0,1,0,0,19.6
Status,1732148977000,28,13,3,19,1602000000,0.00,58.0,35.0,0,0,0,0.0
Status,1732148977000,28,14,3,20,1602000000,0.00,138.0,31.0,0,0,0,0.0
Status,1732148977000,28,15,3,11,1602000000,0.00,289.0,13.0,0,0,0,0.0
Status,1732148977000,28,16,3,18,1602000000,0.00,23.0,9.0,0,0,0,0.0
Status,1732148977000,28,17,3,16,1602000000,0.00,85.0,2.0,0,0,0,0.0
Status,1732148977000,28,18,3,17,1602000000,29.30,0.0,0.0,0,0,0,24.3
Status,1732148977000,28,19,6,21,1575420030,23.90,299.0,64.0,1,0,0,18.9
Status,1732148977000,28,20,6,19,1575420030,21.70,271.0,54.0,1,0,0,16.7
Status,1732148977000,28,21,6,27,1575420030,29.40,49.0,46.0,1,0,0,24.4
Status,1732148977000,28,22,6,29,1575420030,0.00,196.0,44.0,0,0,0,0.0
Status,1732148977000,28,23,6,15,1575420030,0.00,81.0,19.0,0,0,0,0.0
Status,1732148977000,28,24,6,13,1575420030,0.00,133.0,13.0,0,0,0,0.0
Status,1732148977000,28,25,6,4,1575420030,0.00,322.0,12.0,0,0,0,0.0
Status,1732148977000,28,26,6,34,1575420030,0.00,34.0,5.0,0,0,0,0.0
Status,1732148977000,28,27,6,7,1575420030,0.00,162.0,2.0,0,0,0,0.0
Fix,GPS,37.4243700000,-122.1708000000,0.6999999999999993,0.0,2.5,107.76,1732148978000,2.6,179.9,27862057000000,34.4,0,,,
Raw,1732148978000,20220000000,,696727.9385327299,-1416184175780999936,0.0,93.1981217290684,2064.702777459893,0.0,0,7,0.0,16431,347395923370412,58,33.268001556396484,1122.390270982881,0.14999,16,0.0,0.0,1575420030,,,,0,20.401392326545484,1,6.0,33.268001556396484,0.0,0.0,0.0,66.7128,C,27862057000000,
Raw,1732148978000,20220000000,,696727.9385327299,-1416184175780999936,0.0,93.1981217290684,2064.702777459893,0.0,0,17,0.0,16431,347395932592355,235,27.76300048828125,391.43204077592327,0.14999,16,0.0,0.0,1575420030,,,,0,13.751644197454342,1,6.0,27.76300048828125,0.0,0.0,0.0,66.7128,C,27862057000000,
Raw,1732148978000,20220000000,,696727.9385327299,-1416184175780999936,0.0,93.1981217290684,2064.702777459893,0.0,0,13,0.0,16431,347395931539539,74,30.6299991607666,629.498995880417,0.14999,16,0.0,0.0,1575420030,,,,0,17.31546409198198,1,6.0,30.6299991607666,0.0,0.0,0.0,66.7128,C,27862057000000,
Raw,1732148978000,20220000000,,696727.9385327299,-1416184175780999936,0.0,93.1981217290684,2064.702777459893,0.0,0,14,0.0,16431,347395932594383,74,29.079999923706055,749.8794422938562,0.14999,16,0.0,0.0,1575420030,,,,0,15.40746757104131,1,6.0,29.079999923706055,0.0,0.0,0.0,66.7128,C,27862057000000,
Raw,1732148978000,20220000000,,696727.9385327299,-1416184175780999936,0.0,93.1981217290684,2064.702777459893,0.0,0,27,0.0,16431,347395918042349,316,24.375,912.9743140722586,0.14999,16,0.0,0.0,1575420030,,,,0,9.672050517430211,6,6.0,24.375,0.0,0.0,17.24185325336763,66.7128,C,27862057000000,
Raw,1732148978000,20220000000,,696727.9385327299,-1416184175780999936,0.0,93.1981217290684,2064.702777459893,0.0,0,19,0.0,16431,347395921115311,487,16.709999084472656,650.4945297926998,0.14999,16,0.0,0.0,1575420030,,,,0,0.0,6,6.0,16.709999084472656,0.0,0.0,17.24185325336763,66.7128,C,27862057000000,
Raw,1732148978000,20220000000,,696727.9385327299,-1416184175780999936,0.0,93.1981217290684,2064.702777459893,0.0,0,21,0.0,16431,347395919619140,316,24.733999252319336,882.2756147254916,0.14999,16,0.0,0.0,1575420030,,,,0,9.672050517430211,1,6.0,24.733999252319336,0.0,0.0,0.0,66.7128,C,27862057000000,
Raw,1732148978000,20220000000,,696727.9385327299,-1416184175780999936,0.0,93.1981217290684,2064.702777459893,0.0,0,22,0.0,16431,347395931584105,235,27.999000549316406,612.2070804500223,0.14999,16,0.0,0.0,1575420030,,,,0,14.05499180742833,1,6.0,27.999000549316406,0.0,0.0,0.0,66.7128,C,27862057000000,
Raw,1732148978000,20220000000,,696727.9385327299,-1416184175780999936,0.0,93.1981217290684,2064.702777459893,0.0,0,30,0.0,16431,347395930661443,74,30.219999313354492,904.7874119676376,0.14999,16,0.0,0.0,1575420030,,,,0,16.81734938529294,1,6.0,30.219999313354492,0.0,0.0,0.0,66.7128,C,27862057000000,
Raw,1732148978000,20220000000,,696727.9385327299,-1416184175780999936,0.0,93.1981217290684,2064.702777459893,0.0,0,2,0.0,16431,347395921298259,316,25.972000122070312,649.2230558578498,0.14999,16,0.0,0.0,1575420030,,,,0,11.378249359629905,1,6.0,25.972000122070312,0.0,0.0,0.0,66.7128,C,27862057000000,
Raw,1732148978000,20220000000,,696727.9385327299,-1416184175780999936,0.0,93.1981217290684,2064.702777459893,0.0,0,19,0.0,16431,347395926488957,396,24.315000534057617,9.091308092991609,0.14999,16,0.0,0.0,1575420030,,,,0,9.067975255165141,1,6.0,24.315000534057617,0.0,0.0,0.0,66.7128,C,27862057000000,
Raw,1732148978000,20220000000,,696727.9385327299,-1416184175780999936,0.0,93.1981217290684,2064.702777459893,0.0,0,21,0.0,16431,347395921111729,487,18.899999618530273,536.2592774666773,0.14999,16,0.0,0.0,1575420030,,,,0,2.4755653093254533,6,6.0,18.899999618530273,0.0,0.0,17.24185325336763,66.7128,C,27862057000000,
Raw,1732148978000,20220000000,,696727.9385327299,-1416184175780999936,0.0,93.1981217290684,2064.702777459893,0.0,0,9,0.0,17,461365,487,5.0,850.9313212652504,0.14999,16,0.0,0.0,1600875010,,,,0,6.398530466449258,3,6.0,20.0,0.0,0.0,40.74561318877542,66.7128,C,27862057000000,
Raw,1732148978000,20220000000,,696727.9385327299,-1416184175780999936,0.0,93.1981217290684,2064.702777459893,0.0,0,8,0.0,17,435451,487,5.0,845.2047770486379,0.14999,16,0.0,0.0,1605374980,,,,0,3.515079432557747,3,6.0,19.0,0.0,0.0,40.74561318877542,66.7128,C,27862057000000,
Fix,FLP,37.4243689000,-122.1707975000,2.0,0.035149895,2.616,,1732148978209,2.6,,27862057000000,0.983591,0,,,
Status,1732148978000,28,0,1,22,1575420030,34.20,314.0,69.0,1,0,0,29.2
Status,1732148978000,28,1,1,14,1575420030,29.70,18.0,67.0,1,0,0,24.7
Status,1732148978000,28,2,1,17,1575420030,34.60,166.0,66.0,1,0,0,29.599998
Status,1732148978000,28,3,1,13,1575420030,31.20,272.0,56.0,1,0,0,26.2
Status,1732148978000,28,4,1,30,1575420030,38.30,111.0,56.0,1,0,0,33.3
Status,1732148978000,28,5,2,135,1575420030,0.00,197.0,45.0,0,0,0,0.0
Status,1732148978000,28,6,1,19,1575420030,28.10,194.0,37.0,1,0,0,23.1
Status,1732148978000,28,7,1,15,1575420030,26.20,300.0,28.0,1,0,0,21.2
Status,1732148978000,28,8,1,7,1575420030,34.80,119.0,22.0,1,0,0,29.8
Status,1732148978000,28,9,1,2,1575420030,30.80,68.0,21.0,1,0,0,25.8
Status,1732148978000,28,10,1,21,1575420030,28.70,50.0,13.0,1,0,0,23.7
Status,1732148978000,28,11,3,9,1602000000,27.90,50.0,45.0,1,0,0,22.9
Status,1732148978000,28,12,3,8,1602000000,24.60,273.0,38.0,1,0,0,19.6
Status,1732148978000,28,13,3,19,1602000000,0.00,58.0,35.0,0,0,0,0.0
Status,1732148978000,28,14,3,20,1602000000,0.00,138.0,31.0,0,0,0,0.0
Status,1732148978000,28,15,3,11,1602000000,0.00,289.0,13.0,0,0,0,0.0
Status,1732148978000,28,16,3,18,1602000000,0.00,23.0,9.0,0,0,0,0.0
Status,1732148978000,28,17,3,16,1602000000,0.00,85.0,2.0,0,0,0,0.0
Status,1732148978000,28,18,3,17,1602000000,32.90,0.0,0.0,0,0,0,27.900002
Status,1732148978000,28,19,6,21,1575420030,25.50,299.0,64.0,1,0,0,20.5
Status,1732148978000,28,20,6,19,1575420030,21.70,271.0,54.0,1,0,0,16.7
Status,1732148978000,28,21,6,27,1575420030,29.30,49.0,46.0,1,0,0,24.3
Status,1732148978000,28,22,6,29,1575420030,0.00,196.0,44.0,0,0,0,0.0
Status,1732148978000,28,23,6,15,1575420030,0.00,81.0,19.0,0,0,0,0.0
Status,1732148978000,28,24,6,13,1575420030,0.00,133.0,13.0,0,0,0,0.0
Status,1732148978000,28,25,6,4,1575420030,0.00,322.0,12.0,0,0,0,0.0
Status,1732148978000,28,26,6,34,1575420030,0.00,34.0,5.0,0,0,0,0.0
Status,1732148978000,28,27,6,7,1575420030,0.00,162.0,2.0,0,0,0,0.0
Fix,GPS,37.4243783333,-122.1708050000,0.9000000000000021,0.49619222,2.5,324.25,1732148979000,2.6,151.7,27863057000000,33.6,0,,,
Raw,1732148979000,21220000000,,696227.5923899326,-1416184175780999936,0.0,90.91129442709251,2066.9652908086982,0.0,0,7,0.0,16431,347396923366665,74,29.81999969482422,1122.7120419735552,0.14999,16,0.0,0.0,1575420030,,,,0,16.330731245187735,1,6.0,29.81999969482422,0.0,0.0,0.0,66.7128,C,27863057000000,
Raw,1732148979000,21220000000,,696227.5923899326,-1416184175780999936,0.0,90.91129442709251,2066.9652908086982,0.0,0,17,0.0,16431,347396932591051,235,29.613000869750977,391.45043830874266,0.14999,16,0.0,0.0,1575420030,,,,0,16.07680164929743,1,6.0,29.613000869750977,0.0,0.0,0.0,66.7128,C,27863057000000,
Raw,1732148979000,21220000000,,696227.5923899326,-1416184175780999936,0.0,90.91129442709251,2066.9652908086982,0.0,0,13,0.0,16431,347396931537438,316,26.243999481201172,630.7856152589518,0.14999,16,0.0,0.0,1575420030,,,,0,11.73946105951135,1,6.0,26.243999481201172,0.0,0.0,0.0,66.7128,C,27863057000000,
Raw,1732148979000,21220000000,,696227.5923899326,-1416184175780999936,0.0,90.91129442709251,2066.9652908086982,0.0,0,14,0.0,16431,347396932591880,316,24.674999237060547,749.8867362652012,0.14999,16,0.0,0.0,1575420030,,,,0,9.581806696424437,1,6.0,24.674999237060547,0.0,0.0,0.0,66.7128,C,27863057000000,
Raw,1732148979000,21220000000,,696227.5923899326,-1416184175780999936,0.0,90.91129442709251,2066.9652908086982,0.0,0,27,0.0,16431,347396918039302,396,24.266000747680664,913.5279125598234,0.14999,16,0.0,0.0,1575420030,,,,0,7.489161128928848,6,6.0,24.266000747680664,0.0,0.0,15.239044667723798,66.7128,C,27863057000000,
Raw,1732148979000,21220000000,,696227.5923899326,-1416184175780999936,0.0,90.91129442709251,2066.9652908086982,0.0,0,19,0.0,16431,347396921113144,797,16.7189998626709,649.5989973618255,0.14999,16,0.0,0.0,1575420030,,,,0,0.0,6,6.0,16.7189998626709,0.0,0.0,15.239044667723798,66.7128,C,27863057000000,
Raw,1732148979000,21220000000,,696227.5923899326,-1416184175780999936,0.0,90.91129442709251,2066.9652908086982,0.0,0,21,0.0,16431,347396919616199,396,23.707000732421875,883.2774440126556,0.14999,16,0.0,0.0,1575420030,,,,0,8.155498436629468,1,6.0,23.707000732421875,0.0,0.0,0.0,66.7128,C,27863057000000,
Raw,1732148979000,21220000000,,696227.5923899326,-1416184175780999936,0.0,90.91129442709251,2066.9652908086982,0.0,0,22,0.0,16431,347396931582064,235,29.166000366210938,612.8919704217981,0.14999,16,0.0,0.0,1575420030,,,,0,15.522666734961588,1,6.0,29.166000366210938,0.0,0.0,0.0,66.7128,C,27863057000000,
Raw,1732148979000,21220000000,,696227.5923899326,-1416184175780999936,0.0,90.91129442709251,2066.9652908086982,0.0,0,15,0.0,16431,347396925509064,396,21.19700050354004,419.89255946333145,0.14999,16,0.0,0.0,1575420030,,,,0,4.237238126190336,1,6.0,21.19700050354004,0.0,0.0,0.0,66.7128,C,27863057000000,
Raw,1732148979000,21220000000,,696227.5923899326,-1416184175780999936,0.0,90.91129442709251,2066.9652908086982,0.0,0,30,0.0,16431,347396930658426,58,33.28900146484375,906.0955880512939,0.14999,16,0.0,0.0,1575420030,,,,0,20.427456531063864,1,6.0,33.28900146484375,0.0,0.0,0.0,66.7128,C,27863057000000,
Raw,1732148979000,21220000000,,696227.5923899326,-1416184175780999936,0.0,90.91129442709251,2066.9652908086982,0.0,0,2,0.0,16431,347396921296095,316,25.822999954223633,649.7559803502008,0.14999,16,0.0,0.0,1575420030,,,,0,11.191849724844946,1,6.0,25.822999954223633,0.0,0.0,0.0,66.7128,C,27863057000000,
Raw,1732148979000,21220000000,,696227.5923899326,-1416184175780999936,0.0,90.91129442709251,2066.9652908086982,0.0,0,19,0.0,16431,347396926488925,396,23.118999481201172,10.519718557800818,0.14999,16,0.0,0.0,1575420030,,,,0,7.314271536615241,1,6.0,23.118999481201172,0.0,0.0,0.0,66.7128,C,27863057000000,
Raw,1732148979000,21220000000,,696227.5923899326,-1416184175780999936,0.0,90.91129442709251,2066.9652908086982,0.0,0,21,0.0,16431,347396921109938,396,20.5,537.8987485163309,0.14999,16,0.0,0.0,1575420030,,,,0,4.961481579279231,6,6.0,20.5,0.0,0.0,15.239044667723798,66.7128,C,27863057000000,
Raw,1732148979000,21220000000,,696227.5923899326,-1416184175780999936,0.0,90.91129442709251,2066.9652908086982,0.0,0,9,0.0,17,458529,316,5.0,851.1759216379561,0.14999,16,0.0,0.0,1600875010,,,,0,8.312516507550324,3,6.0,24.0,0.0,0.0,39.72257431293954,66.7128,C,27863057000000,
Raw,1732148979000,21220000000,,696227.5923899326,-1416184175780999936,0.0,90.91129442709251,2066.9652908086982,0.0,0,8,0.0,17,432632,487,5.0,845.3045313375294,0.14999,16,0.0,0.0,1605374980,,,,0,3.515079432557747,3,6.0,18.0,0.0,0.0,39.72257431293954,66.7128,C,27863057000000,
Fix,FLP,37.4243734000,-122.1708014000,2.0,0.036123395,2.616,,1732148979209,2.6,,27863057000000,0.9935995,0,,,
Status,1732148979000,28,0,1,22,1575420030,38.00,314.0,69.0,1,0,0,33.0
Status,1732148979000,28,1,1,14,1575420030,33.10,18.0,67.0,1,0,0,28.099998
Status,1732148979000,28,2,1,17,1575420030,35.10,166.0,66.0,1,0,0,30.099998
Status,1732148979000,28,3,1,13,1575420030,29.60,272.0,56.0,1,0,0,24.6
Status,1732148979000,28,4,1,30,1575420030,35.10,111.0,56.0,1,0,0,30.099998
Status,1732148979000,28,5,2,135,1575420030,0.00,197.0,45.0,0,0,0,0.0
Status,1732148979000,28,6,1,19,1575420030,28.90,194.0,37.0,1,0,0,23.9
Status,1732148979000,28,7,1,15,1575420030,30.20,300.0,28.0,1,0,0,25.2
Status,1732148979000,28,8,1,7,1575420030,39.20,119.0,22.0,1,0,0,34.2
Status,1732148979000,28,9,1,2,1575420030,31.30,68.0,21.0,1,0,0,26.3
Status,1732148979000,28,10,1,21,1575420030,28.60,50.0,13.0,1,0,0,23.6
Status,1732148979000,28,11,3,9,1602000000,30.20,50.0,45.0,1,0,0,25.2
Status,1732148979000,28,12,3,8,1602000000,23.60,273.0,38.0,1,0,0,18.6
Status,1732148979000,28,13,3,19,1602000000,0.00,58.0,35.0,0,0,0,0.0
Status,1732148979000,28,14,3,20,1602000000,0.00,138.0,31.0,0,0,0,0.0
Status,1732148979000,28,15,3,11,1602000000,0.00,289.0,13.0,0,0,0,0.0
Status,1732148979000,28,16,3,18,1602000000,0.00,23.0,9.0,0,0,0,0.0
Status,1732148979000,28,17,3,16,1602000000,0.00,85.0,2.0,0,0,0,0.0
Status,1732148979000,28,18,3,17,1602000000,29.60,0.0,0.0,0,0,0,24.6
Status,1732148979000,28,19,6,21,1575420030,30.50,299.0,64.0,1,0,0,25.5
Status,1732148979000,28,20,6,19,1575420030,21.80,271.0,54.0,1,0,0,16.8
Status,1732148979000,28,21,6,27,1575420030,29.10,49.0,46.0,1,0,0,24.1
Status,1732148979000,28,22,6,29,1575420030,0.00,196.0,44.0,0,0,0,0.0
Status,1732148979000,28,23,6,15,1575420030,0.00,81.0,19.0,0,0,0,0.0
Status,1732148979000,28,24,6,13,1575420030,0.00,133.0,13.0,0,0,0,0.0
Status,1732148979000,28,25,6,4,1575420030,0.00,322.0,12.0,0,0,0,0.0
Status,1732148979000,28,26,6,34,1575420030,0.00,34.0,5.0,0,0,0,0.0
Status,1732148979000,28,27,6,7,1575420030,0.00,162.0,2.0,0,0,0,0.0
Fix,GPS,37.4243766667,-122.1708050000,1.1000000000000014,0.47457388,2.5,330.15,1732148980000,2.6,179.9,27864057000000,34.4,0,,,
Fix,FLP,37.4243750000,-122.1708034000,2.0,0.043590575,2.6,,1732148980209,2.6,,27864057000000,1.003597,0,,,
Raw,1732148980000,22220000000,,695591.0582813928,-1416184175780999936,0.0,93.29552111134281,2070.4624969804418,0.0,0,7,0.0,16431,347397923362919,58,34.17399978637695,1123.4020423711142,0.14999,16,0.0,0.0,1575420030,,,,0,21.43386387401757,1,6.0,34.17399978637695,0.0,0.0,0.0,66.7128,C,27864057000000,
Raw,1732148980000,22220000000,,695591.0582813928,-1416184175780999936,0.0,93.29552111134281,2070.4624969804418,0.0,0,17,0.0,16431,347397932589742,74,30.052000045776367,392.3994908350915,0.14999,16,0.0,0.0,1575420030,,,,0,16.617894246125076,1,6.0,30.052000045776367,0.0,0.0,0.0,66.7128,C,27864057000000,
Raw,1732148980000,22220000000,,695591.0582813928,-1416184175780999936,0.0,93.29552111134281,2070.4624969804418,0.0,0,13,0.0,16431,347397931535335,316,24.615999221801758,631.7666776340697,0.14999,16,0.0,0.0,1575420030,,,,0,9.49061541641343,1,6.0,24.615999221801758,0.0,0.0,0.0,66.7128,C,27864057000000,
Raw,1732148980000,22220000000,,695591.0582813928,-1416184175780999936,0.0,93.29552111134281,2070.4624969804418,0.0,0,14,0.0,16431,347397932589379,316,28.115999221801758,751.7697423326306,0.14999,16,0.0,0.0,1575420030,,,,0,14.21609484255346,1,6.0,28.115999221801758,0.0,0.0,0.0,66.7128,C,27864057000000,
Raw,1732148980000,22220000000,,695591.0582813928,-1416184175780999936,0.0,93.29552111134281,2070.4624969804418,0.0,0,27,0.0,16431,347397918036253,396,24.14699935913086,915.3237161800256,0.14999,16,0.0,0.0,1575420030,,,,0,7.075469151731829,6,6.0,24.14699935913086,0.0,0.0,9.497873573636904,66.7128,C,27864057000000,
Raw,1732148980000,22220000000,,695591.0582813928,-1416184175780999936,0.0,93.29552111134281,2070.4624969804418,0.0,0,19,0.0,16431,347397921110965,487,16.788000106811523,653.8616499659747,0.14999,16,0.0,0.0,1575420030,,,,0,1.1451912617514792,6,6.0,16.788000106811523,0.0,0.0,9.497873573636904,66.7128,C,27864057000000,
Raw,1732148980000,22220000000,,695591.0582813928,-1416184175780999936,0.0,93.29552111134281,2070.4624969804418,0.0,0,21,0.0,16431,347397919613251,396,23.606000900268555,883.1756071643221,0.14999,16,0.0,0.0,1575420030,,,,0,8.047931865149422,1,6.0,23.606000900268555,0.0,0.0,0.0,66.7128,C,27864057000000,
Raw,1732148980000,22220000000,,695591.0582813928,-1416184175780999936,0.0,93.29552111134281,2070.4624969804418,0.0,0,22,0.0,16431,347397931580021,58,33.01100158691406,613.2580627415372,0.14999,16,0.0,0.0,1575420030,,,,0,20.109402155139716,1,6.0,33.01100158691406,0.0,0.0,0.0,66.7128,C,27864057000000,
Raw,1732148980000,22220000000,,695591.0582813928,-1416184175780999936,0.0,93.29552111134281,2070.4624969804418,0.0,0,30,0.0,16431,347397930655405,74,30.06800079345703,905.9474786204147,0.14999,16,0.0,0.0,1575420030,,,,0,16.638047131356174,1,6.0,30.06800079345703,0.0,0.0,0.0,66.7128,C,27864057000000,
Raw,1732148980000,22220000000,,695591.0582813928,-1416184175780999936,0.0,93.29552111134281,2070.4624969804418,0.0,0,2,0.0,16431,347397921293926,396,26.34000015258789,651.0720079061967,0.14999,16,0.0,0.0,1575420030,,,,0,11.87984212951978,1,6.0,26.34000015258789,0.0,0.0,0.0,66.7128,C,27864057000000,
Raw,1732148980000,22220000000,,695591.0582813928,-1416184175780999936,0.0,93.29552111134281,2070.4624969804418,0.0,0,19,0.0,16431,347397926488891,396,23.871999740600586,11.98878013679425,0.14999,16,0.0,0.0,1575420030,,,,0,8.418727357788885,1,6.0,23.871999740600586,0.0,0.0,0.0,66.7128,C,27864057000000,
Raw,1732148980000,22220000000,,695591.0582813928,-1416184175780999936,0.0,93.29552111134281,2070.4624969804418,0.0,0,21,0.0,16431,347397921108144,235,25.5,538.4450530325506,0.14999,16,0.0,0.0,1575420030,,,,0,11.704008399524387,6,6.0,25.5,0.0,0.0,9.497873573636904,66.7128,C,27864057000000,
Raw,1732148980000,22220000000,,695591.0582813928,-1416184175780999936,0.0,93.29552111134281,2070.4624969804418,0.0,0,9,0.0,17,455688,316,5.0,851.6621048834426,0.14999,16,0.0,0.0,1600875010,,,,0,11.325399244414363,3,6.0,24.0,0.0,0.0,38.5691560631399,66.7128,C,27864057000000,
Raw,1732148980000,22220000000,,695591.0582813928,-1416184175780999936,0.0,93.29552111134281,2070.4624969804418,0.0,0,8,0.0,17,429808,487,5.0,847.1272810952464,0.14999,16,0.0,0.0,1605374980,,,,0,1.9019608002851363,3,6.0,20.0,0.0,0.0,38.5691560631399,66.7128,C,27864057000000,
Raw,1732148980000,22220000000,,695591.0582813928,-1416184175780999936,0.0,93.29552111134281,2070.4624969804418,0.0,0,15,0.0,16431,347397925507597,396,25.15999984741211,420.9636117906492,0.14999,16,0.0,0.0,1575420030,,,,0,10.278793151293836,1,6.0,25.15999984741211,0.0,0.0,0.0,66.7128,C,27864057000000,
Status,1732148980000,28,0,1,22,1575420030,40.20,314.0,69.0,1,0,0,35.2
Status,1732148980000,28,1,1,14,1575420030,35.50,18.0,67.0,1,0,0,30.5
Status,1732148980000,28,2,1,17,1575420030,35.50,166.0,66.0,1,0,0,30.5
Status,1732148980000,28,3,1,13,1575420030,34.40,272.0,56.0,1,0,0,29.400002
Status,1732148980000,28,4,1,30,1575420030,31.60,111.0,56.0,1,0,0,26.6
Status,1732148980000,28,5,2,135,1575420030,0.00,197.0,45.0,0,0,0,0.0
Status,1732148980000,28,6,1,19,1575420030,30.20,194.0,37.0,1,0,0,25.2
Status,1732148980000,28,7,1,15,1575420030,25.10,300.0,28.0,1,0,0,20.1
Status,1732148980000,28,8,1,7,1575420030,34.60,119.0,22.0,1,0,0,29.599998
Status,1732148980000,28,9,1,2,1575420030,26.40,68.0,21.0,1,0,0,21.4
Status,1732148980000,28,10,1,21,1575420030,25.30,50.0,13.0,1,0,0,20.3
Status,1732148980000,28,11,3,9,1602000000,24.90,50.0,45.0,1,0,0,19.9
Status,1732148980000,28,12,3,8,1602000000,30.20,273.0,38.0,1,0,0,25.2
Status,1732148980000,28,13,3,19,1602000000,0.00,58.0,35.0,0,0,0,0.0
Status,1732148980000,28,14,3,20,1602000000,0.00,138.0,31.0,0,0,0,0.0
Status,1732148980000,28,15,3,11,1602000000,0.00,289.0,13.0,0,0,0,0.0
