# 
# Header Description:
# 
# Version: v3.1.0.3 Platform: 13 Manufacturer: samsung Model: SM-S135DL GNSS Hardware Model Name: MediaTek,MT6631,MTK_MNLD_default,MNL_VER_default
# 
# Raw,utcTimeMillis,TimeNanos,LeapSecond,TimeUncertaintyNanos,FullBiasNanos,BiasNanos,BiasUncertaintyNanos,DriftNanosPerSecond,DriftUncertaintyNanosPerSecond,HardwareClockDiscontinuityCount,Svid,TimeOffsetNanos,State,ReceivedSvTimeNanos,ReceivedSvTimeUncertaintyNanos,Cn0DbHz,PseudorangeRateMetersPerSecond,PseudorangeRateUncertaintyMetersPerSecond,AccumulatedDeltaRangeState,AccumulatedDeltaRangeMeters,AccumulatedDeltaRangeUncertaintyMeters,CarrierFrequencyHz,CarrierCycles,CarrierPhase,CarrierPhaseUncertainty,MultipathIndicator,SnrInDb,ConstellationType,AgcDb,BasebandCn0DbHz,FullInterSignalBiasNanos,FullInterSignalBiasUncertaintyNanos,SatelliteInterSignalBiasNanos,SatelliteInterSignalBiasUncertaintyNanos,CodeType,ChipsetElapsedRealtimeNanos,IsFullTracking
# 
# UncalAccel,utcTimeMillis,elapsedRealtimeNanos,UncalAccelXMps2,UncalAccelYMps2,UncalAccelZMps2,BiasXMps2,BiasYMps2,BiasZMps2
# 
# Accel,utcTimeMillis,elapsedRealtimeNanos,AccelXMps2,AccelYMps2,AccelZMps2
# 
# UncalGyro,utcTimeMillis,elapsedRealtimeNanos,UncalGyroXRadPerSec,UncalGyroYRadPerSec,UncalGyroZRadPerSec,DriftXRadPerSec,DriftYRadPerSec,DriftZRadPerSec
# 
# Gyro,utcTimeMillis,elapsedRealtimeNanos,GyroXRadPerSec,GyroYRadPerSec,GyroZRadPerSec
# 
# UncalMag,utcTimeMillis,elapsedRealtimeNanos,UncalMagXMicroT,UncalMagYMicroT,UncalMagZMicroT,BiasXMicroT,BiasYMicroT,BiasZMicroT
# 
# Mag,utcTimeMillis,elapsedRealtimeNanos,MagXMicroT,MagYMicroT,MagZMicroT
# 
# Pressure,utcTimeMillis,elapsedRealtimeNanos,PressureHpa
# 
# OrientationDeg,utcTimeMillis,elapsedRealtimeNanos,yawDeg,rollDeg,pitchDeg
# 
# Fix,Provider,LatitudeDegrees,LongitudeDegrees,AltitudeMeters,SpeedMps,AccuracyMeters,BearingDegrees,UnixTimeMillis,SpeedAccuracyMps,BearingAccuracyDegrees,elapsedRealtimeNanos,VerticalAccuracyMeters,MockLocation,NumberOfUsedSignals,VerticalSpeedAccuracyMps,SolutionType
# 
# Nav,Svid,Type,Status,MessageId,Sub-messageId,Data(Bytes)
# 
# Status,UnixTimeMillis,SignalCount,SignalIndex,ConstellationType,Svid,CarrierFrequencyHz,Cn0DbHz,AzimuthDegrees,ElevationDegrees,UsedInFix,HasAlmanacData,HasEphemerisData,BasebandCn0DbHz
# 
# Agc,utcTimeMillis,TimeNanos,LeapSecond,TimeUncertaintyNanos,FullBiasNanos,BiasNanos,BiasUncertaintyNanos,DriftNanosPerSecond,DriftUncertaintyNanosPerSecond,HardwareClockDiscontinuityCount,AgcDb,CarrierFrequencyHz,ConstellationType
# 
Fix,FLP,37.4243906000,-122.1712323000,2.299999952316284,0.24831519,1.866,336.19327,1732146310195,1.8,179.9,25194043000000,0.98981476,0,,,
Status,,29,0,1,14,1575420030,44.60,317.0,74.0,1,0,0,39.6
Status,,29,1,1,30,1575420030,46.50,72.0,70.0,1,0,0,41.5
Status,,29,2,1,22,1575420030,45.00,270.0,59.0,1,0,0,40.0
Status,,29,3,1,13,1575420030,36.00,303.0,47.0,1,0,0,31.0
Status,,29,4,1,17,1575420030,42.90,176.0,44.0,1,0,0,37.9
Status,,29,5,1,7,1575420030,42.60,103.0,38.0,1,0,0,37.6
Status,,29,6,2,131,1575420030,46.00,3.0,23.0,0,0,0,41.0
Status,,29,7,1,19,1575420030,35.40,193.0,17.0,1,0,0,30.400002
Status,,29,8,1,15,1575420030,37.70,316.0,17.0,1,0,0,32.7
Status,,29,9,1,2,1575420030,29.30,88.0,16.0,1,0,0,24.3
Status,,29,10,1,21,1575420030,0.00,69.0,13.0,0,0,0,0.0
Status,,29,11,1,8,1575420030,21.50,39.0,9.0,1,0,0,16.5
Status,,29,12,1,5,1575420030,21.30,263.0,7.0,1,0,0,16.3
Status,,29,13,1,9,1575420030,0.00,159.0,1.0,0,0,0,0.0
Status,,29,14,3,9,1602000000,31.20,16.0,54.0,1,0,0,26.2
Status,,29,15,3,8,1602000000,34.60,304.0,38.0,1,0,0,29.599998
Status,,29,16,3,16,1602000000,23.20,66.0,15.0,1,0,0,18.2
Status,,29,17,3,20,1602000000,0.00,150.0,9.0,0,0,0,0.0
Status,,29,18,3,11,1602000000,0.00,271.0,1.0,0,0,0,0.0
Status,,29,19,3,17,1602000000,32.40,0.0,0.0,0,0,0,27.400002
Status,,29,20,6,29,1575420030,0.00,205.0,62.0,0,0,0,0.0
Status,,29,21,6,27,1575420030,41.20,36.0,59.0,1,0,0,36.2
Status,,29,22,6,21,1575420030,0.00,268.0,57.0,0,0,0,0.0
Status,,29,23,6,19,1575420030,38.60,298.0,50.0,1,0,0,33.6
Status,,29,24,6,7,1575420030,30.20,161.0,17.0,1,0,0,25.2
Status,,29,25,6,30,1575420030,0.00,58.0,11.0,0,0,0,0.0
Status,,29,26,6,15,1575420030,0.00,95.0,10.0,0,0,0,0.0
Status,,29,27,6,34,1575420030,0.00,48.0,6.0,0,0,0,0.0
Status,,29,28,6,13,1575420030,0.00,143.0,1.0,0,0,0,0.0
Fix,GPS,37.4243900000,-122.1712466667,14.3,0.30831861,1.8,77.54,1732146311000,1.7,179.9,25195043000000,35.3,0,,,
Raw,1732146311000,9536000000,,686231.1976507427,-1416181519464000000,0.0,88.56069212949845,2038.529960899985,0.0,0,22,0.0,16431,344728930237829,42,39.952999114990234,439.56909248098077,0.14999,16,0.0,0.0,1575420030,,,,0,27.74911689659127,1,6.0,39.952999114990234,0.0,0.0,0.0,66.7128,C,25195043000000,
Raw,1732146311000,9536000000,,686231.1976507427,-1416181519464000000,0.0,88.56069212949845,2038.529960899985,0.0,0,14,0.0,16431,344728932518255,42,39.60900115966797,588.4186059304108,0.14999,16,0.0,0.0,1575420030,,,,0,27.379694483448986,1,6.0,39.60900115966797,0.0,0.0,0.0,66.7128,C,25195043000000,
Raw,1732146311000,9536000000,,686231.1976507427,-1416181519464000000,0.0,88.56069212949845,2038.529960899985,0.0,0,15,0.0,16431,344728921746636,58,32.667999267578125,112.51285300343302,0.14999,16,0.0,0.0,1575420030,,,,0,19.707985399253875,1,6.0,32.667999267578125,0.0,0.0,0.0,66.7128,C,25195043000000,
Raw,1732146311000,9536000000,,686231.1976507427,-1416181519464000000,0.0,88.56069212949845,2038.529960899985,0.0,0,17,0.0,16431,344728928712688,51,37.85599899291992,112.10225352096428,0.14999,16,0.0,0.0,1575420030,,,,0,25.497333327161243,1,6.0,37.85599899291992,0.0,0.0,0.0,66.7128,C,25195043000000,
Raw,1732146311000,9536000000,,686231.1976507427,-1416181519464000000,0.0,88.56069212949845,2038.529960899985,0.0,0,7,0.0,16431,344728909758257,235,25.200000762939453,1196.3488175009234,0.14999,16,0.0,0.0,1575420030,,,,0,11.325399244414363,6,6.0,25.200000762939453,0.0,0.0,12.922570974124673,66.7128,C,25195043000000,
Raw,1732146311000,9536000000,,686231.1976507427,-1416181519464000000,0.0,88.56069212949845,2038.529960899985,0.0,0,19,0.0,16431,344728919748646,58,33.599998474121094,409.9065087325411,0.14999,16,0.0,0.0,1575420030,,,,0,20.97942188642434,6,6.0,33.599998474121094,0.0,0.0,12.922570974124673,66.7128,C,25195043000000,
Raw,1732146311000,9536000000,,686231.1976507427,-1416181519464000000,0.0,88.56069212949845,2038.529960899985,0.0,0,27,0.0,16431,344728919874262,51,36.20000076293945,854.4258383775871,0.14999,16,0.0,0.0,1575420030,,,,0,23.751074231921265,6,6.0,36.20000076293945,0.0,0.0,12.922570974124673,66.7128,C,25195043000000,
Raw,1732146311000,9536000000,,686231.1976507427,-1416181519464000000,0.0,88.56069212949845,2038.529960899985,0.0,0,9,0.0,17,454361,396,5.0,735.5411183011738,0.14999,16,0.0,0.0,1600875010,,,,0,12.524415179576026,3,6.0,21.0,0.0,0.0,21.969516900281974,66.7128,C,25195043000000,
Raw,1732146311000,9536000000,,686231.1976507427,-1416181519464000000,0.0,88.56069212949845,2038.529960899985,0.0,0,8,0.0,17,917210,74,5.0,396.8097043964483,0.14999,16,0.0,0.0,1605374980,,,,0,16.56744551040522,3,6.0,30.0,0.0,0.0,21.969516900281974,66.7128,C,25195043000000,
Raw,1732146311000,9536000000,,686231.1976507427,-1416181519464000000,0.0,88.56069212949845,2038.529960899985,0.0,0,16,0.0,17,173690,487,5.0,1098.0188169679043,0.14999,16,0.0,0.0,1601437440,,,,0,1.2092403443414472,3,6.0,18.0,0.0,0.0,21.969516900281974,66.7128,C,25195043000000,
Raw,1732146311000,9536000000,,686231.1976507427,-1416181519464000000,0.0,88.56069212949845,2038.529960899985,0.0,0,2,0.0,16431,344728919766964,316,24.339000701904297,380.8626117127772,0.14999,16,0.0,0.0,1575420030,,,,0,9.072700166194231,1,6.0,24.339000701904297,0.0,0.0,0.0,66.7128,C,25195043000000,
Raw,1732146311000,9536000000,,686231.1976507427,-1416181519464000000,0.0,88.56069212949845,2038.529960899985,0.0,0,7,0.0,16431,344728926557462,51,37.59600067138672,955.0598783153962,0.14999,16,0.0,0.0,1575420030,,,,0,25.214477307835462,1,6.0,37.59600067138672,0.0,0.0,0.0,66.7128,C,25195043000000,
Raw,1732146311000,9536000000,,686231.1976507427,-1416181519464000000,0.0,88.56069212949845,2038.529960899985,0.0,0,8,0.0,16431,344728918242909,797,16.468000411987305,1282.570713395564,0.14999,16,0.0,0.0,1575420030,,,,0,0.0,1,6.0,16.468000411987305,0.0,0.0,0.0,66.7128,C,25195043000000,
Raw,1732146311000,9536000000,,686231.1976507427,-1416181519464000000,0.0,88.56069212949845,2038.529960899985,0.0,0,5,0.0,16431,344728916556045,797,16.257999420166016,1041.3591739314438,0.14999,16,0.0,0.0,1575420030,,,,0,0.0,1,6.0,16.257999420166016,0.0,0.0,0.0,66.7128,C,25195043000000,
Raw,1732146311000,9536000000,,686231.1976507427,-1416181519464000000,0.0,88.56069212949845,2038.529960899985,0.0,0,13,0.0,16431,344728929540114,74,31.0310001373291,291.4797084083795,0.14999,16,0.0,0.0,1575420030,,,,0,17.78403598665058,1,6.0,31.0310001373291,0.0,0.0,0.0,66.7128,C,25195043000000,
Raw,1732146311000,9536000000,,686231.1976507427,-1416181519464000000,0.0,88.56069212949845,2038.529960899985,0.0,0,30,0.0,16431,344728931669488,31,41.486000061035156,688.0811074684251,0.14999,16,0.0,0.0,1575420030,,,,0,29.37314793297432,1,6.0,41.486000061035156,0.0,0.0,0.0,66.7128,C,25195043000000,
Raw,1732146311000,9536000000,,686231.1976507427,-1416181519464000000,0.0,88.56069212949845,2038.529960899985,0.0,0,19,0.0,16431,344728919998548,74,30.388999938964844,-87.43734097954086,0.14999,16,0.0,0.0,1575420030,,,,0,17.002336720839207,1,6.0,30.388999938964844,0.0,0.0,0.0,66.7128,C,25195043000000,
Fix,FLP,37.4243912000,-122.1712397000,2.299999952316284,0.23146307,1.833,335.4691,1732146311196,1.7,179.9,25195043000000,1.0001723,0,,,
Status,1732146311000,29,0,1,14,1575420030,38.40,318.0,74.0,1,0,0,33.4
Status,1732146311000,29,1,1,30,1575420030,50.30,72.0,70.0,1,0,0,45.3
Status,1732146311000,29,2,1,22,1575420030,43.40,270.0,59.0,1,0,0,38.4
Status,1732146311000,29,3,1,13,1575420030,47.40,303.0,47.0,1,0,0,42.4
Status,1732146311000,29,4,1,17,1575420030,0.00,176.0,44.0,0,0,0,0.0
Status,1732146311000,29,5,1,7,1575420030,47.50,103.0,38.0,1,0,0,42.5
Status,1732146311000,29,6,2,131,1575420030,42.00,3.0,23.0,0,0,0,37.0
Status,1732146311000,29,7,1,19,1575420030,42.10,193.0,17.0,1,0,0,37.1
Status,1732146311000,29,8,1,15,1575420030,37.60,316.0,17.0,1,0,0,32.6
Status,1732146311000,29,9,1,2,1575420030,0.00,88.0,16.0,0,0,0,0.0
Status,1732146311000,29,10,1,21,1575420030,0.00,69.0,13.0,0,0,0,0.0
Status,1732146311000,29,11,1,8,1575420030,21.50,39.0,9.0,1,0,0,16.5
Status,1732146311000,29,12,1,5,1575420030,28.10,263.0,7.0,1,0,0,23.1
Status,1732146311000,29,13,1,9,1575420030,0.00,159.0,1.0,0,0,0,0.0
Status,1732146311000,29,14,3,9,1602000000,34.60,16.0,54.0,1,0,0,29.599998
Status,1732146311000,29,15,3,8,1602000000,33.50,304.0,38.0,1,0,0,28.5
Status,1732146311000,29,16,3,16,1602000000,27.70,66.0,15.0,1,0,0,22.7
Status,1732146311000,29,17,3,20,1602000000,0.00,150.0,9.0,0,0,0,0.0
Status,1732146311000,29,18,3,11,1602000000,0.00,271.0,1.0,0,0,0,0.0
Status,1732146311000,29,19,3,17,1602000000,26.90,0.0,0.0,0,0,0,21.9
Status,1732146311000,29,20,6,29,1575420030,0.00,205.0,62.0,0,0,0,0.0
Status,1732146311000,29,21,6,27,1575420030,38.40,36.0,59.0,1,0,0,33.4
Status,1732146311000,29,22,6,21,1575420030,0.00,268.0,57.0,0,0,0,0.0
Status,1732146311000,29,23,6,19,1575420030,32.00,298.0,50.0,1,0,0,27.0
Status,1732146311000,29,24,6,7,1575420030,36.20,161.0,17.0,1,0,0,31.2
Status,1732146311000,29,25,6,30,1575420030,0.00,58.0,11.0,0,0,0,0.0
Status,1732146311000,29,26,6,15,1575420030,0.00,95.0,10.0,0,0,0,0.0
Status,1732146311000,29,27,6,34,1575420030,0.00,48.0,6.0,0,0,0,0.0
Status,1732146311000,29,28,6,13,1575420030,0.00,143.0,1.0,0,0,0,0.0
Fix,GPS,37.4243916667,-122.1712416667,14.3,0.44317582,1.8,50.75,1732146312000,1.3,123.1,25196043000000,33.6,0,,,
Raw,1732146312000,10536000000,,684212.7179196749,-1416181519464000000,0.0,84.96484868641635,2038.8222761635136,0.0,0,22,0.0,16431,344729930236361,42,38.44599914550781,439.9003409885619,0.14999,16,0.0,0.0,1575420030,,,,0,26.132653034299235,1,6.0,38.44599914550781,0.0,0.0,0.0,66.7128,C,25196043000000,
Raw,1732146312000,10536000000,,684212.7179196749,-1416181519464000000,0.0,84.96484868641635,2038.8222761635136,0.0,0,14,0.0,16431,344729932516293,58,33.409000396728516,587.8591536824034,0.14999,16,0.0,0.0,1575420030,,,,0,20.55008994997621,1,6.0,33.409000396728516,0.0,0.0,0.0,66.7128,C,25196043000000,
Raw,1732146312000,10536000000,,684212.7179196749,-1416181519464000000,0.0,84.96484868641635,2038.8222761635136,0.0,0,15,0.0,16431,344729921746256,74,32.564998626708984,112.40530176990562,0.14999,16,0.0,0.0,1575420030,,,,0,19.57866455426924,1,6.0,32.564998626708984,0.0,0.0,0.0,66.7128,C,25196043000000,
Raw,1732146312000,10536000000,,684212.7179196749,-1416181519464000000,0.0,84.96484868641635,2038.8222761635136,0.0,0,7,0.0,16431,344729909754265,74,31.200000762939453,1196.5877995939104,0.14999,16,0.0,0.0,1575420030,,,,0,18.318986703565525,6,6.0,31.200000762939453,0.0,0.0,12.69727929991952,66.7128,C,25196043000000,
Raw,1732146312000,10536000000,,684212.7179196749,-1416181519464000000,0.0,84.96484868641635,2038.8222761635136,0.0,0,19,0.0,16431,344729919747281,235,27.0,409.6631595484303,0.14999,16,0.0,0.0,1575420030,,,,0,13.558064640989615,6,6.0,27.0,0.0,0.0,12.69727929991952,66.7128,C,25196043000000,
Raw,1732146312000,10536000000,,684212.7179196749,-1416181519464000000,0.0,84.96484868641635,2038.8222761635136,0.0,0,7,0.0,16431,344729926554262,31,42.52299880981445,955.2618795090797,0.14999,16,0.0,0.0,1575420030,,,,0,30.464160594715423,1,6.0,42.52299880981445,0.0,0.0,0.0,66.7128,C,25196043000000,
Raw,1732146312000,10536000000,,684212.7179196749,-1416181519464000000,0.0,84.96484868641635,2038.8222761635136,0.0,0,27,0.0,16431,344729919871415,58,33.400001525878906,854.3814241316899,0.14999,16,0.0,0.0,1575420030,,,,0,20.72945097644488,6,6.0,33.400001525878906,0.0,0.0,12.69727929991952,66.7128,C,25196043000000,
Raw,1732146312000,10536000000,,684212.7179196749,-1416181519464000000,0.0,84.96484868641635,2038.8222761635136,0.0,0,9,0.0,17,451883,74,5.0,734.9806405499589,0.14999,16,0.0,0.0,1600875010,,,,0,16.522892540822358,3,6.0,30.0,0.0,0.0,22.951063633063143,66.7128,C,25196043000000,
Raw,1732146312000,10536000000,,684212.7179196749,-1416181519464000000,0.0,84.96484868641635,2038.8222761635136,0.0,0,8,0.0,17,915875,235,5.0,397.1453493118138,0.14999,16,0.0,0.0,1605374980,,,,0,15.311590130776763,3,6.0,29.0,0.0,0.0,22.951063633063143,66.7128,C,25196043000000,
Raw,1732146312000,10536000000,,684212.7179196749,-1416181519464000000,0.0,84.96484868641635,2038.8222761635136,0.0,0,16,0.0,17,170025,396,5.0,1096.945055721866,0.14999,16,0.0,0.0,1601437440,,,,0,8.161363098448174,3,6.0,22.0,0.0,0.0,22.951063633063143,66.7128,C,25196043000000,
Raw,1732146312000,10536000000,,684212.7179196749,-1416181519464000000,0.0,84.96484868641635,2038.8222761635136,0.0,0,8,0.0,16431,344729918238626,797,16.468000411987305,1284.303147736055,0.14999,16,0.0,0.0,1575420030,,,,0,0.0,1,6.0,16.468000411987305,0.0,0.0,0.0,66.7128,C,25196043000000,
Raw,1732146312000,10536000000,,684212.7179196749,-1416181519464000000,0.0,84.96484868641635,2038.8222761635136,0.0,0,5,0.0,16431,344729916552538,396,23.097999572753906,1041.3547139234875,0.14999,16,0.0,0.0,1575420030,,,,0,7.242999591295867,1,6.0,23.097999572753906,0.0,0.0,0.0,66.7128,C,25196043000000,
Raw,1732146312000,10536000000,,684212.7179196749,-1416181519464000000,0.0,84.96484868641635,2038.8222761635136,0.0,0,13,0.0,16431,344729929539140,31,42.35900115966797,291.5117879447729,0.14999,16,0.0,0.0,1575420030,,,,0,30.292983953979437,1,6.0,42.35900115966797,0.0,0.0,0.0,66.7128,C,25196043000000,
Raw,1732146312000,10536000000,,684212.7179196749,-1416181519464000000,0.0,84.96484868641635,2038.8222761635136,0.0,0,30,0.0,16431,344729931667191,28,45.3390007019043,688.2286593983097,0.14999,16,0.0,0.0,1575420030,,,,0,33.397345529058775,1,6.0,45.3390007019043,0.0,0.0,0.0,66.7128,C,25196043000000,
Raw,1732146312000,10536000000,,684212.7179196749,-1416181519464000000,0.0,84.96484868641635,2038.8222761635136,0.0,0,19,0.0,16431,344729919998838,51,37.12099838256836,-87.77267782774854,0.14999,16,0.0,0.0,1575420030,,,,0,24.700184762007382,1,6.0,37.12099838256836,0.0,0.0,0.0,66.7128,C,25196043000000,
Fix,FLP,37.4243925000,-122.1712410000,2.299999952316284,0.22698858,1.816,341.3586,1732146312195,1.3,123.1,25196043000000,1.012653,0,,,
Status,1732146312000,29,0,1,14,1575420030,38.00,318.0,74.0,1,0,0,33.0
Status,1732146312000,29,1,1,30,1575420030,50.20,72.0,70.0,1,0,0,45.2
Status,1732146312000,29,2,1,22,1575420030,48.00,270.0,59.0,1,0,0,43.0
Status,1732146312000,29,3,1,13,1575420030,37.40,303.0,47.0,1,0,0,32.4
Status,1732146312000,29,4,1,17,1575420030,43.90,176.0,44.0,1,0,0,38.9
Status,1732146312000,29,5,1,7,1575420030,44.10,103.0,38.0,1,0,0,39.1
Status,1732146312000,29,6,2,131,1575420030,44.00,3.0,23.0,0,0,0,39.0
Status,1732146312000,29,7,1,19,1575420030,40.40,193.0,17.0,1,0,0,35.4
Status,1732146312000,29,8,1,15,1575420030,34.10,316.0,17.0,1,0,0,29.099998
Status,1732146312000,29,9,1,2,1575420030,0.00,88.0,16.0,0,0,0,0.0
Status,1732146312000,29,10,1,21,1575420030,0.00,69.0,13.0,0,0,0,0.0
Status,1732146312000,29,11,1,8,1575420030,0.00,39.0,9.0,0,0,0,0.0
Status,1732146312000,29,12,1,5,1575420030,30.90,263.0,7.0,1,0,0,25.9
Status,1732146312000,29,13,1,9,1575420030,0.00,159.0,1.0,0,0,0,0.0
Status,1732146312000,29,14,3,9,1602000000,34.10,16.0,54.0,1,0,0,29.099998
Status,1732146312000,29,15,3,8,1602000000,36.30,304.0,38.0,1,0,0,31.3
Status,1732146312000,29,16,3,16,1602000000,23.20,66.0,15.0,1,0,0,18.2
Status,1732146312000,29,17,3,20,1602000000,0.00,150.0,9.0,0,0,0,0.0
Status,1732146312000,29,18,3,11,1602000000,0.00,271.0,1.0,0,0,0,0.0
Status,1732146312000,29,19,3,17,1602000000,39.10,0.0,0.0,0,0,0,34.1
Status,1732146312000,29,20,6,29,1575420030,0.00,205.0,62.0,0,0,0,0.0
Status,1732146312000,29,21,6,27,1575420030,38.40,36.0,59.0,1,0,0,33.4
Status,1732146312000,29,22,6,21,1575420030,0.00,268.0,57.0,0,0,0,0.0
Status,1732146312000,29,23,6,19,1575420030,32.60,298.0,50.0,1,0,0,27.599998
Status,1732146312000,29,24,6,7,1575420030,32.50,161.0,17.0,1,0,0,27.5
Status,1732146312000,29,25,6,30,1575420030,0.00,58.0,11.0,0,0,0,0.0
Status,1732146312000,29,26,6,15,1575420030,0.00,95.0,10.0,0,0,0,0.0
Status,1732146312000,29,27,6,34,1575420030,0.00,48.0,6.0,0,0,0,0.0
Status,1732146312000,29,28,6,13,1575420030,0.00,143.0,1.0,0,0,0,0.0
Fix,GPS,37.4243916667,-122.1712433333,14.3,0.4313372,1.8,57.0,1732146313000,1.1,106.8,25197043000000,33.3,0,,,
Raw,1732146313000,11536000000,,681877.0395818297,-1416181519464000000,0.0,83.83015765304538,2037.987890824914,0.0,0,22,0.0,16431,344730930234895,31,42.970001220703125,439.84775006141155,0.14999,16,0.0,0.0,1575420030,,,,0,30.930953408886133,1,6.0,42.970001220703125,0.0,0.0,0.0,66.7128,C,25197043000000,
Raw,1732146313000,11536000000,,681877.0395818297,-1416181519464000000,0.0,83.83015765304538,2037.987890824914,0.0,0,14,0.0,16431,344730932514328,74,33.04600143432617,587.4877186448001,0.14999,16,0.0,0.0,1575420030,,,,0,20.13923902627411,1,6.0,33.04600143432617,0.0,0.0,0.0,66.7128,C,25197043000000,
Raw,1732146313000,11536000000,,681877.0395818297,-1416181519464000000,0.0,83.83015765304538,2037.987890824914,0.0,0,15,0.0,16431,344730921745883,235,29.072999954223633,112.2372152200559,0.14999,16,0.0,0.0,1575420030,,,,0,15.403117738897285,1,6.0,29.072999954223633,0.0,0.0,0.0,66.7128,C,25197043000000,
Raw,1732146313000,11536000000,,681877.0395818297,-1416181519464000000,0.0,83.83015765304538,2037.987890824914,0.0,0,7,0.0,16431,344730909750275,235,27.5,1195.8121298768592,0.14999,16,0.0,0.0,1575420030,,,,0,14.064181946285021,6,6.0,27.5,0.0,0.0,11.750947176144924,66.7128,C,25197043000000,
Raw,1732146313000,11536000000,,681877.0395818297,-1416181519464000000,0.0,83.83015765304538,2037.987890824914,0.0,0,19,0.0,16431,344730919745916,235,27.600000381469727,409.4697067033296,0.14999,16,0.0,0.0,1575420030,,,,0,14.253306766173855,6,6.0,27.600000381469727,0.0,0.0,11.750947176144924,66.7128,C,25197043000000,
Raw,1732146313000,11536000000,,681877.0395818297,-1416181519464000000,0.0,83.83015765304538,2037.987890824914,0.0,0,7,0.0,16431,344730926551077,42,39.12300109863281,954.6503938349166,0.14999,16,0.0,0.0,1575420030,,,,0,26.86342886897309,1,6.0,39.12300109863281,0.0,0.0,0.0,66.7128,C,25197043000000,
Raw,1732146313000,11536000000,,681877.0395818297,-1416181519464000000,0.0,83.83015765304538,2037.987890824914,0.0,0,27,0.0,16431,344730919868565,58,33.375,853.9146099656064,0.14999,16,0.0,0.0,1575420030,,,,0,20.13923902627411,6,6.0,33.375,0.0,0.0,11.750947176144924,66.7128,C,25197043000000,
Raw,1732146313000,11536000000,,681877.0395818297,-1416181519464000000,0.0,83.83015765304538,2037.987890824914,0.0,0,9,0.0,17,449420,235,5.0,734.9285200967095,0.14999,16,0.0,0.0,1600875010,,,,0,15.911572707510285,3,6.0,29.0,0.0,0.0,25.280157661815508,66.7128,C,25197043000000,
Raw,1732146313000,11536000000,,681877.0395818297,-1416181519464000000,0.0,83.83015765304538,2037.987890824914,0.0,0,8,0.0,17,914543,74,5.0,397.6822352834715,0.14999,16,0.0,0.0,1605374980,,,,0,18.405948088801402,3,6.0,31.0,0.0,0.0,25.280157661815508,66.7128,C,25197043000000,
Raw,1732146313000,11536000000,,681877.0395818297,-1416181519464000000,0.0,83.83015765304538,2037.987890824914,0.0,0,16,0.0,17,166371,487,5.0,1098.4855425082355,0.14999,16,0.0,0.0,1601437440,,,,0,1.2092403443414472,3,6.0,19.0,0.0,0.0,25.280157661815508,66.7128,C,25197043000000,
Raw,1732146313000,11536000000,,681877.0395818297,-1416181519464000000,0.0,83.83015765304538,2037.987890824914,0.0,0,17,0.0,16431,344730928711950,42,38.882999420166016,111.806499243368,0.14999,16,0.0,0.0,1575420030,,,,0,26.602991461056078,1,6.0,38.882999420166016,0.0,0.0,0.0,66.7128,C,25197043000000,
Raw,1732146313000,11536000000,,681877.0395818297,-1416181519464000000,0.0,83.83015765304538,2037.987890824914,0.0,0,5,0.0,16431,344730916549102,316,25.93000030517578,1040.940862351884,0.14999,16,0.0,0.0,1575420030,,,,0,11.325399244414363,1,6.0,25.93000030517578,0.0,0.0,0.0,66.7128,C,25197043000000,
Raw,1732146313000,11536000000,,681877.0395818297,-1416181519464000000,0.0,83.83015765304538,2037.987890824914,0.0,0,13,0.0,16431,344730929538168,74,32.36800003051758,291.8496103182478,0.14999,16,0.0,0.0,1575420030,,,,0,19.35875686823998,1,6.0,32.36800003051758,0.0,0.0,0.0,66.7128,C,25197043000000,
Raw,1732146313000,11536000000,,681877.0395818297,-1416181519464000000,0.0,83.83015765304538,2037.987890824914,0.0,0,30,0.0,16431,344730931664893,31,45.2400016784668,688.071165367356,0.14999,16,0.0,0.0,1575420030,,,,0,31.34036202096223,1,6.0,45.2400016784668,0.0,0.0,0.0,66.7128,C,25197043000000,
Raw,1732146313000,11536000000,,681877.0395818297,-1416181519464000000,0.0,83.83015765304538,2037.987890824914,0.0,0,19,0.0,16431,344730919999122,51,35.433998107910156,-88.28864499818278,0.14999,16,0.0,0.0,1575420030,,,,0,22.835924420707762,1,6.0,35.433998107910156,0.0,0.0,0.0,66.7128,C,25197043000000,
Fix,FLP,37.4243931000,-122.1712422000,2.0999999046325684,0.21890779,1.816,349.25168,1732146313195,1.1,106.8,25197043000000,1.0501416,0,,,
Status,1732146313000,29,0,1,14,1575420030,41.90,318.0,74.0,1,0,0,36.9
Status,1732146313000,29,1,1,30,1575420030,47.40,72.0,70.0,1,0,0,42.4
Status,1732146313000,29,2,1,22,1575420030,43.50,270.0,59.0,1,0,0,38.5
Status,1732146313000,29,3,1,13,1575420030,36.30,303.0,47.0,1,0,0,31.3
Status,1732146313000,29,4,1,17,1575420030,35.70,176.0,44.0,1,0,0,30.7
Status,1732146313000,29,5,1,7,1575420030,36.10,103.0,38.0,1,0,0,31.099998
Status,1732146313000,29,6,2,131,1575420030,32.00,3.0,23.0,0,0,0,27.0
Status,1732146313000,29,7,1,19,1575420030,39.70,193.0,17.0,1,0,0,34.7
Status,1732146313000,29,8,1,15,1575420030,36.40,316.0,17.0,1,0,0,31.400002
Status,1732146313000,29,9,1,2,1575420030,0.00,88.0,16.0,0,0,0,0.0
Status,1732146313000,29,10,1,21,1575420030,0.00,69.0,13.0,0,0,0,0.0
Status,1732146313000,29,11,1,8,1575420030,0.00,39.0,9.0,0,0,0,0.0
Status,1732146313000,29,12,1,5,1575420030,26.50,263.0,7.0,1,0,0,21.5
Status,1732146313000,29,13,1,9,1575420030,0.00,159.0,1.0,0,0,0,0.0
Status,1732146313000,29,14,3,9,1602000000,30.30,16.0,54.0,1,0,0,25.3
Status,1732146313000,29,15,3,8,1602000000,31.30,304.0,38.0,1,0,0,26.3
Status,1732146313000,29,16,3,16,1602000000,23.20,66.0,15.0,1,0,0,18.2
Status,1732146313000,29,17,3,20,1602000000,0.00,150.0,9.0,0,0,0,0.0
Status,1732146313000,29,18,3,11,1602000000,0.00,271.0,1.0,0,0,0,0.0
Status,1732146313000,29,19,3,17,1602000000,38.80,0.0,0.0,0,0,0,33.8
Status,1732146313000,29,20,6,29,1575420030,0.00,205.0,62.0,0,0,0,0.0
Status,1732146313000,29,21,6,27,1575420030,38.50,36.0,59.0,1,0,0,33.5
Status,1732146313000,29,22,6,21,1575420030,0.00,268.0,57.0,0,0,0,0.0
Status,1732146313000,29,23,6,19,1575420030,35.20,298.0,50.0,1,0,0,30.2
Status,1732146313000,29,24,6,7,1575420030,27.50,161.0,17.0,1,0,0,22.5
Status,1732146313000,29,25,6,30,1575420030,0.00,58.0,11.0,0,0,0,0.0
Status,1732146313000,29,26,6,15,1575420030,0.00,95.0,10.0,0,0,0,0.0
Status,1732146313000,29,27,6,34,1575420030,0.00,48.0,6.0,0,0,0,0.0
Status,1732146313000,29,28,6,13,1575420030,0.00,143.0,1.0,0,0,0,0.0
Fix,GPS,37.4243966667,-122.1712433333,14.400000000000002,0.5605325,1.8,34.51,1732146314000,1.0,67.5,25198043000000,33.0,0,,,
Raw,1732146314000,12536000000,,83.71306080604293,-1416181519464000000,0.0,83.71306080604293,2037.2361535955267,0.0,0,22,0.0,16431,344731930233427,42,38.4630012512207,439.8809213705859,0.14999,16,0.0,0.0,1575420030,,,,0,26.153050436169444,1,6.0,38.4630012512207,0.0,0.0,0.0,66.7128,C,25198043000000,
Raw,1732146314000,12536000000,,83.71306080604293,-1416181519464000000,0.0,83.71306080604293,2037.2361535955267,0.0,0,14,0.0,16431,344731932512370,51,36.909000396728516,588.2280335071151,0.14999,17,7353.681555932751,0.00022499999613501132,1575420030,,,,0,24.464206970306098,1,6.0,36.909000396728516,0.0,0.0,0.0,66.7128,C,25198043000000,
Raw,1732146314000,12536000000,,83.71306080604293,-1416181519464000000,0.0,83.71306080604293,2037.2361535955267,0.0,0,15,0.0,16431,344731921745501,74,31.409000396728516,112.77380992728762,0.14999,16,0.0,0.0,1575420030,,,,0,18.234901926501884,1,6.0,31.409000396728516,0.0,0.0,0.0,66.7128,C,25198043000000,
Raw,1732146314000,12536000000,,83.71306080604293,-1416181519464000000,0.0,83.71306080604293,2037.2361535955267,0.0,0,7,0.0,16431,344731909746289,235,22.5,1196.1018445603481,0.14999,16,0.0,0.0,1575420030,,,,0,7.822273510002198,6,6.0,22.5,0.0,0.0,9.527910754533556,66.7128,C,25198043000000,
Raw,1732146314000,12536000000,,83.71306080604293,-1416181519464000000,0.0,83.71306080604293,2037.2361535955267,0.0,0,19,0.0,16431,344731919744549,74,30.200000762939453,409.5944475508549,0.14999,16,0.0,0.0,1575420030,,,,0,17.156756603738444,6,6.0,30.200000762939453,0.0,0.0,9.527910754533556,66.7128,C,25198043000000,
Raw,1732146314000,12536000000,,83.71306080604293,-1416181519464000000,0.0,83.71306080604293,2037.2361535955267,0.0,0,7,0.0,16431,344731926547899,74,31.05900001525879,955.296165820243,0.14999,16,0.0,0.0,1575420030,,,,0,17.819561147166638,1,6.0,31.05900001525879,0.0,0.0,0.0,66.7128,C,25198043000000,
Raw,1732146314000,12536000000,,83.71306080604293,-1416181519464000000,0.0,83.71306080604293,2037.2361535955267,0.0,0,27,0.0,16431,344731919865717,51,33.49599838256836,853.5650568420383,0.14999,16,0.0,0.0,1575420030,,,,0,23.329078970998502,6,6.0,33.49599838256836,0.0,0.0,9.527910754533556,66.7128,C,25198043000000,
Raw,1732146314000,12536000000,,83.71306080604293,-1416181519464000000,0.0,83.71306080604293,2037.2361535955267,0.0,0,9,0.0,17,446969,316,5.0,734.1899184105298,0.14999,16,0.0,0.0,1600875010,,,,0,11.404427735016371,3,6.0,25.0,0.0,0.0,29.104965687669562,66.7128,C,25198043000000,
Raw,1732146314000,12536000000,,83.71306080604293,-1416181519464000000,0.0,83.71306080604293,2037.2361535955267,0.0,0,8,0.0,17,913220,235,5.0,397.1549235351535,0.14999,16,0.0,0.0,1605374980,,,,0,12.710615013804354,3,6.0,27.0,0.0,0.0,29.104965687669562,66.7128,C,25198043000000,
Raw,1732146314000,12536000000,,83.71306080604293,-1416181519464000000,0.0,83.71306080604293,2037.2361535955267,0.0,0,16,0.0,17,162707,487,5.0,1098.7019949327369,0.14999,16,0.0,0.0,1601437440,,,,0,1.2092403443414472,3,6.0,20.0,0.0,0.0,29.104965687669562,66.7128,C,25198043000000,
Raw,1732146314000,12536000000,,83.71306080604293,-1416181519464000000,0.0,83.71306080604293,2037.2361535955267,0.0,0,17,0.0,16431,344731928711576,74,30.69499969482422,112.07563284847565,0.14999,16,0.0,0.0,1575420030,,,,0,17.38335788039637,1,6.0,30.69499969482422,0.0,0.0,0.0,66.7128,C,25198043000000,
Raw,1732146314000,12536000000,,83.71306080604293,-1416181519464000000,0.0,83.71306080604293,2037.2361535955267,0.0,0,5,0.0,16431,344731916545614,487,21.518999099731445,1042.2170750451876,0.14999,16,0.0,0.0,1575420030,,,,0,4.76416950540884,1,6.0,21.518999099731445,0.0,0.0,0.0,66.7128,C,25198043000000,
Raw,1732146314000,12536000000,,83.71306080604293,-1416181519464000000,0.0,83.71306080604293,2037.2361535955267,0.0,0,13,0.0,16431,344731929537194,74,31.316999435424805,290.88759589377617,0.14999,16,0.0,0.0,1575420030,,,,0,18.115798733263087,1,6.0,31.316999435424805,0.0,0.0,0.0,66.7128,C,25198043000000,
Raw,1732146314000,12536000000,,83.71306080604293,-1416181519464000000,0.0,83.71306080604293,2037.2361535955267,0.0,0,30,0.0,16431,344731931662598,31,42.43199920654297,688.0059377509964,0.14999,16,0.0,0.0,1575420030,,,,0,30.36855041101954,1,6.0,42.43199920654297,0.0,0.0,0.0,66.7128,C,25198043000000,
Raw,1732146314000,12536000000,,83.71306080604293,-1416181519464000000,0.0,83.71306080604293,2037.2361535955267,0.0,0,19,0.0,16431,344731919999412,58,34.72200012207031,-87.91307516153678,0.14999,16,0.0,0.0,1575420030,,,,0,22.044805974518617,1,6.0,34.72200012207031,0.0,0.0,0.0,66.7128,C,25198043000000,
Fix,FLP,37.4243961000,-122.1712426000,2.299999952316284,0.24352942,1.8,0.6957121,1732146314195,1.0,67.5,25198043000000,1.032529,0,,,
Fix,FLP,37.4243967000,-122.1712428000,2.4000000953674316,0.24352042,1.872,0.6203137,1732146314487,1.5,45.0,25198335000000,0.81149036,0,,,
Fix,NLP,37.4241946000,-122.1712045000,2.4000000953674316,,26.287,,1732146314488,,,25198335000000,1.0,0,,,
Status,1732146314000,29,0,1,14,1575420030,38.00,318.0,74.0,1,0,0,33.0
Status,1732146314000,29,1,1,30,1575420030,44.00,72.0,70.0,1,0,0,39.0
Status,1732146314000,29,2,1,22,1575420030,43.70,270.0,59.0,1,0,0,38.7
Status,1732146314000,29,3,1,13,1575420030,39.40,303.0,47.0,1,0,0,34.4
Status,1732146314000,29,4,1,17,1575420030,41.40,176.0,44.0,1,0,0,36.4
Status,1732146314000,29,5,1,7,1575420030,35.30,103.0,38.0,1,0,0,30.3
Status,1732146314000,29,6,2,131,1575420030,43.00,3.0,23.0,0,0,0,38.0
Status,1732146314000,29,7,1,19,1575420030,41.00,193.0,17.0,1,0,0,36.0
Status,1732146314000,29,8,1,15,1575420030,38.50,316.0,17.0,1,0,0,33.5
Status,1732146314000,29,9,1,2,1575420030,0.00,88.0,16.0,0,0,0,0.0
Status,1732146314000,29,10,1,21,1575420030,0.00,69.0,13.0,0,0,0,0.0
Status,1732146314000,29,11,1,8,1575420030,0.00,39.0,9.0,0,0,0,0.0
Status,1732146314000,29,12,1,5,1575420030,25.70,263.0,7.0,1,0,0,20.7
Status,1732146314000,29,13,1,9,1575420030,0.00,159.0,1.0,0,0,0,0.0
Status,1732146314000,29,14,3,9,1602000000,33.80,16.0,54.0,1,0,0,28.8
Status,1732146314000,29,15,3,8,1602000000,35.50,304.0,38.0,1,0,0,30.5
Status,1732146314000,29,16,3,16,1602000000,23.20,66.0,15.0,1,0,0,18.2
Status,1732146314000,29,17,3,20,1602000000,0.00,150.0,9.0,0,0,0,0.0
Status,1732146314000,29,18,3,11,1602000000,0.00,271.0,1.0,0,0,0,0.0
Status,1732146314000,29,19,3,17,1602000000,41.40,0.0,0.0,0,0,0,36.4
Status,1732146314000,29,20,6,29,1575420030,0.00,205.0,62.0,0,0,0,0.0
Status,1732146314000,29,21,6,27,1575420030,41.40,36.0,59.0,1,0,0,36.4
Status,1732146314000,29,22,6,21,1575420030,0.00,268.0,57.0,0,0,0,0.0
Status,1732146314000,29,23,6,19,1575420030,28.80,298.0,50.0,1,0,0,23.8
Status,1732146314000,29,24,6,7,1575420030,28.40,161.0,17.0,1,0,0,23.4
Status,1732146314000,29,25,6,30,1575420030,0.00,58.0,11.0,0,0,0,0.0
Status,1732146314000,29,26,6,15,1575420030,0.00,95.0,10.0,0,0,0,0.0
Status,1732146314000,29,27,6,34,1575420030,0.00,48.0,6.0,0,0,0,0.0
Status,1732146314000,29,28,6,13,1575420030,0.00,143.0,1.0,0,0,0,0.0
Fix,GPS,37.4243983333,-122.1712366667,14.599999999999998,0.5054572,1.7,54.38,1732146315000,0.9,73.1,25199043000000,33.1,0,,,
Raw,1732146315000,13536000000,,84.16467099299076,-1416181519464000000,0.0,84.16467099299076,2034.638517998692,0.0,0,22,0.0,16431,344732930231955,42,38.66999816894531,439.38534944486804,0.14999,16,0.0,0.0,1575420030,,,,0,26.374316247389196,1,6.0,38.66999816894531,0.0,0.0,0.0,66.7128,C,25199043000000,
Raw,1732146315000,13536000000,,84.16467099299076,-1416181519464000000,0.0,84.16467099299076,2034.638517998692,0.0,0,14,0.0,16431,344732932510413,58,32.99100112915039,586.972448350609,0.14999,17,7941.20031170323,0.00039999998989515007,1575420030,,,,0,20.07111405243588,1,6.0,32.99100112915039,0.0,0.0,0.0,66.7128,C,25199043000000,
Raw,1732146315000,13536000000,,84.16467099299076,-1416181519464000000,0.0,84.16467099299076,2034.638517998692,0.0,0,15,0.0,16431,344732921745126,58,33.45000076293945,112.37361713005004,0.14999,16,0.0,0.0,1575420030,,,,0,20.601715003216867,1,6.0,33.45000076293945,0.0,0.0,0.0,66.7128,C,25199043000000,
Raw,1732146315000,13536000000,,84.16467099299076,-1416181519464000000,0.0,84.16467099299076,2034.638517998692,0.0,0,7,0.0,16431,344732909742299,235,23.399999618530273,1195.4649925909341,0.14999,16,0.0,0.0,1575420030,,,,0,9.072700166194231,6,6.0,23.399999618530273,0.0,0.0,7.996395284534478,66.7128,C,25199043000000,
Raw,1732146315000,13536000000,,84.16467099299076,-1416181519464000000,0.0,84.16467099299076,2034.638517998692,0.0,0,19,0.0,16431,344732919743181,316,23.799999237060547,409.1776690990302,0.14999,16,0.0,0.0,1575420030,,,,0,9.54487563006125,6,6.0,23.799999237060547,0.0,0.0,7.996395284534478,66.7128,C,25199043000000,
Raw,1732146315000,13536000000,,84.16467099299076,-1416181519464000000,0.0,84.16467099299076,2034.638517998692,0.0,0,7,0.0,16431,344732926544716,74,30.268999099731445,953.9597430195307,0.14999,16,0.0,0.0,1575420030,,,,0,16.864929951438796,1,6.0,30.268999099731445,0.0,0.0,0.0,66.7128,C,25199043000000,
Raw,1732146315000,13536000000,,84.16467099299076,-1416181519464000000,0.0,84.16467099299076,2034.638517998692,0.0,0,27,0.0,16431,344732919862870,51,36.400001525878906,853.2686521466151,0.14999,16,0.0,0.0,1575420030,,,,0,23.963367234542634,6,6.0,36.400001525878906,0.0,0.0,7.996395284534478,66.7128,C,25199043000000,
Raw,1732146315000,13536000000,,84.16467099299076,-1416181519464000000,0.0,84.16467099299076,2034.638517998692,0.0,0,9,0.0,17,444524,316,5.0,734.1545313659552,0.14999,16,0.0,0.0,1600875010,,,,0,15.608006136225823,3,6.0,26.0,0.0,0.0,32.81513186195622,66.7128,C,25199043000000,
Raw,1732146315000,13536000000,,84.16467099299076,-1416181519464000000,0.0,84.16467099299076,2034.638517998692,0.0,0,8,0.0,17,911896,235,5.0,397.96544992816735,0.14999,16,0.0,0.0,1605374980,,,,0,17.502769560125095,3,6.0,28.0,0.0,0.0,32.81513186195622,66.7128,C,25199043000000,
Raw,1732146315000,13536000000,,84.16467099299076,-1416181519464000000,0.0,84.16467099299076,2034.638517998692,0.0,0,16,0.0,17,159039,487,5.0,1097.8567518713498,0.14999,16,0.0,0.0,1601437440,,,,0,2.430319652541007,3,6.0,20.0,0.0,0.0,32.81513186195622,66.7128,C,25199043000000,
Raw,1732146315000,13536000000,,84.16467099299076,-1416181519464000000,0.0,84.16467099299076,2034.638517998692,0.0,0,17,0.0,16431,344732928711201,51,36.37099838256836,111.00653177463873,0.14999,16,0.0,0.0,1575420030,,,,0,23.8755415152232,1,6.0,36.37099838256836,0.0,0.0,0.0,66.7128,C,25199043000000,
Raw,1732146315000,13536000000,,84.16467099299076,-1416181519464000000,0.0,84.16467099299076,2034.638517998692,0.0,0,5,0.0,16431,344732916542145,797,20.707000732421875,1039.6123374819276,0.14999,16,0.0,0.0,1575420030,,,,0,3.3852985176750705,1,6.0,20.707000732421875,0.0,0.0,0.0,66.7128,C,25199043000000,
Raw,1732146315000,13536000000,,84.16467099299076,-1416181519464000000,0.0,84.16467099299076,2034.638517998692,0.0,0,13,0.0,16431,344732929536224,58,34.375,291.10924899751666,0.14999,16,0.0,0.0,1575420030,,,,0,21.65473897338838,1,6.0,34.375,0.0,0.0,0.0,66.7128,C,25199043000000,
Raw,1732146315000,13536000000,,84.16467099299076,-1416181519464000000,0.0,84.16467099299076,2034.638517998692,0.0,0,30,0.0,16431,344732931660305,42,38.98099899291992,686.9658267288748,0.14999,16,0.0,0.0,1575420030,,,,0,26.711926953005573,1,6.0,38.98099899291992,0.0,0.0,0.0,66.7128,C,25199043000000,
Raw,1732146315000,13536000000,,84.16467099299076,-1416181519464000000,0.0,84.16467099299076,2034.638517998692,0.0,0,19,0.0,16431,344732919999705,51,35.97700119018555,-88.23442802646507,0.14999,16,0.0,0.0,1575420030,,,,0,23.441156521358472,1,6.0,35.97700119018555,0.0,0.0,0.0,66.7128,C,25199043000000,
Fix,FLP,37.4243983000,-122.1712399000,2.4000000953674316,0.25673306,1.848,11.465394,1732146315195,0.9,73.1,25199043000000,0.81670135,0,,,
Status,1732146315000,29,0,1,14,1575420030,46.10,318.0,74.0,1,0,0,41.1
Status,1732146315000,29,1,1,30,1575420030,44.10,72.0,70.0,1,0,0,39.1
Status,1732146315000,29,2,1,22,1575420030,42.80,270.0,59.0,1,0,0,37.8
Status,1732146315000,29,3,1,13,1575420030,42.20,303.0,47.0,1,0,0,37.2
Status,1732146315000,29,4,1,17,1575420030,42.30,176.0,44.0,1,0,0,37.3
Status,1732146315000,29,5,1,7,1575420030,35.00,103.0,38.0,1,0,0,30.0
Status,1732146315000,29,6,2,131,1575420030,38.00,3.0,23.0,0,0,0,33.0
Status,1732146315000,29,7,1,19,1575420030,32.00,193.0,17.0,1,0,0,27.0
Status,1732146315000,29,8,1,15,1575420030,32.80,316.0,17.0,1,0,0,27.8
Status,1732146315000,29,9,1,2,1575420030,26.50,88.0,16.0,1,0,0,21.5
Status,1732146315000,29,10,1,21,1575420030,0.00,69.0,13.0,0,0,0,0.0
Status,1732146315000,29,11,1,8,1575420030,0.00,39.0,9.0,0,0,0,0.0
Status,1732146315000,29,12,1,5,1575420030,23.90,263.0,7.0,1,0,0,18.9
Status,1732146315000,29,13,1,9,1575420030,0.00,159.0,1.0,0,0,0,0.0
Status,1732146315000,29,14,3,9,1602000000,38.50,16.0,54.0,1,0,0,33.5
Status,1732146315000,29,15,3,8,1602000000,34.60,304.0,38.0,1,0,0,29.599998
Status,1732146315000,29,16,3,16,1602000000,23.20,66.0,15.0,1,0,0,18.2
Status,1732146315000,29,17,3,20,1602000000,0.00,150.0,9.0,0,0,0,0.0
Status,1732146315000,29,18,3,11,1602000000,0.00,271.0,1.0,0,0,0,0.0
Status,1732146315000,29,19,3,17,1602000000,41.20,0.0,0.0,0,0,0,36.2
Status,1732146315000,29,20,6,29,1575420030,0.00,205.0,62.0,0,0,0,0.0
Status,1732146315000,29,21,6,27,1575420030,44.30,36.0,59.0,1,0,0,39.3
Status,1732146315000,29,22,6,21,1575420030,0.00,268.0,57.0,0,0,0,0.0
Status,1732146315000,29,23,6,19,1575420030,35.90,298.0,50.0,1,0,0,30.900002
Status,1732146315000,29,24,6,7,1575420030,31.80,161.0,17.0,1,0,0,26.8
Status,1732146315000,29,25,6,30,1575420030,0.00,58.0,11.0,0,0,0,0.0
Status,1732146315000,29,26,6,15,1575420030,0.00,95.0,10.0,0,0,0,0.0
Status,1732146315000,29,27,6,34,1575420030,0.00,48.0,6.0,0,0,0,0.0
Status,1732146315000,29,28,6,13,1575420030,0.00,143.0,1.0,0,0,0,0.0
Fix,GPS,37.4244016667,-122.1712333333,14.7,0.49053028,1.7,52.27,1732146316000,0.9,73.0,25200043000000,33.3,0,,,
Fix,FLP,37.4244012000,-122.1712362000,2.4000000953674316,0.27566597,1.833,19.65611,1732146316195,0.9,73.0,25200043000000,0.82515264,0,,,
Raw,1732146316000,14536000000,,84.53231246563604,-1416181519464000000,0.0,84.53231246563604,2033.6209001171094,0.0,0,22,0.0,16431,344733930230490,51,37.762001037597656,438.93038217491824,0.14999,16,0.0,0.0,1575420030,,,,0,25.394191780237804,1,6.0,37.762001037597656,0.0,0.0,0.0,66.7128,C,25200043000000,
Raw,1732146316000,14536000000,,84.53231246563604,-1416181519464000000,0.0,84.53231246563604,2033.6209001171094,0.0,0,14,0.0,16431,344733932508453,42,41.07899856567383,586.9473608058554,0.14999,17,8528.413495952038,0.00022499999613501132,1575420030,,,,0,28.94561116251239,1,6.0,41.07899856567383,0.0,0.0,0.0,66.7128,C,25200043000000,
Raw,1732146316000,14536000000,,84.53231246563604,-1416181519464000000,0.0,84.53231246563604,2033.6209001171094,0.0,0,15,0.0,16431,344733921744753,235,27.80299949645996,112.13700441628977,0.14999,16,0.0,0.0,1575420030,,,,0,13.786653876605254,1,6.0,27.80299949645996,0.0,0.0,0.0,66.7128,C,25200043000000,
Raw,1732146316000,14536000000,,84.53231246563604,-1416181519464000000,0.0,84.53231246563604,2033.6209001171094,0.0,0,17,0.0,16431,344733928710814,51,37.33599853515625,110.94302311967893,0.14999,16,0.0,0.0,1575420030,,,,0,24.929920725413723,1,6.0,37.33599853515625,0.0,0.0,0.0,66.7128,C,25200043000000,
Raw,1732146316000,14536000000,,84.53231246563604,-1416181519464000000,0.0,84.53231246563604,2033.6209001171094,0.0,0,7,0.0,16431,344733909738309,235,26.799999237060547,1195.4900801356878,0.14999,16,0.0,0.0,1575420030,,,,0,13.26359950457549,6,6.0,26.799999237060547,0.0,0.0,8.272503365377807,66.7128,C,25200043000000,
Raw,1732146316000,14536000000,,84.53231246563604,-1416181519464000000,0.0,84.53231246563604,2033.6209001171094,0.0,0,19,0.0,16431,344733919741814,74,30.899999618530273,408.5409100464485,0.14999,16,0.0,0.0,1575420030,,,,0,18.01239406394128,6,6.0,30.899999618530273,0.0,0.0,8.272503365377807,66.7128,C,25200043000000,
Raw,1732146316000,14536000000,,84.53231246563604,-1416181519464000000,0.0,84.53231246563604,2033.6209001171094,0.0,0,7,0.0,16431,344733926541526,74,30.038999557495117,955.0275432577137,0.14999,16,0.0,0.0,1575420030,,,,0,16.583418147602597,1,6.0,30.038999557495117,0.0,0.0,0.0,66.7128,C,25200043000000,
Raw,1732146316000,14536000000,,84.53231246563604,-1416181519464000000,0.0,84.53231246563604,2033.6209001171094,0.0,0,27,0.0,16431,344733919860022,42,39.29999923706055,852.8450443076074,0.14999,16,0.0,0.0,1575420030,,,,0,26.97534596027247,6,6.0,39.29999923706055,0.0,0.0,8.272503365377807,66.7128,C,25200043000000,
Raw,1732146316000,14536000000,,84.53231246563604,-1416181519464000000,0.0,84.53231246563604,2033.6209001171094,0.0,0,9,0.0,17,442070,58,5.0,733.5290859269619,0.14999,16,0.0,0.0,1600875010,,,,0,20.7953509134421,3,6.0,34.0,0.0,0.0,35.33631401389397,66.7128,C,25200043000000,
Raw,1732146316000,14536000000,,84.53231246563604,-1416181519464000000,0.0,84.53231246563604,2033.6209001171094,0.0,0,8,0.0,17,910578,74,5.0,396.8955988572672,0.14999,16,0.0,0.0,1605374980,,,,0,16.488777292870317,3,6.0,30.0,0.0,0.0,35.33631401389397,66.7128,C,25200043000000,
Raw,1732146316000,14536000000,,84.53231246563604,-1416181519464000000,0.0,84.53231246563604,2033.6209001171094,0.0,0,16,0.0,17,155378,487,5.0,1097.2073945978455,0.14999,16,0.0,0.0,1601437440,,,,0,0.0,3,6.0,19.0,0.0,0.0,35.33631401389397,66.7128,C,25200043000000,
Raw,1732146316000,14536000000,,84.53231246563604,-1416181519464000000,0.0,84.53231246563604,2033.6209001171094,0.0,0,2,0.0,16431,344733919760598,487,21.518999099731445,379.2286459854445,0.14999,16,0.0,0.0,1575420030,,,,0,4.76416950540884,1,6.0,21.518999099731445,0.0,0.0,0.0,66.7128,C,25200043000000,
Raw,1732146316000,14536000000,,84.53231246563604,-1416181519464000000,0.0,84.53231246563604,2033.6209001171094,0.0,0,5,0.0,16431,344733916538679,797,18.889999389648438,1039.537167764499,0.14999,16,0.0,0.0,1575420030,,,,0,0.27390667945348035,1,6.0,18.889999389648438,0.0,0.0,0.0,66.7128,C,25200043000000,
Raw,1732146316000,14536000000,,84.53231246563604,-1416181519464000000,0.0,84.53231246563604,2033.6209001171094,0.0,0,13,0.0,16431,344733929535251,51,37.1619987487793,290.96023362752135,0.14999,16,0.0,0.0,1575420030,,,,0,24.74023042832226,1,6.0,37.1619987487793,0.0,0.0,0.0,66.7128,C,25200043000000,
Raw,1732146316000,14536000000,,84.53231246563604,-1416181519464000000,0.0,84.53231246563604,2033.6209001171094,0.0,0,30,0.0,16431,344733931658011,42,39.069000244140625,686.9277308275822,0.14999,17,9846.026857719586,0.00022499999613501132,1575420030,,,,0,28.60415650501027,1,6.0,39.069000244140625,0.0,0.0,0.0,66.7128,C,25200043000000,
Raw,1732146316000,14536000000,,84.53231246563604,-1416181519464000000,0.0,84.53231246563604,2033.6209001171094,0.0,0,19,0.0,16431,344733919999998,316,26.975000381469727,-89.50446175041256,0.14999,16,0.0,0.0,1575420030,,,,0,12.707017627280342,1,6.0,26.975000381469727,0.0,0.0,0.0,66.7128,C,25200043000000,
Status,1732146316000,29,0,1,14,1575420030,49.00,318.0,74.0,1,0,0,44.0
Status,1732146316000,29,1,1,30,1575420030,44.10,72.0,70.0,1,0,0,39.1
Status,1732146316000,29,2,1,22,1575420030,44.10,270.0,59.0,1,0,0,39.1
Status,1732146316000,29,3,1,13,1575420030,32.60,303.0,47.0,1,0,0,27.599998
Status,1732146316000,29,4,1,17,1575420030,47.70,176.0,44.0,1,0,0,42.7
Status,1732146316000,29,5,1,7,1575420030,33.60,103.0,38.0,1,0,0,28.599998
Status,1732146316000,29,6,2,131,1575420030,39.00,3.0,23.0,0,0,0,34.0
Status,1732146316000,29,7,1,19,1575420030,38.80,193.0,17.0,1,0,0,33.8
Status,1732146316000,29,8,1,15,1575420030,31.10,316.0,17.0,1,0,0,26.1
Status,1732146316000,29,9,1,2,1575420030,0.00,88.0,16.0,0,0,0,0.0
Status,1732146316000,29,10,1,21,1575420030,25.20,69.0,13.0,1,0,0,20.2
Status,1732146316000,29,11,1,8,1575420030,19.70,39.0,9.0,1,0,0,14.700001
Status,1732146316000,29,12,1,5,1575420030,0.00,263.0,7.0,0,0,0,0.0
Status,1732146316000,29,13,1,9,1575420030,0.00,159.0,1.0,0,0,0,0.0
Status,1732146316000,29,14,3,9,1602000000,42.40,16.0,54.0,1,0,0,37.4
Status,1732146316000,29,15,3,8,1602000000,31.50,304.0,38.0,1,0,0,26.5
Status,1732146316000,29,16,3,16,1602000000,23.20,66.0,15.0,1,0,0,18.2
Status,1732146316000,29,17,3,20,1602000000,0.00,150.0,9.0,0,0,0,0.0
Status,1732146316000,29,18,3,11,1602000000,0.00,271.0,1.0,0,0,0,0.0
Status,1732146316000,29,19,3,17,1602000000,44.70,0.0,0.0,0,0,0,39.7
Status,1732146316000,29,20,6,29,1575420030,0.00,205.0,62.0,0,0,0,0.0
Status,1732146316000,29,21,6,27,1575420030,44.20,36.0,59.0,1,0,0,39.2
Status,1732146316000,29,22,6,21,1575420030,0.00,268.0,57.0,0,0,0,0.0
Status,1732146316000,29,23,6,19,1575420030,32.30,298.0,50.0,1,0,0,27.3
Status,1732146316000,29,24,6,7,1575420030,26.10,161.0,17.0,1,0,0,21.1
Status,1732146316000,29,25,6,30,1575420030,0.00,58.0,11.0,0,0,0,0.0
Status,1732146316000,29,26,6,15,1575420030,0.00,95.0,10.0,0,0,0,0.0
Status,1732146316000,29,27,6,34,1575420030,0.00,48.0,6.0,0,0,0,0.0
Status,1732146316000,29,28,6,13,1575420030,0.00,143.0,1.0,0,0,0,0.0
Fix,GPS,37.4244066667,-122.1712283333,14.900000000000002,0.5728858,1.7,49.16,1732146317000,0.9,59.8,25201043000000,33.2,0,,,
Raw,1732146317000,15536000000,,84.50254359048665,-1416181519464000000,0.0,84.50254359048665,2031.7025975948122,0.0,0,8,0.0,16431,344734918217259,1797,14.699999809265137,1280.8169081836163,0.14999,16,0.0,0.0,1575420030,,,,0,0.0,1,6.0,14.699999809265137,0.0,0.0,0.0,66.7128,C,25201043000000,
Raw,1732146317000,15536000000,,84.50254359048665,-1416181519464000000,0.0,84.50254359048665,2031.7025975948122,0.0,0,22,0.0,16431,344734930229025,42,39.07899856567383,438.48238366740003,0.14999,17,6880.576911583402,0.00022499999613501132,1575420030,,,,0,26.8132212746211,1,6.0,39.07899856567383,0.0,0.0,0.0,66.7128,C,25201043000000,
Raw,1732146317000,15536000000,,84.50254359048665,-1416181519464000000,0.0,84.50254359048665,2031.7025975948122,0.0,0,14,0.0,16431,344734932506495,31,43.99800109863281,586.8328872683127,0.14999,17,9114.798994479546,0.00022499999613501132,1575420030,,,,0,32.00565277288858,1,6.0,43.99800109863281,0.0,0.0,0.0,66.7128,C,25201043000000,
Raw,1732146317000,15536000000,,84.50254359048665,-1416181519464000000,0.0,84.50254359048665,2031.7025975948122,0.0,0,15,0.0,16431,344734921744383,316,26.05500030517578,110.6739359729875,0.14999,16,0.0,0.0,1575420030,,,,0,11.4738796059985,1,6.0,26.05500030517578,0.0,0.0,0.0,66.7128,C,25201043000000,
Raw,1732146317000,15536000000,,84.50254359048665,-1416181519464000000,0.0,84.50254359048665,2031.7025975948122,0.0,0,17,0.0,16431,344734928710450,31,42.724998474121094,110.67342493040918,0.14999,16,0.0,0.0,1575420030,,,,0,30.676520143066114,1,6.0,42.724998474121094,0.0,0.0,0.0,66.7128,C,25201043000000,
Raw,1732146317000,15536000000,,84.50254359048665,-1416181519464000000,0.0,84.50254359048665,2031.7025975948122,0.0,0,21,0.0,16431,344734920047341,487,20.174999237060547,577.0465612688114,0.14999,16,0.0,0.0,1575420030,,,,0,2.501225267834001,1,6.0,20.174999237060547,0.0,0.0,0.0,66.7128,C,25201043000000,
Raw,1732146317000,15536000000,,84.50254359048665,-1416181519464000000,0.0,84.50254359048665,2031.7025975948122,0.0,0,7,0.0,16431,344734909734320,487,21.100000381469727,1194.171218616303,0.14999,16,0.0,0.0,1575420030,,,,0,5.8840732498410695,6,6.0,21.100000381469727,0.0,0.0,8.253294787940828,66.7128,C,25201043000000,
Raw,1732146317000,15536000000,,84.50254359048665,-1416181519464000000,0.0,84.50254359048665,2031.7025975948122,0.0,0,19,0.0,16431,344734919740451,235,27.299999237060547,408.4138927365289,0.14999,16,0.0,0.0,1575420030,,,,0,13.842873423281821,6,6.0,27.299999237060547,0.0,0.0,8.253294787940828,66.7128,C,25201043000000,
Raw,1732146317000,15536000000,,84.50254359048665,-1416181519464000000,0.0,84.50254359048665,2031.7025975948122,0.0,0,7,0.0,16431,344734926538344,316,28.554000854492188,952.8754035851767,0.14999,16,0.0,0.0,1575420030,,,,0,14.746808398026971,1,6.0,28.554000854492188,0.0,0.0,0.0,66.7128,C,25201043000000,
Raw,1732146317000,15536000000,,84.50254359048665,-1416181519464000000,0.0,84.50254359048665,2031.7025975948122,0.0,0,27,0.0,16431,344734919857177,42,39.220001220703125,852.0677950044051,0.14999,16,0.0,0.0,1575420030,,,,0,25.349610555056273,6,6.0,39.220001220703125,0.0,0.0,8.253294787940828,66.7128,C,25201043000000,
Raw,1732146317000,15536000000,,84.50254359048665,-1416181519464000000,0.0,84.50254359048665,2031.7025975948122,0.0,0,9,0.0,17,439625,51,5.0,733.2544019943982,0.14999,17,11364.528415895256,0.00022499999613501132,1600875010,,,,0,25.01568322358928,3,6.0,38.0,0.0,0.0,35.10349673454976,66.7128,C,25201043000000,
Raw,1732146317000,15536000000,,84.50254359048665,-1416181519464000000,0.0,84.50254359048665,2031.7025975948122,0.0,0,8,0.0,17,909251,235,5.0,395.70757451543153,0.14999,16,0.0,0.0,1605374980,,,,0,12.909727220095322,3,6.0,27.0,0.0,0.0,35.10349673454976,66.7128,C,25201043000000,
Raw,1732146317000,15536000000,,84.50254359048665,-1416181519464000000,0.0,84.50254359048665,2031.7025975948122,0.0,0,16,0.0,17,151723,487,5.0,1095.631624603766,0.14999,16,0.0,0.0,1601437440,,,,0,0.0,3,6.0,18.0,0.0,0.0,35.10349673454976,66.7128,C,25201043000000,
Raw,1732146317000,15536000000,,84.50254359048665,-1416181519464000000,0.0,84.50254359048665,2031.7025975948122,0.0,0,13,0.0,16431,344734929534279,235,27.57699966430664,289.5696867719237,0.14999,16,0.0,0.0,1575420030,,,,0,13.499964828121472,1,6.0,27.57699966430664,0.0,0.0,0.0,66.7128,C,25201043000000,
Raw,1732146317000,15536000000,,84.50254359048665,-1416181519464000000,0.0,84.50254359048665,2031.7025975948122,0.0,0,30,0.0,16431,344734931655719,42,39.0880012512207,686.5595943375299,0.14999,16,0.0,0.0,1575420030,,,,0,27.23101078381893,1,6.0,39.0880012512207,0.0,0.0,0.0,66.7128,C,25201043000000,
Raw,1732146317000,15536000000,,84.50254359048665,-1416181519464000000,0.0,84.50254359048665,2031.7025975948122,0.0,0,19,0.0,16431,344734920000293,58,33.84600067138672,-89.2850851090664,0.14999,16,0.0,0.0,1575420030,,,,0,21.053031561191695,1,6.0,33.84600067138672,0.0,0.0,0.0,66.7128,C,25201043000000,
Fix,FLP,37.4244052000,-122.1712315000,2.4000000953674316,0.30966204,1.819,26.26377,1732146317195,0.9,59.8,25201043000000,0.83440846,0,,,
Status,1732146317000,29,0,1,14,1575420030,45.60,318.0,74.0,1,0,0,40.6
Status,1732146317000,29,1,1,30,1575420030,48.40,72.0,70.0,1,0,0,43.4
Status,1732146317000,29,2,1,22,1575420030,39.80,270.0,59.0,1,0,0,34.8
Status,1732146317000,29,3,1,13,1575420030,42.40,303.0,47.0,1,0,0,37.4
Status,1732146317000,29,4,1,17,1575420030,43.80,176.0,44.0,1,0,0,38.8
Status,1732146317000,29,5,1,7,1575420030,0.00,103.0,38.0,0,0,0,0.0
Status,1732146317000,29,6,2,131,1575420030,42.00,3.0,23.0,0,0,0,37.0
Status,1732146317000,29,7,1,19,1575420030,36.20,193.0,17.0,1,0,0,31.2
Status,1732146317000,29,8,1,15,1575420030,33.10,316.0,17.0,1,0,0,28.099998
Status,1732146317000,29,9,1,2,1575420030,0.00,88.0,16.0,0,0,0,0.0
Status,1732146317000,29,10,1,21,1575420030,0.00,69.0,13.0,0,0,0,0.0
Status,1732146317000,29,11,1,8,1575420030,19.70,39.0,9.0,1,0,0,14.700001
Status,1732146317000,29,12,1,5,1575420030,27.90,263.0,7.0,1,0,0,22.9
Status,1732146317000,29,13,1,9,1575420030,0.00,159.0,1.0,0,0,0,0.0
Status,1732146317000,29,14,3,9,1602000000,46.10,16.0,54.0,1,0,0,41.1
Status,1732146317000,29,15,3,8,1602000000,36.20,304.0,38.0,1,0,0,31.2
Status,1732146317000,29,16,3,16,1602000000,23.10,66.0,15.0,1,0,0,18.1
Status,1732146317000,29,17,3,20,1602000000,0.00,150.0,9.0,0,0,0,0.0
Status,1732146317000,29,18,3,11,1602000000,0.00,271.0,1.0,0,0,0,0.0
Status,1732146317000,29,19,3,17,1602000000,43.50,0.0,0.0,0,0,0,38.5
Status,1732146317000,29,20,6,29,1575420030,0.00,205.0,62.0,0,0,0,0.0
Status,1732146317000,29,21,6,27,1575420030,44.20,36.0,59.0,1,0,0,39.2
Status,1732146317000,29,22,6,21,1575420030,0.00,268.0,57.0,0,0,0,0.0
Status,1732146317000,29,23,6,19,1575420030,34.80,298.0,50.0,1,0,0,29.8
Status,1732146317000,29,24,6,7,1575420030,23.20,161.0,17.0,1,0,0,18.2
Status,1732146317000,29,25,6,30,1575420030,0.00,58.0,11.0,0,0,0,0.0
Status,1732146317000,29,26,6,15,1575420030,0.00,95.0,10.0,0,0,0,0.0
Status,1732146317000,29,27,6,34,1575420030,0.00,48.0,6.0,0,0,0,0.0
Status,1732146317000,29,28,6,13,1575420030,0.00,143.0,1.0,0,0,0,0.0
Fix,GPS,37.4244100000,-122.1712233333,15.000000000000004,0.5219283,1.7,50.57,1732146318000,0.8,64.9,25202043000000,33.8,0,,,
Raw,1732146318000,16536000000,,86.95438169517135,-1416181519464000000,0.0,86.95438169517135,2034.3960446157862,0.0,0,8,0.0,16431,344735918212978,487,14.699999809265137,1285.7504203178457,0.14999,16,0.0,0.0,1575420030,,,,0,0.0,1,6.0,14.699999809265137,0.0,0.0,0.0,66.7128,C,25202043000000,
Raw,1732146318000,16536000000,,86.95438169517135,-1416181519464000000,0.0,86.95438169517135,2034.3960446157862,0.0,0,22,0.0,16431,344735930227563,58,34.801998138427734,439.6531822143218,0.14999,16,0.0,0.0,1575420030,,,,0,22.13155715395374,1,6.0,34.801998138427734,0.0,0.0,0.0,66.7128,C,25202043000000,
Raw,1732146318000,16536000000,,86.95438169517135,-1416181519464000000,0.0,86.95438169517135,2034.3960446157862,0.0,0,14,0.0,16431,344735932504540,42,40.553001403808594,587.6323901528798,0.14999,17,9702.130612845878,0.00022499999613501132,1575420030,,,,0,28.386349650926924,1,6.0,40.553001403808594,0.0,0.0,0.0,66.7128,C,25202043000000,
Raw,1732146318000,16536000000,,86.95438169517135,-1416181519464000000,0.0,86.95438169517135,2034.3960446157862,0.0,0,15,0.0,16431,344735921744008,316,28.138999938964844,111.99730395874468,0.14999,16,0.0,0.0,1575420030,,,,0,14.22653975072861,1,6.0,28.138999938964844,0.0,0.0,0.0,66.7128,C,25202043000000,
Raw,1732146318000,16536000000,,86.95438169517135,-1416181519464000000,0.0,86.95438169517135,2034.3960446157862,0.0,0,17,0.0,16431,344735928710080,42,38.82699966430664,111.53304500555276,0.14999,16,0.0,0.0,1575420030,,,,0,26.54476181523245,1,6.0,38.82699966430664,0.0,0.0,0.0,66.7128,C,25202043000000,
Raw,1732146318000,16536000000,,86.95438169517135,-1416181519464000000,0.0,86.95438169517135,2034.3960446157862,0.0,0,7,0.0,16431,344735909730334,316,18.200000762939453,1195.3346302750472,0.14999,16,0.0,0.0,1575420030,,,,0,1.2820967490054858,6,6.0,18.200000762939453,0.0,0.0,8.232560262732928,66.7128,C,25202043000000,
Raw,1732146318000,16536000000,,86.95438169517135,-1416181519464000000,0.0,86.95438169517135,2034.3960446157862,0.0,0,19,0.0,16431,344735919739088,74,29.799999237060547,409.4153968147795,0.14999,16,0.0,0.0,1575420030,,,,0,16.765434136846583,6,6.0,29.799999237060547,0.0,0.0,8.232560262732928,66.7128,C,25202043000000,
Raw,1732146318000,16536000000,,86.95438169517135,-1416181519464000000,0.0,86.95438169517135,2034.3960446157862,0.0,0,27,0.0,16431,344735919854333,42,39.2239990234375,853.1242593890327,0.14999,16,0.0,0.0,1575420030,,,,0,26.987692642718237,6,6.0,39.2239990234375,0.0,0.0,8.232560262732928,66.7128,C,25202043000000,
Raw,1732146318000,16536000000,,86.95438169517135,-1416181519464000000,0.0,86.95438169517135,2034.3960446157862,0.0,0,9,0.0,17,437176,42,5.0,734.077996595131,0.14999,17,12098.170955247428,0.00022499999613501132,1600875010,,,,0,28.799797371444804,3,6.0,41.0,0.0,0.0,35.71388436387928,66.7128,C,25202043000000,
Raw,1732146318000,16536000000,,86.95438169517135,-1416181519464000000,0.0,86.95438169517135,2034.3960446157862,0.0,0,8,0.0,17,907929,74,5.0,396.99754154006496,0.14999,16,0.0,0.0,1605374980,,,,0,18.358262302051678,3,6.0,31.0,0.0,0.0,35.71388436387928,66.7128,C,25202043000000,
Raw,1732146318000,16536000000,,86.95438169517135,-1416181519464000000,0.0,86.95438169517135,2034.3960446157862,0.0,0,16,0.0,17,148067,487,5.0,1095.8573091629273,0.14999,16,0.0,0.0,1601437440,,,,0,0.0,3,6.0,19.0,0.0,0.0,35.71388436387928,66.7128,C,25202043000000,
Raw,1732146318000,16536000000,,86.95438169517135,-1416181519464000000,0.0,86.95438169517135,2034.3960446157862,0.0,0,5,0.0,16431,344735916531654,487,22.878000259399414,1040.7789083129742,0.14999,16,0.0,0.0,1575420030,,,,0,6.875935551678269,1,6.0,22.878000259399414,0.0,0.0,0.0,66.7128,C,25202043000000,
Raw,1732146318000,16536000000,,86.95438169517135,-1416181519464000000,0.0,86.95438169517135,2034.3960446157862,0.0,0,13,0.0,16431,344735929533308,51,37.39500045776367,291.68619283922726,0.14999,16,0.0,0.0,1575420030,,,,0,24.99224127716337,1,6.0,37.39500045776367,0.0,0.0,0.0,66.7128,C,25202043000000,
Raw,1732146318000,16536000000,,86.95438169517135,-1416181519464000000,0.0,86.95438169517135,2034.3960446157862,0.0,0,30,0.0,16431,344735931653425,31,43.439998626708984,687.4092258531882,0.14999,17,11219.073850015853,0.00022499999613501132,1575420030,,,,0,31.422199702186578,1,6.0,43.439998626708984,0.0,0.0,0.0,66.7128,C,25202043000000,
Raw,1732146318000,16536000000,,86.95438169517135,-1416181519464000000,0.0,86.95438169517135,2034.3960446157862,0.0,0,19,0.0,16431,344735920000585,74,31.155000686645508,-88.48562868291546,0.14999,16,0.0,0.0,1575420030,,,,0,17.925273076400316,1,6.0,31.155000686645508,0.0,0.0,0.0,66.7128,C,25202043000000,
Fix,FLP,37.4244089000,-122.1712264000,2.4000000953674316,0.33778444,1.805,31.498138,1732146318196,0.8,64.9,25202043000000,0.8465238,0,,,
Status,1732146318000,29,0,1,14,1575420030,45.70,318.0,74.0,1,0,0,40.7
Status,1732146318000,29,1,1,30,1575420030,48.40,72.0,70.0,1,0,0,43.4
Status,1732146318000,29,2,1,22,1575420030,42.70,270.0,59.0,1,0,0,37.7
Status,1732146318000,29,3,1,13,1575420030,41.80,303.0,47.0,1,0,0,36.8
Status,1732146318000,29,4,1,17,1575420030,46.20,176.0,44.0,1,0,0,41.2
Status,1732146318000,29,5,1,7,1575420030,34.90,103.0,38.0,1,0,0,29.900002
Status,1732146318000,29,6,2,131,1575420030,42.00,3.0,23.0,0,0,0,37.0
Status,1732146318000,29,7,1,19,1575420030,36.50,193.0,17.0,1,0,0,31.5
Status,1732146318000,29,8,1,15,1575420030,34.50,316.0,17.0,1,0,0,29.5
Status,1732146318000,29,9,1,2,1575420030,30.50,88.0,16.0,1,0,0,25.5
Status,1732146318000,29,10,1,21,1575420030,23.10,69.0,13.0,1,0,0,18.1
Status,1732146318000,29,11,1,8,1575420030,21.40,39.0,9.0,1,0,0,16.4
Status,1732146318000,29,12,1,5,1575420030,0.00,263.0,7.0,0,0,0,0.0
Status,1732146318000,29,13,1,9,1575420030,0.00,159.0,1.0,0,0,0,0.0
Status,1732146318000,29,14,3,9,1602000000,47.90,16.0,54.0,1,0,0,42.9
Status,1732146318000,29,15,3,8,1602000000,38.90,304.0,38.0,1,0,0,33.9
Status,1732146318000,29,16,3,16,1602000000,23.10,66.0,15.0,1,0,0,18.1
Status,1732146318000,29,17,3,20,1602000000,0.00,150.0,9.0,0,0,0,0.0
Status,1732146318000,29,18,3,11,1602000000,0.00,271.0,1.0,0,0,0,0.0
Status,1732146318000,29,19,3,17,1602000000,36.90,0.0,0.0,0,0,0,31.900002
Status,1732146318000,29,20,6,29,1575420030,0.00,205.0,62.0,0,0,0,0.0
Status,1732146318000,29,21,6,27,1575420030,44.20,36.0,59.0,1,0,0,39.2
Status,1732146318000,29,22,6,21,1575420030,0.00,268.0,57.0,0,0,0,0.0
Status,1732146318000,29,23,6,19,1575420030,37.60,298.0,50.0,1,0,0,32.6
Status,1732146318000,29,24,6,7,1575420030,25.70,161.0,17.0,1,0,0,20.7
Status,1732146318000,29,25,6,30,1575420030,0.00,58.0,11.0,0,0,0,0.0
Status,1732146318000,29,26,6,15,1575420030,0.00,95.0,10.0,0,0,0,0.0
Status,1732146318000,29,27,6,34,1575420030,0.00,48.0,6.0,0,0,0,0.0
Status,1732146318000,29,28,6,13,1575420030,0.00,143.0,1.0,0,0,0,0.0
Fix,GPS,37.4244066667,-122.1712100000,15.2,0.7092872,1.7,87.12,1732146319000,0.7,43.1,25203043000000,33.6,0,,,
