# 
# Header Description:
# 
# Version: v3.1.0.3 Platform: 13 Manufacturer: samsung Model: SM-S135DL GNSS Hardware Model Name: MediaTek,MT6631,MTK_MNLD_default,MNL_VER_default
# 
# Raw,utcTimeMillis,TimeNanos,LeapSecond,TimeUncertaintyNanos,FullBiasNanos,BiasNanos,BiasUncertaintyNanos,DriftNanosPerSecond,DriftUncertaintyNanosPerSecond,HardwareClockDiscontinuityCount,Svid,TimeOffsetNanos,State,ReceivedSvTimeNanos,ReceivedSvTimeUncertaintyNanos,Cn0DbHz,PseudorangeRateMetersPerSecond,PseudorangeRateUncertaintyMetersPerSecond,AccumulatedDeltaRangeState,AccumulatedDeltaRangeMeters,AccumulatedDeltaRangeUncertaintyMeters,CarrierFrequencyHz,CarrierCycles,CarrierPhase,CarrierPhaseUncertainty,MultipathIndicator,SnrInDb,ConstellationType,AgcDb,BasebandCn0DbHz,FullInterSignalBiasNanos,FullInterSignalBiasUncertaintyNanos,SatelliteInterSignalBiasNanos,SatelliteInterSignalBiasUncertaintyNanos,CodeType,ChipsetElapsedRealtimeNanos,IsFullTracking
# 
# UncalAccel,utcTimeMillis,elapsedRealtimeNanos,UncalAccelXMps2,UncalAccelYMps2,UncalAccelZMps2,BiasXMps2,BiasYMps2,BiasZMps2
# 
# Accel,utcTimeMillis,elapsedRealtimeNanos,AccelXMps2,AccelYMps2,AccelZMps2
# 
# UncalGyro,utcTimeMillis,elapsedRealtimeNanos,UncalGyroXRadPerSec,UncalGyroYRadPerSec,UncalGyroZRadPerSec,DriftXRadPerSec,DriftYRadPerSec,DriftZRadPerSec
# 
# Gyro,utcTimeMillis,elapsedRealtimeNanos,GyroXRadPerSec,GyroYRadPerSec,GyroZRadPerSec
# 
# UncalMag,utcTimeMillis,elapsedRealtimeNanos,UncalMagXMicroT,UncalMagYMicroT,UncalMagZMicroT,BiasXMicroT,BiasYMicroT,BiasZMicroT
# 
# Mag,utcTimeMillis,elapsedRealtimeNanos,MagXMicroT,MagYMicroT,MagZMicroT
# 
# Pressure,utcTimeMillis,elapsedRealtimeNanos,PressureHpa
# 
# OrientationDeg,utcTimeMillis,elapsedRealtimeNanos,yawDeg,rollDeg,pitchDeg
# 
# Fix,Provider,LatitudeDegrees,LongitudeDegrees,AltitudeMeters,SpeedMps,AccuracyMeters,BearingDegrees,UnixTimeMillis,SpeedAccuracyMps,BearingAccuracyDegrees,elapsedRealtimeNanos,VerticalAccuracyMeters,MockLocation,NumberOfUsedSignals,VerticalSpeedAccuracyMps,SolutionType
# 
# Nav,Svid,Type,Status,MessageId,Sub-messageId,Data(Bytes)
# 
# Status,UnixTimeMillis,SignalCount,SignalIndex,ConstellationType,Svid,CarrierFrequencyHz,Cn0DbHz,AzimuthDegrees,ElevationDegrees,UsedInFix,HasAlmanacData,HasEphemerisData,BasebandCn0DbHz
# 
# Agc,utcTimeMillis,TimeNanos,LeapSecond,TimeUncertaintyNanos,FullBiasNanos,BiasNanos,BiasUncertaintyNanos,DriftNanosPerSecond,DriftUncertaintyNanosPerSecond,HardwareClockDiscontinuityCount,AgcDb,CarrierFrequencyHz,ConstellationType
# 
Fix,FLP,37.4244115000,-122.1712164000,2.299999952316284,0.2673974,1.766,57.37567,1732145953195,1.0,122.7,24837043000000,1.0179603,0,,,
Status,,29,0,1,14,1575420030,43.60,308.0,73.0,1,0,0,38.6
Status,,29,1,1,30,1575420030,41.00,64.0,71.0,1,0,0,36.0
Status,,29,2,1,22,1575420030,52.10,265.0,57.0,1,0,0,47.1
Status,,29,3,1,13,1575420030,44.10,306.0,45.0,1,0,0,39.1
Status,,29,4,1,17,1575420030,42.00,176.0,41.0,1,0,0,37.0
Status,,29,5,1,7,1575420030,36.30,100.0,40.0,1,0,0,31.3
Status,,29,6,2,131,1575420030,42.00,3.0,23.0,0,0,0,37.0
Status,,29,7,1,2,1575420030,0.00,91.0,15.0,0,0,0,0.0
Status,,29,8,1,15,1575420030,42.70,317.0,15.0,1,0,0,37.7
Status,,29,9,1,19,1575420030,44.90,193.0,14.0,1,0,0,39.9
Status,,29,10,1,21,1575420030,0.00,72.0,13.0,0,0,0,0.0
Status,,29,11,1,8,1575420030,18.30,40.0,12.0,1,0,0,13.299999
Status,,29,12,1,5,1575420030,0.00,265.0,8.0,0,0,0,0.0
Status,,29,13,1,9,1575420030,0.00,159.0,4.0,0,0,0,0.0
Status,,29,14,3,9,1602000000,31.50,10.0,55.0,1,0,0,26.5
Status,,29,15,3,8,1602000000,33.60,308.0,37.0,1,0,0,28.599998
Status,,29,16,3,19,1602000000,28.80,91.0,30.0,1,0,0,23.8
Status,,29,17,3,18,1602000000,0.00,44.0,22.0,0,0,0,0.0
Status,,29,18,3,16,1602000000,0.00,64.0,17.0,0,0,0,0.0
Status,,29,19,3,20,1602000000,0.00,151.0,7.0,0,0,0,0.0
Status,,29,20,3,17,1602000000,42.00,0.0,0.0,0,0,0,37.0
Status,,29,21,6,29,1575420030,41.10,207.0,64.0,1,0,0,36.1
Status,,29,22,6,27,1575420030,26.60,34.0,61.0,1,0,0,21.6
Status,,29,23,6,21,1575420030,0.00,264.0,55.0,0,0,0,0.0
Status,,29,24,6,19,1575420030,0.00,301.0,49.0,0,0,0,0.0
Status,,29,25,6,7,1575420030,0.00,160.0,19.0,0,0,0,0.0
Status,,29,26,6,30,1575420030,0.00,57.0,12.0,0,0,0,0.0
Status,,29,27,6,15,1575420030,0.00,97.0,9.0,0,0,0,0.0
Status,,29,28,6,34,1575420030,0.00,50.0,6.0,0,0,0,0.0
Fix,GPS,37.4244116667,-122.1712100000,15.000000000000004,0.22596306,1.7,29.37,1732145954000,1.0,176.5,24838043000000,29.6,0,,,
Raw,1732145954000,18099000000,,78.91645456886611,-1416181153901999872,0.0,78.91645456886611,1774.6797564497729,0.0,0,30,0.0,16431,344371932208772,51,35.959999084472656,583.5582658017129,0.14999,16,0.0,0.0,1575420030,,,,0,23.426942774357574,1,6.0,35.959999084472656,0.0,0.0,0.0,66.7128,C,24838043000000,
Raw,1732145954000,18099000000,,78.91645456886611,-1416181153901999872,0.0,78.91645456886611,1774.6797564497729,0.0,0,13,0.0,16431,344371929599218,42,39.125,173.5189556864339,0.14999,17,3221.456905537615,0.00022499999613501132,1575420030,,,,0,26.865387625837343,1,6.0,39.125,0.0,0.0,0.0,66.7128,C,24838043000000,
Raw,1732145954000,18099000000,,78.91645456886611,-1416181153901999872,0.0,78.91645456886611,1774.6797564497729,0.0,0,22,0.0,16431,344371930481821,28,47.111000061035156,335.4733894929082,0.14999,17,6080.43366246536,0.00022499999613501132,1575420030,,,,0,35.23766721957749,1,6.0,47.111000061035156,0.0,0.0,0.0,66.7128,C,24838043000000,
Raw,1732145954000,18099000000,,78.91645456886611,-1416181153901999872,0.0,78.91645456886611,1774.6797564497729,0.0,0,19,0.0,16431,344371919627450,42,39.85900115966797,-169.62627467977723,0.14999,17,-2768.285950715178,0.00022499999613501132,1575420030,,,,0,27.651318652954796,1,6.0,39.85900115966797,0.0,0.0,0.0,66.7128,C,24838043000000,
Raw,1732145954000,18099000000,,78.91645456886611,-1416181153901999872,0.0,78.91645456886611,1774.6797564497729,0.0,0,15,0.0,16431,344371921596263,51,37.6870002746582,0.9124897527911827,0.14999,17,7647.331233267139,0.00022499999613501132,1575420030,,,,0,25.315210947170797,1,6.0,37.6870002746582,0.0,0.0,0.0,66.7128,C,24838043000000,
Raw,1732145954000,18099000000,,78.91645456886611,-1416181153901999872,0.0,78.91645456886611,1774.6797564497729,0.0,0,14,0.0,16431,344371932939868,42,38.59600067138672,485.4661981068633,0.14999,17,9199.01817632269,0.00022499999613501132,1575420030,,,,0,26.298921040075598,1,6.0,38.59600067138672,0.0,0.0,0.0,66.7128,C,24838043000000,
Raw,1732145954000,18099000000,,78.91645456886611,-1416181153901999872,0.0,78.91645456886611,1774.6797564497729,0.0,0,27,0.0,16431,344371920620747,396,21.600000381469727,765.0758044026584,0.14999,16,0.0,0.0,1575420030,,,,0,6.615038660937113,6,6.0,21.600000381469727,0.0,0.0,8.772385661165558,66.7128,C,24838043000000,
Raw,1732145954000,18099000000,,78.91645456886611,-1416181153901999872,0.0,78.91645456886611,1774.6797564497729,0.0,0,29,0.0,16431,344371921549401,51,36.099998474121094,779.8483728387881,0.14999,16,0.0,0.0,1575420030,,,,0,23.588378514285854,6,6.0,36.099998474121094,0.0,0.0,8.772385661165558,66.7128,C,24838043000000,
Raw,1732145954000,18099000000,,78.91645456886611,-1416181153901999872,0.0,78.91645456886611,1774.6797564497729,0.0,0,9,0.0,17,55546,235,5.0,641.0160129243327,0.14999,16,0.0,0.0,1600875010,,,,0,12.916839272326918,3,6.0,27.0,0.0,0.0,54.98421079338862,66.7128,C,24838043000000,
Raw,1732145954000,18099000000,,78.91645456886611,-1416181153901999872,0.0,78.91645456886611,1774.6797564497729,0.0,0,8,0.0,17,90756,235,5.0,260.1476051781156,0.14999,16,0.0,0.0,1605374980,,,,0,15.414651254916794,3,6.0,29.0,0.0,0.0,54.98421079338862,66.7128,C,24838043000000,
Raw,1732145954000,18099000000,,78.91645456886611,-1416181153901999872,0.0,78.91645456886611,1774.6797564497729,0.0,0,19,0.0,17,46557,487,5.0,169.7715071035151,0.14999,16,0.0,0.0,1603687550,,,,0,9.515580864895774,3,6.0,18.0,0.0,0.0,54.98421079338862,66.7128,C,24838043000000,
Raw,1732145954000,18099000000,,78.91645456886611,-1416181153901999872,0.0,78.91645456886611,1774.6797564497729,0.0,0,7,0.0,16431,344371927417263,74,31.29199981689453,854.2088775738839,0.14999,16,0.0,0.0,1575420030,,,,0,18.09775423079169,1,6.0,31.29199981689453,0.0,0.0,0.0,66.7128,C,24838043000000,
Raw,1732145954000,18099000000,,78.91645456886611,-1416181153901999872,0.0,78.91645456886611,1774.6797564497729,0.0,0,17,0.0,16431,344371928563586,51,37.018001556396484,3.7123991225516946,0.14999,16,0.0,0.0,1575420030,,,,0,24.5862159131986,1,6.0,37.018001556396484,0.0,0.0,0.0,66.7128,C,24838043000000,
Raw,1732145954000,18099000000,,78.91645456886611,-1416181153901999872,0.0,78.91645456886611,1774.6797564497729,0.0,0,8,0.0,16431,344371919499720,797,13.300000190734863,1187.3405305976999,0.14999,16,0.0,0.0,1575420030,,,,0,0.0,1,6.0,13.300000190734863,0.0,0.0,0.0,66.7128,C,24838043000000,
Fix,FLP,37.4244123000,-122.1712123000,2.299999952316284,0.22958758,1.75,40.777096,1732145954195,1.0,176.5,24838043000000,1.0279636,0,,,
Status,1732145954000,29,0,1,14,1575420030,42.30,308.0,73.0,1,0,0,37.3
Status,1732145954000,29,1,1,30,1575420030,43.40,64.0,71.0,1,0,0,38.4
Status,1732145954000,29,2,1,22,1575420030,50.20,265.0,57.0,1,0,0,45.2
Status,1732145954000,29,3,1,13,1575420030,44.60,306.0,45.0,1,0,0,39.6
Status,1732145954000,29,4,1,17,1575420030,38.60,176.0,41.0,1,0,0,33.6
Status,1732145954000,29,5,1,7,1575420030,38.60,100.0,40.0,1,0,0,33.6
Status,1732145954000,29,6,2,131,1575420030,35.00,3.0,23.0,0,0,0,30.0
Status,1732145954000,29,7,1,2,1575420030,25.30,91.0,15.0,1,0,0,20.3
Status,1732145954000,29,8,1,15,1575420030,42.40,317.0,15.0,1,0,0,37.4
Status,1732145954000,29,9,1,19,1575420030,42.40,193.0,14.0,1,0,0,37.4
Status,1732145954000,29,10,1,21,1575420030,23.40,72.0,13.0,1,0,0,18.4
Status,1732145954000,29,11,1,8,1575420030,17.20,40.0,12.0,1,0,0,12.200001
Status,1732145954000,29,12,1,5,1575420030,0.00,265.0,8.0,0,0,0,0.0
Status,1732145954000,29,13,1,9,1575420030,0.00,159.0,4.0,0,0,0,0.0
Status,1732145954000,29,14,3,9,1602000000,37.40,10.0,55.0,1,0,0,32.4
Status,1732145954000,29,15,3,8,1602000000,35.50,308.0,37.0,1,0,0,30.5
Status,1732145954000,29,16,3,19,1602000000,28.80,91.0,30.0,1,0,0,23.8
Status,1732145954000,29,17,3,18,1602000000,25.70,44.0,22.0,1,0,0,20.7
Status,1732145954000,29,18,3,16,1602000000,0.00,64.0,17.0,0,0,0,0.0
Status,1732145954000,29,19,3,20,1602000000,0.00,151.0,7.0,0,0,0,0.0
Status,1732145954000,29,20,3,17,1602000000,41.40,0.0,0.0,0,0,0,36.4
Status,1732145954000,29,21,6,29,1575420030,40.20,207.0,64.0,1,0,0,35.2
Status,1732145954000,29,22,6,27,1575420030,38.20,34.0,61.0,1,0,0,33.2
Status,1732145954000,29,23,6,21,1575420030,0.00,264.0,55.0,0,0,0,0.0
Status,1732145954000,29,24,6,19,1575420030,0.00,301.0,49.0,0,0,0,0.0
Status,1732145954000,29,25,6,7,1575420030,0.00,160.0,19.0,0,0,0,0.0
Status,1732145954000,29,26,6,30,1575420030,0.00,57.0,12.0,0,0,0,0.0
Status,1732145954000,29,27,6,15,1575420030,0.00,97.0,9.0,0,0,0,0.0
Status,1732145954000,29,28,6,34,1575420030,0.00,50.0,6.0,0,0,0,0.0
Fix,GPS,37.4244133333,-122.1712183333,15.000000000000004,0.1461811,1.7,325.61,1732145955000,0.9,179.9,24839043000000,31.5,0,,,
Raw,1732145955000,19099000000,,85.00508979249027,-1416181153901999872,0.0,85.00508979249027,1774.8809083531958,0.0,0,30,0.0,16431,344372932206834,42,38.39899826049805,583.7486523913436,0.14999,17,11055.319371191299,0.00022499999613501132,1575420030,,,,0,26.08826390301472,1,6.0,38.39899826049805,0.0,0.0,0.0,66.7128,C,24839043000000,
Raw,1732145955000,19099000000,,85.00508979249027,-1416181153901999872,0.0,85.00508979249027,1774.8809083531958,0.0,0,13,0.0,16431,344372929598642,42,39.59400177001953,173.89968240727927,0.14999,17,3395.3387362984654,0.00022499999613501132,1575420030,,,,0,27.36845778511375,1,6.0,39.59400177001953,0.0,0.0,0.0,66.7128,C,24839043000000,
Raw,1732145955000,19099000000,,85.00508979249027,-1416181153901999872,0.0,85.00508979249027,1774.8809083531958,0.0,0,22,0.0,16431,344372930480702,28,45.16699981689453,335.7651483467104,0.14999,17,6416.133191202824,0.00022499999613501132,1575420030,,,,0,33.21921037329098,1,6.0,45.16699981689453,0.0,0.0,0.0,66.7128,C,24839043000000,
Raw,1732145955000,19099000000,,85.00508979249027,-1416181153901999872,0.0,85.00508979249027,1774.8809083531958,0.0,0,19,0.0,16431,344372919628009,51,37.3650016784668,-169.42315848410476,0.14999,17,-2937.8048309585824,0.00022499999613501132,1575420030,,,,0,24.96594506343609,1,6.0,37.3650016784668,0.0,0.0,0.0,66.7128,C,24839043000000,
Raw,1732145955000,19099000000,,85.00508979249027,-1416181153901999872,0.0,85.00508979249027,1774.8809083531958,0.0,0,2,0.0,16431,344372919937646,487,20.253000259399414,274.1817069254611,0.14999,16,0.0,0.0,1575420030,,,,0,2.724908606884275,1,6.0,20.253000259399414,0.0,0.0,0.0,66.7128,C,24839043000000,
Raw,1732145955000,19099000000,,85.00508979249027,-1416181153901999872,0.0,85.00508979249027,1774.8809083531958,0.0,0,15,0.0,16431,344372921596261,51,37.37200164794922,1.5086906080210207,0.14999,17,7648.760639684247,0.00022499999613501132,1575420030,,,,0,24.97352437424692,1,6.0,37.37200164794922,0.0,0.0,0.0,66.7128,C,24839043000000,
Raw,1732145955000,19099000000,,85.00508979249027,-1416181153901999872,0.0,85.00508979249027,1774.8809083531958,0.0,0,14,0.0,16431,344372932938248,51,37.30099868774414,485.6312648596594,0.14999,17,9684.591815324342,0.00022499999613501132,1575420030,,,,0,24.89743199414756,1,6.0,37.30099868774414,0.0,0.0,0.0,66.7128,C,24839043000000,
Raw,1732145955000,19099000000,,85.00508979249027,-1416181153901999872,0.0,85.00508979249027,1774.8809083531958,0.0,0,27,0.0,16431,344372920618194,58,33.20000076293945,765.2168521542736,0.14999,16,0.0,0.0,1575420030,,,,0,20.556728603165137,6,6.0,33.20000076293945,0.0,0.0,9.063167531969782,66.7128,C,24839043000000,
Raw,1732145955000,19099000000,,85.00508979249027,-1416181153901999872,0.0,85.00508979249027,1774.8809083531958,0.0,0,29,0.0,16431,344372921546801,51,35.20000076293945,779.6775917007982,0.14999,16,0.0,0.0,1575420030,,,,0,22.670760068797367,6,6.0,35.20000076293945,0.0,0.0,9.063167531969782,66.7128,C,24839043000000,
Raw,1732145955000,19099000000,,85.00508979249027,-1416181153901999872,0.0,85.00508979249027,1774.8809083531958,0.0,0,9,0.0,17,53401,58,5.0,640.7785905438727,0.14999,16,0.0,0.0,1600875010,,,,0,19.636378319019006,3,6.0,33.0,0.0,0.0,55.400557778054925,66.7128,C,24839043000000,
Raw,1732145955000,19099000000,,85.00508979249027,-1416181153901999872,0.0,85.00508979249027,1774.8809083531958,0.0,0,8,0.0,17,89895,74,5.0,260.72285643044165,0.14999,16,0.0,0.0,1605374980,,,,0,17.53172255239366,3,6.0,31.0,0.0,0.0,55.400557778054925,66.7128,C,24839043000000,
Raw,1732145955000,19099000000,,85.00508979249027,-1416181153901999872,0.0,85.00508979249027,1774.8809083531958,0.0,0,19,0.0,17,45993,797,5.0,167.99747637558323,0.14999,16,0.0,0.0,1603687550,,,,0,9.515580864895774,3,6.0,16.0,0.0,0.0,55.400557778054925,66.7128,C,24839043000000,
Raw,1732145955000,19099000000,,85.00508979249027,-1416181153901999872,0.0,85.00508979249027,1774.8809083531958,0.0,0,18,0.0,17,953523,487,5.0,736.5889643298929,0.14999,16,0.0,0.0,1600312450,,,,0,5.312101466611521,3,6.0,20.0,0.0,0.0,55.400557778054925,66.7128,C,24839043000000,
Raw,1732145955000,19099000000,,85.00508979249027,-1416181153901999872,0.0,85.00508979249027,1774.8809083531958,0.0,0,21,0.0,16431,344372920458658,487,18.405000686645508,462.22793061043313,0.14999,16,0.0,0.0,1575420030,,,,0,0.0,1,6.0,18.405000686645508,0.0,0.0,0.0,66.7128,C,24839043000000,
Raw,1732145955000,19099000000,,85.00508979249027,-1416181153901999872,0.0,85.00508979249027,1774.8809083531958,0.0,0,7,0.0,16431,344372927414410,58,33.59299850463867,854.866264163263,0.14999,16,0.0,0.0,1575420030,,,,0,20.768286516619312,1,6.0,33.59299850463867,0.0,0.0,0.0,66.7128,C,24839043000000,
Raw,1732145955000,19099000000,,85.00508979249027,-1416181153901999872,0.0,85.00508979249027,1774.8809083531958,0.0,0,17,0.0,16431,344372928563573,58,33.58300018310547,3.895677574502268,0.14999,16,0.0,0.0,1575420030,,,,0,20.7559835547351,1,6.0,33.58300018310547,0.0,0.0,0.0,66.7128,C,24839043000000,
Raw,1732145955000,19099000000,,85.00508979249027,-1416181153901999872,0.0,85.00508979249027,1774.8809083531958,0.0,0,8,0.0,16431,344372919495757,797,12.199999809265137,1188.7672685595255,0.14999,16,0.0,0.0,1575420030,,,,0,0.0,1,6.0,12.199999809265137,0.0,0.0,0.0,66.7128,C,24839043000000,
Fix,FLP,37.4244135000,-122.1712147000,2.299999952316284,0.13954467,1.733,348.1151,1732145955195,0.9,179.9,24839043000000,1.033838,0,,,
Status,1732145955000,29,0,1,14,1575420030,42.30,308.0,73.0,1,0,0,37.3
Status,1732145955000,29,1,1,30,1575420030,40.70,64.0,71.0,1,0,0,35.7
Status,1732145955000,29,2,1,22,1575420030,50.40,265.0,57.0,1,0,0,45.4
Status,1732145955000,29,3,1,13,1575420030,40.30,306.0,45.0,1,0,0,35.3
Status,1732145955000,29,4,1,17,1575420030,31.50,176.0,41.0,1,0,0,26.5
Status,1732145955000,29,5,1,7,1575420030,40.80,100.0,40.0,1,0,0,35.8
Status,1732145955000,29,6,2,131,1575420030,38.00,3.0,23.0,0,0,0,33.0
Status,1732145955000,29,7,1,2,1575420030,25.70,91.0,15.0,1,0,0,20.7
Status,1732145955000,29,8,1,15,1575420030,42.40,317.0,15.0,1,0,0,37.4
Status,1732145955000,29,9,1,19,1575420030,40.60,193.0,14.0,1,0,0,35.6
Status,1732145955000,29,10,1,21,1575420030,0.00,72.0,13.0,0,0,0,0.0
Status,1732145955000,29,11,1,8,1575420030,17.20,40.0,12.0,1,0,0,12.200001
Status,1732145955000,29,12,1,5,1575420030,0.00,265.0,8.0,0,0,0,0.0
Status,1732145955000,29,13,1,9,1575420030,0.00,159.0,4.0,0,0,0,0.0
Status,1732145955000,29,14,3,9,1602000000,37.70,10.0,55.0,1,0,0,32.7
Status,1732145955000,29,15,3,8,1602000000,32.90,308.0,37.0,1,0,0,27.900002
Status,1732145955000,29,16,3,19,1602000000,24.50,91.0,30.0,1,0,0,19.5
Status,1732145955000,29,17,3,18,1602000000,26.50,44.0,22.0,1,0,0,21.5
Status,1732145955000,29,18,3,16,1602000000,0.00,64.0,17.0,0,0,0,0.0
Status,1732145955000,29,19,3,20,1602000000,0.00,151.0,7.0,0,0,0,0.0
Status,1732145955000,29,20,3,17,1602000000,41.40,0.0,0.0,0,0,0,36.4
Status,1732145955000,29,21,6,29,1575420030,40.20,207.0,64.0,1,0,0,35.2
Status,1732145955000,29,22,6,27,1575420030,37.60,34.0,61.0,1,0,0,32.6
Status,1732145955000,29,23,6,21,1575420030,0.00,264.0,55.0,0,0,0,0.0
Status,1732145955000,29,24,6,19,1575420030,0.00,301.0,49.0,0,0,0,0.0
Status,1732145955000,29,25,6,7,1575420030,0.00,160.0,19.0,0,0,0,0.0
Status,1732145955000,29,26,6,30,1575420030,0.00,57.0,12.0,0,0,0,0.0
Status,1732145955000,29,27,6,15,1575420030,0.00,97.0,9.0,0,0,0,0.0
Status,1732145955000,29,28,6,34,1575420030,0.00,50.0,6.0,0,0,0,0.0
Fix,GPS,37.4244116667,-122.1712216667,15.000000000000004,0.10963583,1.7,127.35,1732145956000,0.7,179.9,24840043000000,31.2,0,,,
Raw,1732145956000,20099000000,,84.29220189753649,-1416181153901999872,0.0,84.29220189753649,1776.0167563951845,0.0,0,30,0.0,16431,344373932204884,51,35.67599868774414,584.0532337680199,0.14999,17,11639.18698035735,0.00022499999613501132,1575420030,,,,0,23.113571654706227,1,6.0,35.67599868774414,0.0,0.0,0.0,66.7128,C,24840043000000,
Raw,1732145956000,20099000000,,84.29220189753649,-1416181153901999872,0.0,84.29220189753649,1776.0167563951845,0.0,0,13,0.0,16431,344373929598064,58,35.25199890136719,174.85089524998193,0.14999,17,3569.633396545763,0.00039999998989515007,1575420030,,,,0,22.641081601524043,1,6.0,35.25199890136719,0.0,0.0,0.0,66.7128,C,24840043000000,
Raw,1732145956000,20099000000,,84.29220189753649,-1416181153901999872,0.0,84.29220189753649,1776.0167563951845,0.0,0,22,0.0,16431,344373930479580,28,45.42399978637695,336.42457910640275,0.14999,17,6752.190891100063,0.00022499999613501132,1575420030,,,,0,33.48484578228833,1,6.0,45.42399978637695,0.0,0.0,0.0,66.7128,C,24840043000000,
Raw,1732145956000,20099000000,,84.29220189753649,-1416181153901999872,0.0,84.29220189753649,1776.0167563951845,0.0,0,19,0.0,16431,344373919628570,51,35.64500045776367,-169.02956278196908,0.14999,17,-3107.0507767177032,0.00022499999613501132,1575420030,,,,0,23.075949984029617,1,6.0,35.64500045776367,0.0,0.0,0.0,66.7128,C,24840043000000,
Raw,1732145956000,20099000000,,84.29220189753649,-1416181153901999872,0.0,84.29220189753649,1776.0167563951845,0.0,0,2,0.0,16431,344373919936692,487,20.665000915527344,274.68176208834325,0.14999,16,0.0,0.0,1575420030,,,,0,3.3861106246026926,1,6.0,20.665000915527344,0.0,0.0,0.0,66.7128,C,24840043000000,
Raw,1732145956000,20099000000,,84.29220189753649,-1416181153901999872,0.0,84.29220189753649,1776.0167563951845,0.0,0,15,0.0,16431,344373921596258,42,37.43299865722656,2.256996317924161,0.14999,17,7650.530136226269,0.00022499999613501132,1575420030,,,,0,26.311919006793087,1,6.0,37.43299865722656,0.0,0.0,0.0,66.7128,C,24840043000000,
Raw,1732145956000,20099000000,,84.29220189753649,-1416181153901999872,0.0,84.29220189753649,1776.0167563951845,0.0,0,14,0.0,16431,344373932936627,51,37.3129997253418,485.9863465347565,0.14999,17,10170.489376922069,0.00022499999613501132,1575420030,,,,0,25.175705071619994,1,6.0,37.3129997253418,0.0,0.0,0.0,66.7128,C,24840043000000,
Raw,1732145956000,20099000000,,84.29220189753649,-1416181153901999872,0.0,84.29220189753649,1776.0167563951845,0.0,0,27,0.0,16431,344373920615645,58,32.599998474121094,765.4018031092078,0.14999,16,0.0,0.0,1575420030,,,,0,19.84835429072831,6,6.0,32.599998474121094,0.0,0.0,8.943632663854892,66.7128,C,24840043000000,
Raw,1732145956000,20099000000,,84.29220189753649,-1416181153901999872,0.0,84.29220189753649,1776.0167563951845,0.0,0,29,0.0,16431,344373921544198,51,35.209999084472656,780.1549983857776,0.14999,16,0.0,0.0,1575420030,,,,0,22.92381228592931,6,6.0,35.209999084472656,0.0,0.0,8.943632663854892,66.7128,C,24840043000000,
Raw,1732145956000,20099000000,,84.29220189753649,-1416181153901999872,0.0,84.29220189753649,1776.0167563951845,0.0,0,9,0.0,17,51264,58,5.0,641.3429544692334,0.14999,16,0.0,0.0,1600875010,,,,0,19.99325425144412,3,6.0,33.0,0.0,0.0,56.425493802995284,66.7128,C,24840043000000,
Raw,1732145956000,20099000000,,84.29220189753649,-1416181153901999872,0.0,84.29220189753649,1776.0167563951845,0.0,0,8,0.0,17,89024,235,5.0,261.2300851055162,0.14999,16,0.0,0.0,1605374980,,,,0,14.562790612839349,3,6.0,28.0,0.0,0.0,56.425493802995284,66.7128,C,24840043000000,
Raw,1732145956000,20099000000,,84.29220189753649,-1416181153901999872,0.0,84.29220189753649,1776.0167563951845,0.0,0,19,0.0,17,45403,487,5.0,170.1243233662922,0.14999,16,0.0,0.0,1603687550,,,,0,3.370539143455807,3,6.0,20.0,0.0,0.0,56.425493802995284,66.7128,C,24840043000000,
Raw,1732145956000,20099000000,,84.29220189753649,-1416181153901999872,0.0,84.29220189753649,1776.0167563951845,0.0,0,18,0.0,17,951068,396,5.0,737.6422590214418,0.14999,16,0.0,0.0,1600312450,,,,0,6.398530466449258,3,6.0,22.0,0.0,0.0,56.425493802995284,66.7128,C,24840043000000,
Raw,1732145956000,20099000000,,84.29220189753649,-1416181153901999872,0.0,84.29220189753649,1776.0167563951845,0.0,0,7,0.0,16431,344373927411559,51,35.78499984741211,854.8920021258436,0.14999,17,11690.01363753748,0.00022499999613501132,1575420030,,,,0,23.23472873207507,1,6.0,35.78499984741211,0.0,0.0,0.0,66.7128,C,24840043000000,
Raw,1732145956000,20099000000,,84.29220189753649,-1416181153901999872,0.0,84.29220189753649,1776.0167563951845,0.0,0,17,0.0,16431,344373928563554,316,26.458999633789062,4.447046058088937,0.14999,16,0.0,0.0,1575420030,,,,0,12.035254141526993,1,6.0,26.458999633789062,0.0,0.0,0.0,66.7128,C,24840043000000,
Raw,1732145956000,20099000000,,84.29220189753649,-1416181153901999872,0.0,84.29220189753649,1776.0167563951845,0.0,0,8,0.0,16431,344373919491792,797,12.199999809265137,1188.7088238719327,0.14999,16,0.0,0.0,1575420030,,,,0,0.0,1,6.0,12.199999809265137,0.0,0.0,0.0,66.7128,C,24840043000000,
Fix,FLP,37.4244130000,-122.1712179000,2.299999952316284,0.064772785,1.716,,1732145956195,0.7,,24840043000000,1.0438491,0,,,
Status,1732145956000,29,0,1,14,1575420030,45.10,308.0,73.0,1,0,0,40.1
Status,1732145956000,29,1,1,30,1575420030,41.90,64.0,71.0,1,0,0,36.9
Status,1732145956000,29,2,1,22,1575420030,46.70,265.0,57.0,1,0,0,41.7
Status,1732145956000,29,3,1,13,1575420030,40.20,306.0,45.0,1,0,0,35.2
Status,1732145956000,29,4,1,17,1575420030,45.00,176.0,41.0,1,0,0,40.0
Status,1732145956000,29,5,1,7,1575420030,42.10,100.0,40.0,1,0,0,37.1
Status,1732145956000,29,6,2,131,1575420030,38.00,3.0,23.0,0,0,0,33.0
Status,1732145956000,29,7,1,2,1575420030,27.80,91.0,15.0,1,0,0,22.8
Status,1732145956000,29,8,1,15,1575420030,36.50,317.0,15.0,1,0,0,31.5
Status,1732145956000,29,9,1,19,1575420030,33.60,193.0,14.0,1,0,0,28.599998
Status,1732145956000,29,10,1,21,1575420030,0.00,72.0,13.0,0,0,0,0.0
Status,1732145956000,29,11,1,8,1575420030,16.80,40.0,12.0,1,0,0,11.799999
Status,1732145956000,29,12,1,5,1575420030,0.00,265.0,8.0,0,0,0,0.0
Status,1732145956000,29,13,1,9,1575420030,0.00,159.0,4.0,0,0,0,0.0
Status,1732145956000,29,14,3,9,1602000000,35.80,10.0,55.0,1,0,0,30.8
Status,1732145956000,29,15,3,8,1602000000,34.30,308.0,37.0,1,0,0,29.3
Status,1732145956000,29,16,3,19,1602000000,24.50,91.0,30.0,1,0,0,19.5
Status,1732145956000,29,17,3,18,1602000000,0.00,44.0,22.0,0,0,0,0.0
Status,1732145956000,29,18,3,16,1602000000,0.00,64.0,17.0,0,0,0,0.0
Status,1732145956000,29,19,3,20,1602000000,0.00,151.0,7.0,0,0,0,0.0
Status,1732145956000,29,20,3,17,1602000000,30.50,0.0,0.0,0,0,0,25.5
Status,1732145956000,29,21,6,29,1575420030,39.90,207.0,64.0,1,0,0,34.9
Status,1732145956000,29,22,6,27,1575420030,38.20,34.0,61.0,1,0,0,33.2
Status,1732145956000,29,23,6,21,1575420030,0.00,264.0,55.0,0,0,0,0.0
Status,1732145956000,29,24,6,19,1575420030,0.00,301.0,49.0,0,0,0,0.0
Status,1732145956000,29,25,6,7,1575420030,0.00,160.0,19.0,0,0,0,0.0
Status,1732145956000,29,26,6,30,1575420030,0.00,57.0,12.0,0,0,0,0.0
Status,1732145956000,29,27,6,15,1575420030,0.00,97.0,9.0,0,0,0,0.0
Status,1732145956000,29,28,6,34,1575420030,0.00,50.0,6.0,0,0,0,0.0
Fix,GPS,37.4244116667,-122.1712316667,15.000000000000004,0.50031,1.6,255.94,1732145957000,0.7,152.0,24841043000000,31.4,0,,,
Raw,1732145957000,21099000000,,84.66501586334195,-1416181153901999872,0.0,84.66501586334195,1777.2506376048239,0.0,0,30,0.0,16431,344374932202927,51,36.85599899291992,584.6242541616637,0.14999,17,12223.884226498181,0.00022499999613501132,1575420030,,,,0,24.41017158947701,1,6.0,36.85599899291992,0.0,0.0,0.0,66.7128,C,24841043000000,
Raw,1732145957000,21099000000,,84.66501586334195,-1416181153901999872,0.0,84.66501586334195,1777.2506376048239,0.0,0,13,0.0,16431,344374929597477,58,35.24700164794922,174.86385714810467,0.14999,17,3744.706975695595,0.00039999998989515007,1575420030,,,,0,22.53138463715602,1,6.0,35.24700164794922,0.0,0.0,0.0,66.7128,C,24841043000000,
Raw,1732145957000,21099000000,,84.66501586334195,-1416181153901999872,0.0,84.66501586334195,1777.2506376048239,0.0,0,22,0.0,16431,344374930478456,31,41.667999267578125,336.5392152484023,0.14999,17,7089.053059125102,0.00022499999613501132,1575420030,,,,0,29.566667895722993,1,6.0,41.667999267578125,0.0,0.0,0.0,66.7128,C,24841043000000,
Raw,1732145957000,21099000000,,84.66501586334195,-1416181153901999872,0.0,84.66501586334195,1777.2506376048239,0.0,0,19,0.0,16431,344374919629134,235,28.552000045776367,-168.61961371732727,0.14999,16,0.0,0.0,1575420030,,,,0,14.75383155558613,1,6.0,28.552000045776367,0.0,0.0,0.0,66.7128,C,24841043000000,
Raw,1732145957000,21099000000,,84.66501586334195,-1416181153901999872,0.0,84.66501586334195,1777.2506376048239,0.0,0,2,0.0,16431,344374919935793,396,22.834999084472656,273.45823323902255,0.14999,16,0.0,0.0,1575420030,,,,0,6.8623404798183465,1,6.0,22.834999084472656,0.0,0.0,0.0,66.7128,C,24841043000000,
Raw,1732145957000,21099000000,,84.66501586334195,-1416181153901999872,0.0,84.66501586334195,1777.2506376048239,0.0,0,15,0.0,16431,344374921596250,74,31.458999633789062,2.8980295447971685,0.14999,16,0.0,0.0,1575420030,,,,0,18.29610857011408,1,6.0,31.458999633789062,0.0,0.0,0.0,66.7128,C,24841043000000,
Raw,1732145957000,21099000000,,84.66501586334195,-1416181153901999872,0.0,84.66501586334195,1777.2506376048239,0.0,0,14,0.0,16431,344374932935003,42,40.07699966430664,486.481407417896,0.14999,17,10657.18924342759,0.00022499999613501132,1575420030,,,,0,27.882003956744867,1,6.0,40.07699966430664,0.0,0.0,0.0,66.7128,C,24841043000000,
Raw,1732145957000,21099000000,,84.66501586334195,-1416181153901999872,0.0,84.66501586334195,1777.2506376048239,0.0,0,27,0.0,16431,344374920613088,58,33.20000076293945,766.1445338091656,0.14999,16,0.0,0.0,1575420030,,,,0,20.48081357100459,6,6.0,33.20000076293945,0.0,0.0,8.21881373675459,66.7128,C,24841043000000,
Raw,1732145957000,21099000000,,84.66501586334195,-1416181153901999872,0.0,84.66501586334195,1777.2506376048239,0.0,0,29,0.0,16431,344374921541595,51,34.900001525878906,780.9432118752056,0.14999,16,0.0,0.0,1575420030,,,,0,22.29744138379529,6,6.0,34.900001525878906,0.0,0.0,8.21881373675459,66.7128,C,24841043000000,
Raw,1732145957000,21099000000,,84.66501586334195,-1416181153901999872,0.0,84.66501586334195,1777.2506376048239,0.0,0,9,0.0,17,49126,74,5.0,641.7113180585586,0.14999,16,0.0,0.0,1600875010,,,,0,17.828526456379656,3,6.0,31.0,0.0,0.0,56.18052070563224,66.7128,C,24841043000000,
Raw,1732145957000,21099000000,,84.66501586334195,-1416181153901999872,0.0,84.66501586334195,1777.2506376048239,0.0,0,8,0.0,17,88145,235,5.0,261.6097714482442,0.14999,16,0.0,0.0,1605374980,,,,0,16.156580414575195,3,6.0,29.0,0.0,0.0,56.18052070563224,66.7128,C,24841043000000,
Raw,1732145957000,21099000000,,84.66501586334195,-1416181153901999872,0.0,84.66501586334195,1777.2506376048239,0.0,0,19,0.0,17,44833,797,5.0,170.9522926090541,0.14999,16,0.0,0.0,1603687550,,,,0,3.370539143455807,3,6.0,17.0,0.0,0.0,56.18052070563224,66.7128,C,24841043000000,
Raw,1732145957000,21099000000,,84.66501586334195,-1416181153901999872,0.0,84.66501586334195,1777.2506376048239,0.0,0,7,0.0,16431,344374927408705,51,37.07099914550781,855.966492375961,0.14999,16,0.0,0.0,1575420030,,,,0,24.64935759707684,1,6.0,37.07099914550781,0.0,0.0,0.0,66.7128,C,24841043000000,
Raw,1732145957000,21099000000,,84.66501586334195,-1416181153901999872,0.0,84.66501586334195,1777.2506376048239,0.0,0,17,0.0,16431,344374928563546,42,40.000999450683594,5.099089929603841,0.14999,16,0.0,0.0,1575420030,,,,0,27.80578757619109,1,6.0,40.000999450683594,0.0,0.0,0.0,66.7128,C,24841043000000,
Raw,1732145957000,21099000000,,84.66501586334195,-1416181153901999872,0.0,84.66501586334195,1777.2506376048239,0.0,0,8,0.0,16431,344374919487827,797,11.800000190734863,1188.9359126103698,0.14999,16,0.0,0.0,1575420030,,,,0,0.0,1,6.0,11.800000190734863,0.0,0.0,0.0,66.7128,C,24841043000000,
Fix,FLP,37.4244122000,-122.1712246000,2.299999952316284,0.3077809,1.683,256.99066,1732145957196,0.7,152.0,24841043000000,1.0538429,0,,,
Status,1732145957000,29,0,1,14,1575420030,45.20,308.0,73.0,1,0,0,40.2
Status,1732145957000,29,1,1,30,1575420030,39.00,64.0,71.0,1,0,0,34.0
Status,1732145957000,29,2,1,22,1575420030,41.00,265.0,57.0,1,0,0,36.0
Status,1732145957000,29,3,1,13,1575420030,50.10,306.0,45.0,1,0,0,45.1
Status,1732145957000,29,4,1,17,1575420030,39.30,176.0,41.0,1,0,0,34.3
Status,1732145957000,29,5,1,7,1575420030,50.30,100.0,40.0,1,0,0,45.3
Status,1732145957000,29,6,2,131,1575420030,38.00,3.0,23.0,0,0,0,33.0
Status,1732145957000,29,7,1,2,1575420030,0.00,91.0,15.0,0,0,0,0.0
Status,1732145957000,29,8,1,15,1575420030,45.60,317.0,15.0,1,0,0,40.6
Status,1732145957000,29,9,1,19,1575420030,37.30,193.0,14.0,1,0,0,32.3
Status,1732145957000,29,10,1,21,1575420030,27.00,72.0,13.0,1,0,0,22.0
Status,1732145957000,29,11,1,8,1575420030,16.80,40.0,12.0,1,0,0,11.799999
Status,1732145957000,29,12,1,5,1575420030,0.00,265.0,8.0,0,0,0,0.0
Status,1732145957000,29,13,1,9,1575420030,0.00,159.0,4.0,0,0,0,0.0
Status,1732145957000,29,14,3,9,1602000000,36.60,10.0,55.0,1,0,0,31.599998
Status,1732145957000,29,15,3,8,1602000000,37.50,308.0,37.0,1,0,0,32.5
Status,1732145957000,29,16,3,19,1602000000,24.50,91.0,30.0,1,0,0,19.5
Status,1732145957000,29,17,3,18,1602000000,0.00,44.0,22.0,0,0,0,0.0
Status,1732145957000,29,18,3,16,1602000000,0.00,64.0,17.0,0,0,0,0.0
Status,1732145957000,29,19,3,20,1602000000,0.00,151.0,7.0,0,0,0,0.0
Status,1732145957000,29,20,3,17,1602000000,46.70,0.0,0.0,0,0,0,41.7
Status,1732145957000,29,21,6,29,1575420030,44.90,207.0,64.0,1,0,0,39.9
Status,1732145957000,29,22,6,27,1575420030,37.50,34.0,61.0,1,0,0,32.5
Status,1732145957000,29,23,6,21,1575420030,0.00,264.0,55.0,0,0,0,0.0
Status,1732145957000,29,24,6,19,1575420030,0.00,301.0,49.0,0,0,0,0.0
Status,1732145957000,29,25,6,7,1575420030,0.00,160.0,19.0,0,0,0,0.0
Status,1732145957000,29,26,6,30,1575420030,0.00,57.0,12.0,0,0,0,0.0
Status,1732145957000,29,27,6,15,1575420030,0.00,97.0,9.0,0,0,0,0.0
Status,1732145957000,29,28,6,34,1575420030,0.00,50.0,6.0,0,0,0,0.0
Fix,GPS,37.4244083333,-122.1712366667,14.900000000000002,0.3896447,1.6,236.65,1732145958000,0.7,134.2,24842043000000,33.4,0,,,
Fix,FLP,37.4244098000,-122.1712320000,2.299999952316284,0.36352983,1.666,241.89671,1732145958196,0.7,134.2,24842043000000,1.0679173,0,,,
Raw,1732145958000,22099000000,,87.39112971235022,-1416181153901999872,0.0,87.39112971235022,1779.5050617271627,0.0,0,30,0.0,16431,344375932200977,58,34.04800033569336,585.1066318971776,0.14999,17,12809.047436035351,0.00039999998989515007,1575420030,,,,0,21.29305712451355,1,6.0,34.04800033569336,0.0,0.0,0.0,66.7128,C,24842043000000,
Raw,1732145958000,22099000000,,87.39112971235022,-1416181153901999872,0.0,87.39112971235022,1779.5050617271627,0.0,0,13,0.0,16431,344375929596892,28,45.12200164794922,175.7518400863448,0.14999,17,3920.109126186774,0.00022499999613501132,1575420030,,,,0,33.172172101551126,1,6.0,45.12200164794922,0.0,0.0,0.0,66.7128,C,24842043000000,
Raw,1732145958000,22099000000,,87.39112971235022,-1416181153901999872,0.0,87.39112971235022,1779.5050617271627,0.0,0,22,0.0,16431,344375930477338,51,36.02000045776367,337.43978841743547,0.14999,17,7426.215569196338,0.00022499999613501132,1575420030,,,,0,23.490080360219203,1,6.0,36.02000045776367,0.0,0.0,0.0,66.7128,C,24842043000000,
Raw,1732145958000,22099000000,,87.39112971235022,-1416181153901999872,0.0,87.39112971235022,1779.5050617271627,0.0,0,19,0.0,16431,344375919629692,74,32.297000885009766,-168.09402965473745,0.14999,16,0.0,0.0,1575420030,,,,0,19.28367850930369,1,6.0,32.297000885009766,0.0,0.0,0.0,66.7128,C,24842043000000,
Raw,1732145958000,22099000000,,87.39112971235022,-1416181153901999872,0.0,87.39112971235022,1779.5050617271627,0.0,0,17,0.0,16431,344375928563554,58,34.25299835205078,5.675731791609043,0.14999,16,0.0,0.0,1575420030,,,,0,21.52149605401653,1,6.0,34.25299835205078,0.0,0.0,0.0,66.7128,C,24842043000000,
Raw,1732145958000,22099000000,,87.39112971235022,-1416181153901999872,0.0,87.39112971235022,1779.5050617271627,0.0,0,15,0.0,16431,344375921596244,42,40.61800003051758,3.2024250878086153,0.14999,17,7656.187908936362,0.00022499999613501132,1575420030,,,,0,28.458654796217033,1,6.0,40.61800003051758,0.0,0.0,0.0,66.7128,C,24842043000000,
Raw,1732145958000,22099000000,,87.39112971235022,-1416181153901999872,0.0,87.39112971235022,1779.5050617271627,0.0,0,14,0.0,16431,344375932933377,31,40.154998779296875,487.26771611225934,0.14999,17,11144.224949112946,0.00022499999613501132,1575420030,,,,0,29.548791090569093,1,6.0,40.154998779296875,0.0,0.0,0.0,66.7128,C,24842043000000,
Raw,1732145958000,22099000000,,87.39112971235022,-1416181153901999872,0.0,87.39112971235022,1779.5050617271627,0.0,0,27,0.0,16431,344375920610531,58,32.5,766.672673084647,0.14999,16,0.0,0.0,1575420030,,,,0,19.710589473516542,6,6.0,32.5,0.0,0.0,8.25156301920715,66.7128,C,24842043000000,
Raw,1732145958000,22099000000,,87.39112971235022,-1416181153901999872,0.0,87.39112971235022,1779.5050617271627,0.0,0,7,0.0,16431,344375927405856,28,45.27799987792969,856.3609243295884,0.14999,16,0.0,0.0,1575420030,,,,0,33.33570351442664,1,6.0,45.27799987792969,0.0,0.0,0.0,66.7128,C,24842043000000,
Raw,1732145958000,22099000000,,87.39112971235022,-1416181153901999872,0.0,87.39112971235022,1779.5050617271627,0.0,0,21,0.0,16431,344375920454151,487,22.017000198364258,462.66189867625576,0.14999,16,0.0,0.0,1575420030,,,,0,5.6193823448414575,1,6.0,22.017000198364258,0.0,0.0,0.0,66.7128,C,24842043000000,
Raw,1732145958000,22099000000,,87.39112971235022,-1416181153901999872,0.0,87.39112971235022,1779.5050617271627,0.0,0,29,0.0,16431,344375921538990,42,39.900001525878906,781.3962743500908,0.14999,16,0.0,0.0,1575420030,,,,0,27.57304167971172,6,6.0,39.900001525878906,0.0,0.0,8.25156301920715,66.7128,C,24842043000000,
Raw,1732145958000,22099000000,,87.39112971235022,-1416181153901999872,0.0,87.39112971235022,1779.5050617271627,0.0,0,9,0.0,17,46974,74,5.0,642.4378040253425,0.14999,16,0.0,0.0,1600875010,,,,0,18.735308933640304,3,6.0,32.0,0.0,0.0,55.69469649144083,66.7128,C,24842043000000,
Raw,1732145958000,22099000000,,87.39112971235022,-1416181153901999872,0.0,87.39112971235022,1779.5050617271627,0.0,0,8,0.0,17,87271,58,5.0,262.64827833559184,0.14999,16,0.0,0.0,1605374980,,,,0,19.78498226579016,3,6.0,33.0,0.0,0.0,55.69469649144083,66.7128,C,24842043000000,
Raw,1732145958000,22099000000,,87.39112971235022,-1416181153901999872,0.0,87.39112971235022,1779.5050617271627,0.0,0,19,0.0,17,44260,316,5.0,172.39253875153608,0.14999,16,0.0,0.0,1603687550,,,,0,3.370539143455807,3,6.0,24.0,0.0,0.0,55.69469649144083,66.7128,C,24842043000000,
Raw,1732145958000,22099000000,,87.39112971235022,-1416181153901999872,0.0,87.39112971235022,1779.5050617271627,0.0,0,8,0.0,16431,344375919483860,797,11.800000190734863,1190.1103813721722,0.14999,16,0.0,0.0,1575420030,,,,0,0.0,1,6.0,11.800000190734863,0.0,0.0,0.0,66.7128,C,24842043000000,
Fix,FLP,37.4244093000,-122.1712332000,2.0,0.36439,3.497,241.89754,1732145958443,1.5,45.0,24842291000000,0.84323287,0,,,
Fix,NLP,37.4244016000,-122.1711431000,2.0,,20.207,,1732145958443,,,24842291000000,1.0,0,,,
Status,1732145958000,29,0,1,14,1575420030,45.20,308.0,73.0,1,0,0,40.2
Status,1732145958000,29,1,1,30,1575420030,32.60,64.0,71.0,1,0,0,27.599998
Status,1732145958000,29,2,1,22,1575420030,41.10,265.0,57.0,1,0,0,36.1
Status,1732145958000,29,3,1,13,1575420030,50.20,306.0,45.0,1,0,0,45.2
Status,1732145958000,29,4,1,17,1575420030,34.00,176.0,41.0,1,0,0,29.0
Status,1732145958000,29,5,1,7,1575420030,47.20,100.0,40.0,1,0,0,42.2
Status,1732145958000,29,6,2,131,1575420030,33.00,3.0,23.0,0,0,0,28.0
Status,1732145958000,29,7,1,2,1575420030,21.40,91.0,15.0,1,0,0,16.4
Status,1732145958000,29,8,1,15,1575420030,44.40,317.0,15.0,1,0,0,39.4
Status,1732145958000,29,9,1,19,1575420030,33.40,193.0,14.0,1,0,0,28.400002
Status,1732145958000,29,10,1,21,1575420030,0.00,72.0,13.0,0,0,0,0.0
Status,1732145958000,29,11,1,8,1575420030,19.10,40.0,12.0,1,0,0,14.1
Status,1732145958000,29,12,1,5,1575420030,0.00,265.0,8.0,0,0,0,0.0
Status,1732145958000,29,13,1,9,1575420030,0.00,159.0,4.0,0,0,0,0.0
Status,1732145958000,29,14,3,9,1602000000,35.40,10.0,55.0,1,0,0,30.400002
Status,1732145958000,29,15,3,8,1602000000,40.40,308.0,37.0,1,0,0,35.4
Status,1732145958000,29,16,3,19,1602000000,35.70,91.0,30.0,1,0,0,30.7
Status,1732145958000,29,17,3,18,1602000000,0.00,44.0,22.0,0,0,0,0.0
Status,1732145958000,29,18,3,16,1602000000,0.00,64.0,17.0,0,0,0,0.0
Status,1732145958000,29,19,3,20,1602000000,0.00,151.0,7.0,0,0,0,0.0
Status,1732145958000,29,20,3,17,1602000000,44.10,0.0,0.0,0,0,0,39.1
Status,1732145958000,29,21,6,29,1575420030,46.90,207.0,64.0,1,0,0,41.9
Status,1732145958000,29,22,6,27,1575420030,37.50,34.0,61.0,1,0,0,32.5
Status,1732145958000,29,23,6,21,1575420030,0.00,264.0,55.0,0,0,0,0.0
Status,1732145958000,29,24,6,19,1575420030,0.00,301.0,49.0,0,0,0,0.0
Status,1732145958000,29,25,6,7,1575420030,0.00,160.0,19.0,0,0,0,0.0
Status,1732145958000,29,26,6,30,1575420030,0.00,57.0,12.0,0,0,0,0.0
Status,1732145958000,29,27,6,15,1575420030,0.00,97.0,9.0,0,0,0,0.0
Status,1732145958000,29,28,6,34,1575420030,0.00,50.0,6.0,0,0,0,0.0
Fix,GPS,37.4244050000,-122.1712400000,14.900000000000002,0.28824446,1.6,247.52,1732145959000,0.7,102.7,24843043000000,33.6,0,,,
Fix,FLP,37.4244069000,-122.1712377000,2.0,0.3110086,3.226,245.97856,1732145959195,0.7,102.7,24843043000000,0.848243,0,,,
Raw,1732145959000,23099000000,,87.79941947380281,-1416181153901999872,0.0,87.79941947380281,1780.0937899904804,0.0,0,30,0.0,16431,344376932199032,235,27.582000732421875,585.7794426807386,0.14999,16,0.0,0.0,1575420030,,,,0,13.514652770016443,1,6.0,27.582000732421875,0.0,0.0,0.0,66.7128,C,24843043000000,
Raw,1732145959000,23099000000,,87.79941947380281,-1416181153901999872,0.0,87.79941947380281,1780.0937899904804,0.0,0,13,0.0,16431,344376929596303,28,45.20199966430664,175.9550491988497,0.14999,17,4096.098606879338,0.00022499999613501132,1575420030,,,,0,34.84305628213899,1,6.0,45.20199966430664,0.0,0.0,0.0,66.7128,C,24843043000000,
Raw,1732145959000,23099000000,,87.79941947380281,-1416181153901999872,0.0,87.79941947380281,1780.0937899904804,0.0,0,22,0.0,16431,344376930476220,51,36.108001708984375,337.617538317857,0.14999,17,7763.88734481147,0.00022499999613501132,1575420030,,,,0,25.43097628780115,1,6.0,36.108001708984375,0.0,0.0,0.0,66.7128,C,24843043000000,
Raw,1732145959000,23099000000,,87.79941947380281,-1416181153901999872,0.0,87.79941947380281,1780.0937899904804,0.0,0,19,0.0,16431,344376919630249,235,28.408000946044922,-168.2052046447293,0.14999,16,0.0,0.0,1575420030,,,,0,14.580107971884278,1,6.0,28.408000946044922,0.0,0.0,0.0,66.7128,C,24843043000000,
Raw,1732145959000,23099000000,,87.79941947380281,-1416181153901999872,0.0,87.79941947380281,1780.0937899904804,0.0,0,15,0.0,16431,344376921596232,42,39.39899826049805,3.2784775151452665,0.14999,17,7659.597314979342,0.00022499999613501132,1575420030,,,,0,27.158938730684103,1,6.0,39.39899826049805,0.0,0.0,0.0,66.7128,C,24843043000000,
Raw,1732145959000,23099000000,,87.79941947380281,-1416181153901999872,0.0,87.79941947380281,1780.0937899904804,0.0,0,14,0.0,16431,344376932931752,42,40.167999267578125,487.394733422179,0.14999,17,11631.71341819713,0.00022499999613501132,1575420030,,,,0,28.258557526803685,1,6.0,40.167999267578125,0.0,0.0,0.0,66.7128,C,24843043000000,
Raw,1732145959000,23099000000,,87.79941947380281,-1416181153901999872,0.0,87.79941947380281,1780.0937899904804,0.0,0,27,0.0,16431,344376920607971,58,32.5099983215332,766.906591210267,0.14999,17,15121.907040632303,0.00039999998989515007,1575420030,,,,0,19.99741377725602,6,6.0,32.5099983215332,0.0,0.0,9.192574288113928,66.7128,C,24843043000000,
Raw,1732145959000,23099000000,,87.79941947380281,-1416181153901999872,0.0,87.79941947380281,1780.0937899904804,0.0,0,7,0.0,16431,344376927402996,31,42.16899871826172,856.4882203900054,0.14999,17,12713.174939500517,0.00022499999613501132,1575420030,,,,0,30.09495355741945,1,6.0,42.16899871826172,0.0,0.0,0.0,66.7128,C,24843043000000,
Raw,1732145959000,23099000000,,87.79941947380281,-1416181153901999872,0.0,87.79941947380281,1780.0937899904804,0.0,0,29,0.0,16431,344376921536378,31,41.900001525878906,781.7998121532955,0.14999,17,15312.662071636496,0.00022499999613501132,1575420030,,,,0,29.66875157545273,6,6.0,41.900001525878906,0.0,0.0,9.192574288113928,66.7128,C,24843043000000,
Raw,1732145959000,23099000000,,87.79941947380281,-1416181153901999872,0.0,87.79941947380281,1780.0937899904804,0.0,0,9,0.0,17,44831,74,5.0,642.8622656814547,0.14999,16,0.0,0.0,1600875010,,,,0,17.45489180375627,3,6.0,31.0,0.0,0.0,53.22525872605639,66.7128,C,24843043000000,
Raw,1732145959000,23099000000,,87.79941947380281,-1416181153901999872,0.0,87.79941947380281,1780.0937899904804,0.0,0,8,0.0,17,86402,51,5.0,262.8354088103429,0.14999,17,6199.503709649391,0.00022499999613501132,1605374980,,,,0,22.89973046002246,3,6.0,36.0,0.0,0.0,53.22525872605639,66.7128,C,24843043000000,
Raw,1732145959000,23099000000,,87.79941947380281,-1416181153901999872,0.0,87.79941947380281,1780.0937899904804,0.0,0,19,0.0,17,43726,74,5.0,172.4433355305893,0.14999,16,0.0,0.0,1603687550,,,,0,17.78028802989855,3,6.0,31.0,0.0,0.0,53.22525872605639,66.7128,C,24843043000000,
Raw,1732145959000,23099000000,,87.79941947380281,-1416181153901999872,0.0,87.79941947380281,1780.0937899904804,0.0,0,2,0.0,16431,344376919933964,797,16.44499969482422,276.2209526466065,0.14999,16,0.0,0.0,1575420030,,,,0,0.0,1,6.0,16.44499969482422,0.0,0.0,0.0,66.7128,C,24843043000000,
Raw,1732145959000,23099000000,,87.79941947380281,-1416181153901999872,0.0,87.79941947380281,1780.0937899904804,0.0,0,17,0.0,16431,344376928563567,235,28.989999771118164,5.9236339005084755,0.14999,16,0.0,0.0,1575420030,,,,0,15.301342803662155,1,6.0,28.989999771118164,0.0,0.0,0.0,66.7128,C,24843043000000,
Raw,1732145959000,23099000000,,87.79941947380281,-1416181153901999872,0.0,87.79941947380281,1780.0937899904804,0.0,0,8,0.0,16431,344376919479876,797,14.100000381469727,1194.8460735701772,0.14999,16,0.0,0.0,1575420030,,,,0,0.0,1,6.0,14.100000381469727,0.0,0.0,0.0,66.7128,C,24843043000000,
Status,1732145959000,29,0,1,14,1575420030,48.50,308.0,73.0,1,0,0,43.5
Status,1732145959000,29,1,1,30,1575420030,34.60,64.0,71.0,1,0,0,29.599998
Status,1732145959000,29,2,1,22,1575420030,45.90,265.0,57.0,1,0,0,40.9
Status,1732145959000,29,3,1,13,1575420030,44.90,306.0,45.0,1,0,0,39.9
Status,1732145959000,29,4,1,17,1575420030,37.80,176.0,41.0,1,0,0,32.8
Status,1732145959000,29,5,1,7,1575420030,40.50,100.0,40.0,1,0,0,35.5
Status,1732145959000,29,6,2,131,1575420030,38.00,3.0,23.0,0,0,0,33.0
Status,1732145959000,29,7,1,2,1575420030,0.00,91.0,15.0,0,0,0,0.0
Status,1732145959000,29,8,1,15,1575420030,45.80,317.0,15.0,1,0,0,40.8
Status,1732145959000,29,9,1,19,1575420030,37.20,193.0,14.0,1,0,0,32.2
Status,1732145959000,29,10,1,21,1575420030,0.00,72.0,13.0,0,0,0,0.0
Status,1732145959000,29,11,1,8,1575420030,19.10,40.0,12.0,1,0,0,14.1
Status,1732145959000,29,12,1,5,1575420030,0.00,265.0,8.0,0,0,0,0.0
Status,1732145959000,29,13,1,9,1575420030,0.00,159.0,4.0,0,0,0,0.0
Status,1732145959000,29,14,3,9,1602000000,29.70,10.0,55.0,1,0,0,24.7
Status,1732145959000,29,15,3,8,1602000000,33.30,308.0,37.0,1,0,0,28.3
Status,1732145959000,29,16,3,19,1602000000,29.40,91.0,30.0,1,0,0,24.4
Status,1732145959000,29,17,3,18,1602000000,21.90,44.0,22.0,1,0,0,16.9
Status,1732145959000,29,18,3,16,1602000000,0.00,64.0,17.0,0,0,0,0.0
Status,1732145959000,29,19,3,20,1602000000,0.00,151.0,7.0,0,0,0,0.0
Status,1732145959000,29,20,3,17,1602000000,42.60,0.0,0.0,0,0,0,37.6
Status,1732145959000,29,21,6,29,1575420030,42.30,207.0,64.0,1,0,0,37.3
Status,1732145959000,29,22,6,27,1575420030,28.20,34.0,61.0,1,0,0,23.2
Status,1732145959000,29,23,6,21,1575420030,0.00,264.0,55.0,0,0,0,0.0
Status,1732145959000,29,24,6,19,1575420030,0.00,301.0,49.0,0,0,0,0.0
Status,1732145959000,29,25,6,7,1575420030,0.00,160.0,19.0,0,0,0,0.0
Status,1732145959000,29,26,6,30,1575420030,0.00,57.0,12.0,0,0,0,0.0
Status,1732145959000,29,27,6,15,1575420030,0.00,97.0,9.0,0,0,0,0.0
Status,1732145959000,29,28,6,34,1575420030,0.00,50.0,6.0,0,0,0,0.0
Fix,GPS,37.4244016667,-122.1712416667,14.900000000000002,0.23986055,1.6,227.11,1732145960000,0.7,116.9,24844043000000,34.0,0,,,
Raw,1732145960000,24099000000,,88.40538372785885,-1416181153901999872,0.0,88.40538372785885,1780.3488522145556,0.0,0,30,0.0,16431,344377932197079,235,29.551000595092773,585.7436232418404,0.14999,16,0.0,0.0,1575420030,,,,0,16.009884410296454,1,6.0,29.551000595092773,0.0,0.0,0.0,66.7128,C,24844043000000,
Raw,1732145960000,24099000000,,88.40538372785885,-1416181153901999872,0.0,88.40538372785885,1780.3488522145556,0.0,0,13,0.0,16431,344377929595715,42,39.91600036621094,176.2725460152325,0.14999,17,4272.349090954172,0.00022499999613501132,1575420030,,,,0,27.712330899999742,1,6.0,39.91600036621094,0.0,0.0,0.0,66.7128,C,24844043000000,
Raw,1732145960000,24099000000,,88.40538372785885,-1416181153901999872,0.0,88.40538372785885,1780.3488522145556,0.0,0,22,0.0,16431,344377930475092,42,40.900001525878906,337.820561596697,0.14999,17,8101.720665050719,0.00022499999613501132,1575420030,,,,0,28.75776807002985,1,6.0,40.900001525878906,0.0,0.0,0.0,66.7128,C,24844043000000,
Raw,1732145960000,24099000000,,88.40538372785885,-1416181153901999872,0.0,88.40538372785885,1780.3488522145556,0.0,0,19,0.0,16431,344377919630812,74,32.15700149536133,-168.10332133797957,0.14999,16,0.0,0.0,1575420030,,,,0,19.121733502884943,1,6.0,32.15700149536133,0.0,0.0,0.0,66.7128,C,24844043000000,
Raw,1732145960000,24099000000,,88.40538372785885,-1416181153901999872,0.0,88.40538372785885,1780.3488522145556,0.0,0,15,0.0,16431,344377921596219,42,40.766998291015625,3.6336056486586212,0.14999,17,7663.223060444708,0.00022499999613501132,1575420030,,,,0,28.614482227167674,1,6.0,40.766998291015625,0.0,0.0,0.0,66.7128,C,24844043000000,
Raw,1732145960000,24099000000,,88.40538372785885,-1416181153901999872,0.0,88.40538372785885,1780.3488522145556,0.0,0,14,0.0,16431,344377932930124,31,43.53099822998047,487.597756701019,0.14999,17,12119.41068011472,0.00022499999613501132,1575420030,,,,0,31.521371507274036,1,6.0,43.53099822998047,0.0,0.0,0.0,66.7128,C,24844043000000,
Raw,1732145960000,24099000000,,88.40538372785885,-1416181153901999872,0.0,88.40538372785885,1780.3488522145556,0.0,0,27,0.0,16431,344377920605410,316,23.200000762939453,767.0301705973872,0.14999,16,0.0,0.0,1575420030,,,,0,8.818807601892006,6,6.0,23.200000762939453,0.0,0.0,12.298914806258107,66.7128,C,24844043000000,
Raw,1732145960000,24099000000,,88.40538372785885,-1416181153901999872,0.0,88.40538372785885,1780.3488522145556,0.0,0,7,0.0,16431,344377927400139,51,35.54999923706055,856.3997635655404,0.14999,17,13569.875614227853,0.00022499999613501132,1575420030,,,,0,22.971642195546544,1,6.0,35.54999923706055,0.0,0.0,0.0,66.7128,C,24844043000000,
Raw,1732145960000,24099000000,,88.40538372785885,-1416181153901999872,0.0,88.40538372785885,1780.3488522145556,0.0,0,29,0.0,16431,344377921533768,51,37.29999923706055,781.9341698929765,0.14999,17,16094.629215390378,0.00022499999613501132,1575420030,,,,0,24.87447368217849,6,6.0,37.29999923706055,0.0,0.0,12.298914806258107,66.7128,C,24844043000000,
Raw,1732145960000,24099000000,,88.40538372785885,-1416181153901999872,0.0,88.40538372785885,1780.3488522145556,0.0,0,9,0.0,17,42687,316,5.0,642.8768959841212,0.14999,16,0.0,0.0,1600875010,,,,0,10.751665438734696,3,6.0,25.0,0.0,0.0,50.75571593357382,66.7128,C,24844043000000,
Raw,1732145960000,24099000000,,88.40538372785885,-1416181153901999872,0.0,88.40538372785885,1780.3488522145556,0.0,0,8,0.0,17,85527,235,5.0,263.1025296415201,0.14999,16,0.0,0.0,1605374980,,,,0,15.064136460678077,3,6.0,28.0,0.0,0.0,50.75571593357382,66.7128,C,24844043000000,
Raw,1732145960000,24099000000,,88.40538372785885,-1416181153901999872,0.0,88.40538372785885,1780.3488522145556,0.0,0,19,0.0,17,43145,316,5.0,171.92058053752947,0.14999,16,0.0,0.0,1603687550,,,,0,10.306288867948933,3,6.0,24.0,0.0,0.0,50.75571593357382,66.7128,C,24844043000000,
Raw,1732145960000,24099000000,,88.40538372785885,-1416181153901999872,0.0,88.40538372785885,1780.3488522145556,0.0,0,18,0.0,17,941190,797,5.0,742.8477209673093,0.14999,16,0.0,0.0,1600312450,,,,0,0.0,3,6.0,15.0,0.0,0.0,50.75571593357382,66.7128,C,24844043000000,
Raw,1732145960000,24099000000,,88.40538372785885,-1416181153901999872,0.0,88.40538372785885,1780.3488522145556,0.0,0,17,0.0,16431,344377928563546,58,32.82400131225586,5.557448663937012,0.14999,16,0.0,0.0,1575420030,,,,0,19.889261224916446,1,6.0,32.82400131225586,0.0,0.0,0.0,66.7128,C,24844043000000,
Raw,1732145960000,24099000000,,88.40538372785885,-1416181153901999872,0.0,88.40538372785885,1780.3488522145556,0.0,0,8,0.0,16431,344377919475892,797,14.100000381469727,1193.411066010266,0.14999,16,0.0,0.0,1575420030,,,,0,0.0,1,6.0,14.100000381469727,0.0,0.0,0.0,66.7128,C,24844043000000,
Fix,FLP,37.4244038000,-122.1712411000,2.0,0.25604737,3.212,232.49576,1732145960195,0.7,116.9,24844043000000,0.858237,0,,,
Status,1732145960000,29,0,1,14,1575420030,46.00,308.0,73.0,1,0,0,41.0
Status,1732145960000,29,1,1,30,1575420030,45.30,64.0,71.0,1,0,0,40.3
Status,1732145960000,29,2,1,22,1575420030,45.90,265.0,57.0,1,0,0,40.9
Status,1732145960000,29,3,1,13,1575420030,35.30,306.0,45.0,1,0,0,30.3
Status,1732145960000,29,4,1,17,1575420030,42.70,176.0,41.0,1,0,0,37.7
Status,1732145960000,29,5,1,7,1575420030,46.90,100.0,40.0,1,0,0,41.9
Status,1732145960000,29,6,2,131,1575420030,46.00,3.0,23.0,0,0,0,41.0
Status,1732145960000,29,7,1,2,1575420030,0.00,91.0,15.0,0,0,0,0.0
Status,1732145960000,29,8,1,15,1575420030,39.30,317.0,15.0,1,0,0,34.3
Status,1732145960000,29,9,1,19,1575420030,34.40,193.0,14.0,1,0,0,29.400002
Status,1732145960000,29,10,1,21,1575420030,26.30,72.0,13.0,1,0,0,21.3
Status,1732145960000,29,11,1,8,1575420030,18.40,40.0,12.0,1,0,0,13.4
Status,1732145960000,29,12,1,5,1575420030,0.00,265.0,8.0,0,0,0,0.0
Status,1732145960000,29,13,1,9,1575420030,0.00,159.0,4.0,0,0,0,0.0
Status,1732145960000,29,14,3,9,1602000000,29.60,10.0,55.0,1,0,0,24.6
Status,1732145960000,29,15,3,8,1602000000,40.30,308.0,37.0,1,0,0,35.3
Status,1732145960000,29,16,3,19,1602000000,28.90,91.0,30.0,1,0,0,23.9
Status,1732145960000,29,17,3,18,1602000000,23.30,44.0,22.0,1,0,0,18.3
Status,1732145960000,29,18,3,16,1602000000,0.00,64.0,17.0,0,0,0,0.0
Status,1732145960000,29,19,3,20,1602000000,0.00,151.0,7.0,0,0,0,0.0
Status,1732145960000,29,20,3,17,1602000000,43.70,0.0,0.0,0,0,0,38.7
Status,1732145960000,29,21,6,29,1575420030,45.20,207.0,64.0,1,0,0,40.2
Status,1732145960000,29,22,6,27,1575420030,32.90,34.0,61.0,1,0,0,27.900002
Status,1732145960000,29,23,6,21,1575420030,0.00,264.0,55.0,0,0,0,0.0
Status,1732145960000,29,24,6,19,1575420030,0.00,301.0,49.0,0,0,0,0.0
Status,1732145960000,29,25,6,7,1575420030,0.00,160.0,19.0,0,0,0,0.0
Status,1732145960000,29,26,6,30,1575420030,0.00,57.0,12.0,0,0,0,0.0
Status,1732145960000,29,27,6,15,1575420030,0.00,97.0,9.0,0,0,0,0.0
Status,1732145960000,29,28,6,34,1575420030,0.00,50.0,6.0,0,0,0,0.0
Fix,GPS,37.4243966667,-122.1712433333,14.900000000000002,0.2290514,1.6,209.85,1732145961000,0.7,155.2,24845043000000,33.7,0,,,
Raw,1732145961000,25099000000,,87.68178183723258,-1416181153901999872,0.0,87.68178183723258,1778.8359187083904,0.0,0,30,0.0,16431,344378932195123,42,40.27199935913086,585.3422689841975,0.14999,16,0.0,0.0,1575420030,,,,0,28.090860934234946,1,6.0,40.27199935913086,0.0,0.0,0.0,66.7128,C,24845043000000,
Raw,1732145961000,25099000000,,87.68178183723258,-1416181153901999872,0.0,87.68178183723258,1778.8359187083904,0.0,0,13,0.0,16431,344378929595121,74,30.32900047302246,176.14534287164807,0.14999,16,0.0,0.0,1575420030,,,,0,16.95581081910811,1,6.0,30.32900047302246,0.0,0.0,0.0,66.7128,C,24845043000000,
Raw,1732145961000,25099000000,,87.68178183723258,-1416181153901999872,0.0,87.68178183723258,1778.8359187083904,0.0,0,22,0.0,16431,344378930473961,42,40.90599822998047,337.52882597210294,0.14999,17,8439.015201229871,0.00022499999613501132,1575420030,,,,0,28.89872852209951,1,6.0,40.90599822998047,0.0,0.0,0.0,66.7128,C,24845043000000,
Raw,1732145961000,25099000000,,87.68178183723258,-1416181153901999872,0.0,87.68178183723258,1778.8359187083904,0.0,0,19,0.0,16431,344378919631374,235,29.374000549316406,-167.8438046250275,0.14999,16,0.0,0.0,1575420030,,,,0,15.772785852777547,1,6.0,29.374000549316406,0.0,0.0,0.0,66.7128,C,24845043000000,
Raw,1732145961000,25099000000,,87.68178183723258,-1416181153901999872,0.0,87.68178183723258,1778.8359187083904,0.0,0,15,0.0,16431,344378921596207,58,34.25299835205078,3.354622859314339,0.14999,17,7666.277826167544,0.00039999998989515007,1575420030,,,,0,21.52149605401653,1,6.0,34.25299835205078,0.0,0.0,0.0,66.7128,C,24845043000000,
Raw,1732145961000,25099000000,,87.68178183723258,-1416181153901999872,0.0,87.68178183723258,1778.8359187083904,0.0,0,14,0.0,16431,344378932928498,42,41.01499938964844,487.4018880182754,0.14999,16,0.0,0.0,1575420030,,,,0,28.87942117402617,1,6.0,41.01499938964844,0.0,0.0,0.0,66.7128,C,24845043000000,
Raw,1732145961000,25099000000,,87.68178183723258,-1416181153901999872,0.0,87.68178183723258,1778.8359187083904,0.0,0,27,0.0,16431,344378920602851,74,27.899999618530273,766.3151291134907,0.14999,16,0.0,0.0,1575420030,,,,0,14.529827717800659,6,6.0,27.899999618530273,0.0,0.0,13.915523875091093,66.7128,C,24845043000000,
Raw,1732145961000,25099000000,,87.68178183723258,-1416181153901999872,0.0,87.68178183723258,1778.8359187083904,0.0,0,7,0.0,16431,344378927397283,31,41.91400146484375,856.425036943959,0.14999,17,14425.754497645445,0.00022499999613501132,1575420030,,,,0,29.826164404658577,1,6.0,41.91400146484375,0.0,0.0,0.0,66.7128,C,24845043000000,
Raw,1732145961000,25099000000,,87.68178183723258,-1416181153901999872,0.0,87.68178183723258,1778.8359187083904,0.0,0,29,0.0,16431,344378921531159,42,40.20000076293945,781.4573207089915,0.14999,16,0.0,0.0,1575420030,,,,0,27.860296005081903,6,6.0,40.20000076293945,0.0,0.0,13.915523875091093,66.7128,C,24845043000000,
Raw,1732145961000,25099000000,,87.68178183723258,-1416181153901999872,0.0,87.68178183723258,1778.8359187083904,0.0,0,9,0.0,17,40541,316,5.0,641.4676777994654,0.14999,16,0.0,0.0,1600875010,,,,0,9.44743362048787,3,6.0,24.0,0.0,0.0,46.478812213505314,66.7128,C,24845043000000,
Raw,1732145961000,25099000000,,87.68178183723258,-1416181153901999872,0.0,87.68178183723258,1778.8359187083904,0.0,0,8,0.0,17,84650,58,5.0,263.0181852930515,0.14999,16,0.0,0.0,1605374980,,,,0,22.745914396174236,3,6.0,35.0,0.0,0.0,46.478812213505314,66.7128,C,24845043000000,
Raw,1732145961000,25099000000,,87.68178183723258,-1416181153901999872,0.0,87.68178183723258,1778.8359187083904,0.0,0,19,0.0,17,42571,316,5.0,172.74873233834728,0.14999,16,0.0,0.0,1603687550,,,,0,9.729154067499458,3,6.0,24.0,0.0,0.0,46.478812213505314,66.7128,C,24845043000000,
Raw,1732145961000,25099000000,,87.68178183723258,-1416181153901999872,0.0,87.68178183723258,1778.8359187083904,0.0,0,18,0.0,17,938719,487,5.0,739.1908720590382,0.14999,16,0.0,0.0,1600312450,,,,0,1.5042978149320465,3,6.0,18.0,0.0,0.0,46.478812213505314,66.7128,C,24845043000000,
Raw,1732145961000,25099000000,,87.68178183723258,-1416181153901999872,0.0,87.68178183723258,1778.8359187083904,0.0,0,21,0.0,16431,344378920449511,487,21.285999298095703,463.55993986160547,0.14999,16,0.0,0.0,1575420030,,,,0,4.414212477960249,1,6.0,21.285999298095703,0.0,0.0,0.0,66.7128,C,24845043000000,
Raw,1732145961000,25099000000,,87.68178183723258,-1416181153901999872,0.0,87.68178183723258,1778.8359187083904,0.0,0,17,0.0,16431,344378928563522,51,37.6870002746582,5.872483184260672,0.14999,16,0.0,0.0,1575420030,,,,0,25.315210947170797,1,6.0,37.6870002746582,0.0,0.0,0.0,66.7128,C,24845043000000,
Raw,1732145961000,25099000000,,87.68178183723258,-1416181153901999872,0.0,87.68178183723258,1778.8359187083904,0.0,0,8,0.0,16431,344378919471888,797,13.399999618530273,1190.4661599235126,0.14999,16,0.0,0.0,1575420030,,,,0,0.0,1,6.0,13.399999618530273,0.0,0.0,0.0,66.7128,C,24845043000000,
Fix,FLP,37.4243998000,-122.1712432000,2.0,0.23372366,3.197,215.75684,1732145961195,0.7,155.2,24845043000000,0.8682393,0,,,
Status,1732145961000,29,0,1,14,1575420030,41.20,308.0,73.0,1,0,0,36.2
Status,1732145961000,29,1,1,30,1575420030,45.00,64.0,71.0,1,0,0,40.0
Status,1732145961000,29,2,1,22,1575420030,45.80,265.0,57.0,1,0,0,40.8
Status,1732145961000,29,3,1,13,1575420030,43.80,306.0,45.0,1,0,0,38.8
Status,1732145961000,29,4,1,17,1575420030,37.60,176.0,41.0,1,0,0,32.6
Status,1732145961000,29,5,1,7,1575420030,46.20,100.0,40.0,1,0,0,41.2
Status,1732145961000,29,6,2,131,1575420030,43.00,3.0,23.0,0,0,0,38.0
Status,1732145961000,29,7,1,2,1575420030,18.00,91.0,15.0,1,0,0,13.0
Status,1732145961000,29,8,1,15,1575420030,40.10,317.0,15.0,1,0,0,35.1
Status,1732145961000,29,9,1,19,1575420030,31.80,193.0,14.0,1,0,0,26.8
Status,1732145961000,29,10,1,21,1575420030,0.00,72.0,13.0,0,0,0,0.0
Status,1732145961000,29,11,1,8,1575420030,18.40,40.0,12.0,1,0,0,13.4
Status,1732145961000,29,12,1,5,1575420030,0.00,265.0,8.0,0,0,0,0.0
Status,1732145961000,29,13,1,9,1575420030,0.00,159.0,4.0,0,0,0,0.0
Status,1732145961000,29,14,3,9,1602000000,29.60,10.0,55.0,1,0,0,24.6
Status,1732145961000,29,15,3,8,1602000000,43.00,308.0,37.0,1,0,0,38.0
Status,1732145961000,29,16,3,19,1602000000,26.50,91.0,30.0,1,0,0,21.5
Status,1732145961000,29,17,3,18,1602000000,23.30,44.0,22.0,1,0,0,18.3
Status,1732145961000,29,18,3,16,1602000000,0.00,64.0,17.0,0,0,0,0.0
Status,1732145961000,29,19,3,20,1602000000,0.00,151.0,7.0,0,0,0,0.0
Status,1732145961000,29,20,3,17,1602000000,34.70,0.0,0.0,0,0,0,29.7
Status,1732145961000,29,21,6,29,1575420030,45.10,207.0,64.0,1,0,0,40.1
