# 
# Header Description:
# 
# Version: v3.1.0.3 Platform: 13 Manufacturer: samsung Model: SM-S135DL GNSS Hardware Model Name: MediaTek,MT6631,MTK_MNLD_default,MNL_VER_default
# 
# Raw,utcTimeMillis,TimeNanos,LeapSecond,TimeUncertaintyNanos,FullBiasNanos,BiasNanos,BiasUncertaintyNanos,DriftNanosPerSecond,DriftUncertaintyNanosPerSecond,HardwareClockDiscontinuityCount,Svid,TimeOffsetNanos,State,ReceivedSvTimeNanos,ReceivedSvTimeUncertaintyNanos,Cn0DbHz,PseudorangeRateMetersPerSecond,PseudorangeRateUncertaintyMetersPerSecond,AccumulatedDeltaRangeState,AccumulatedDeltaRangeMeters,AccumulatedDeltaRangeUncertaintyMeters,CarrierFrequencyHz,CarrierCycles,CarrierPhase,CarrierPhaseUncertainty,MultipathIndicator,SnrInDb,ConstellationType,AgcDb,BasebandCn0DbHz,FullInterSignalBiasNanos,FullInterSignalBiasUncertaintyNanos,SatelliteInterSignalBiasNanos,SatelliteInterSignalBiasUncertaintyNanos,CodeType,ChipsetElapsedRealtimeNanos,IsFullTracking
# 
# UncalAccel,utcTimeMillis,elapsedRealtimeNanos,UncalAccelXMps2,UncalAccelYMps2,UncalAccelZMps2,BiasXMps2,BiasYMps2,BiasZMps2
# 
# Accel,utcTimeMillis,elapsedRealtimeNanos,AccelXMps2,AccelYMps2,AccelZMps2
# 
# UncalGyro,utcTimeMillis,elapsedRealtimeNanos,UncalGyroXRadPerSec,UncalGyroYRadPerSec,UncalGyroZRadPerSec,DriftXRadPerSec,DriftYRadPerSec,DriftZRadPerSec
# 
# Gyro,utcTimeMillis,elapsedRealtimeNanos,GyroXRadPerSec,GyroYRadPerSec,GyroZRadPerSec
# 
# UncalMag,utcTimeMillis,elapsedRealtimeNanos,UncalMagXMicroT,UncalMagYMicroT,UncalMagZMicroT,BiasXMicroT,BiasYMicroT,BiasZMicroT
# 
# Mag,utcTimeMillis,elapsedRealtimeNanos,MagXMicroT,MagYMicroT,MagZMicroT
# 
# Pressure,utcTimeMillis,elapsedRealtimeNanos,PressureHpa
# 
# OrientationDeg,utcTimeMillis,elapsedRealtimeNanos,yawDeg,rollDeg,pitchDeg
# 
# Fix,Provider,LatitudeDegrees,LongitudeDegrees,AltitudeMeters,SpeedMps,AccuracyMeters,BearingDegrees,UnixTimeMillis,SpeedAccuracyMps,BearingAccuracyDegrees,elapsedRealtimeNanos,VerticalAccuracyMeters,MockLocation,NumberOfUsedSignals,VerticalSpeedAccuracyMps,SolutionType
# 
# Nav,Svid,Type,Status,MessageId,Sub-messageId,Data(Bytes)
# 
# Status,UnixTimeMillis,SignalCount,SignalIndex,ConstellationType,Svid,CarrierFrequencyHz,Cn0DbHz,AzimuthDegrees,ElevationDegrees,UsedInFix,HasAlmanacData,HasEphemerisData,BasebandCn0DbHz
# 
# Agc,utcTimeMillis,TimeNanos,LeapSecond,TimeUncertaintyNanos,FullBiasNanos,BiasNanos,BiasUncertaintyNanos,DriftNanosPerSecond,DriftUncertaintyNanosPerSecond,HardwareClockDiscontinuityCount,AgcDb,CarrierFrequencyHz,ConstellationType
# 
Fix,FLP,37.4244040000,-122.1712766000,0.00929547288623045,0.22587965,4.366,45.16502,1732146571088,1.6,146.4,25454935000000,0.8952628,0,,,
Status,,31,0,1,14,1575420030,43.40,325.0,74.0,1,0,0,38.4
Status,,31,1,1,30,1575420030,43.00,78.0,69.0,1,0,0,38.0
Status,,31,2,1,22,1575420030,45.10,273.0,60.0,1,0,0,40.1
Status,,31,3,1,13,1575420030,44.50,301.0,49.0,1,0,0,39.5
Status,,31,4,1,17,1575420030,39.70,175.0,46.0,1,0,0,34.7
Status,,31,5,1,7,1575420030,38.00,104.0,37.0,1,0,0,33.0
Status,,31,6,2,131,1575420030,36.00,3.0,23.0,0,0,0,31.0
Status,,31,7,1,19,1575420030,39.70,193.0,19.0,1,0,0,34.7
Status,,31,8,1,15,1575420030,46.10,315.0,18.0,1,0,0,41.1
Status,,31,9,1,2,1575420030,0.00,86.0,17.0,0,0,0,0.0
Status,,31,10,1,21,1575420030,0.00,67.0,14.0,0,0,0,0.0
Status,,31,11,1,8,1575420030,22.80,39.0,8.0,1,0,0,17.8
Status,,31,12,1,5,1575420030,0.00,261.0,6.0,0,0,0,0.0
Status,,31,13,3,9,1602000000,30.60,19.0,53.0,1,0,0,25.6
Status,,31,14,3,8,1602000000,39.30,301.0,39.0,1,0,0,34.3
Status,,31,15,3,19,1602000000,22.80,85.0,33.0,1,0,0,17.8
Status,,31,16,3,18,1602000000,25.00,39.0,20.0,1,0,0,20.0
Status,,31,17,3,16,1602000000,0.00,68.0,14.0,0,0,0,0.0
Status,,31,18,3,20,1602000000,22.30,149.0,11.0,1,0,0,17.3
Status,,31,19,3,11,1602000000,0.00,273.0,2.0,0,0,0,0.0
Status,,31,20,3,17,1602000000,45.50,0.0,0.0,0,0,0,40.5
Status,,31,21,6,29,1575420030,42.20,203.0,60.0,1,0,0,37.2
Status,,31,22,6,27,1575420030,34.00,37.0,58.0,1,0,0,29.0
Status,,31,23,6,21,1575420030,0.00,270.0,57.0,0,0,0,0.0
Status,,31,24,6,19,1575420030,0.00,296.0,51.0,0,0,0,0.0
Status,,31,25,6,7,1575420030,0.00,161.0,15.0,0,0,0,0.0
Status,,31,26,6,15,1575420030,0.00,94.0,11.0,0,0,0,0.0
Status,,31,27,6,30,1575420030,0.00,59.0,10.0,0,0,0,0.0
Status,,31,28,6,34,1575420030,0.00,46.0,6.0,0,0,0,0.0
Status,,31,29,6,13,1575420030,0.00,142.0,2.0,0,0,0,0.0
Status,,31,30,6,4,1575420030,0.00,326.0,1.0,0,0,0,0.0
Fix,GPS,37.4243966667,-122.1712683333,15.2,0.23574278,1.9,61.61,1732146572000,1.0,160.8,25456043000000,34.1,0,,,
Fix,FLP,37.4244010000,-122.1712713000,-0.0741591126497525,0.23164603,2.48,60.84497,1732146572196,1.0,160.8,25456043000000,0.9062437,0,,,
Raw,1732146572000,9622000000,,94.84481323853402,-1416181780378999808,0.0,94.84481323853402,2173.888546791469,0.0,0,17,0.0,16431,344989929375706,58,34.72999954223633,174.85266066979793,0.14999,16,0.0,0.0,1575420030,,,,0,22.050441161869273,1,6.0,34.72999954223633,0.0,0.0,0.0,66.7128,C,25456043000000,
Raw,1732146572000,9622000000,,94.84481323853402,-1416181780378999808,0.0,94.84481323853402,2173.888546791469,0.0,0,22,0.0,16431,344989930617322,42,40.145999908447266,498.670934371136,0.14999,16,0.0,0.0,1575420030,,,,0,27.954592303540785,1,6.0,40.145999908447266,0.0,0.0,0.0,66.7128,C,25456043000000,
Raw,1732146572000,9622000000,,94.84481323853402,-1416181780378999808,0.0,94.84481323853402,2173.888546791469,0.0,0,19,0.0,16431,344989920843576,58,34.652000427246094,-42.876332945457165,0.14999,16,0.0,0.0,1575420030,,,,0,21.965906288888092,1,6.0,34.652000427246094,0.0,0.0,0.0,66.7128,C,25456043000000,
Raw,1732146572000,9622000000,,94.84481323853402,-1416181780378999808,0.0,94.84481323853402,2173.888546791469,0.0,0,13,0.0,16431,344989930043828,42,39.479000091552734,361.7324296697638,0.14999,16,0.0,0.0,1575420030,,,,0,27.244238868824624,1,6.0,39.479000091552734,0.0,0.0,0.0,66.7128,C,25456043000000,
Raw,1732146572000,9622000000,,94.84481323853402,-1416181780378999808,0.0,94.84481323853402,2173.888546791469,0.0,0,27,0.0,16431,344989919897741,74,29.0,901.8968622278503,0.14999,16,0.0,0.0,1575420030,,,,0,15.81694113828382,6,6.0,29.0,0.0,0.0,10.274185511547373,66.7128,C,25456043000000,
Raw,1732146572000,9622000000,,94.84481323853402,-1416181780378999808,0.0,94.84481323853402,2173.888546791469,0.0,0,29,0.0,16431,344989920764015,51,37.20000076293945,947.9391968628071,0.14999,16,0.0,0.0,1575420030,,,,0,24.826049509216325,6,6.0,37.20000076293945,0.0,0.0,10.274185511547373,66.7128,C,25456043000000,
Raw,1732146572000,9622000000,,94.84481323853402,-1416181780378999808,0.0,94.84481323853402,2173.888546791469,0.0,0,9,0.0,17,580083,316,5.0,786.6012403648621,0.14999,16,0.0,0.0,1600875010,,,,0,11.843695528328393,3,6.0,25.0,0.0,0.0,23.326893448899355,66.7128,C,25456043000000,
Raw,1732146572000,9622000000,,94.84481323853402,-1416181780378999808,0.0,94.84481323853402,2173.888546791469,0.0,0,20,0.0,17,268147,487,5.0,-130.70401476244822,0.14999,16,0.0,0.0,1603124990,,,,0,0.0,3,6.0,18.0,0.0,0.0,23.326893448899355,66.7128,C,25456043000000,
Raw,1732146572000,9622000000,,94.84481323853402,-1416181780378999808,0.0,94.84481323853402,2173.888546791469,0.0,0,8,0.0,32995,10171930323200,58,5.0,480.4927931730995,0.14999,16,0.0,0.0,1605374980,,,,0,21.692652126721836,3,6.0,34.0,0.0,0.0,23.326893448899355,66.7128,C,25456043000000,
Raw,1732146572000,9622000000,,94.84481323853402,-1416181780378999808,0.0,94.84481323853402,2173.888546791469,0.0,0,19,0.0,17,479227,797,17.0,377.3854279743155,0.14999,16,0.0,0.0,1603687550,,,,0,0.581330366688503,3,6.0,17.0,0.0,0.0,23.326893448899355,66.7128,C,25456043000000,
Raw,1732146572000,9622000000,,94.84481323853402,-1416181780378999808,0.0,94.84481323853402,2173.888546791469,0.0,0,18,0.0,17,208419,487,5.0,952.9798747240151,0.14999,16,0.0,0.0,1600312450,,,,0,4.177377185062286,3,6.0,19.0,0.0,0.0,23.326893448899355,66.7128,C,25456043000000,
Raw,1732146572000,9622000000,,94.84481323853402,-1416181780378999808,0.0,94.84481323853402,2173.888546791469,0.0,0,14,0.0,16431,344989932769015,42,38.391998291015625,645.7979091227278,0.14999,16,0.0,0.0,1575420030,,,,0,26.076134737251216,1,6.0,38.391998291015625,0.0,0.0,0.0,66.7128,C,25456043000000,
Raw,1732146572000,9622000000,,94.84481323853402,-1416181780378999808,0.0,94.84481323853402,2173.888546791469,0.0,0,15,0.0,16431,344989922408451,42,41.12699890136719,177.736984981813,0.14999,16,0.0,0.0,1575420030,,,,0,28.993023341577796,1,6.0,41.12699890136719,0.0,0.0,0.0,66.7128,C,25456043000000,
Raw,1732146572000,9622000000,,94.84481323853402,-1416181780378999808,0.0,94.84481323853402,2173.888546791469,0.0,0,8,0.0,16431,344989917890204,797,17.756999969482422,1335.6813243896245,0.14999,16,0.0,0.0,1575420030,,,,0,0.0,1,6.0,17.756999969482422,0.0,0.0,0.0,66.7128,C,25456043000000,
Raw,1732146572000,9622000000,,94.84481323853402,-1416181780378999808,0.0,94.84481323853402,2173.888546791469,0.0,0,30,0.0,16431,344989931832301,51,37.9630012512207,748.3309832815589,0.14999,16,0.0,0.0,1575420030,,,,0,24.53079406393144,1,6.0,37.9630012512207,0.0,0.0,0.0,66.7128,C,25456043000000,
Raw,1732146572000,9622000000,,94.84481323853402,-1416181780378999808,0.0,94.84481323853402,2173.888546791469,0.0,0,7,0.0,16431,344989926489254,58,33.025001525878906,1011.6077616912096,0.14999,16,0.0,0.0,1575420030,,,,0,20.114869405174435,1,6.0,33.025001525878906,0.0,0.0,0.0,66.7128,C,25456043000000,
Status,1732146572000,31,0,1,14,1575420030,43.40,325.0,74.0,1,0,0,38.4
Status,1732146572000,31,1,1,30,1575420030,38.40,78.0,69.0,1,0,0,33.4
Status,1732146572000,31,2,1,22,1575420030,44.70,273.0,60.0,1,0,0,39.7
Status,1732146572000,31,3,1,13,1575420030,42.50,301.0,49.0,1,0,0,37.5
Status,1732146572000,31,4,1,17,1575420030,45.50,175.0,46.0,1,0,0,40.5
Status,1732146572000,31,5,1,7,1575420030,40.60,104.0,37.0,1,0,0,35.6
Status,1732146572000,31,6,2,131,1575420030,33.00,3.0,23.0,0,0,0,28.0
Status,1732146572000,31,7,1,19,1575420030,37.90,193.0,19.0,1,0,0,32.9
Status,1732146572000,31,8,1,15,1575420030,46.40,315.0,18.0,1,0,0,41.4
Status,1732146572000,31,9,1,2,1575420030,0.00,86.0,17.0,0,0,0,0.0
Status,1732146572000,31,10,1,21,1575420030,26.20,67.0,14.0,1,0,0,21.2
Status,1732146572000,31,11,1,8,1575420030,0.00,39.0,8.0,0,0,0,0.0
Status,1732146572000,31,12,1,5,1575420030,0.00,261.0,6.0,0,0,0,0.0
Status,1732146572000,31,13,3,9,1602000000,32.70,19.0,53.0,1,0,0,27.7
Status,1732146572000,31,14,3,8,1602000000,40.00,301.0,39.0,1,0,0,35.0
Status,1732146572000,31,15,3,19,1602000000,22.50,85.0,33.0,1,0,0,17.5
Status,1732146572000,31,16,3,18,1602000000,24.00,39.0,20.0,1,0,0,19.0
Status,1732146572000,31,17,3,16,1602000000,0.00,68.0,14.0,0,0,0,0.0
Status,1732146572000,31,18,3,20,1602000000,22.30,149.0,11.0,1,0,0,17.3
Status,1732146572000,31,19,3,11,1602000000,0.00,273.0,2.0,0,0,0,0.0
Status,1732146572000,31,20,3,17,1602000000,45.50,0.0,0.0,0,0,0,40.5
Status,1732146572000,31,21,6,29,1575420030,42.20,203.0,60.0,1,0,0,37.2
Status,1732146572000,31,22,6,27,1575420030,36.30,37.0,58.0,1,0,0,31.3
Status,1732146572000,31,23,6,21,1575420030,0.00,270.0,57.0,0,0,0,0.0
Status,1732146572000,31,24,6,19,1575420030,0.00,296.0,51.0,0,0,0,0.0
Status,1732146572000,31,25,6,7,1575420030,0.00,161.0,15.0,0,0,0,0.0
Status,1732146572000,31,26,6,15,1575420030,0.00,94.0,11.0,0,0,0,0.0
Status,1732146572000,31,27,6,30,1575420030,0.00,59.0,10.0,0,0,0,0.0
Status,1732146572000,31,28,6,34,1575420030,0.00,46.0,6.0,0,0,0,0.0
Status,1732146572000,31,29,6,13,1575420030,0.00,142.0,2.0,0,0,0,0.0
Status,1732146572000,31,30,6,4,1575420030,0.00,326.0,1.0,0,0,0,0.0
Fix,GPS,37.4244033333,-122.1712650000,14.900000000000002,0.15390195,1.8,22.34,1732146573000,0.9,179.9,25457043000000,29.8,0,,,
Raw,1732146573000,10622000000,,81.284285785867,-1416181780378999808,0.0,81.284285785867,2174.6553709414134,0.0,0,17,0.0,16431,344990929375118,42,40.4900016784668,175.48435575501264,0.14999,16,0.0,0.0,1575420030,,,,0,28.319818643027112,1,6.0,40.4900016784668,0.0,0.0,0.0,66.7128,C,25457043000000,
Raw,1732146573000,10622000000,,81.284285785867,-1416181780378999808,0.0,81.284285785867,2174.6553709414134,0.0,0,22,0.0,16431,344990930615660,42,39.672000885009766,498.71520924178463,0.14999,16,0.0,0.0,1575420030,,,,0,27.44996692476988,1,6.0,39.672000885009766,0.0,0.0,0.0,66.7128,C,25457043000000,
Raw,1732146573000,10622000000,,81.284285785867,-1416181780378999808,0.0,81.284285785867,2174.6553709414134,0.0,0,19,0.0,16431,344990920843719,58,32.909000396728516,-43.070622042049635,0.14999,16,0.0,0.0,1575420030,,,,0,19.982459986825468,1,6.0,32.909000396728516,0.0,0.0,0.0,66.7128,C,25457043000000,
Raw,1732146573000,10622000000,,81.284285785867,-1416181780378999808,0.0,81.284285785867,2174.6553709414134,0.0,0,13,0.0,16431,344990930042621,51,37.54199981689453,361.8872988002017,0.14999,16,0.0,0.0,1575420030,,,,0,25.155838167731925,1,6.0,37.54199981689453,0.0,0.0,0.0,66.7128,C,25457043000000,
Raw,1732146573000,10622000000,,81.284285785867,-1416181780378999808,0.0,81.284285785867,2174.6553709414134,0.0,0,15,0.0,16431,344990922407876,31,41.415000915527344,177.83594140834145,0.14999,16,0.0,0.0,1575420030,,,,0,29.29961598120204,1,6.0,41.415000915527344,0.0,0.0,0.0,66.7128,C,25457043000000,
Raw,1732146573000,10622000000,,81.284285785867,-1416181780378999808,0.0,81.284285785867,2174.6553709414134,0.0,0,14,0.0,16431,344990932766864,51,38.362998962402344,646.0641623060304,0.14999,16,0.0,0.0,1575420030,,,,0,26.0429950952266,1,6.0,38.362998962402344,0.0,0.0,0.0,66.7128,C,25457043000000,
Raw,1732146573000,10622000000,,81.284285785867,-1416181780378999808,0.0,81.284285785867,2174.6553709414134,0.0,0,30,0.0,16431,344990931829792,58,33.4370002746582,748.3557920758153,0.14999,16,0.0,0.0,1575420030,,,,0,20.587948667924856,1,6.0,33.4370002746582,0.0,0.0,0.0,66.7128,C,25457043000000,
Raw,1732146573000,10622000000,,81.284285785867,-1416181780378999808,0.0,81.284285785867,2174.6553709414134,0.0,0,27,0.0,16431,344990919894735,74,31.299999237060547,902.1306409782218,0.14999,16,0.0,0.0,1575420030,,,,0,18.43877026099448,6,6.0,31.299999237060547,0.0,0.0,11.106958084670126,66.7128,C,25457043000000,
Raw,1732146573000,10622000000,,81.284285785867,-1416181780378999808,0.0,81.284285785867,2174.6553709414134,0.0,0,29,0.0,16431,344990920760855,51,37.154998779296875,948.1822672964206,0.14999,16,0.0,0.0,1575420030,,,,0,23.80586332728165,6,6.0,37.154998779296875,0.0,0.0,11.106958084670126,66.7128,C,25457043000000,
Raw,1732146573000,10622000000,,81.284285785867,-1416181780378999808,0.0,81.284285785867,2174.6553709414134,0.0,0,9,0.0,17,577450,235,5.0,786.7811016482685,0.14999,16,0.0,0.0,1600875010,,,,0,14.400030271934291,3,6.0,28.0,0.0,0.0,25.017344006211673,66.7128,C,25457043000000,
Raw,1732146573000,10622000000,,81.284285785867,-1416181780378999808,0.0,81.284285785867,2174.6553709414134,0.0,0,20,0.0,17,268582,487,5.0,-129.44273515037648,0.14999,16,0.0,0.0,1603124990,,,,0,0.0,3,6.0,19.0,0.0,0.0,25.017344006211673,66.7128,C,25457043000000,
Raw,1732146573000,10622000000,,81.284285785867,-1416181780378999808,0.0,81.284285785867,2174.6553709414134,0.0,0,8,0.0,32995,10172930321591,58,5.0,480.6985022002836,0.14999,16,0.0,0.0,1605374980,,,,0,22.452835785365743,3,6.0,35.0,0.0,0.0,25.017344006211673,66.7128,C,25457043000000,
Raw,1732146573000,10622000000,,81.284285785867,-1416181780378999808,0.0,81.284285785867,2174.6553709414134,0.0,0,19,0.0,17,477962,797,16.0,377.91165157043736,0.14999,16,0.0,0.0,1603687550,,,,0,0.014658393809803272,3,6.0,16.0,0.0,0.0,25.017344006211673,66.7128,C,25457043000000,
Raw,1732146573000,10622000000,,81.284285785867,-1416181780378999808,0.0,81.284285785867,2174.6553709414134,0.0,0,18,0.0,17,205241,487,5.0,953.1245826877173,0.14999,16,0.0,0.0,1600312450,,,,0,2.6739126583180353,3,6.0,18.0,0.0,0.0,25.017344006211673,66.7128,C,25457043000000,
Raw,1732146573000,10622000000,,81.284285785867,-1416181780378999808,0.0,81.284285785867,2174.6553709414134,0.0,0,21,0.0,16431,344990920310911,487,21.191999435424805,648.4111485761543,0.14999,16,0.0,0.0,1575420030,,,,0,4.216957520757036,1,6.0,21.191999435424805,0.0,0.0,0.0,66.7128,C,25457043000000,
Raw,1732146573000,10622000000,,81.284285785867,-1416181780378999808,0.0,81.284285785867,2174.6553709414134,0.0,0,7,0.0,16431,344990926485875,51,35.58399963378906,1012.1518826618674,0.14999,16,0.0,0.0,1575420030,,,,0,23.005458636534218,1,6.0,35.58399963378906,0.0,0.0,0.0,66.7128,C,25457043000000,
Fix,FLP,37.4244027000,-122.1712675000,-0.26429269882559403,0.15908778,2.22,33.423706,1732146573196,0.9,179.9,25457043000000,0.9211525,0,,,
Status,1732146573000,31,0,1,14,1575420030,43.70,325.0,74.0,1,0,0,38.7
Status,1732146573000,31,1,1,30,1575420030,43.20,78.0,69.0,1,0,0,38.2
Status,1732146573000,31,2,1,22,1575420030,47.40,273.0,60.0,1,0,0,42.4
Status,1732146573000,31,3,1,13,1575420030,42.70,301.0,49.0,1,0,0,37.7
Status,1732146573000,31,4,1,17,1575420030,46.50,175.0,46.0,1,0,0,41.5
Status,1732146573000,31,5,1,7,1575420030,43.20,104.0,37.0,1,0,0,38.2
Status,1732146573000,31,6,2,131,1575420030,35.00,3.0,23.0,0,0,0,30.0
Status,1732146573000,31,7,1,19,1575420030,38.30,193.0,19.0,1,0,0,33.3
Status,1732146573000,31,8,1,15,1575420030,46.70,315.0,18.0,1,0,0,41.7
Status,1732146573000,31,9,1,2,1575420030,0.00,86.0,17.0,0,0,0,0.0
Status,1732146573000,31,10,1,21,1575420030,29.50,67.0,14.0,1,0,0,24.5
Status,1732146573000,31,11,1,8,1575420030,0.00,39.0,8.0,0,0,0,0.0
Status,1732146573000,31,12,1,5,1575420030,0.00,261.0,6.0,0,0,0,0.0
Status,1732146573000,31,13,3,9,1602000000,30.20,19.0,53.0,1,0,0,25.2
Status,1732146573000,31,14,3,8,1602000000,35.90,301.0,39.0,1,0,0,30.900002
Status,1732146573000,31,15,3,19,1602000000,24.20,85.0,33.0,1,0,0,19.2
Status,1732146573000,31,16,3,18,1602000000,23.80,39.0,20.0,1,0,0,18.8
Status,1732146573000,31,17,3,16,1602000000,0.00,68.0,14.0,0,0,0,0.0
Status,1732146573000,31,18,3,20,1602000000,21.90,149.0,11.0,1,0,0,16.9
Status,1732146573000,31,19,3,11,1602000000,0.00,273.0,2.0,0,0,0,0.0
Status,1732146573000,31,20,3,17,1602000000,41.70,0.0,0.0,0,0,0,36.7
Status,1732146573000,31,21,6,29,1575420030,42.10,203.0,60.0,1,0,0,37.1
Status,1732146573000,31,22,6,27,1575420030,37.50,37.0,58.0,1,0,0,32.5
Status,1732146573000,31,23,6,21,1575420030,0.00,270.0,57.0,0,0,0,0.0
Status,1732146573000,31,24,6,19,1575420030,0.00,296.0,51.0,0,0,0,0.0
Status,1732146573000,31,25,6,7,1575420030,0.00,161.0,15.0,0,0,0,0.0
Status,1732146573000,31,26,6,15,1575420030,0.00,94.0,11.0,0,0,0,0.0
Status,1732146573000,31,27,6,30,1575420030,0.00,59.0,10.0,0,0,0,0.0
Status,1732146573000,31,28,6,34,1575420030,0.00,46.0,6.0,0,0,0,0.0
Status,1732146573000,31,29,6,13,1575420030,0.00,142.0,2.0,0,0,0,0.0
Status,1732146573000,31,30,6,4,1575420030,0.00,326.0,1.0,0,0,0,0.0
Fix,GPS,37.4244083333,-122.1712683333,14.8,0.06691389,1.7,347.01,1732146574000,0.8,179.9,25458043000000,31.9,0,,,
Raw,1732146574000,11622000000,,88.24343952011094,-1416181780378999808,0.0,88.24343952011094,2175.2012096850394,0.0,0,17,0.0,16431,344991929374527,31,41.50600051879883,175.9091715128418,0.14999,16,0.0,0.0,1575420030,,,,0,29.39494156949751,1,6.0,41.50600051879883,0.0,0.0,0.0,66.7128,C,25458043000000,
Raw,1732146574000,11622000000,,88.24343952011094,-1416181780378999808,0.0,88.24343952011094,2175.2012096850394,0.0,0,22,0.0,16431,344991930613992,31,42.409000396728516,498.9744936626556,0.14999,16,0.0,0.0,1575420030,,,,0,30.343434568060275,1,6.0,42.409000396728516,0.0,0.0,0.0,66.7128,C,25458043000000,
Raw,1732146574000,11622000000,,88.24343952011094,-1416181780378999808,0.0,88.24343952011094,2175.2012096850394,0.0,0,19,0.0,16431,344991920843852,58,33.29600143432617,-43.110808572071754,0.14999,16,0.0,0.0,1575420030,,,,0,20.424651645310142,1,6.0,33.29600143432617,0.0,0.0,0.0,66.7128,C,25458043000000,
Raw,1732146574000,11622000000,,88.24343952011094,-1416181780378999808,0.0,88.24343952011094,2175.2012096850394,0.0,0,13,0.0,16431,344991930041416,51,37.72200012207031,362.45125751458136,0.14999,16,0.0,0.0,1575420030,,,,0,25.35217890116389,1,6.0,37.72200012207031,0.0,0.0,0.0,66.7128,C,25458043000000,
Raw,1732146574000,11622000000,,88.24343952011094,-1416181780378999808,0.0,88.24343952011094,2175.2012096850394,0.0,0,15,0.0,16431,344991922407278,31,41.659000396728516,178.4307949695012,0.14999,16,0.0,0.0,1575420030,,,,0,29.55596164259115,1,6.0,41.659000396728516,0.0,0.0,0.0,66.7128,C,25458043000000,
Raw,1732146574000,11622000000,,88.24343952011094,-1416181780378999808,0.0,88.24343952011094,2175.2012096850394,0.0,0,27,0.0,16431,344991919891731,58,32.5,902.2956612726016,0.14999,17,9638.106038265829,0.00039999998989515007,1575420030,,,,0,19.738914415808733,6,6.0,32.5,0.0,0.0,10.912852922171389,66.7128,C,25458043000000,
Raw,1732146574000,11622000000,,88.24343952011094,-1416181780378999808,0.0,88.24343952011094,2175.2012096850394,0.0,0,29,0.0,16431,344991920757694,51,37.08700180053711,948.3567651077074,0.14999,17,10027.104700443033,0.00022499999613501132,1575420030,,,,0,23.27445055420991,6,6.0,37.08700180053711,0.0,0.0,10.912852922171389,66.7128,C,25458043000000,
Raw,1732146574000,11622000000,,88.24343952011094,-1416181780378999808,0.0,88.24343952011094,2175.2012096850394,0.0,0,9,0.0,17,574821,316,5.0,786.8736383126342,0.14999,16,0.0,0.0,1600875010,,,,0,11.383645160168744,3,6.0,25.0,0.0,0.0,26.052218192556964,66.7128,C,25458043000000,
Raw,1732146574000,11622000000,,88.24343952011094,-1416181780378999808,0.0,88.24343952011094,2175.2012096850394,0.0,0,20,0.0,17,268993,797,5.0,-129.54162502367507,0.14999,16,0.0,0.0,1603124990,,,,0,0.0,3,6.0,17.0,0.0,0.0,26.052218192556964,66.7128,C,25458043000000,
Raw,1732146574000,11622000000,,88.24343952011094,-1416181780378999808,0.0,88.24343952011094,2175.2012096850394,0.0,0,8,0.0,32995,10173930319987,74,5.0,481.327346307542,0.14999,16,0.0,0.0,1605374980,,,,0,18.037400517996687,3,6.0,31.0,0.0,0.0,26.052218192556964,66.7128,C,25458043000000,
Raw,1732146574000,11622000000,,88.24343952011094,-1416181780378999808,0.0,88.24343952011094,2175.2012096850394,0.0,0,19,0.0,17,476715,487,20.0,380.092033711038,0.14999,16,0.0,0.0,1603687550,,,,0,2.9650585210726756,3,6.0,20.0,0.0,0.0,26.052218192556964,66.7128,C,25458043000000,
Raw,1732146574000,11622000000,,88.24343952011094,-1416181780378999808,0.0,88.24343952011094,2175.2012096850394,0.0,0,18,0.0,17,202060,487,5.0,953.7151228986282,0.14999,16,0.0,0.0,1600312450,,,,0,2.253545645527899,3,6.0,20.0,0.0,0.0,26.052218192556964,66.7128,C,25458043000000,
Raw,1732146574000,11622000000,,88.24343952011094,-1416181780378999808,0.0,88.24343952011094,2175.2012096850394,0.0,0,30,0.0,16431,344991931827313,51,38.15700149536133,748.8808186374106,0.14999,16,0.0,0.0,1575420030,,,,0,25.821043910861107,1,6.0,38.15700149536133,0.0,0.0,0.0,66.7128,C,25458043000000,
Raw,1732146574000,11622000000,,88.24343952011094,-1416181780378999808,0.0,88.24343952011094,2175.2012096850394,0.0,0,14,0.0,16431,344991932764714,42,38.73500061035156,646.4479088239294,0.14999,16,0.0,0.0,1575420030,,,,0,26.445251558589767,1,6.0,38.73500061035156,0.0,0.0,0.0,66.7128,C,25458043000000,
Raw,1732146574000,11622000000,,88.24343952011094,-1416181780378999808,0.0,88.24343952011094,2175.2012096850394,0.0,0,21,0.0,16431,344991920308693,316,24.452999114990234,648.4950989342468,0.14999,16,0.0,0.0,1575420030,,,,0,9.240076298926514,1,6.0,24.452999114990234,0.0,0.0,0.0,66.7128,C,25458043000000,
Raw,1732146574000,11622000000,,88.24343952011094,-1416181780378999808,0.0,88.24343952011094,2175.2012096850394,0.0,0,7,0.0,16431,344991926482489,51,38.15700149536133,1012.2632899439402,0.14999,16,0.0,0.0,1575420030,,,,0,25.821043910861107,1,6.0,38.15700149536133,0.0,0.0,0.0,66.7128,C,25458043000000,
Fix,FLP,37.4244059000,-122.1712675000,-0.34774646047142355,0.092374995,2.0,,1732146574196,0.8,,25458043000000,0.9311483,0,,,
Status,1732146574000,31,0,1,14,1575420030,42.90,325.0,74.0,1,0,0,37.9
Status,1732146574000,31,1,1,30,1575420030,42.60,78.0,69.0,1,0,0,37.6
Status,1732146574000,31,2,1,22,1575420030,47.00,273.0,60.0,1,0,0,42.0
Status,1732146574000,31,3,1,13,1575420030,41.10,301.0,49.0,1,0,0,36.1
Status,1732146574000,31,4,1,17,1575420030,44.80,175.0,46.0,1,0,0,39.8
Status,1732146574000,31,5,1,7,1575420030,43.80,104.0,37.0,1,0,0,38.8
Status,1732146574000,31,6,2,131,1575420030,34.00,3.0,23.0,0,0,0,29.0
Status,1732146574000,31,7,1,19,1575420030,38.20,193.0,19.0,1,0,0,33.2
Status,1732146574000,31,8,1,15,1575420030,47.10,315.0,18.0,1,0,0,42.1
Status,1732146574000,31,9,1,2,1575420030,0.00,86.0,17.0,0,0,0,0.0
Status,1732146574000,31,10,1,21,1575420030,28.20,67.0,14.0,1,0,0,23.2
Status,1732146574000,31,11,1,8,1575420030,0.00,39.0,8.0,0,0,0,0.0
Status,1732146574000,31,12,1,5,1575420030,0.00,261.0,6.0,0,0,0,0.0
Status,1732146574000,31,13,3,9,1602000000,32.40,19.0,53.0,1,0,0,27.400002
Status,1732146574000,31,14,3,8,1602000000,35.90,301.0,39.0,1,0,0,30.900002
Status,1732146574000,31,15,3,19,1602000000,24.20,85.0,33.0,1,0,0,19.2
Status,1732146574000,31,16,3,18,1602000000,22.10,39.0,20.0,1,0,0,17.1
Status,1732146574000,31,17,3,16,1602000000,29.60,68.0,14.0,1,0,0,24.6
Status,1732146574000,31,18,3,20,1602000000,20.80,149.0,11.0,1,0,0,15.799999
Status,1732146574000,31,19,3,11,1602000000,0.00,273.0,2.0,0,0,0,0.0
Status,1732146574000,31,20,3,17,1602000000,41.70,0.0,0.0,0,0,0,36.7
Status,1732146574000,31,21,6,29,1575420030,39.00,203.0,60.0,1,0,0,34.0
Status,1732146574000,31,22,6,27,1575420030,37.50,37.0,58.0,1,0,0,32.5
Status,1732146574000,31,23,6,21,1575420030,40.60,270.0,57.0,1,0,0,35.6
Status,1732146574000,31,24,6,19,1575420030,0.00,296.0,51.0,0,0,0,0.0
Status,1732146574000,31,25,6,7,1575420030,0.00,161.0,15.0,0,0,0,0.0
Status,1732146574000,31,26,6,15,1575420030,0.00,94.0,11.0,0,0,0,0.0
Status,1732146574000,31,27,6,30,1575420030,0.00,59.0,10.0,0,0,0,0.0
Status,1732146574000,31,28,6,34,1575420030,0.00,46.0,6.0,0,0,0,0.0
Status,1732146574000,31,29,6,13,1575420030,0.00,142.0,2.0,0,0,0,0.0
Status,1732146574000,31,30,6,4,1575420030,0.00,326.0,1.0,0,0,0,0.0
Fix,GPS,37.4244100000,-122.1712733333,14.8,0.12662166,1.6,309.92,1732146575000,0.7,179.9,25459043000000,31.2,0,,,
Raw,1732146575000,12622000000,,86.64069829693126,-1416181780378999808,0.0,86.64069829693126,2176.689360903871,0.0,0,17,0.0,16431,344992929373941,42,39.80699920654297,176.28576343464442,0.14999,16,0.0,0.0,1575420030,,,,0,27.595575189938213,1,6.0,39.80699920654297,0.0,0.0,0.0,66.7128,C,25459043000000,
Raw,1732146575000,12622000000,,86.64069829693126,-1416181780378999808,0.0,86.64069829693126,2176.689360903871,0.0,0,22,0.0,16431,344992930612327,31,41.959999084472656,499.4865583261282,0.14999,16,0.0,0.0,1575420030,,,,0,29.8735877882224,1,6.0,41.959999084472656,0.0,0.0,0.0,66.7128,C,25459043000000,
Raw,1732146575000,12622000000,,86.64069829693126,-1416181780378999808,0.0,86.64069829693126,2176.689360903871,0.0,0,19,0.0,16431,344992920844001,74,33.25,-42.46420033525348,0.14999,16,0.0,0.0,1575420030,,,,0,19.38891180091633,1,6.0,33.25,0.0,0.0,0.0,66.7128,C,25459043000000,
Raw,1732146575000,12622000000,,86.64069829693126,-1416181780378999808,0.0,86.64069829693126,2176.689360903871,0.0,0,13,0.0,16431,344992930040210,51,36.137001037597656,362.61558093271805,0.14999,16,0.0,0.0,1575420030,,,,0,23.61476604740522,1,6.0,36.137001037597656,0.0,0.0,0.0,66.7128,C,25459043000000,
Raw,1732146575000,12622000000,,86.64069829693126,-1416181780378999808,0.0,86.64069829693126,2176.689360903871,0.0,0,15,0.0,16431,344992922406680,31,42.130001068115234,178.89194120880697,0.14999,16,0.0,0.0,1575420030,,,,0,30.051202236423862,1,6.0,42.130001068115234,0.0,0.0,0.0,66.7128,C,25459043000000,
Raw,1732146575000,12622000000,,86.64069829693126,-1416181780378999808,0.0,86.64069829693126,2176.689360903871,0.0,0,21,0.0,16431,344992919753292,51,35.599998474121094,480.9686517503535,0.14999,16,0.0,0.0,1575420030,,,,0,23.108473090391627,6,6.0,35.599998474121094,0.0,0.0,10.59125170429278,66.7128,C,25459043000000,
Raw,1732146575000,12622000000,,86.64069829693126,-1416181780378999808,0.0,86.64069829693126,2176.689360903871,0.0,0,27,0.0,16431,344992919888722,58,32.470001220703125,902.7234503690682,0.14999,17,10540.940030628968,0.00039999998989515007,1575420030,,,,0,19.113146111203662,6,6.0,32.470001220703125,0.0,0.0,10.59125170429278,66.7128,C,25459043000000,
Raw,1732146575000,12622000000,,86.64069829693126,-1416181780378999808,0.0,86.64069829693126,2176.689360903871,0.0,0,29,0.0,16431,344992920754532,58,34.0,948.8573080839597,0.14999,17,10976.048397951936,0.00039999998989515007,1575420030,,,,0,21.41806461609187,6,6.0,34.0,0.0,0.0,10.59125170429278,66.7128,C,25459043000000,
Raw,1732146575000,12622000000,,86.64069829693126,-1416181780378999808,0.0,86.64069829693126,2176.689360903871,0.0,0,9,0.0,17,572199,235,5.0,787.0302739905575,0.14999,16,0.0,0.0,1600875010,,,,0,13.958279672677524,3,6.0,28.0,0.0,0.0,27.067968676280785,66.7128,C,25459043000000,
Raw,1732146575000,12622000000,,86.64069829693126,-1416181780378999808,0.0,86.64069829693126,2176.689360903871,0.0,0,20,0.0,17,269402,487,5.0,-132.15010795121103,0.14999,16,0.0,0.0,1603124990,,,,0,0.0,3,6.0,18.0,0.0,0.0,27.067968676280785,66.7128,C,25459043000000,
Raw,1732146575000,12622000000,,86.64069829693126,-1416181780378999808,0.0,86.64069829693126,2176.689360903871,0.0,0,8,0.0,32995,10174930318375,74,5.0,481.8469530856485,0.14999,16,0.0,0.0,1605374980,,,,0,17.220296679617775,3,6.0,30.0,0.0,0.0,27.067968676280785,66.7128,C,25459043000000,
Raw,1732146575000,12622000000,,86.64069829693126,-1416181780378999808,0.0,86.64069829693126,2176.689360903871,0.0,0,16,0.0,17,976964,316,5.0,1138.7124212178153,0.14999,16,0.0,0.0,1601437440,,,,0,10.530356915731495,3,6.0,24.0,0.0,0.0,27.067968676280785,66.7128,C,25459043000000,
Raw,1732146575000,12622000000,,86.64069829693126,-1416181780378999808,0.0,86.64069829693126,2176.689360903871,0.0,0,19,0.0,17,475448,487,20.0,378.09840846161956,0.14999,16,0.0,0.0,1603687550,,,,0,2.9650585210726756,3,6.0,20.0,0.0,0.0,27.067968676280785,66.7128,C,25459043000000,
Raw,1732146575000,12622000000,,86.64069829693126,-1416181780378999808,0.0,86.64069829693126,2176.689360903871,0.0,0,18,0.0,17,198884,797,5.0,954.0376515206344,0.14999,16,0.0,0.0,1600312450,,,,0,0.0,3,6.0,16.0,0.0,0.0,27.067968676280785,66.7128,C,25459043000000,
Raw,1732146575000,12622000000,,86.64069829693126,-1416181780378999808,0.0,86.64069829693126,2176.689360903871,0.0,0,30,0.0,16431,344992931824810,51,37.57400131225586,748.9189609971195,0.14999,16,0.0,0.0,1575420030,,,,0,25.192533996026505,1,6.0,37.57400131225586,0.0,0.0,0.0,66.7128,C,25459043000000,
Raw,1732146575000,12622000000,,86.64069829693126,-1416181780378999808,0.0,86.64069829693126,2176.689360903871,0.0,0,14,0.0,16431,344992932762552,51,37.85499954223633,646.9019933839713,0.14999,16,0.0,0.0,1575420030,,,,0,25.49480755156461,1,6.0,37.85499954223633,0.0,0.0,0.0,66.7128,C,25459043000000,
Raw,1732146575000,12622000000,,86.64069829693126,-1416181780378999808,0.0,86.64069829693126,2176.689360903871,0.0,0,21,0.0,16431,344992920306574,396,23.211999893188477,649.1014277242106,0.14999,16,0.0,0.0,1575420030,,,,0,7.404668831813606,1,6.0,23.211999893188477,0.0,0.0,0.0,66.7128,C,25459043000000,
Raw,1732146575000,12622000000,,86.64069829693126,-1416181780378999808,0.0,86.64069829693126,2176.689360903871,0.0,0,7,0.0,16431,344992926479109,42,38.784000396728516,1012.8685501903311,0.14999,16,0.0,0.0,1575420030,,,,0,26.49582456689377,1,6.0,38.784000396728516,0.0,0.0,0.0,66.7128,C,25459043000000,
Fix,FLP,37.4244082000,-122.1712702000,-0.4311993982424598,0.11087368,1.8,319.1405,1732146575195,0.7,179.9,25459043000000,0.94114995,0,,,
Status,1732146575000,31,0,1,14,1575420030,38.50,325.0,74.0,1,0,0,33.5
Status,1732146575000,31,1,1,30,1575420030,43.70,78.0,69.0,1,0,0,38.7
Status,1732146575000,31,2,1,22,1575420030,40.70,273.0,60.0,1,0,0,35.7
Status,1732146575000,31,3,1,13,1575420030,46.70,301.0,49.0,1,0,0,41.7
Status,1732146575000,31,4,1,17,1575420030,29.60,175.0,46.0,1,0,0,24.6
Status,1732146575000,31,5,1,7,1575420030,42.60,104.0,37.0,1,0,0,37.6
Status,1732146575000,31,6,2,131,1575420030,38.00,3.0,23.0,0,0,0,33.0
Status,1732146575000,31,7,1,19,1575420030,40.70,193.0,19.0,1,0,0,35.7
Status,1732146575000,31,8,1,15,1575420030,44.50,315.0,18.0,1,0,0,39.5
Status,1732146575000,31,9,1,2,1575420030,0.00,86.0,17.0,0,0,0,0.0
Status,1732146575000,31,10,1,21,1575420030,27.20,67.0,14.0,1,0,0,22.2
Status,1732146575000,31,11,1,8,1575420030,0.00,39.0,8.0,0,0,0,0.0
Status,1732146575000,31,12,1,5,1575420030,0.00,261.0,6.0,0,0,0,0.0
Status,1732146575000,31,13,3,9,1602000000,32.00,19.0,53.0,1,0,0,27.0
Status,1732146575000,31,14,3,8,1602000000,40.90,301.0,39.0,1,0,0,35.9
Status,1732146575000,31,15,3,19,1602000000,24.90,85.0,33.0,1,0,0,19.9
Status,1732146575000,31,16,3,18,1602000000,22.10,39.0,20.0,1,0,0,17.1
Status,1732146575000,31,17,3,16,1602000000,29.60,68.0,14.0,1,0,0,24.6
Status,1732146575000,31,18,3,20,1602000000,22.10,149.0,11.0,1,0,0,17.1
Status,1732146575000,31,19,3,11,1602000000,0.00,273.0,2.0,0,0,0,0.0
Status,1732146575000,31,20,3,17,1602000000,41.80,0.0,0.0,0,0,0,36.8
Status,1732146575000,31,21,6,29,1575420030,42.90,203.0,60.0,1,0,0,37.9
Status,1732146575000,31,22,6,27,1575420030,37.40,37.0,58.0,1,0,0,32.4
Status,1732146575000,31,23,6,21,1575420030,41.20,270.0,57.0,1,0,0,36.2
Status,1732146575000,31,24,6,19,1575420030,0.00,296.0,51.0,0,0,0,0.0
Status,1732146575000,31,25,6,7,1575420030,0.00,161.0,15.0,0,0,0,0.0
Status,1732146575000,31,26,6,15,1575420030,0.00,94.0,11.0,0,0,0,0.0
Status,1732146575000,31,27,6,30,1575420030,0.00,59.0,10.0,0,0,0,0.0
Status,1732146575000,31,28,6,34,1575420030,0.00,46.0,6.0,0,0,0,0.0
Status,1732146575000,31,29,6,13,1575420030,0.00,142.0,2.0,0,0,0,0.0
Status,1732146575000,31,30,6,4,1575420030,0.00,326.0,1.0,0,0,0,0.0
Fix,GPS,37.4244100000,-122.1712700000,14.8,0.019559445,1.6,341.98,1732146576000,0.6,179.9,25460043000000,32.5,0,,,
Fix,FLP,37.4244094000,-122.1712705000,-0.24106581206661826,0.03567551,1.72,,1732146576195,0.6,,25460043000000,0.94512546,0,,,
Raw,1732146576000,13622000000,,92.32054114291628,-1416181780378999808,0.0,92.32054114291628,2178.1119250841693,0.0,0,17,0.0,16431,344993929373355,396,24.628000259399414,177.01097931169093,0.14999,16,0.0,0.0,1575420030,,,,0,9.511532442711992,1,6.0,24.628000259399414,0.0,0.0,0.0,66.7128,C,25460043000000,
Raw,1732146576000,13622000000,,92.32054114291628,-1416181780378999808,0.0,92.32054114291628,2178.1119250841693,0.0,0,22,0.0,16431,344993930610663,51,35.66999816894531,500.0699366584839,0.14999,17,6808.042490833047,0.00022499999613501132,1575420030,,,,0,23.099158462541258,1,6.0,35.66999816894531,0.0,0.0,0.0,66.7128,C,25460043000000,
Raw,1732146576000,13622000000,,92.32054114291628,-1416181780378999808,0.0,92.32054114291628,2178.1119250841693,0.0,0,19,0.0,16431,344993920844145,51,35.7239990234375,-41.94488815885208,0.14999,16,0.0,0.0,1575420030,,,,0,23.16415206078385,1,6.0,35.7239990234375,0.0,0.0,0.0,66.7128,C,25460043000000,
Raw,1732146576000,13622000000,,92.32054114291628,-1416181780378999808,0.0,92.32054114291628,2178.1119250841693,0.0,0,13,0.0,16431,344993930038993,31,41.689998626708984,363.3446296291019,0.14999,16,0.0,0.0,1575420030,,,,0,29.586927413848368,1,6.0,41.689998626708984,0.0,0.0,0.0,66.7128,C,25460043000000,
Raw,1732146576000,13622000000,,92.32054114291628,-1416181780378999808,0.0,92.32054114291628,2178.1119250841693,0.0,0,15,0.0,16431,344993922406082,42,39.479000091552734,179.40405233069575,0.14999,16,0.0,0.0,1575420030,,,,0,27.244238868824624,1,6.0,39.479000091552734,0.0,0.0,0.0,66.7128,C,25460043000000,
Raw,1732146576000,13622000000,,92.32054114291628,-1416181780378999808,0.0,92.32054114291628,2178.1119250841693,0.0,0,30,0.0,16431,344993931822333,42,38.66400146484375,749.609518895673,0.14999,16,0.0,0.0,1575420030,,,,0,26.368835614351287,1,6.0,38.66400146484375,0.0,0.0,0.0,66.7128,C,25460043000000,
Raw,1732146576000,13622000000,,92.32054114291628,-1416181780378999808,0.0,92.32054114291628,2178.1119250841693,0.0,0,21,0.0,16431,344993919751731,51,36.20000076293945,481.34891388703676,0.14999,17,8117.089809168581,0.00022499999613501132,1575420030,,,,0,23.684743381694744,6,6.0,36.20000076293945,0.0,0.0,10.15226574559771,66.7128,C,25460043000000,
Raw,1732146576000,13622000000,,92.32054114291628,-1416181780378999808,0.0,92.32054114291628,2178.1119250841693,0.0,0,14,0.0,16431,344993932760382,58,33.54600143432617,647.4082507454175,0.14999,16,0.0,0.0,1575420030,,,,0,20.71150536925701,1,6.0,33.54600143432617,0.0,0.0,0.0,66.7128,C,25460043000000,
Raw,1732146576000,13622000000,,92.32054114291628,-1416181780378999808,0.0,92.32054114291628,2178.1119250841693,0.0,0,27,0.0,16431,344993919885715,58,32.44599914550781,903.1431557011142,0.14999,16,0.0,0.0,1575420030,,,,0,19.244863895229848,6,6.0,32.44599914550781,0.0,0.0,10.15226574559771,66.7128,C,25460043000000,
Raw,1732146576000,13622000000,,92.32054114291628,-1416181780378999808,0.0,92.32054114291628,2178.1119250841693,0.0,0,29,0.0,16431,344993920751368,42,37.900001525878906,949.3474443749809,0.14999,16,0.0,0.0,1575420030,,,,0,25.480649619109556,6,6.0,37.900001525878906,0.0,0.0,10.15226574559771,66.7128,C,25460043000000,
Raw,1732146576000,13622000000,,92.32054114291628,-1416181780378999808,0.0,92.32054114291628,2178.1119250841693,0.0,0,9,0.0,17,569581,235,5.0,787.5341964780271,0.14999,16,0.0,0.0,1600875010,,,,0,13.492852824417763,3,6.0,27.0,0.0,0.0,28.804204498061736,66.7128,C,25460043000000,
Raw,1732146576000,13622000000,,92.32054114291628,-1416181780378999808,0.0,92.32054114291628,2178.1119250841693,0.0,0,20,0.0,17,269836,487,5.0,-130.58631481168007,0.14999,16,0.0,0.0,1603124990,,,,0,0.0,3,6.0,20.0,0.0,0.0,28.804204498061736,66.7128,C,25460043000000,
Raw,1732146576000,13622000000,,92.32054114291628,-1416181780378999808,0.0,92.32054114291628,2178.1119250841693,0.0,0,8,0.0,32995,10175930316761,51,5.0,482.58995840834774,0.14999,16,0.0,0.0,1605374980,,,,0,23.38450921424065,3,6.0,36.0,0.0,0.0,28.804204498061736,66.7128,C,25460043000000,
Raw,1732146576000,13622000000,,92.32054114291628,-1416181780378999808,0.0,92.32054114291628,2178.1119250841693,0.0,0,16,0.0,17,973135,316,5.0,1139.3511752475517,0.14999,16,0.0,0.0,1601437440,,,,0,10.64171600051034,3,6.0,25.0,0.0,0.0,28.804204498061736,66.7128,C,25460043000000,
Raw,1732146576000,13622000000,,92.32054114291628,-1416181780378999808,0.0,92.32054114291628,2178.1119250841693,0.0,0,19,0.0,17,474176,487,20.0,379.61907142772395,0.14999,16,0.0,0.0,1603687550,,,,0,4.060068746475529,3,6.0,20.0,0.0,0.0,28.804204498061736,66.7128,C,25460043000000,
Raw,1732146576000,13622000000,,92.32054114291628,-1416181780378999808,0.0,92.32054114291628,2178.1119250841693,0.0,0,18,0.0,17,195701,487,5.0,955.2701389434682,0.14999,16,0.0,0.0,1600312450,,,,0,0.0,3,6.0,19.0,0.0,0.0,28.804204498061736,66.7128,C,25460043000000,
Raw,1732146576000,13622000000,,92.32054114291628,-1416181780378999808,0.0,92.32054114291628,2178.1119250841693,0.0,0,21,0.0,16431,344993920304388,396,22.173999786376953,649.098222093492,0.14999,16,0.0,0.0,1575420030,,,,0,5.786914634580768,1,6.0,22.173999786376953,0.0,0.0,0.0,66.7128,C,25460043000000,
Raw,1732146576000,13622000000,,92.32054114291628,-1416181780378999808,0.0,92.32054114291628,2178.1119250841693,0.0,0,7,0.0,16431,344993926475730,51,37.56700134277344,1013.263075060791,0.14999,17,11483.034674526609,0.00022499999613501132,1575420030,,,,0,25.185207222384083,1,6.0,37.56700134277344,0.0,0.0,0.0,66.7128,C,25460043000000,
Status,1732146576000,31,0,1,14,1575420030,40.90,325.0,74.0,1,0,0,35.9
Status,1732146576000,31,1,1,30,1575420030,43.40,78.0,69.0,1,0,0,38.4
Status,1732146576000,31,2,1,22,1575420030,40.70,273.0,60.0,1,0,0,35.7
Status,1732146576000,31,3,1,13,1575420030,46.70,301.0,49.0,1,0,0,41.7
Status,1732146576000,31,4,1,17,1575420030,31.10,175.0,46.0,1,0,0,26.1
Status,1732146576000,31,5,1,7,1575420030,42.50,104.0,37.0,1,0,0,37.5
Status,1732146576000,31,6,2,131,1575420030,38.00,3.0,23.0,0,0,0,33.0
Status,1732146576000,31,7,1,19,1575420030,42.40,193.0,19.0,1,0,0,37.4
Status,1732146576000,31,8,1,15,1575420030,44.60,315.0,18.0,1,0,0,39.6
Status,1732146576000,31,9,1,2,1575420030,0.00,86.0,17.0,0,0,0,0.0
Status,1732146576000,31,10,1,21,1575420030,28.80,67.0,14.0,1,0,0,23.8
Status,1732146576000,31,11,1,8,1575420030,0.00,39.0,8.0,0,0,0,0.0
Status,1732146576000,31,12,1,5,1575420030,0.00,261.0,6.0,0,0,0,0.0
Status,1732146576000,31,13,3,9,1602000000,34.80,19.0,53.0,1,0,0,29.8
Status,1732146576000,31,14,3,8,1602000000,37.20,301.0,39.0,1,0,0,32.2
Status,1732146576000,31,15,3,19,1602000000,23.80,85.0,33.0,1,0,0,18.8
Status,1732146576000,31,16,3,18,1602000000,23.40,39.0,20.0,1,0,0,18.4
Status,1732146576000,31,17,3,16,1602000000,29.70,68.0,14.0,1,0,0,24.7
Status,1732146576000,31,18,3,20,1602000000,19.00,149.0,11.0,1,0,0,14.0
Status,1732146576000,31,19,3,11,1602000000,0.00,273.0,2.0,0,0,0,0.0
Status,1732146576000,31,20,3,17,1602000000,41.90,0.0,0.0,0,0,0,36.9
Status,1732146576000,31,21,6,29,1575420030,42.90,203.0,60.0,1,0,0,37.9
Status,1732146576000,31,22,6,27,1575420030,37.40,37.0,58.0,1,0,0,32.4
Status,1732146576000,31,23,6,21,1575420030,40.90,270.0,57.0,1,0,0,35.9
Status,1732146576000,31,24,6,19,1575420030,0.00,296.0,51.0,0,0,0,0.0
Status,1732146576000,31,25,6,7,1575420030,0.00,161.0,15.0,0,0,0,0.0
Status,1732146576000,31,26,6,15,1575420030,0.00,94.0,11.0,0,0,0,0.0
Status,1732146576000,31,27,6,30,1575420030,0.00,59.0,10.0,0,0,0,0.0
Status,1732146576000,31,28,6,34,1575420030,0.00,46.0,6.0,0,0,0,0.0
Status,1732146576000,31,29,6,13,1575420030,0.00,142.0,2.0,0,0,0,0.0
Status,1732146576000,31,30,6,4,1575420030,0.00,326.0,1.0,0,0,0,0.0
Fix,GPS,37.4244083333,-122.1712716667,14.900000000000002,0.015441666,1.5,145.56,1732146577000,0.6,179.9,25461043000000,32.5,0,,,
Raw,1732146577000,14622000000,,91.72802028129253,-1416181780378999808,0.0,91.72802028129253,2179.3333366268866,0.0,0,17,0.0,16431,344994929372765,316,26.143999099731445,177.54664485059843,0.14999,16,0.0,0.0,1575420030,,,,0,11.599873831985956,1,6.0,26.143999099731445,0.0,0.0,0.0,66.7128,C,25461043000000,
Raw,1732146577000,14622000000,,91.72802028129253,-1416181780378999808,0.0,91.72802028129253,2179.3333366268866,0.0,0,22,0.0,16431,344994930608996,51,35.73400115966797,500.5011636777501,0.14999,17,7308.334786182468,0.00022499999613501132,1575420030,,,,0,24.514972766955854,1,6.0,35.73400115966797,0.0,0.0,0.0,66.7128,C,25461043000000,
Raw,1732146577000,14622000000,,91.72802028129253,-1416181780378999808,0.0,91.72802028129253,2179.3333366268866,0.0,0,19,0.0,16431,344994920844289,51,37.4109992980957,-41.60225733929936,0.14999,17,-479.3694833535322,0.00022499999613501132,1575420030,,,,0,25.014962776547872,1,6.0,37.4109992980957,0.0,0.0,0.0,66.7128,C,25461043000000,
Raw,1732146577000,14622000000,,91.72802028129253,-1416181780378999808,0.0,91.72802028129253,2179.3333366268866,0.0,0,13,0.0,16431,344994930037778,42,41.667999267578125,363.83931884491176,0.14999,17,5351.001176264345,0.00022499999613501132,1575420030,,,,0,29.124416938355758,1,6.0,41.667999267578125,0.0,0.0,0.0,66.7128,C,25461043000000,
Raw,1732146577000,14622000000,,91.72802028129253,-1416181780378999808,0.0,91.72802028129253,2179.3333366268866,0.0,0,15,0.0,16431,344994922405482,42,39.608001708984375,179.9117034446283,0.14999,17,7268.607715378419,0.00022499999613501132,1575420030,,,,0,27.381930887838863,1,6.0,39.608001708984375,0.0,0.0,0.0,66.7128,C,25461043000000,
Raw,1732146577000,14622000000,,91.72802028129253,-1416181780378999808,0.0,91.72802028129253,2179.3333366268866,0.0,0,21,0.0,16431,344994919750139,51,35.900001525878906,481.74822397436634,0.14999,16,0.0,0.0,1575420030,,,,0,23.446274900786527,6,6.0,35.900001525878906,0.0,0.0,8.98101476050963,66.7128,C,25461043000000,
Raw,1732146577000,14622000000,,91.72802028129253,-1416181780378999808,0.0,91.72802028129253,2179.3333366268866,0.0,0,27,0.0,16431,344994919882712,58,32.40299987792969,903.4862975632452,0.14999,16,0.0,0.0,1575420030,,,,0,18.782501393319762,6,6.0,32.40299987792969,0.0,0.0,8.98101476050963,66.7128,C,25461043000000,
Raw,1732146577000,14622000000,,91.72802028129253,-1416181780378999808,0.0,91.72802028129253,2179.3333366268866,0.0,0,29,0.0,16431,344994920748205,51,37.869998931884766,949.7579509406172,0.14999,16,0.0,0.0,1575420030,,,,0,24.864162293658218,6,6.0,37.869998931884766,0.0,0.0,8.98101476050963,66.7128,C,25461043000000,
Raw,1732146577000,14622000000,,91.72802028129253,-1416181780378999808,0.0,91.72802028129253,2179.3333366268866,0.0,0,9,0.0,17,566954,74,5.0,787.9952338908055,0.14999,16,0.0,0.0,1600875010,,,,0,16.717464604693742,3,6.0,30.0,0.0,0.0,29.848344383725944,66.7128,C,25461043000000,
Raw,1732146577000,14622000000,,91.72802028129253,-1416181780378999808,0.0,91.72802028129253,2179.3333366268866,0.0,0,20,0.0,17,270275,797,5.0,-130.47418483530825,0.14999,16,0.0,0.0,1603124990,,,,0,0.0,3,6.0,16.0,0.0,0.0,29.848344383725944,66.7128,C,25461043000000,
Raw,1732146577000,14622000000,,91.72802028129253,-1416181780378999808,0.0,91.72802028129253,2179.3333366268866,0.0,0,8,0.0,32995,10176930315150,74,5.0,483.2622512529524,0.14999,17,7242.132479912155,0.0006249999860301614,1605374980,,,,0,19.467031852422238,3,6.0,32.0,0.0,0.0,29.848344383725944,66.7128,C,25461043000000,
Raw,1732146577000,14622000000,,91.72802028129253,-1416181780378999808,0.0,91.72802028129253,2179.3333366268866,0.0,0,16,0.0,17,969325,316,5.0,1139.8862734287304,0.14999,16,0.0,0.0,1601437440,,,,0,10.696864691414119,3,6.0,24.0,0.0,0.0,29.848344383725944,66.7128,C,25461043000000,
Raw,1732146577000,14622000000,,91.72802028129253,-1416181780378999808,0.0,91.72802028129253,2179.3333366268866,0.0,0,19,0.0,17,472919,487,20.0,380.28785004574405,0.14999,16,0.0,0.0,1603687550,,,,0,2.2756050596402195,3,6.0,20.0,0.0,0.0,29.848344383725944,66.7128,C,25461043000000,
Raw,1732146577000,14622000000,,91.72802028129253,-1416181780378999808,0.0,91.72802028129253,2179.3333366268866,0.0,0,18,0.0,17,192522,487,5.0,954.8779090140403,0.14999,16,0.0,0.0,1600312450,,,,0,1.5309767422105436,3,6.0,18.0,0.0,0.0,29.848344383725944,66.7128,C,25461043000000,
Raw,1732146577000,14622000000,,91.72802028129253,-1416181780378999808,0.0,91.72802028129253,2179.3333366268866,0.0,0,14,0.0,16431,344994932758212,51,35.854000091552734,647.8459819429532,0.14999,16,0.0,0.0,1575420030,,,,0,23.30180770954353,1,6.0,35.854000091552734,0.0,0.0,0.0,66.7128,C,25461043000000,
Raw,1732146577000,14622000000,,91.72802028129253,-1416181780378999808,0.0,91.72802028129253,2179.3333366268866,0.0,0,30,0.0,16431,344994931819845,51,38.362998962402344,750.0492013466894,0.14999,16,0.0,0.0,1575420030,,,,0,26.0429950952266,1,6.0,38.362998962402344,0.0,0.0,0.0,66.7128,C,25461043000000,
Raw,1732146577000,14622000000,,91.72802028129253,-1416181780378999808,0.0,91.72802028129253,2179.3333366268866,0.0,0,21,0.0,16431,344994920302226,396,23.809999465942383,650.0836051013175,0.14999,16,0.0,0.0,1575420030,,,,0,8.319818643027109,1,6.0,23.809999465942383,0.0,0.0,0.0,66.7128,C,25461043000000,
Raw,1732146577000,14622000000,,91.72802028129253,-1416181780378999808,0.0,91.72802028129253,2179.3333366268866,0.0,0,7,0.0,16431,344994926472346,51,37.474998474121094,1013.7071246029313,0.14999,17,12496.527448708099,0.00022499999613501132,1575420030,,,,0,23.173397287455604,1,6.0,37.474998474121094,0.0,0.0,0.0,66.7128,C,25461043000000,
Fix,FLP,37.4244090000,-122.1712711000,-0.32400907412494373,0.007758457,1.683,,1732146577195,0.6,,25461043000000,0.95512587,0,,,
Status,1732146577000,31,0,1,14,1575420030,39.30,325.0,74.0,1,0,0,34.3
Status,1732146577000,31,1,1,30,1575420030,41.50,78.0,69.0,1,0,0,36.5
Status,1732146577000,31,2,1,22,1575420030,40.70,273.0,60.0,1,0,0,35.7
Status,1732146577000,31,3,1,13,1575420030,42.20,301.0,49.0,1,0,0,37.2
Status,1732146577000,31,4,1,17,1575420030,35.20,175.0,46.0,1,0,0,30.2
Status,1732146577000,31,5,1,7,1575420030,42.50,104.0,37.0,1,0,0,37.5
Status,1732146577000,31,6,2,131,1575420030,39.00,3.0,23.0,0,0,0,34.0
Status,1732146577000,31,7,1,19,1575420030,39.90,193.0,19.0,1,0,0,34.9
Status,1732146577000,31,8,1,15,1575420030,44.60,315.0,18.0,1,0,0,39.6
Status,1732146577000,31,9,1,2,1575420030,0.00,86.0,17.0,0,0,0,0.0
Status,1732146577000,31,10,1,21,1575420030,28.80,67.0,14.0,1,0,0,23.8
Status,1732146577000,31,11,1,8,1575420030,0.00,39.0,8.0,0,0,0,0.0
Status,1732146577000,31,12,1,5,1575420030,23.20,261.0,6.0,1,0,0,18.2
Status,1732146577000,31,13,3,9,1602000000,35.60,19.0,53.0,1,0,0,30.599998
Status,1732146577000,31,14,3,8,1602000000,37.20,301.0,39.0,1,0,0,32.2
Status,1732146577000,31,15,3,19,1602000000,23.80,85.0,33.0,1,0,0,18.8
Status,1732146577000,31,16,3,18,1602000000,23.30,39.0,20.0,1,0,0,18.3
Status,1732146577000,31,17,3,16,1602000000,29.50,68.0,14.0,1,0,0,24.5
Status,1732146577000,31,18,3,20,1602000000,19.00,149.0,11.0,1,0,0,14.0
Status,1732146577000,31,19,3,11,1602000000,0.00,273.0,2.0,0,0,0,0.0
Status,1732146577000,31,20,3,17,1602000000,41.90,0.0,0.0,0,0,0,36.9
Status,1732146577000,31,21,6,29,1575420030,42.80,203.0,60.0,1,0,0,37.8
Status,1732146577000,31,22,6,27,1575420030,37.30,37.0,58.0,1,0,0,32.3
Status,1732146577000,31,23,6,21,1575420030,39.20,270.0,57.0,1,0,0,34.2
Status,1732146577000,31,24,6,19,1575420030,0.00,296.0,51.0,0,0,0,0.0
Status,1732146577000,31,25,6,7,1575420030,0.00,161.0,15.0,0,0,0,0.0
Status,1732146577000,31,26,6,15,1575420030,0.00,94.0,11.0,0,0,0,0.0
Status,1732146577000,31,27,6,30,1575420030,0.00,59.0,10.0,0,0,0,0.0
Status,1732146577000,31,28,6,34,1575420030,0.00,46.0,6.0,0,0,0,0.0
Status,1732146577000,31,29,6,13,1575420030,0.00,142.0,2.0,0,0,0,0.0
Status,1732146577000,31,30,6,4,1575420030,0.00,326.0,1.0,0,0,0,0.0
Fix,GPS,37.4244083333,-122.1712716667,14.900000000000002,0.03706,1.5,180.75,1732146578000,0.6,179.9,25462043000000,33.0,0,,,
Fix,FLP,37.4244086000,-122.1712713000,-0.32400907412494373,0.028459482,1.616,,1732146578195,0.6,,25462043000000,0.9651274,0,,,
Raw,1732146578000,15622000000,,92.68341094290457,-1416181780378999808,0.0,92.68341094290457,2181.9376548531272,0.0,0,17,0.0,16431,344995929372169,74,30.179000854492188,178.29179138819924,0.14999,16,0.0,0.0,1575420030,,,,0,16.755767035528095,1,6.0,30.179000854492188,0.0,0.0,0.0,66.7128,C,25462043000000,
Raw,1732146578000,15622000000,,92.68341094290457,-1416181780378999808,0.0,92.68341094290457,2181.9376548531272,0.0,0,22,0.0,16431,344995930607329,51,35.74100112915039,501.23697207369264,0.14999,17,7809.611509238531,0.00022499999613501132,1575420030,,,,0,23.329078970998502,1,6.0,35.74100112915039,0.0,0.0,0.0,66.7128,C,25462043000000,
Raw,1732146578000,15622000000,,92.68341094290457,-1416181780378999808,0.0,92.68341094290457,2181.9376548531272,0.0,0,19,0.0,16431,344995920844428,58,34.935001373291016,-40.91704215861013,0.14999,17,-520.2089370534197,0.00039999998989515007,1575420030,,,,0,22.278757260595906,1,6.0,34.935001373291016,0.0,0.0,0.0,66.7128,C,25462043000000,
Raw,1732146578000,15622000000,,92.68341094290457,-1416181780378999808,0.0,92.68341094290457,2181.9376548531272,0.0,0,13,0.0,16431,344995930036556,51,37.19900131225586,364.7401939936503,0.14999,17,5715.705550819098,0.00022499999613501132,1575420030,,,,0,24.780092313970737,1,6.0,37.19900131225586,0.0,0.0,0.0,66.7128,C,25462043000000,
Raw,1732146578000,15622000000,,92.68341094290457,-1416181780378999808,0.0,92.68341094290457,2181.9376548531272,0.0,0,15,0.0,16431,344995922404878,42,39.62099838256836,180.72370364315609,0.14999,17,7449.2902481538595,0.00022499999613501132,1575420030,,,,0,27.66196447853236,1,6.0,39.62099838256836,0.0,0.0,0.0,66.7128,C,25462043000000,
Raw,1732146578000,15622000000,,92.68341094290457,-1416181780378999808,0.0,92.68341094290457,2181.9376548531272,0.0,0,21,0.0,16431,344995919748537,58,34.20000076293945,482.62243199220006,0.14999,17,9081.374923576299,0.00039999998989515007,1575420030,,,,0,21.61929113624979,6,6.0,34.20000076293945,0.0,0.0,8.449624384363496,66.7128,C,25462043000000,
Raw,1732146578000,15622000000,,92.68341094290457,-1416181780378999808,0.0,92.68341094290457,2181.9376548531272,0.0,0,27,0.0,16431,344995919879698,74,32.28200149536133,904.3715162257208,0.14999,16,0.0,0.0,1575420030,,,,0,16.928149775539012,6,6.0,32.28200149536133,0.0,0.0,8.449624384363496,66.7128,C,25462043000000,
Raw,1732146578000,15622000000,,92.68341094290457,-1416181780378999808,0.0,92.68341094290457,2181.9376548531272,0.0,0,29,0.0,16431,344995920745039,51,37.7760009765625,950.6544125398158,0.14999,16,0.0,0.0,1575420030,,,,0,23.473097020828668,6,6.0,37.7760009765625,0.0,0.0,8.449624384363496,66.7128,C,25462043000000,
Raw,1732146578000,15622000000,,92.68341094290457,-1416181780378999808,0.0,92.68341094290457,2181.9376548531272,0.0,0,9,0.0,17,564323,74,5.0,789.0222811379946,0.14999,16,0.0,0.0,1600875010,,,,0,17.68395907522051,3,6.0,31.0,0.0,0.0,31.29695539265107,66.7128,C,25462043000000,
Raw,1732146578000,15622000000,,92.68341094290457,-1416181780378999808,0.0,92.68341094290457,2181.9376548531272,0.0,0,20,0.0,17,270708,487,5.0,-128.67462655001827,0.14999,16,0.0,0.0,1603124990,,,,0,0.0,3,6.0,18.0,0.0,0.0,31.29695539265107,66.7128,C,25462043000000,
Raw,1732146578000,15622000000,,92.68341094290457,-1416181780378999808,0.0,92.68341094290457,2181.9376548531272,0.0,0,8,0.0,32995,10177930313531,58,5.0,483.93942239230637,0.14999,17,7726.052326437097,0.00039999998989515007,1605374980,,,,0,19.762653488357156,3,6.0,33.0,0.0,0.0,31.29695539265107,66.7128,C,25462043000000,
Raw,1732146578000,15622000000,,92.68341094290457,-1416181780378999808,0.0,92.68341094290457,2181.9376548531272,0.0,0,16,0.0,17,965518,316,5.0,1140.7449533593751,0.14999,16,0.0,0.0,1601437440,,,,0,10.474137369054926,3,6.0,24.0,0.0,0.0,31.29695539265107,66.7128,C,25462043000000,
Raw,1732146578000,15622000000,,92.68341094290457,-1416181780378999808,0.0,92.68341094290457,2181.9376548531272,0.0,0,19,0.0,17,471622,487,20.0,381.88710425491195,0.14999,16,0.0,0.0,1603687550,,,,0,3.67960400020692,3,6.0,20.0,0.0,0.0,31.29695539265107,66.7128,C,25462043000000,
Raw,1732146578000,15622000000,,92.68341094290457,-1416181780378999808,0.0,92.68341094290457,2181.9376548531272,0.0,0,18,0.0,17,189331,487,5.0,956.6856609019327,0.14999,16,0.0,0.0,1600312450,,,,0,0.0,3,6.0,20.0,0.0,0.0,31.29695539265107,66.7128,C,25462043000000,
Raw,1732146578000,15622000000,,92.68341094290457,-1416181780378999808,0.0,92.68341094290457,2181.9376548531272,0.0,0,5,0.0,16431,344995916393298,797,18.216999053955078,1094.8646814632937,0.14999,16,0.0,0.0,1575420030,,,,0,0.0,1,6.0,18.216999053955078,0.0,0.0,0.0,66.7128,C,25462043000000,
Raw,1732146578000,15622000000,,92.68341094290457,-1416181780378999808,0.0,92.68341094290457,2181.9376548531272,0.0,0,14,0.0,16431,344995932756054,58,34.27799987792969,648.5691071912702,0.14999,17,10113.457861689025,0.00039999998989515007,1575420030,,,,0,21.54158936891292,1,6.0,34.27799987792969,0.0,0.0,0.0,66.7128,C,25462043000000,
Raw,1732146578000,15622000000,,92.68341094290457,-1416181780378999808,0.0,92.68341094290457,2181.9376548531272,0.0,0,30,0.0,16431,344995931817338,51,36.516998291015625,750.8737453175941,0.14999,17,10276.236531679397,0.00022499999613501132,1575420030,,,,0,24.03478728571041,1,6.0,36.516998291015625,0.0,0.0,0.0,66.7128,C,25462043000000,
Raw,1732146578000,15622000000,,92.68341094290457,-1416181780378999808,0.0,92.68341094290457,2181.9376548531272,0.0,0,21,0.0,16431,344995920300062,487,23.7810001373291,649.8091287783457,0.14999,16,0.0,0.0,1575420030,,,,0,7.461254632190892,1,6.0,23.7810001373291,0.0,0.0,0.0,66.7128,C,25462043000000,
Raw,1732146578000,15622000000,,92.68341094290457,-1416181780378999808,0.0,92.68341094290457,2181.9376548531272,0.0,0,7,0.0,16431,344995926468961,51,37.48699951171875,1014.4176596204553,0.14999,17,13510.985724598926,0.00022499999613501132,1575420030,,,,0,25.344985617408614,1,6.0,37.48699951171875,0.0,0.0,0.0,66.7128,C,25462043000000,
Status,1732146578000,31,0,1,14,1575420030,42.80,325.0,74.0,1,0,0,37.8
Status,1732146578000,31,1,1,30,1575420030,38.30,78.0,69.0,1,0,0,33.3
Status,1732146578000,31,2,1,22,1575420030,40.80,273.0,60.0,1,0,0,35.8
Status,1732146578000,31,3,1,13,1575420030,42.20,301.0,49.0,1,0,0,37.2
Status,1732146578000,31,4,1,17,1575420030,32.60,175.0,46.0,1,0,0,27.599998
Status,1732146578000,31,5,1,7,1575420030,39.30,104.0,37.0,1,0,0,34.3
Status,1732146578000,31,6,2,131,1575420030,40.00,3.0,23.0,0,0,0,35.0
Status,1732146578000,31,7,1,19,1575420030,43.60,193.0,19.0,1,0,0,38.6
Status,1732146578000,31,8,1,15,1575420030,44.60,315.0,18.0,1,0,0,39.6
Status,1732146578000,31,9,1,2,1575420030,0.00,86.0,17.0,0,0,0,0.0
Status,1732146578000,31,10,1,21,1575420030,28.80,67.0,14.0,1,0,0,23.8
Status,1732146578000,31,11,1,8,1575420030,0.00,39.0,8.0,0,0,0,0.0
Status,1732146578000,31,12,1,5,1575420030,0.00,261.0,6.0,0,0,0,0.0
Status,1732146578000,31,13,3,9,1602000000,38.60,19.0,53.0,1,0,0,33.6
Status,1732146578000,31,14,3,8,1602000000,33.90,301.0,39.0,1,0,0,28.900002
Status,1732146578000,31,15,3,19,1602000000,23.90,85.0,33.0,1,0,0,18.9
Status,1732146578000,31,16,3,18,1602000000,23.30,39.0,20.0,1,0,0,18.3
Status,1732146578000,31,17,3,16,1602000000,26.10,68.0,14.0,1,0,0,21.1
Status,1732146578000,31,18,3,20,1602000000,24.20,149.0,11.0,1,0,0,19.2
Status,1732146578000,31,19,3,11,1602000000,0.00,273.0,2.0,0,0,0,0.0
Status,1732146578000,31,20,3,17,1602000000,39.30,0.0,0.0,0,0,0,34.3
Status,1732146578000,31,21,6,29,1575420030,42.80,203.0,60.0,1,0,0,37.8
Status,1732146578000,31,22,6,27,1575420030,33.60,37.0,58.0,1,0,0,28.599998
Status,1732146578000,31,23,6,21,1575420030,43.20,270.0,57.0,1,0,0,38.2
Status,1732146578000,31,24,6,19,1575420030,0.00,296.0,51.0,0,0,0,0.0
Status,1732146578000,31,25,6,7,1575420030,0.00,161.0,15.0,0,0,0,0.0
Status,1732146578000,31,26,6,15,1575420030,0.00,94.0,11.0,0,0,0,0.0
Status,1732146578000,31,27,6,30,1575420030,0.00,59.0,10.0,0,0,0,0.0
Status,1732146578000,31,28,6,34,1575420030,0.00,46.0,6.0,0,0,0,0.0
Status,1732146578000,31,29,6,13,1575420030,0.00,142.0,2.0,0,0,0,0.0
Status,1732146578000,31,30,6,4,1575420030,0.00,326.0,1.0,0,0,0,0.0
Fix,GPS,37.4244100000,-122.1712700000,15.000000000000004,0.15596083,1.5,338.04,1732146579000,0.6,138.8,25463043000000,32.8,0,,,
Raw,1732146579000,16622000000,,92.51894729199378,-1416181780378999808,0.0,92.51894729199378,2184.432006225667,0.0,0,17,0.0,16431,344996929371570,235,27.562999725341797,179.53055859803703,0.14999,16,0.0,0.0,1575420030,,,,0,13.481854545470517,1,6.0,27.562999725341797,0.0,0.0,0.0,66.7128,C,25463043000000,
Raw,1732146579000,16622000000,,92.51894729199378,-1416181780378999808,0.0,92.51894729199378,2184.432006225667,0.0,0,22,0.0,16431,344996930605654,51,35.847999572753906,502.1127132192613,0.14999,17,8312.006439914365,0.00022499999613501132,1575420030,,,,0,25.53010174737626,1,6.0,35.847999572753906,0.0,0.0,0.0,66.7128,C,25463043000000,
Raw,1732146579000,16622000000,,92.51894729199378,-1416181780378999808,0.0,92.51894729199378,2184.432006225667,0.0,0,19,0.0,16431,344996920844563,42,38.564998626708984,-40.19363815979584,0.14999,17,-559.9759824209664,0.00022499999613501132,1575420030,,,,0,26.259415772493607,1,6.0,38.564998626708984,0.0,0.0,0.0,66.7128,C,25463043000000,
Raw,1732146579000,16622000000,,92.51894729199378,-1416181780378999808,0.0,92.51894729199378,2184.432006225667,0.0,0,13,0.0,16431,344996930035332,51,37.17900085449219,365.4130512356275,0.14999,17,6081.488480735386,0.00022499999613501132,1575420030,,,,0,24.355154281421264,1,6.0,37.17900085449219,0.0,0.0,0.0,66.7128,C,25463043000000,
Raw,1732146579000,16622000000,,92.51894729199378,-1416181780378999808,0.0,92.51894729199378,2184.432006225667,0.0,0,15,0.0,16431,344996922404272,42,39.617000579833984,181.15525587133578,0.14999,17,7631.063749398917,0.00022499999613501132,1575420030,,,,0,27.324824241382327,1,6.0,39.617000579833984,0.0,0.0,0.0,66.7128,C,25463043000000,
Raw,1732146579000,16622000000,,92.51894729199378,-1416181780378999808,0.0,92.51894729199378,2184.432006225667,0.0,0,21,0.0,16431,344996919746930,42,38.20000076293945,483.55406261247,0.14999,16,0.0,0.0,1575420030,,,,0,25.793751226541794,6,6.0,38.20000076293945,0.0,0.0,7.904562832914429,66.7128,C,25463043000000,
Raw,1732146579000,16622000000,,92.51894729199378,-1416181780378999808,0.0,92.51894729199378,2184.432006225667,0.0,0,27,0.0,16431,344996919876685,74,28.600000381469727,905.3394308690512,0.14999,16,0.0,0.0,1575420030,,,,0,15.397464702812247,6,6.0,28.600000381469727,0.0,0.0,7.904562832914429,66.7128,C,25463043000000,
