# 
# Header Description:
# 
# Version: v3.1.0.3 Platform: 13 Manufacturer: samsung Model: SM-S135DL GNSS Hardware Model Name: MediaTek,MT6631,MTK_MNLD_default,MNL_VER_default
# 
# Raw,utcTimeMillis,TimeNanos,LeapSecond,TimeUncertaintyNanos,FullBiasNanos,BiasNanos,BiasUncertaintyNanos,DriftNanosPerSecond,DriftUncertaintyNanosPerSecond,HardwareClockDiscontinuityCount,Svid,TimeOffsetNanos,State,ReceivedSvTimeNanos,ReceivedSvTimeUncertaintyNanos,Cn0DbHz,PseudorangeRateMetersPerSecond,PseudorangeRateUncertaintyMetersPerSecond,AccumulatedDeltaRangeState,AccumulatedDeltaRangeMeters,AccumulatedDeltaRangeUncertaintyMeters,CarrierFrequencyHz,CarrierCycles,CarrierPhase,CarrierPhaseUncertainty,MultipathIndicator,SnrInDb,ConstellationType,AgcDb,BasebandCn0DbHz,FullInterSignalBiasNanos,FullInterSignalBiasUncertaintyNanos,SatelliteInterSignalBiasNanos,SatelliteInterSignalBiasUncertaintyNanos,CodeType,ChipsetElapsedRealtimeNanos,IsFullTracking
# 
# UncalAccel,utcTimeMillis,elapsedRealtimeNanos,UncalAccelXMps2,UncalAccelYMps2,UncalAccelZMps2,BiasXMps2,BiasYMps2,BiasZMps2
# 
# Accel,utcTimeMillis,elapsedRealtimeNanos,AccelXMps2,AccelYMps2,AccelZMps2
# 
# UncalGyro,utcTimeMillis,elapsedRealtimeNanos,UncalGyroXRadPerSec,UncalGyroYRadPerSec,UncalGyroZRadPerSec,DriftXRadPerSec,DriftYRadPerSec,DriftZRadPerSec
# 
# Gyro,utcTimeMillis,elapsedRealtimeNanos,GyroXRadPerSec,GyroYRadPerSec,GyroZRadPerSec
# 
# UncalMag,utcTimeMillis,elapsedRealtimeNanos,UncalMagXMicroT,UncalMagYMicroT,UncalMagZMicroT,BiasXMicroT,BiasYMicroT,BiasZMicroT
# 
# Mag,utcTimeMillis,elapsedRealtimeNanos,MagXMicroT,MagYMicroT,MagZMicroT
# 
# Pressure,utcTimeMillis,elapsedRealtimeNanos,PressureHpa
# 
# OrientationDeg,utcTimeMillis,elapsedRealtimeNanos,yawDeg,rollDeg,pitchDeg
# 
# Fix,Provider,LatitudeDegrees,LongitudeDegrees,AltitudeMeters,SpeedMps,AccuracyMeters,BearingDegrees,UnixTimeMillis,SpeedAccuracyMps,BearingAccuracyDegrees,elapsedRealtimeNanos,VerticalAccuracyMeters,MockLocation,NumberOfUsedSignals,VerticalSpeedAccuracyMps,SolutionType
# 
# Nav,Svid,Type,Status,MessageId,Sub-messageId,Data(Bytes)
# 
# Status,UnixTimeMillis,SignalCount,SignalIndex,ConstellationType,Svid,CarrierFrequencyHz,Cn0DbHz,AzimuthDegrees,ElevationDegrees,UsedInFix,HasAlmanacData,HasEphemerisData,BasebandCn0DbHz
# 
# Agc,utcTimeMillis,TimeNanos,LeapSecond,TimeUncertaintyNanos,FullBiasNanos,BiasNanos,BiasUncertaintyNanos,DriftNanosPerSecond,DriftUncertaintyNanosPerSecond,HardwareClockDiscontinuityCount,AgcDb,CarrierFrequencyHz,ConstellationType
# 
Fix,FLP,37.4243985000,-122.1712225000,-0.8056431406856746,0.42006242,1.866,342.73923,1732146730198,1.0,92.6,25614045000000,0.98992974,0,,,
Status,,29,0,1,14,1575420030,40.30,329.0,74.0,1,0,0,35.3
Status,,29,1,1,30,1575420030,35.00,81.0,69.0,1,0,0,30.0
Status,,29,2,1,22,1575420030,42.30,275.0,61.0,1,0,0,37.3
Status,,29,3,1,13,1575420030,45.70,300.0,49.0,1,0,0,40.7
Status,,29,4,1,17,1575420030,32.10,175.0,47.0,1,0,0,27.099998
Status,,29,5,1,7,1575420030,36.50,106.0,36.0,1,0,0,31.5
Status,,29,6,2,131,1575420030,34.00,3.0,23.0,0,0,0,29.0
Status,,29,7,1,19,1575420030,37.90,193.0,20.0,1,0,0,32.9
Status,,29,8,1,15,1575420030,44.80,314.0,19.0,1,0,0,39.8
Status,,29,9,1,2,1575420030,28.40,85.0,17.0,1,0,0,23.4
Status,,29,10,1,21,1575420030,22.60,66.0,14.0,1,0,0,17.6
Status,,29,11,1,8,1575420030,0.00,39.0,7.0,0,0,0,0.0
Status,,29,12,1,5,1575420030,0.00,260.0,5.0,0,0,0,0.0
Status,,29,13,3,9,1602000000,35.80,22.0,53.0,1,0,0,30.8
Status,,29,14,3,8,1602000000,36.20,300.0,39.0,1,0,0,31.2
Status,,29,15,3,16,1602000000,0.00,69.0,13.0,0,0,0,0.0
Status,,29,16,3,20,1602000000,25.60,148.0,13.0,1,0,0,20.6
Status,,29,17,3,11,1602000000,0.00,274.0,3.0,0,0,0,0.0
Status,,29,18,3,17,1602000000,42.50,0.0,0.0,0,0,0,37.5
Status,,29,19,6,29,1575420030,32.20,202.0,59.0,1,0,0,27.2
Status,,29,20,6,21,1575420030,43.50,272.0,58.0,1,0,0,38.5
Status,,29,21,6,27,1575420030,0.00,38.0,57.0,0,0,0,0.0
Status,,29,22,6,19,1575420030,29.30,295.0,51.0,1,0,0,24.3
Status,,29,23,6,7,1575420030,0.00,161.0,15.0,0,0,0,0.0
Status,,29,24,6,15,1575420030,0.00,93.0,12.0,0,0,0,0.0
Status,,29,25,6,30,1575420030,0.00,59.0,9.0,0,0,0,0.0
Status,,29,26,6,34,1575420030,0.00,45.0,6.0,0,0,0,0.0
Status,,29,27,6,13,1575420030,0.00,141.0,3.0,0,0,0,0.0
Status,,29,28,6,4,1575420030,0.00,326.0,2.0,0,0,0,0.0
Fix,GPS,37.4243950000,-122.1712266667,14.900000000000002,0.28103834,1.9,329.73,1732146731000,1.0,138.3,25615045000000,40.5,0,,,
Fix,FLP,37.4243985000,-122.1712252000,-0.8890886442337536,0.32477185,1.9,334.55197,1732146731197,1.0,138.3,25615045000000,1.0010328,0,,,
Raw,1732146731001,10690000000,,686579.0945781565,-1416181938311000064,0.0,115.15917889436015,2097.235752665052,0.0,0,30,0.0,16431,345148932087510,74,29.981000900268555,736.5360741156112,0.14999,16,0.0,0.0,1575420030,,,,0,16.51215311925348,1,6.0,29.981000900268555,0.0,0.0,0.0,66.7128,C,25615045000000,
Raw,1732146731001,10690000000,,686579.0945781565,-1416181938311000064,0.0,115.15917889436015,2097.235752665052,0.0,0,2,0.0,16431,345148920612495,396,23.42099952697754,433.96021435029866,0.14999,16,0.0,0.0,1575420030,,,,0,7.751685242698889,1,6.0,23.42099952697754,0.0,0.0,0.0,66.7128,C,25615045000000,
Raw,1732146731001,10690000000,,686579.0945781565,-1416181938311000064,0.0,115.15917889436015,2097.235752665052,0.0,0,22,0.0,16431,345148931005151,51,37.3129997253418,486.0466495589978,0.14999,16,0.0,0.0,1575420030,,,,0,24.904724204078722,1,6.0,37.3129997253418,0.0,0.0,0.0,66.7128,C,25615045000000,
Raw,1732146731001,10690000000,,686579.0945781565,-1416181938311000064,0.0,115.15917889436015,2097.235752665052,0.0,0,7,0.0,16431,345148926605193,74,31.514999389648438,998.357356803802,0.14999,16,0.0,0.0,1575420030,,,,0,18.357545516352115,1,6.0,31.514999389648438,0.0,0.0,0.0,66.7128,C,25615045000000,
Raw,1732146731001,10690000000,,686579.0945781565,-1416181938311000064,0.0,115.15917889436015,2097.235752665052,0.0,0,29,0.0,16431,345148920913211,235,27.200000762939453,936.5890341152428,0.14999,16,0.0,0.0,1575420030,,,,0,13.8009988668816,6,6.0,27.200000762939453,0.0,0.0,4.910144005001887,66.7128,C,25615045000000,
Raw,1732146731001,10690000000,,686579.0945781565,-1416181938311000064,0.0,115.15917889436015,2097.235752665052,0.0,0,19,0.0,16431,345148920554793,235,24.299999237060547,461.36152760652277,0.14999,16,0.0,0.0,1575420030,,,,0,10.149207825029633,6,6.0,24.299999237060547,0.0,0.0,4.910144005001887,66.7128,C,25615045000000,
Raw,1732146731001,10690000000,,686579.0945781565,-1416181938311000064,0.0,115.15917889436015,2097.235752665052,0.0,0,21,0.0,16431,345148920156929,42,38.5,463.3580315847545,0.14999,16,0.0,0.0,1575420030,,,,0,26.179557199186757,6,6.0,38.5,0.0,0.0,4.910144005001887,66.7128,C,25615045000000,
Raw,1732146731001,10690000000,,686579.0945781565,-1416181938311000064,0.0,115.15917889436015,2097.235752665052,0.0,0,8,0.0,17,716373,74,5.0,483.7563267688198,0.14999,16,0.0,0.0,1605374980,,,,0,18.302234741501028,3,6.0,31.0,0.0,0.0,42.5248103243615,66.7128,C,25615045000000,
Raw,1732146731001,10690000000,,686579.0945781565,-1416181938311000064,0.0,115.15917889436015,2097.235752665052,0.0,0,9,0.0,17,816391,74,5.0,769.6787350280761,0.14999,16,0.0,0.0,1600875010,,,,0,17.873866990438824,3,6.0,31.0,0.0,0.0,42.5248103243615,66.7128,C,25615045000000,
Raw,1732146731001,10690000000,,686579.0945781565,-1416181938311000064,0.0,115.15917889436015,2097.235752665052,0.0,0,20,0.0,17,992210,487,5.0,-151.68610831338816,0.14999,16,0.0,0.0,1603124990,,,,0,5.1106497719992205,3,6.0,20.0,0.0,0.0,42.5248103243615,66.7128,C,25615045000000,
Raw,1732146731001,10690000000,,686579.0945781565,-1416181938311000064,0.0,115.15917889436015,2097.235752665052,0.0,0,19,0.0,16431,345148921520967,58,32.939998626708984,-64.18267366218835,0.14999,16,0.0,0.0,1575420030,,,,0,20.01998008680058,1,6.0,32.939998626708984,0.0,0.0,0.0,66.7128,C,25615045000000,
Raw,1732146731001,10690000000,,686579.0945781565,-1416181938311000064,0.0,115.15917889436015,2097.235752665052,0.0,0,17,0.0,16431,345148929934112,316,27.118999481201172,166.2342063369972,0.14999,16,0.0,0.0,1575420030,,,,0,12.89539923765062,1,6.0,27.118999481201172,0.0,0.0,0.0,66.7128,C,25615045000000,
Raw,1732146731001,10690000000,,686579.0945781565,-1416181938311000064,0.0,115.15917889436015,2097.235752665052,0.0,0,15,0.0,16431,345148922965121,42,39.7869987487793,170.15534312358284,0.14999,16,0.0,0.0,1575420030,,,,0,27.571509776773347,1,6.0,39.7869987487793,0.0,0.0,0.0,66.7128,C,25615045000000,
Raw,1732146731001,10690000000,,686579.0945781565,-1416181938311000064,0.0,115.15917889436015,2097.235752665052,0.0,0,14,0.0,16431,345148933078899,58,35.29100036621094,632.754430021122,0.14999,16,0.0,0.0,1575420030,,,,0,22.678388126828487,1,6.0,35.29100036621094,0.0,0.0,0.0,66.7128,C,25615045000000,
Raw,1732146731001,10690000000,,686579.0945781565,-1416181938311000064,0.0,115.15917889436015,2097.235752665052,0.0,0,13,0.0,16431,345148930502258,42,40.70600128173828,356.9469340495811,0.14999,16,0.0,0.0,1575420030,,,,0,28.54810625907025,1,6.0,40.70600128173828,0.0,0.0,0.0,66.7128,C,25615045000000,
Raw,1732146731001,10690000000,,686579.0945781565,-1416181938311000064,0.0,115.15917889436015,2097.235752665052,0.0,0,21,0.0,16431,345148920620097,797,17.60099983215332,640.7187033952621,0.14999,16,0.0,0.0,1575420030,,,,0,0.0,1,6.0,17.60099983215332,0.0,0.0,0.0,66.7128,C,25615045000000,
Status,1732146731000,29,0,1,14,1575420030,41.50,329.0,74.0,1,0,0,36.5
Status,1732146731000,29,1,1,30,1575420030,49.60,81.0,69.0,1,0,0,44.6
Status,1732146731000,29,2,1,22,1575420030,40.30,275.0,61.0,1,0,0,35.3
Status,1732146731000,29,3,1,13,1575420030,41.80,300.0,49.0,1,0,0,36.8
Status,1732146731000,29,4,1,17,1575420030,40.40,175.0,47.0,1,0,0,35.4
Status,1732146731000,29,5,1,7,1575420030,41.40,106.0,36.0,1,0,0,36.4
Status,1732146731000,29,6,2,131,1575420030,40.00,3.0,23.0,0,0,0,35.0
Status,1732146731000,29,7,1,19,1575420030,40.70,193.0,20.0,1,0,0,35.7
Status,1732146731000,29,8,1,15,1575420030,40.60,314.0,19.0,1,0,0,35.6
Status,1732146731000,29,9,1,2,1575420030,32.60,85.0,17.0,1,0,0,27.599998
Status,1732146731000,29,10,1,21,1575420030,22.60,66.0,14.0,1,0,0,17.6
Status,1732146731000,29,11,1,8,1575420030,0.00,39.0,7.0,0,0,0,0.0
Status,1732146731000,29,12,1,5,1575420030,0.00,260.0,5.0,0,0,0,0.0
Status,1732146731000,29,13,3,9,1602000000,30.10,22.0,53.0,1,0,0,25.1
Status,1732146731000,29,14,3,8,1602000000,33.80,300.0,39.0,1,0,0,28.8
Status,1732146731000,29,15,3,16,1602000000,0.00,69.0,13.0,0,0,0,0.0
Status,1732146731000,29,16,3,20,1602000000,23.80,148.0,13.0,1,0,0,18.8
Status,1732146731000,29,17,3,11,1602000000,0.00,274.0,3.0,0,0,0,0.0
Status,1732146731000,29,18,3,17,1602000000,43.40,0.0,0.0,0,0,0,38.4
Status,1732146731000,29,19,6,29,1575420030,35.40,202.0,59.0,1,0,0,30.400002
Status,1732146731000,29,20,6,21,1575420030,42.00,272.0,58.0,1,0,0,37.0
Status,1732146731000,29,21,6,27,1575420030,0.00,38.0,57.0,0,0,0,0.0
Status,1732146731000,29,22,6,19,1575420030,29.90,295.0,51.0,1,0,0,24.9
Status,1732146731000,29,23,6,7,1575420030,0.00,161.0,15.0,0,0,0,0.0
Status,1732146731000,29,24,6,15,1575420030,0.00,93.0,12.0,0,0,0,0.0
Status,1732146731000,29,25,6,30,1575420030,0.00,59.0,9.0,0,0,0,0.0
Status,1732146731000,29,26,6,34,1575420030,0.00,45.0,6.0,0,0,0,0.0
Status,1732146731000,29,27,6,13,1575420030,0.00,141.0,3.0,0,0,0,0.0
Status,1732146731000,29,28,6,4,1575420030,0.00,326.0,2.0,0,0,0,0.0
Fix,GPS,37.4243850000,-122.1712316667,14.900000000000002,0.15801972,1.9,242.87,1732146732000,1.5,179.9,25616045000000,31.9,0,,,
Fix,FLP,37.4243929000,-122.1712291000,-0.9941404267593512,0.1493832,1.916,283.038,1732146732197,1.5,179.9,25616045000000,1.013457,0,,,
Raw,1732146732001,11690000000,,685509.2398621982,-1416181938311000064,0.0,89.6110199902939,2087.8560407873965,0.0,0,30,0.0,16431,345149932085056,28,44.584999084472656,734.7133710724232,0.14999,16,0.0,0.0,1575420030,,,,0,32.614089559469704,1,6.0,44.584999084472656,0.0,0.0,0.0,66.7128,C,25616045000000,
Raw,1732146732001,11690000000,,685509.2398621982,-1416181938311000064,0.0,89.6110199902939,2087.8560407873965,0.0,0,2,0.0,16431,345149920611050,316,27.63800048828125,431.3026535678072,0.14999,16,0.0,0.0,1575420030,,,,0,13.56858661639876,1,6.0,27.63800048828125,0.0,0.0,0.0,66.7128,C,25616045000000,
Raw,1732146732001,11690000000,,685509.2398621982,-1416181938311000064,0.0,89.6110199902939,2087.8560407873965,0.0,0,22,0.0,16431,345149931003535,58,35.33300018310547,483.96670626525196,0.14999,16,0.0,0.0,1575420030,,,,0,22.72981450344964,1,6.0,35.33300018310547,0.0,0.0,0.0,66.7128,C,25616045000000,
Raw,1732146732001,11690000000,,685509.2398621982,-1416181938311000064,0.0,89.6110199902939,2087.8560407873965,0.0,0,7,0.0,16431,345149926601891,51,36.446998596191406,995.7928522289802,0.14999,16,0.0,0.0,1575420030,,,,0,23.961142650169336,1,6.0,36.446998596191406,0.0,0.0,0.0,66.7128,C,25616045000000,
Raw,1732146732001,11690000000,,685509.2398621982,-1416181938311000064,0.0,89.6110199902939,2087.8560407873965,0.0,0,29,0.0,16431,345149920910090,74,30.399999618530273,933.9793719598645,0.14999,16,0.0,0.0,1575420030,,,,0,17.42730293046698,6,6.0,30.399999618530273,0.0,0.0,5.1783525159581005,66.7128,C,25616045000000,
Raw,1732146732001,11690000000,,685509.2398621982,-1416181938311000064,0.0,89.6110199902939,2087.8560407873965,0.0,0,19,0.0,16431,345149920553260,316,24.899999618530273,458.8611356460716,0.14999,16,0.0,0.0,1575420030,,,,0,10.941276168927596,6,6.0,24.899999618530273,0.0,0.0,5.1783525159581005,66.7128,C,25616045000000,
Raw,1732146732001,11690000000,,685509.2398621982,-1416181938311000064,0.0,89.6110199902939,2087.8560407873965,0.0,0,21,0.0,16431,345149920155391,51,37.0,460.87952153833845,0.14999,16,0.0,0.0,1575420030,,,,0,24.512813082811107,6,6.0,37.0,0.0,0.0,5.1783525159581005,66.7128,C,25616045000000,
Raw,1732146732001,11690000000,,685509.2398621982,-1416181938311000064,0.0,89.6110199902939,2087.8560407873965,0.0,0,8,0.0,17,714767,235,5.0,481.18145338046105,0.14999,16,0.0,0.0,1605374980,,,,0,15.601146598149217,3,6.0,28.0,0.0,0.0,42.15745798137227,66.7128,C,25616045000000,
Raw,1732146732001,11690000000,,685509.2398621982,-1416181938311000064,0.0,89.6110199902939,2087.8560407873965,0.0,0,9,0.0,17,813824,316,5.0,766.7716938882404,0.14999,16,0.0,0.0,1600875010,,,,0,11.229908586842924,3,6.0,26.0,0.0,0.0,42.15745798137227,66.7128,C,25616045000000,
Raw,1732146732001,11690000000,,685509.2398621982,-1416181938311000064,0.0,89.6110199902939,2087.8560407873965,0.0,0,20,0.0,17,992720,487,5.0,-156.53773863469482,0.14999,16,0.0,0.0,1603124990,,,,0,2.2756050596402195,3,6.0,19.0,0.0,0.0,42.15745798137227,66.7128,C,25616045000000,
Raw,1732146732001,11690000000,,685509.2398621982,-1416181938311000064,0.0,89.6110199902939,2087.8560407873965,0.0,0,19,0.0,16431,345149921521184,51,35.691001892089844,-66.54787163146685,0.14999,16,0.0,0.0,1575420030,,,,0,23.120820734576515,1,6.0,35.691001892089844,0.0,0.0,0.0,66.7128,C,25616045000000,
Raw,1732146732001,11690000000,,685509.2398621982,-1416181938311000064,0.0,89.6110199902939,2087.8560407873965,0.0,0,17,0.0,16431,345149929933541,58,35.367000579833984,164.03491137200652,0.14999,16,0.0,0.0,1575420030,,,,0,22.760524811121353,1,6.0,35.367000579833984,0.0,0.0,0.0,66.7128,C,25616045000000,
Raw,1732146732001,11690000000,,685509.2398621982,-1416181938311000064,0.0,89.6110199902939,2087.8560407873965,0.0,0,15,0.0,16431,345149922964565,51,35.59199905395508,167.95460794768962,0.14999,16,0.0,0.0,1575420030,,,,0,23.012307357281763,1,6.0,35.59199905395508,0.0,0.0,0.0,66.7128,C,25616045000000,
Raw,1732146732001,11690000000,,685509.2398621982,-1416181938311000064,0.0,89.6110199902939,2087.8560407873965,0.0,0,14,0.0,16431,345149933076789,51,36.52799987792969,630.69344176119,0.14999,16,0.0,0.0,1575420030,,,,0,24.049684595659723,1,6.0,36.52799987792969,0.0,0.0,0.0,66.7128,C,25616045000000,
Raw,1732146732001,11690000000,,685509.2398621982,-1416181938311000064,0.0,89.6110199902939,2087.8560407873965,0.0,0,13,0.0,16431,345149930501079,51,36.755001068115234,354.8241560960892,0.14999,16,0.0,0.0,1575420030,,,,0,24.292905396781844,1,6.0,36.755001068115234,0.0,0.0,0.0,66.7128,C,25616045000000,
Raw,1732146732001,11690000000,,685509.2398621982,-1416181938311000064,0.0,89.6110199902939,2087.8560407873965,0.0,0,21,0.0,16431,345149920617964,797,17.60099983215332,637.92065236215,0.14999,16,0.0,0.0,1575420030,,,,0,0.0,1,6.0,17.60099983215332,0.0,0.0,0.0,66.7128,C,25616045000000,
Status,1732146732000,29,0,1,14,1575420030,43.30,329.0,74.0,1,0,0,38.3
Status,1732146732000,29,1,1,30,1575420030,47.50,81.0,69.0,1,0,0,42.5
Status,1732146732000,29,2,1,22,1575420030,44.70,275.0,61.0,1,0,0,39.7
Status,1732146732000,29,3,1,13,1575420030,35.20,300.0,49.0,1,0,0,30.2
Status,1732146732000,29,4,1,17,1575420030,44.00,175.0,47.0,1,0,0,39.0
Status,1732146732000,29,5,1,7,1575420030,32.60,106.0,36.0,1,0,0,27.599998
Status,1732146732000,29,6,2,131,1575420030,36.00,3.0,23.0,0,0,0,31.0
Status,1732146732000,29,7,1,19,1575420030,32.80,193.0,20.0,1,0,0,27.8
Status,1732146732000,29,8,1,15,1575420030,41.30,314.0,19.0,1,0,0,36.3
Status,1732146732000,29,9,1,2,1575420030,26.10,85.0,17.0,1,0,0,21.1
Status,1732146732000,29,10,1,21,1575420030,19.00,66.0,14.0,1,0,0,14.0
Status,1732146732000,29,11,1,8,1575420030,0.00,39.0,7.0,0,0,0,0.0
Status,1732146732000,29,12,1,5,1575420030,0.00,260.0,5.0,0,0,0,0.0
Status,1732146732000,29,13,3,9,1602000000,31.90,22.0,53.0,1,0,0,26.9
Status,1732146732000,29,14,3,8,1602000000,32.40,300.0,39.0,1,0,0,27.400002
Status,1732146732000,29,15,3,16,1602000000,0.00,69.0,13.0,0,0,0,0.0
Status,1732146732000,29,16,3,20,1602000000,22.70,148.0,13.0,1,0,0,17.7
Status,1732146732000,29,17,3,11,1602000000,0.00,274.0,3.0,0,0,0,0.0
Status,1732146732000,29,18,3,17,1602000000,32.10,0.0,0.0,0,0,0,27.099998
Status,1732146732000,29,19,6,29,1575420030,27.00,202.0,59.0,1,0,0,22.0
Status,1732146732000,29,20,6,21,1575420030,37.60,272.0,58.0,1,0,0,32.6
Status,1732146732000,29,21,6,27,1575420030,0.00,38.0,57.0,0,0,0,0.0
Status,1732146732000,29,22,6,19,1575420030,36.40,295.0,51.0,1,0,0,31.400002
Status,1732146732000,29,23,6,7,1575420030,0.00,161.0,15.0,0,0,0,0.0
Status,1732146732000,29,24,6,15,1575420030,0.00,93.0,12.0,0,0,0,0.0
Status,1732146732000,29,25,6,30,1575420030,0.00,59.0,9.0,0,0,0,0.0
Status,1732146732000,29,26,6,34,1575420030,0.00,45.0,6.0,0,0,0,0.0
Status,1732146732000,29,27,6,13,1575420030,0.00,141.0,3.0,0,0,0,0.0
Status,1732146732000,29,28,6,4,1575420030,0.00,326.0,2.0,0,0,0,0.0
Fix,GPS,37.4243766667,-122.1712333333,14.8,0.24964027,1.9,163.5,1732146733000,1.3,179.2,25617045000000,31.8,0,,,
Raw,1732146733001,12690000000,,89.52126164650088,-1416181938311000064,0.0,89.52126164650088,2082.506445695799,0.0,0,30,0.0,16431,345150932082613,31,42.512001037597656,733.1005206952582,0.14999,17,9362.198216529168,0.00022499999613501132,1575420030,,,,0,30.453706132419754,1,6.0,42.512001037597656,0.0,0.0,0.0,66.7128,C,25617045000000,
Raw,1732146733001,12690000000,,89.52126164650088,-1416181938311000064,0.0,89.52126164650088,2082.506445695799,0.0,0,2,0.0,16431,345150920609615,487,21.10300064086914,429.13676220407194,0.14999,16,0.0,0.0,1575420030,,,,0,4.084850188786498,1,6.0,21.10300064086914,0.0,0.0,0.0,66.7128,C,25617045000000,
Raw,1732146733001,12690000000,,89.52126164650088,-1416181938311000064,0.0,89.52126164650088,2082.506445695799,0.0,0,22,0.0,16431,345150931001924,42,39.67399978637695,482.6348828477445,0.14999,16,0.0,0.0,1575420030,,,,0,27.45325213470453,1,6.0,39.67399978637695,0.0,0.0,0.0,66.7128,C,25617045000000,
Raw,1732146733001,12690000000,,89.52126164650088,-1416181938311000064,0.0,89.52126164650088,2082.506445695799,0.0,0,7,0.0,16431,345150926598561,235,27.573999404907227,994.4723182066118,0.14999,16,0.0,0.0,1575420030,,,,0,13.50949870391769,1,6.0,27.573999404907227,0.0,0.0,0.0,66.7128,C,25617045000000,
Raw,1732146733001,12690000000,,89.52126164650088,-1416181938311000064,0.0,89.52126164650088,2082.506445695799,0.0,0,29,0.0,16431,345150920906973,396,22.0,933.3481879172281,0.14999,16,0.0,0.0,1575420030,,,,0,7.09470701040026,6,6.0,22.0,0.0,0.0,4.781967674341463,66.7128,C,25617045000000,
Raw,1732146733001,12690000000,,89.52126164650088,-1416181938311000064,0.0,89.52126164650088,2082.506445695799,0.0,0,19,0.0,16431,345150920551730,58,31.399999618530273,457.89178079183876,0.14999,16,0.0,0.0,1575420030,,,,0,18.508900762825988,6,6.0,31.399999618530273,0.0,0.0,4.781967674341463,66.7128,C,25617045000000,
Raw,1732146733001,12690000000,,89.52126164650088,-1416181938311000064,0.0,89.52126164650088,2082.506445695799,0.0,0,21,0.0,16431,345150920153851,58,32.599998474121094,459.88545080668155,0.14999,16,0.0,0.0,1575420030,,,,0,19.87874299705084,6,6.0,32.599998474121094,0.0,0.0,4.781967674341463,66.7128,C,25617045000000,
Raw,1732146733001,12690000000,,89.52126164650088,-1416181938311000064,0.0,89.52126164650088,2082.506445695799,0.0,0,8,0.0,17,713160,316,5.0,480.3355479526301,0.14999,16,0.0,0.0,1605374980,,,,0,14.045953419892607,3,6.0,26.0,0.0,0.0,43.528379579837015,66.7128,C,25617045000000,
Raw,1732146733001,12690000000,,89.52126164650088,-1416181938311000064,0.0,89.52126164650088,2082.506445695799,0.0,0,9,0.0,17,811262,235,5.0,766.2543298101959,0.14999,16,0.0,0.0,1600875010,,,,0,13.452917629296257,3,6.0,27.0,0.0,0.0,43.528379579837015,66.7128,C,25617045000000,
Raw,1732146733001,12690000000,,89.52126164650088,-1416181938311000064,0.0,89.52126164650088,2082.506445695799,0.0,0,20,0.0,17,993239,487,5.0,-156.02648803395712,0.14999,16,0.0,0.0,1603124990,,,,0,0.4132645798218739,3,6.0,18.0,0.0,0.0,43.528379579837015,66.7128,C,25617045000000,
Raw,1732146733001,12690000000,,89.52126164650088,-1416181938311000064,0.0,89.52126164650088,2082.506445695799,0.0,0,19,0.0,16431,345150921521410,316,27.76300048828125,-67.51155855892205,0.14999,16,0.0,0.0,1575420030,,,,0,13.743476208712366,1,6.0,27.76300048828125,0.0,0.0,0.0,66.7128,C,25617045000000,
Raw,1732146733001,12690000000,,89.52126164650088,-1416181938311000064,0.0,89.52126164650088,2082.506445695799,0.0,0,17,0.0,16431,345150929932990,42,38.96200180053711,162.90021101448033,0.14999,16,0.0,0.0,1575420030,,,,0,26.688275459626034,1,6.0,38.96200180053711,0.0,0.0,0.0,66.7128,C,25617045000000,
Raw,1732146733001,12690000000,,89.52126164650088,-1416181938311000064,0.0,89.52126164650088,2082.506445695799,0.0,0,15,0.0,16431,345150922964006,51,36.28900146484375,166.7779091819091,0.14999,16,0.0,0.0,1575420030,,,,0,23.781304142357502,1,6.0,36.28900146484375,0.0,0.0,0.0,66.7128,C,25617045000000,
Raw,1732146733001,12690000000,,89.52126164650088,-1416181938311000064,0.0,89.52126164650088,2082.506445695799,0.0,0,14,0.0,16431,345150933074683,51,38.270999908447266,629.2122545355656,0.14999,16,0.0,0.0,1575420030,,,,0,25.941955700483422,1,6.0,38.270999908447266,0.0,0.0,0.0,66.7128,C,25617045000000,
Raw,1732146733001,12690000000,,89.52126164650088,-1416181938311000064,0.0,89.52126164650088,2082.506445695799,0.0,0,13,0.0,16431,345150930499898,235,30.216999053955078,353.23688107704805,0.14999,16,0.0,0.0,1575420030,,,,0,16.801021677098937,1,6.0,30.216999053955078,0.0,0.0,0.0,66.7128,C,25617045000000,
Raw,1732146733001,12690000000,,89.52126164650088,-1416181938311000064,0.0,89.52126164650088,2082.506445695799,0.0,0,21,0.0,16431,345150920615823,797,14.0,635.5472312532022,0.14999,16,0.0,0.0,1575420030,,,,0,0.0,1,6.0,14.0,0.0,0.0,0.0,66.7128,C,25617045000000,
Fix,FLP,37.4243852000,-122.1712314000,-0.9725333240721463,0.1130209,1.9,180.33418,1732146733197,1.3,179.2,25617045000000,1.0208585,0,,,
Status,1732146733000,29,0,1,14,1575420030,45.40,329.0,74.0,1,0,0,40.4
Status,1732146733000,29,1,1,30,1575420030,49.50,81.0,69.0,1,0,0,44.5
Status,1732146733000,29,2,1,22,1575420030,34.40,275.0,61.0,1,0,0,29.400002
Status,1732146733000,29,3,1,13,1575420030,44.40,300.0,49.0,1,0,0,39.4
Status,1732146733000,29,4,1,17,1575420030,46.90,175.0,47.0,1,0,0,41.9
Status,1732146733000,29,5,1,7,1575420030,34.90,106.0,36.0,1,0,0,29.900002
Status,1732146733000,29,6,2,131,1575420030,39.00,3.0,23.0,0,0,0,34.0
Status,1732146733000,29,7,1,19,1575420030,39.90,193.0,20.0,1,0,0,34.9
Status,1732146733000,29,8,1,15,1575420030,40.40,314.0,19.0,1,0,0,35.4
Status,1732146733000,29,9,1,2,1575420030,28.70,85.0,17.0,1,0,0,23.7
Status,1732146733000,29,10,1,21,1575420030,19.00,66.0,14.0,0,0,0,14.0
Status,1732146733000,29,11,1,8,1575420030,0.00,39.0,7.0,0,0,0,0.0
Status,1732146733000,29,12,1,5,1575420030,0.00,260.0,5.0,0,0,0,0.0
Status,1732146733000,29,13,3,9,1602000000,25.10,22.0,53.0,1,0,0,20.1
Status,1732146733000,29,14,3,8,1602000000,34.90,300.0,39.0,1,0,0,29.900002
Status,1732146733000,29,15,3,16,1602000000,0.00,69.0,13.0,0,0,0,0.0
Status,1732146733000,29,16,3,20,1602000000,18.50,148.0,13.0,1,0,0,13.5
Status,1732146733000,29,17,3,11,1602000000,0.00,274.0,3.0,0,0,0,0.0
Status,1732146733000,29,18,3,17,1602000000,37.80,0.0,0.0,0,0,0,32.8
Status,1732146733000,29,19,6,29,1575420030,31.70,202.0,59.0,1,0,0,26.7
Status,1732146733000,29,20,6,21,1575420030,37.70,272.0,58.0,1,0,0,32.7
Status,1732146733000,29,21,6,27,1575420030,0.00,38.0,57.0,0,0,0,0.0
Status,1732146733000,29,22,6,19,1575420030,37.60,295.0,51.0,1,0,0,32.6
Status,1732146733000,29,23,6,7,1575420030,0.00,161.0,15.0,0,0,0,0.0
Status,1732146733000,29,24,6,15,1575420030,0.00,93.0,12.0,0,0,0,0.0
Status,1732146733000,29,25,6,30,1575420030,0.00,59.0,9.0,0,0,0,0.0
Status,1732146733000,29,26,6,34,1575420030,0.00,45.0,6.0,0,0,0,0.0
Status,1732146733000,29,27,6,13,1575420030,0.00,141.0,3.0,0,0,0,0.0
Status,1732146733000,29,28,6,4,1575420030,0.00,326.0,2.0,0,0,0,0.0
Fix,GPS,37.4243683333,-122.1712383333,14.8,0.24500778,1.8,192.3,1732146734000,1.0,138.0,25618045000000,31.4,0,,,
Fix,FLP,37.4243764000,-122.1712348000,-1.0559771802152893,0.22202247,1.883,191.28604,1732146734197,1.0,138.0,25618045000000,1.0308579,0,,,
Raw,1732146734001,13690000000,,88.57924439278881,-1416181938311000064,0.0,88.57924439278881,2085.249488276443,0.0,0,30,0.0,16431,345151932080166,28,44.54999923706055,733.8604874676302,0.14999,17,10095.441646216343,0.00022499999613501132,1575420030,,,,0,32.57786399567386,1,6.0,44.54999923706055,0.0,0.0,0.0,66.7128,C,25618045000000,
Raw,1732146734001,13690000000,,88.57924439278881,-1416181938311000064,0.0,88.57924439278881,2085.249488276443,0.0,0,2,0.0,16431,345151920608183,396,23.666000366210938,430.5904460472997,0.14999,16,0.0,0.0,1575420030,,,,0,8.090139345020173,1,6.0,23.666000366210938,0.0,0.0,0.0,66.7128,C,25618045000000,
Raw,1732146734001,13690000000,,88.57924439278881,-1416181938311000064,0.0,88.57924439278881,2085.249488276443,0.0,0,22,0.0,16431,345151931000307,235,29.35700035095215,482.9364908857833,0.14999,16,0.0,0.0,1575420030,,,,0,15.744930496196945,1,6.0,29.35700035095215,0.0,0.0,0.0,66.7128,C,25618045000000,
Raw,1732146734001,13690000000,,88.57924439278881,-1416181938311000064,0.0,88.57924439278881,2085.249488276443,0.0,0,7,0.0,16431,345151926595237,74,29.88599967956543,995.074976781695,0.14999,16,0.0,0.0,1575420030,,,,0,16.406612456982334,1,6.0,29.88599967956543,0.0,0.0,0.0,66.7128,C,25618045000000,
Raw,1732146734001,13690000000,,88.57924439278881,-1416181938311000064,0.0,88.57924439278881,2085.249488276443,0.0,0,29,0.0,16431,345151920903857,235,26.700000762939453,933.7961399663301,0.14999,16,0.0,0.0,1575420030,,,,0,13.17712846322272,6,6.0,26.700000762939453,0.0,0.0,5.13665437102117,66.7128,C,25618045000000,
Raw,1732146734001,13690000000,,88.57924439278881,-1416181938311000064,0.0,88.57924439278881,2085.249488276443,0.0,0,19,0.0,16431,345151920550197,58,32.599998474121094,458.441523230858,0.14999,17,6625.850324947694,0.00039999998989515007,1575420030,,,,0,19.907174739746722,6,6.0,32.599998474121094,0.0,0.0,5.13665437102117,66.7128,C,25618045000000,
Raw,1732146734001,13690000000,,88.57924439278881,-1416181938311000064,0.0,88.57924439278881,2085.249488276443,0.0,0,21,0.0,16431,345151920152320,58,32.66999816894531,460.3811156492318,0.14999,16,0.0,0.0,1575420030,,,,0,21.378906428255373,6,6.0,32.66999816894531,0.0,0.0,5.13665437102117,66.7128,C,25618045000000,
Raw,1732146734001,13690000000,,88.57924439278881,-1416181938311000064,0.0,88.57924439278881,2085.249488276443,0.0,0,8,0.0,17,711552,74,5.0,481.1399194877827,0.14999,16,0.0,0.0,1605374980,,,,0,16.889078781860434,3,6.0,30.0,0.0,0.0,38.758766430956435,66.7128,C,25618045000000,
Raw,1732146734001,13690000000,,88.57924439278881,-1416181938311000064,0.0,88.57924439278881,2085.249488276443,0.0,0,9,0.0,17,808703,487,5.0,765.2767512738981,0.14999,16,0.0,0.0,1600875010,,,,0,4.339994797941493,3,6.0,19.0,0.0,0.0,38.758766430956435,66.7128,C,25618045000000,
Raw,1732146734001,13690000000,,88.57924439278881,-1416181938311000064,0.0,88.57924439278881,2085.249488276443,0.0,0,20,0.0,17,993762,797,5.0,-157.51129711032712,0.14999,16,0.0,0.0,1603124990,,,,0,0.0,3,6.0,15.0,0.0,0.0,38.758766430956435,66.7128,C,25618045000000,
Raw,1732146734001,13690000000,,88.57924439278881,-1416181938311000064,0.0,88.57924439278881,2085.249488276443,0.0,0,19,0.0,16431,345151921521629,58,34.92399978637695,-66.88190764402061,0.14999,16,0.0,0.0,1575420030,,,,0,22.266457202409118,1,6.0,34.92399978637695,0.0,0.0,0.0,66.7128,C,25618045000000,
Raw,1732146734001,13690000000,,88.57924439278881,-1416181938311000064,0.0,88.57924439278881,2085.249488276443,0.0,0,17,0.0,16431,345151929932441,31,41.92100143432617,163.49585436871564,0.14999,17,7047.7920402930795,0.00022499999613501132,1575420030,,,,0,29.83364579154493,1,6.0,41.92100143432617,0.0,0.0,0.0,66.7128,C,25618045000000,
Raw,1732146734001,13690000000,,88.57924439278881,-1416181938311000064,0.0,88.57924439278881,2085.249488276443,0.0,0,15,0.0,16431,345151922963447,58,35.391998291015625,167.39924404030887,0.14999,17,7181.751944941341,0.00039999998989515007,1575420030,,,,0,22.79112692018596,1,6.0,35.391998291015625,0.0,0.0,0.0,66.7128,C,25618045000000,
Raw,1732146734001,13690000000,,88.57924439278881,-1416181938311000064,0.0,88.57924439278881,2085.249488276443,0.0,0,14,0.0,16431,345151933072583,42,40.422000885009766,629.7825780529662,0.14999,17,8654.59761710449,0.00022499999613501132,1575420030,,,,0,28.249115571760193,1,6.0,40.422000885009766,0.0,0.0,0.0,66.7128,C,25618045000000,
Raw,1732146734001,13690000000,,88.57924439278881,-1416181938311000064,0.0,88.57924439278881,2085.249488276443,0.0,0,13,0.0,16431,345151930498721,42,39.40800094604492,354.0543401394806,0.14999,16,0.0,0.0,1575420030,,,,0,27.1688402311512,1,6.0,39.40800094604492,0.0,0.0,0.0,66.7128,C,25618045000000,
Raw,1732146734001,13690000000,,88.57924439278881,-1416181938311000064,0.0,88.57924439278881,2085.249488276443,0.0,0,21,0.0,17,613702,797,14.0,635.8721149577625,0.14999,16,0.0,0.0,1575420030,,,,0,0.0,1,6.0,14.0,0.0,0.0,0.0,66.7128,C,25618045000000,
Status,1732146734000,29,0,1,14,1575420030,45.80,329.0,74.0,1,0,0,40.8
Status,1732146734000,29,1,1,30,1575420030,49.50,81.0,69.0,1,0,0,44.5
Status,1732146734000,29,2,1,22,1575420030,42.60,275.0,61.0,1,0,0,37.6
Status,1732146734000,29,3,1,13,1575420030,39.60,300.0,49.0,1,0,0,34.6
Status,1732146734000,29,4,1,17,1575420030,48.80,175.0,47.0,1,0,0,43.8
Status,1732146734000,29,5,1,7,1575420030,28.70,106.0,36.0,1,0,0,23.7
Status,1732146734000,29,6,2,131,1575420030,37.00,3.0,23.0,0,0,0,32.0
Status,1732146734000,29,7,1,19,1575420030,39.40,193.0,20.0,1,0,0,34.4
Status,1732146734000,29,8,1,15,1575420030,40.90,314.0,19.0,1,0,0,35.9
Status,1732146734000,29,9,1,2,1575420030,27.60,85.0,17.0,1,0,0,22.6
Status,1732146734000,29,10,1,21,1575420030,21.80,66.0,14.0,0,0,0,16.8
Status,1732146734000,29,11,1,8,1575420030,0.00,39.0,7.0,0,0,0,0.0
Status,1732146734000,29,12,1,5,1575420030,0.00,260.0,5.0,0,0,0,0.0
Status,1732146734000,29,13,3,9,1602000000,30.60,22.0,53.0,1,0,0,25.6
Status,1732146734000,29,14,3,8,1602000000,31.10,300.0,39.0,1,0,0,26.1
Status,1732146734000,29,15,3,16,1602000000,0.00,69.0,13.0,0,0,0,0.0
Status,1732146734000,29,16,3,20,1602000000,18.50,148.0,13.0,1,0,0,13.5
Status,1732146734000,29,17,3,11,1602000000,0.00,274.0,3.0,0,0,0,0.0
Status,1732146734000,29,18,3,17,1602000000,39.40,0.0,0.0,0,0,0,34.4
Status,1732146734000,29,19,6,29,1575420030,31.70,202.0,59.0,1,0,0,26.7
Status,1732146734000,29,20,6,21,1575420030,40.70,272.0,58.0,1,0,0,35.7
Status,1732146734000,29,21,6,27,1575420030,0.00,38.0,57.0,0,0,0,0.0
Status,1732146734000,29,22,6,19,1575420030,37.20,295.0,51.0,1,0,0,32.2
Status,1732146734000,29,23,6,7,1575420030,0.00,161.0,15.0,0,0,0,0.0
Status,1732146734000,29,24,6,15,1575420030,0.00,93.0,12.0,0,0,0,0.0
Status,1732146734000,29,25,6,30,1575420030,0.00,59.0,9.0,0,0,0,0.0
Status,1732146734000,29,26,6,34,1575420030,0.00,45.0,6.0,0,0,0,0.0
Status,1732146734000,29,27,6,13,1575420030,0.00,141.0,3.0,0,0,0,0.0
Status,1732146734000,29,28,6,4,1575420030,0.00,326.0,2.0,0,0,0,0.0
Fix,GPS,37.4243650000,-122.1712400000,14.7,0.30162722,1.8,203.29,1732146735000,1.0,120.3,25619045000000,36.8,0,,,
Fix,FLP,37.4243699000,-122.1712376000,-1.0559771802152893,0.2857161,1.866,199.80405,1732146735197,1.0,120.3,25619045000000,1.0408833,0,,,
Raw,1732146735001,14690000000,,102.63785812408271,-1416181938311000064,0.0,102.63785812408271,2088.274885724263,0.0,0,30,0.0,16431,345152932077717,31,44.53099822998047,734.6972964604143,0.14999,17,10829.918323272776,0.00022499999613501132,1575420030,,,,0,32.189810607802755,1,6.0,44.53099822998047,0.0,0.0,0.0,66.7128,C,25619045000000,
Raw,1732146735001,14690000000,,102.63785812408271,-1416181938311000064,0.0,102.63785812408271,2088.274885724263,0.0,0,2,0.0,16431,345152920606746,487,22.59600067138672,431.46061218292306,0.14999,16,0.0,0.0,1575420030,,,,0,6.451013342972235,1,6.0,22.59600067138672,0.0,0.0,0.0,66.7128,C,25619045000000,
Raw,1732146735001,14690000000,,102.63785812408271,-1416181938311000064,0.0,102.63785812408271,2088.274885724263,0.0,0,22,0.0,16431,345152930998693,51,37.59199905395508,484.0456855728099,0.14999,16,0.0,0.0,1575420030,,,,0,25.21062461775763,1,6.0,37.59199905395508,0.0,0.0,0.0,66.7128,C,25619045000000,
Raw,1732146735001,14690000000,,102.63785812408271,-1416181938311000064,0.0,102.63785812408271,2088.274885724263,0.0,0,7,0.0,16431,345152926591911,396,23.666000366210938,995.8259306213221,0.14999,16,0.0,0.0,1575420030,,,,0,8.090139345020173,1,6.0,23.666000366210938,0.0,0.0,0.0,66.7128,C,25619045000000,
Raw,1732146735001,14690000000,,102.63785812408271,-1416181938311000064,0.0,102.63785812408271,2088.274885724263,0.0,0,17,0.0,16431,345152929931879,31,43.79100036621094,164.46632422493758,0.14999,16,0.0,0.0,1575420030,,,,0,31.79083556344954,1,6.0,43.79100036621094,0.0,0.0,0.0,66.7128,C,25619045000000,
Raw,1732146735001,14690000000,,102.63785812408271,-1416181938311000064,0.0,102.63785812408271,2088.274885724263,0.0,0,15,0.0,16431,345152922962883,51,35.91600036621094,168.23029218948298,0.14999,16,0.0,0.0,1575420030,,,,0,23.372043063403822,1,6.0,35.91600036621094,0.0,0.0,0.0,66.7128,C,25619045000000,
Raw,1732146735001,14690000000,,102.63785812408271,-1416181938311000064,0.0,102.63785812408271,2088.274885724263,0.0,0,19,0.0,16431,345152921521837,58,34.36399841308594,-66.07069723856841,0.14999,16,0.0,0.0,1575420030,,,,0,21.638558333143475,1,6.0,34.36399841308594,0.0,0.0,0.0,66.7128,C,25619045000000,
Raw,1732146735001,14690000000,,102.63785812408271,-1416181938311000064,0.0,102.63785812408271,2088.274885724263,0.0,0,29,0.0,16431,345152920900734,235,26.700000762939453,934.9429195120711,0.14999,16,0.0,0.0,1575420030,,,,0,13.146272694937098,6,6.0,26.700000762939453,0.0,0.0,5.103930443286935,66.7128,C,25619045000000,
Raw,1732146735001,14690000000,,102.63785812408271,-1416181938311000064,0.0,102.63785812408271,2088.274885724263,0.0,0,14,0.0,16431,345152933070470,42,40.832000732421875,630.6941850958494,0.14999,16,0.0,0.0,1575420030,,,,0,28.683500565624918,1,6.0,40.832000732421875,0.0,0.0,0.0,66.7128,C,25619045000000,
Raw,1732146735001,14690000000,,102.63785812408271,-1416181938311000064,0.0,102.63785812408271,2088.274885724263,0.0,0,13,0.0,16431,345152930497564,58,34.560001373291016,355.64340380754584,0.14999,16,0.0,0.0,1575420030,,,,0,21.85672168948758,1,6.0,34.560001373291016,0.0,0.0,0.0,66.7128,C,25619045000000,
Raw,1732146735001,14690000000,,102.63785812408271,-1416181938311000064,0.0,102.63785812408271,2088.274885724263,0.0,0,19,0.0,16431,345152920548662,58,32.20000076293945,459.5783606755299,0.14999,16,0.0,0.0,1575420030,,,,0,19.455668944642113,6,6.0,32.20000076293945,0.0,0.0,5.103930443286935,66.7128,C,25619045000000,
Raw,1732146735001,14690000000,,102.63785812408271,-1416181938311000064,0.0,102.63785812408271,2088.274885724263,0.0,0,21,0.0,16431,345152920150782,51,35.70000076293945,461.48845199961,0.14999,16,0.0,0.0,1575420030,,,,0,23.159946429733754,6,6.0,35.70000076293945,0.0,0.0,5.103930443286935,66.7128,C,25619045000000,
Raw,1732146735001,14690000000,,102.63785812408271,-1416181938311000064,0.0,102.63785812408271,2088.274885724263,0.0,0,8,0.0,17,709941,316,5.0,482.18040960710783,0.14999,16,0.0,0.0,1605374980,,,,0,12.411084163648102,3,6.0,25.0,0.0,0.0,38.94011450640178,66.7128,C,25619045000000,
Raw,1732146735001,14690000000,,102.63785812408271,-1416181938311000064,0.0,102.63785812408271,2088.274885724263,0.0,0,9,0.0,17,806141,316,5.0,767.0739925170872,0.14999,16,0.0,0.0,1600875010,,,,0,11.877294449709357,3,6.0,26.0,0.0,0.0,38.94011450640178,66.7128,C,25619045000000,
Raw,1732146735001,14690000000,,102.63785812408271,-1416181938311000064,0.0,102.63785812408271,2088.274885724263,0.0,0,20,0.0,17,994291,797,5.0,-157.81901536795993,0.14999,16,0.0,0.0,1603124990,,,,0,0.0,3,6.0,16.0,0.0,0.0,38.94011450640178,66.7128,C,25619045000000,
Raw,1732146735001,14690000000,,102.63785812408271,-1416181938311000064,0.0,102.63785812408271,2088.274885724263,0.0,0,21,0.0,17,611569,797,16.763999938964844,637.2589915984795,0.14999,16,0.0,0.0,1575420030,,,,0,0.0,1,6.0,16.763999938964844,0.0,0.0,0.0,66.7128,C,25619045000000,
Status,1732146735000,29,0,1,14,1575420030,45.30,329.0,74.0,1,0,0,40.3
Status,1732146735000,29,1,1,30,1575420030,43.80,81.0,69.0,1,0,0,38.8
Status,1732146735000,29,2,1,22,1575420030,39.70,275.0,61.0,1,0,0,34.7
Status,1732146735000,29,3,1,13,1575420030,49.30,300.0,49.0,1,0,0,44.3
Status,1732146735000,29,4,1,17,1575420030,41.00,175.0,47.0,1,0,0,36.0
Status,1732146735000,29,5,1,7,1575420030,34.60,106.0,36.0,1,0,0,29.599998
Status,1732146735000,29,6,2,131,1575420030,33.00,3.0,23.0,0,0,0,28.0
Status,1732146735000,29,7,1,19,1575420030,32.90,193.0,20.0,1,0,0,27.900002
Status,1732146735000,29,8,1,15,1575420030,0.00,314.0,19.0,0,0,0,0.0
Status,1732146735000,29,9,1,2,1575420030,29.80,85.0,17.0,1,0,0,24.8
Status,1732146735000,29,10,1,21,1575420030,0.00,66.0,14.0,0,0,0,0.0
Status,1732146735000,29,11,1,8,1575420030,0.00,39.0,7.0,0,0,0,0.0
Status,1732146735000,29,12,1,5,1575420030,0.00,260.0,5.0,0,0,0,0.0
Status,1732146735000,29,13,3,9,1602000000,34.10,22.0,53.0,1,0,0,29.099998
Status,1732146735000,29,14,3,8,1602000000,40.30,300.0,39.0,1,0,0,35.3
Status,1732146735000,29,15,3,16,1602000000,0.00,69.0,13.0,0,0,0,0.0
Status,1732146735000,29,16,3,20,1602000000,0.00,148.0,13.0,0,0,0,0.0
Status,1732146735000,29,17,3,11,1602000000,0.00,274.0,3.0,0,0,0,0.0
Status,1732146735000,29,18,3,17,1602000000,34.40,0.0,0.0,0,0,0,29.400002
Status,1732146735000,29,19,6,29,1575420030,39.60,202.0,59.0,1,0,0,34.6
Status,1732146735000,29,20,6,21,1575420030,34.70,272.0,58.0,1,0,0,29.7
Status,1732146735000,29,21,6,27,1575420030,0.00,38.0,57.0,0,0,0,0.0
Status,1732146735000,29,22,6,19,1575420030,37.40,295.0,51.0,1,0,0,32.4
Status,1732146735000,29,23,6,7,1575420030,0.00,161.0,15.0,0,0,0,0.0
Status,1732146735000,29,24,6,15,1575420030,0.00,93.0,12.0,0,0,0,0.0
Status,1732146735000,29,25,6,30,1575420030,0.00,59.0,9.0,0,0,0,0.0
Status,1732146735000,29,26,6,34,1575420030,0.00,45.0,6.0,0,0,0,0.0
Status,1732146735000,29,27,6,13,1575420030,0.00,141.0,3.0,0,0,0,0.0
Status,1732146735000,29,28,6,4,1575420030,0.00,326.0,2.0,0,0,0,0.0
Fix,GPS,37.4243683333,-122.1712433333,14.599999999999998,0.1271364,1.9,177.83,1732146736000,0.9,179.9,25620045000000,34.7,0,,,
Raw,1732146736001,15690000000,,97.55232392641025,-1416181938311000064,0.0,97.55232392641025,2092.649880571086,0.0,0,30,0.0,16431,345153932075262,42,38.83300018310547,735.8899769213713,0.14999,17,11565.9871389637,0.00022499999613501132,1575420030,,,,0,26.550661353351032,1,6.0,38.83300018310547,0.0,0.0,0.0,66.7128,C,25620045000000,
Raw,1732146736001,15690000000,,97.55232392641025,-1416181938311000064,0.0,97.55232392641025,2092.649880571086,0.0,0,2,0.0,16431,345153920605296,396,24.81399917602539,432.5094573872922,0.14999,16,0.0,0.0,1575420030,,,,0,9.747218315892077,1,6.0,24.81399917602539,0.0,0.0,0.0,66.7128,C,25620045000000,
Raw,1732146736001,15690000000,,97.55232392641025,-1416181938311000064,0.0,97.55232392641025,2092.649880571086,0.0,0,22,0.0,16431,345153930997076,58,34.65299987792969,485.19302261954533,0.14999,16,0.0,0.0,1575420030,,,,0,21.96938072199927,1,6.0,34.65299987792969,0.0,0.0,0.0,66.7128,C,25620045000000,
Raw,1732146736001,15690000000,,97.55232392641025,-1416181938311000064,0.0,97.55232392641025,2092.649880571086,0.0,0,7,0.0,16431,345153926588576,235,29.591999053955078,997.6303755069395,0.14999,16,0.0,0.0,1575420030,,,,0,16.037867637244645,1,6.0,29.591999053955078,0.0,0.0,0.0,66.7128,C,25620045000000,
Raw,1732146736001,15690000000,,97.55232392641025,-1416181938311000064,0.0,97.55232392641025,2092.649880571086,0.0,0,17,0.0,16431,345153929931335,51,36.04999923706055,165.5319873759749,0.14999,17,9270.018687884307,0.00022499999613501132,1575420030,,,,0,23.523105821212738,1,6.0,36.04999923706055,0.0,0.0,0.0,66.7128,C,25620045000000,
Raw,1732146736001,15690000000,,97.55232392641025,-1416181938311000064,0.0,97.55232392641025,2092.649880571086,0.0,0,19,0.0,16431,345153921522055,316,27.945999145507812,-64.63327384101436,0.14999,16,0.0,0.0,1575420030,,,,0,13.971315885332192,1,6.0,27.945999145507812,0.0,0.0,0.0,66.7128,C,25620045000000,
Raw,1732146736001,15690000000,,97.55232392641025,-1416181938311000064,0.0,97.55232392641025,2092.649880571086,0.0,0,29,0.0,16431,345153920897611,51,34.599998474121094,936.371051226383,0.14999,16,0.0,0.0,1575420030,,,,0,22.002895450286786,6,6.0,34.599998474121094,0.0,0.0,6.460800948129724,66.7128,C,25620045000000,
Raw,1732146736001,15690000000,,97.55232392641025,-1416181938311000064,0.0,97.55232392641025,2092.649880571086,0.0,0,14,0.0,16431,345153933068373,42,40.29899978637695,631.886772639974,0.14999,17,9887.957456384613,0.00022499999613501132,1575420030,,,,0,28.117757459347885,1,6.0,40.29899978637695,0.0,0.0,0.0,66.7128,C,25620045000000,
Raw,1732146736001,15690000000,,97.55232392641025,-1416181938311000064,0.0,97.55232392641025,2092.649880571086,0.0,0,13,0.0,16431,345153930496342,28,44.310001373291016,356.18924373960346,0.14999,17,9586.879985073527,0.00022499999613501132,1575420030,,,,0,32.3301570996882,1,6.0,44.310001373291016,0.0,0.0,0.0,66.7128,C,25620045000000,
Raw,1732146736001,15690000000,,97.55232392641025,-1416181938311000064,0.0,97.55232392641025,2092.649880571086,0.0,0,19,0.0,16431,345153920547126,58,32.400001525878906,461.04570329312355,0.14999,16,0.0,0.0,1575420030,,,,0,19.69163291942288,6,6.0,32.400001525878906,0.0,0.0,6.460800948129724,66.7128,C,25620045000000,
Raw,1732146736001,15690000000,,97.55232392641025,-1416181938311000064,0.0,97.55232392641025,2092.649880571086,0.0,0,21,0.0,16431,345153920149242,58,29.700000762939453,462.92248393278066,0.14999,16,0.0,0.0,1575420030,,,,0,16.67839531606898,6,6.0,29.700000762939453,0.0,0.0,6.460800948129724,66.7128,C,25620045000000,
Raw,1732146736001,15690000000,,97.55232392641025,-1416181938311000064,0.0,97.55232392641025,2092.649880571086,0.0,0,8,0.0,17,708334,58,5.0,483.482321615146,0.14999,16,0.0,0.0,1605374980,,,,0,22.726636351332925,3,6.0,35.0,0.0,0.0,38.07586316923916,66.7128,C,25620045000000,
Raw,1732146736001,15690000000,,97.55232392641025,-1416181938311000064,0.0,97.55232392641025,2092.649880571086,0.0,0,9,0.0,17,803579,316,5.0,768.7957048227605,0.14999,16,0.0,0.0,1600875010,,,,0,15.941679807456623,3,6.0,26.0,0.0,0.0,38.07586316923916,66.7128,C,25620045000000,
Fix,FLP,37.4243682000,-122.1712404000,-0.9492885266769759,0.21284683,1.866,187.84451,1732146736197,0.9,179.9,25620045000000,1.0484498,0,,,
Fix,FLP,37.4243677000,-122.1712417000,-0.9492885266769759,0.21102953,1.982,188.3309,1732146736659,1.5,45.0,25620507000000,0.8267373,0,,,
Fix,NLP,37.4242833000,-122.1711851000,2.0999999046325684,,29.418,,1732146736659,,,25620507000000,1.0,0,,,
Status,1732146736000,29,0,1,14,1575420030,49.00,329.0,74.0,1,0,0,44.0
Status,1732146736000,29,1,1,30,1575420030,48.30,81.0,69.0,1,0,0,43.3
Status,1732146736000,29,2,1,22,1575420030,44.10,275.0,61.0,1,0,0,39.1
Status,1732146736000,29,3,1,13,1575420030,41.20,300.0,49.0,1,0,0,36.2
Status,1732146736000,29,4,1,17,1575420030,42.50,175.0,47.0,1,0,0,37.5
Status,1732146736000,29,5,1,7,1575420030,36.70,106.0,36.0,1,0,0,31.7
Status,1732146736000,29,6,2,131,1575420030,41.00,3.0,23.0,0,0,0,36.0
Status,1732146736000,29,7,1,19,1575420030,42.40,193.0,20.0,1,0,0,37.4
Status,1732146736000,29,8,1,15,1575420030,44.40,314.0,19.0,1,0,0,39.4
Status,1732146736000,29,9,1,2,1575420030,27.60,85.0,17.0,0,0,0,22.6
Status,1732146736000,29,10,1,21,1575420030,0.00,66.0,14.0,0,0,0,0.0
Status,1732146736000,29,11,1,8,1575420030,0.00,39.0,7.0,0,0,0,0.0
Status,1732146736000,29,12,1,5,1575420030,0.00,260.0,5.0,0,0,0,0.0
Status,1732146736000,29,13,3,9,1602000000,29.00,22.0,53.0,1,0,0,24.0
Status,1732146736000,29,14,3,8,1602000000,34.40,300.0,39.0,1,0,0,29.400002
Status,1732146736000,29,15,3,16,1602000000,0.00,69.0,13.0,0,0,0,0.0
Status,1732146736000,29,16,3,20,1602000000,0.00,148.0,13.0,0,0,0,0.0
Status,1732146736000,29,17,3,11,1602000000,0.00,274.0,3.0,0,0,0,0.0
Status,1732146736000,29,18,3,17,1602000000,44.90,0.0,0.0,0,0,0,39.9
Status,1732146736000,29,19,6,29,1575420030,41.00,202.0,59.0,1,0,0,36.0
Status,1732146736000,29,20,6,21,1575420030,30.00,272.0,58.0,1,0,0,25.0
Status,1732146736000,29,21,6,27,1575420030,0.00,38.0,57.0,0,0,0,0.0
Status,1732146736000,29,22,6,19,1575420030,31.60,295.0,51.0,1,0,0,26.6
Status,1732146736000,29,23,6,7,1575420030,0.00,161.0,15.0,0,0,0,0.0
Status,1732146736000,29,24,6,15,1575420030,0.00,93.0,12.0,0,0,0,0.0
Status,1732146736000,29,25,6,30,1575420030,0.00,59.0,9.0,0,0,0,0.0
Status,1732146736000,29,26,6,34,1575420030,0.00,45.0,6.0,0,0,0,0.0
Status,1732146736000,29,27,6,13,1575420030,0.00,141.0,3.0,0,0,0,0.0
Status,1732146736000,29,28,6,4,1575420030,0.00,326.0,2.0,0,0,0,0.0
Fix,GPS,37.4243750000,-122.1712400000,14.500000000000004,0.23471333,1.9,81.05,1732146737000,0.9,172.7,25621045000000,36.8,0,,,
Fix,FLP,37.4243706000,-122.1712409000,-0.8688692700059848,0.10313966,1.97,177.77083,1732146737197,0.9,172.7,25621045000000,0.82936066,0,,,
Raw,1732146737001,16690000000,,101.14625870042956,-1416181938311000064,0.0,101.14625870042956,2095.1695043138893,0.0,0,30,0.0,16431,345154932072809,31,43.30500030517578,736.5246918036396,0.14999,17,12302.741068207526,0.00022499999613501132,1575420030,,,,0,31.28117669936585,1,6.0,43.30500030517578,0.0,0.0,0.0,66.7128,C,25621045000000,
Raw,1732146737001,16690000000,,101.14625870042956,-1416181938311000064,0.0,101.14625870042956,2095.1695043138893,0.0,0,2,0.0,17,603846,797,22.59600067138672,435.259331042794,0.14999,16,0.0,0.0,1575420030,,,,0,6.451013342972235,1,6.0,22.59600067138672,0.0,0.0,0.0,66.7128,C,25621045000000,
Raw,1732146737001,16690000000,,101.14625870042956,-1416181938311000064,0.0,101.14625870042956,2095.1695043138893,0.0,0,22,0.0,16431,345154930995454,42,39.111000061035156,486.3126239918031,0.14999,16,0.0,0.0,1575420030,,,,0,26.849308800902193,1,6.0,39.111000061035156,0.0,0.0,0.0,66.7128,C,25621045000000,
Raw,1732146737001,16690000000,,101.14625870042956,-1416181938311000064,0.0,101.14625870042956,2095.1695043138893,0.0,0,7,0.0,16431,345154926585246,74,31.687000274658203,996.7910577596798,0.14999,16,0.0,0.0,1575420030,,,,0,18.55877203651003,1,6.0,31.687000274658203,0.0,0.0,0.0,66.7128,C,25621045000000,
Raw,1732146737001,16690000000,,101.14625870042956,-1416181938311000064,0.0,101.14625870042956,2095.1695043138893,0.0,0,29,0.0,16431,345154920894492,51,36.0,936.7390947996029,0.14999,16,0.0,0.0,1575420030,,,,0,23.485585721237634,6,6.0,36.0,0.0,0.0,7.195383287530881,66.7128,C,25621045000000,
Raw,1732146737001,16690000000,,101.14625870042956,-1416181938311000064,0.0,101.14625870042956,2095.1695043138893,0.0,0,14,0.0,16431,345154933066264,31,43.97200012207031,632.6089222615506,0.14999,17,10520.821243710192,0.00022499999613501132,1575420030,,,,0,31.976713546218104,1,6.0,43.97200012207031,0.0,0.0,0.0,66.7128,C,25621045000000,
Raw,1732146737001,16690000000,,101.14625870042956,-1416181938311000064,0.0,101.14625870042956,2095.1695043138893,0.0,0,13,0.0,16431,345154930495152,51,36.220001220703125,357.31414137130923,0.14999,17,9944.49941921601,0.00022499999613501132,1575420030,,,,0,23.708313043596824,1,6.0,36.220001220703125,0.0,0.0,0.0,66.7128,C,25621045000000,
Raw,1732146737001,16690000000,,101.14625870042956,-1416181938311000064,0.0,101.14625870042956,2095.1695043138893,0.0,0,19,0.0,16431,345154920545584,235,26.600000381469727,462.11025144217183,0.14999,16,0.0,0.0,1575420030,,,,0,13.02174167812447,6,6.0,26.600000381469727,0.0,0.0,7.195383287530881,66.7128,C,25621045000000,
Raw,1732146737001,16690000000,,101.14625870042956,-1416181938311000064,0.0,101.14625870042956,2095.1695043138893,0.0,0,21,0.0,16431,345154920147693,316,25.0,463.52040374941026,0.14999,16,0.0,0.0,1575420030,,,,0,11.138243557798713,6,6.0,25.0,0.0,0.0,7.195383287530881,66.7128,C,25621045000000,
Raw,1732146737001,16690000000,,101.14625870042956,-1416181938311000064,0.0,101.14625870042956,2095.1695043138893,0.0,0,8,0.0,17,706718,74,5.0,484.278851405468,0.14999,16,0.0,0.0,1605374980,,,,0,16.35741918045801,3,6.0,30.0,0.0,0.0,38.29604015699217,66.7128,C,25621045000000,
Raw,1732146737001,16690000000,,101.14625870042956,-1416181938311000064,0.0,101.14625870042956,2095.1695043138893,0.0,0,9,0.0,17,801013,316,5.0,769.2441235994891,0.14999,16,0.0,0.0,1600875010,,,,0,9.815795094329856,3,6.0,24.0,0.0,0.0,38.29604015699217,66.7128,C,25621045000000,
Raw,1732146737001,16690000000,,101.14625870042956,-1416181938311000064,0.0,101.14625870042956,2095.1695043138893,0.0,0,15,0.0,16431,345154922961828,42,39.36000061035156,170.75354169070974,0.14999,16,0.0,0.0,1575420030,,,,0,27.113299717402697,1,6.0,39.36000061035156,0.0,0.0,0.0,66.7128,C,25621045000000,
Raw,1732146737001,16690000000,,101.14625870042956,-1416181938311000064,0.0,101.14625870042956,2095.1695043138893,0.0,0,19,0.0,16431,345154921522274,51,37.387001037597656,-63.73448932100528,0.14999,16,0.0,0.0,1575420030,,,,0,24.98419309911696,1,6.0,37.387001037597656,0.0,0.0,0.0,66.7128,C,25621045000000,
Raw,1732146737001,16690000000,,101.14625870042956,-1416181938311000064,0.0,101.14625870042956,2095.1695043138893,0.0,0,17,0.0,16431,345154929930825,51,37.46699905395508,166.88559979068515,0.14999,16,0.0,0.0,1575420030,,,,0,25.0707772198187,1,6.0,37.46699905395508,0.0,0.0,0.0,66.7128,C,25621045000000,
Status,1732146737000,29,0,1,14,1575420030,46.10,329.0,74.0,1,0,0,41.1
Status,1732146737000,29,1,1,30,1575420030,42.60,81.0,69.0,1,0,0,37.6
Status,1732146737000,29,2,1,22,1575420030,39.10,275.0,61.0,1,0,0,34.1
Status,1732146737000,29,3,1,13,1575420030,39.90,300.0,49.0,1,0,0,34.9
Status,1732146737000,29,4,1,17,1575420030,37.00,175.0,47.0,1,0,0,32.0
Status,1732146737000,29,5,1,7,1575420030,41.10,106.0,36.0,1,0,0,36.1
Status,1732146737000,29,6,2,131,1575420030,38.00,3.0,23.0,0,0,0,33.0
Status,1732146737000,29,7,1,19,1575420030,39.60,193.0,20.0,1,0,0,34.6
Status,1732146737000,29,8,1,15,1575420030,39.80,314.0,19.0,1,0,0,34.8
Status,1732146737000,29,9,1,2,1575420030,24.90,85.0,17.0,1,0,0,19.9
Status,1732146737000,29,10,1,21,1575420030,0.00,66.0,14.0,0,0,0,0.0
Status,1732146737000,29,11,1,8,1575420030,0.00,39.0,7.0,0,0,0,0.0
Status,1732146737000,29,12,1,5,1575420030,0.00,260.0,5.0,0,0,0,0.0
Status,1732146737000,29,13,3,9,1602000000,34.90,22.0,53.0,1,0,0,29.900002
Status,1732146737000,29,14,3,8,1602000000,30.80,300.0,39.0,1,0,0,25.8
Status,1732146737000,29,15,3,16,1602000000,22.90,69.0,13.0,1,0,0,17.9
Status,1732146737000,29,16,3,20,1602000000,0.00,148.0,13.0,0,0,0,0.0
Status,1732146737000,29,17,3,11,1602000000,0.00,274.0,3.0,0,0,0,0.0
Status,1732146737000,29,18,3,17,1602000000,38.90,0.0,0.0,0,0,0,33.9
Status,1732146737000,29,19,6,29,1575420030,35.80,202.0,59.0,1,0,0,30.8
Status,1732146737000,29,20,6,21,1575420030,33.70,272.0,58.0,1,0,0,28.7
Status,1732146737000,29,21,6,27,1575420030,0.00,38.0,57.0,0,0,0,0.0
Status,1732146737000,29,22,6,19,1575420030,28.00,295.0,51.0,1,0,0,23.0
Status,1732146737000,29,23,6,7,1575420030,0.00,161.0,15.0,0,0,0,0.0
Status,1732146737000,29,24,6,15,1575420030,0.00,93.0,12.0,0,0,0,0.0
Status,1732146737000,29,25,6,30,1575420030,0.00,59.0,9.0,0,0,0,0.0
Status,1732146737000,29,26,6,34,1575420030,0.00,45.0,6.0,0,0,0,0.0
Status,1732146737000,29,27,6,13,1575420030,0.00,141.0,3.0,0,0,0,0.0
Status,1732146737000,29,28,6,4,1575420030,0.00,326.0,2.0,0,0,0,0.0
Fix,GPS,37.4243783333,-122.1712400000,14.400000000000002,0.27692056,1.9,58.65,1732146738000,0.9,138.8,25622045000000,34.9,0,,,
Raw,1732146738001,17690000000,,94.01680715017288,-1416181938311000064,0.0,94.01680715017288,2098.3732003805235,0.0,0,30,0.0,16431,345155932070352,42,37.64400100708008,737.655675487869,0.14999,17,13040.260878960838,0.00022499999613501132,1575420030,,,,0,25.264407387973257,1,6.0,37.64400100708008,0.0,0.0,0.0,66.7128,C,25622045000000,
Raw,1732146738001,17690000000,,94.01680715017288,-1416181938311000064,0.0,94.01680715017288,2098.3732003805235,0.0,0,2,0.0,16431,345155920602389,487,19.92799949645996,435.5877455869862,0.14999,16,0.0,0.0,1575420030,,,,0,2.124688122644327,1,6.0,19.92799949645996,0.0,0.0,0.0,66.7128,C,25622045000000,
Raw,1732146738001,17690000000,,94.01680715017288,-1416181938311000064,0.0,94.01680715017288,2098.3732003805235,0.0,0,22,0.0,16431,345155930993833,58,34.13199996948242,486.5475642025798,0.14999,16,0.0,0.0,1575420030,,,,0,21.378906428255373,1,6.0,34.13199996948242,0.0,0.0,0.0,66.7128,C,25622045000000,
Raw,1732146738001,17690000000,,94.01680715017288,-1416181938311000064,0.0,94.01680715017288,2098.3732003805235,0.0,0,7,0.0,16431,345155926581919,51,36.143001556396484,998.4951524662824,0.14999,17,14542.94533712686,0.00022499999613501132,1575420030,,,,0,23.62545814215772,1,6.0,36.143001556396484,0.0,0.0,0.0,66.7128,C,25622045000000,
Raw,1732146738001,17690000000,,94.01680715017288,-1416181938311000064,0.0,94.01680715017288,2098.3732003805235,0.0,0,29,0.0,16431,345155920891369,74,30.799999237060547,937.3227054240397,0.14999,16,0.0,0.0,1575420030,,,,0,17.86905352972375,6,6.0,30.799999237060547,0.0,0.0,7.677673328768003,66.7128,C,25622045000000,
Raw,1732146738001,17690000000,,94.01680715017288,-1416181938311000064,0.0,94.01680715017288,2098.3732003805235,0.0,0,14,0.0,16431,345155933064151,42,41.111000061035156,633.3701434111603,0.14999,17,11154.381698216057,0.00022499999613501132,1575420030,,,,0,28.97813793688975,1,6.0,41.111000061035156,0.0,0.0,0.0,66.7128,C,25622045000000,
Raw,1732146738001,17690000000,,94.01680715017288,-1416181938311000064,0.0,94.01680715017288,2098.3732003805235,0.0,0,13,0.0,16431,345155930493955,58,34.92399978637695,357.6222071292013,0.14999,17,10302.698546957714,0.00039999998989515007,1575420030,,,,0,22.266457202409118,1,6.0,34.92399978637695,0.0,0.0,0.0,66.7128,C,25622045000000,
Raw,1732146738001,17690000000,,94.01680715017288,-1416181938311000064,0.0,94.01680715017288,2098.3732003805235,0.0,0,19,0.0,16431,345155920544041,316,23.0,462.34937291040745,0.14999,16,0.0,0.0,1575420030,,,,0,8.469023257789457,6,6.0,23.0,0.0,0.0,7.677673328768003,66.7128,C,25622045000000,
Raw,1732146738001,17690000000,,94.01680715017288,-1416181938311000064,0.0,94.01680715017288,2098.3732003805235,0.0,0,21,0.0,16431,345155920146147,74,28.700000762939453,464.52804033860065,0.14999,16,0.0,0.0,1575420030,,,,0,15.5361807781754,6,6.0,28.700000762939453,0.0,0.0,7.677673328768003,66.7128,C,25622045000000,
Raw,1732146738001,17690000000,,94.01680715017288,-1416181938311000064,0.0,94.01680715017288,2098.3732003805235,0.0,0,8,0.0,17,705095,316,5.0,485.36516102220446,0.14999,16,0.0,0.0,1605374980,,,,0,12.084333760436312,3,6.0,26.0,0.0,0.0,40.17621950254024,66.7128,C,25622045000000,
Raw,1732146738001,17690000000,,94.01680715017288,-1416181938311000064,0.0,94.01680715017288,2098.3732003805235,0.0,0,9,0.0,17,798450,74,5.0,770.1391323651128,0.14999,16,0.0,0.0,1600875010,,,,0,16.815923852572904,3,6.0,30.0,0.0,0.0,40.17621950254024,66.7128,C,25622045000000,
Raw,1732146738001,17690000000,,94.01680715017288,-1416181938311000064,0.0,94.01680715017288,2098.3732003805235,0.0,0,16,0.0,17,13283,487,5.0,1116.7354617708334,0.14999,16,0.0,0.0,1601437440,,,,0,0.7224036010983799,3,6.0,19.0,0.0,0.0,40.17621950254024,66.7128,C,25622045000000,
Raw,1732146738001,17690000000,,94.01680715017288,-1416181938311000064,0.0,94.01680715017288,2098.3732003805235,0.0,0,15,0.0,16431,345155922961224,58,34.84400177001953,171.55188311487163,0.14999,16,0.0,0.0,1575420030,,,,0,22.179488869964906,1,6.0,34.84400177001953,0.0,0.0,0.0,66.7128,C,25622045000000,
Raw,1732146738001,17690000000,,94.01680715017288,-1416181938311000064,0.0,94.01680715017288,2098.3732003805235,0.0,0,19,0.0,16431,345155921522485,58,34.56999969482422,-62.77117406087977,0.14999,16,0.0,0.0,1575420030,,,,0,21.868053575815118,1,6.0,34.56999969482422,0.0,0.0,0.0,66.7128,C,25622045000000,
Raw,1732146738001,17690000000,,94.01680715017288,-1416181938311000064,0.0,94.01680715017288,2098.3732003805235,0.0,0,17,0.0,16431,345155929930242,74,32.04199981689453,168.75912834120751,0.14999,16,0.0,0.0,1575420030,,,,0,18.979400086720375,1,6.0,32.04199981689453,0.0,0.0,0.0,66.7128,C,25622045000000,
Fix,FLP,37.4243742000,-122.1712402000,-0.7854254138628418,0.043921884,1.97,,1732146738197,0.9,,25622045000000,0.83985054,0,,,
Status,1732146738000,29,0,1,14,1575420030,42.40,329.0,74.0,1,0,0,37.4
Status,1732146738000,29,1,1,30,1575420030,45.80,81.0,69.0,1,0,0,40.8
Status,1732146738000,29,2,1,22,1575420030,43.30,275.0,61.0,1,0,0,38.3
Status,1732146738000,29,3,1,13,1575420030,42.00,300.0,49.0,1,0,0,37.0
Status,1732146738000,29,4,1,17,1575420030,40.70,175.0,47.0,1,0,0,35.7
Status,1732146738000,29,5,1,7,1575420030,41.70,106.0,36.0,1,0,0,36.7
Status,1732146738000,29,6,2,131,1575420030,41.00,3.0,23.0,0,0,0,36.0
Status,1732146738000,29,7,1,19,1575420030,43.50,193.0,20.0,1,0,0,38.5
Status,1732146738000,29,8,1,15,1575420030,34.30,314.0,19.0,1,0,0,29.3
Status,1732146738000,29,9,1,2,1575420030,26.70,85.0,17.0,1,0,0,21.7
Status,1732146738000,29,10,1,21,1575420030,0.00,66.0,14.0,0,0,0,0.0
Status,1732146738000,29,11,1,8,1575420030,0.00,39.0,7.0,0,0,0,0.0
Status,1732146738000,29,12,1,5,1575420030,0.00,260.0,5.0,0,0,0,0.0
Status,1732146738000,29,13,3,9,1602000000,34.80,22.0,53.0,1,0,0,29.8
Status,1732146738000,29,14,3,8,1602000000,37.60,300.0,39.0,1,0,0,32.6
Status,1732146738000,29,15,3,16,1602000000,27.20,69.0,13.0,1,0,0,22.2
Status,1732146738000,29,16,3,20,1602000000,0.00,148.0,13.0,0,0,0,0.0
Status,1732146738000,29,17,3,11,1602000000,0.00,274.0,3.0,0,0,0,0.0
Status,1732146738000,29,18,3,17,1602000000,41.40,0.0,0.0,0,0,0,36.4
Status,1732146738000,29,19,6,29,1575420030,28.80,202.0,59.0,1,0,0,23.8
Status,1732146738000,29,20,6,21,1575420030,32.80,272.0,58.0,1,0,0,27.8
Status,1732146738000,29,21,6,27,1575420030,0.00,38.0,57.0,0,0,0,0.0
Status,1732146738000,29,22,6,19,1575420030,27.20,295.0,51.0,1,0,0,22.2
Status,1732146738000,29,23,6,7,1575420030,0.00,161.0,15.0,0,0,0,0.0
Status,1732146738000,29,24,6,15,1575420030,0.00,93.0,12.0,0,0,0,0.0
Status,1732146738000,29,25,6,30,1575420030,0.00,59.0,9.0,0,0,0,0.0
Status,1732146738000,29,26,6,34,1575420030,0.00,45.0,6.0,0,0,0,0.0
Status,1732146738000,29,27,6,13,1575420030,0.00,141.0,3.0,0,0,0,0.0
Status,1732146738000,29,28,6,4,1575420030,0.00,326.0,2.0,0,0,0,0.0
Fix,GPS,37.4243800000,-122.1712333333,14.3,0.3515553,1.8,63.54,1732146739000,0.9,107.8,25623045000000,34.0,0,,,
Raw,1732146739001,18690000000,,92.02938640184738,-1416181938311000064,0.0,92.02938640184738,2102.2788069921,0.0,0,30,0.0,16431,345156932067889,42,40.76900100708008,738.2140591923035,0.14999,17,13778.901510619835,0.00022499999613501132,1575420030,,,,0,28.616067222869898,1,6.0,40.76900100708008,0.0,0.0,0.0,66.7128,C,25623045000000,
