# 
# Header Description:
# 
# Version: v3.1.0.3 Platform: 13 Manufacturer: samsung Model: SM-S135DL GNSS Hardware Model Name: MediaTek,MT6631,MTK_MNLD_default,MNL_VER_default
# 
# Raw,utcTimeMillis,TimeNanos,LeapSecond,TimeUncertaintyNanos,FullBiasNanos,BiasNanos,BiasUncertaintyNanos,DriftNanosPerSecond,DriftUncertaintyNanosPerSecond,HardwareClockDiscontinuityCount,Svid,TimeOffsetNanos,State,ReceivedSvTimeNanos,ReceivedSvTimeUncertaintyNanos,Cn0DbHz,PseudorangeRateMetersPerSecond,PseudorangeRateUncertaintyMetersPerSecond,AccumulatedDeltaRangeState,AccumulatedDeltaRangeMeters,AccumulatedDeltaRangeUncertaintyMeters,CarrierFrequencyHz,CarrierCycles,CarrierPhase,CarrierPhaseUncertainty,MultipathIndicator,SnrInDb,ConstellationType,AgcDb,BasebandCn0DbHz,FullInterSignalBiasNanos,FullInterSignalBiasUncertaintyNanos,SatelliteInterSignalBiasNanos,SatelliteInterSignalBiasUncertaintyNanos,CodeType,ChipsetElapsedRealtimeNanos,IsFullTracking
# 
# UncalAccel,utcTimeMillis,elapsedRealtimeNanos,UncalAccelXMps2,UncalAccelYMps2,UncalAccelZMps2,BiasXMps2,BiasYMps2,BiasZMps2
# 
# Accel,utcTimeMillis,elapsedRealtimeNanos,AccelXMps2,AccelYMps2,AccelZMps2
# 
# UncalGyro,utcTimeMillis,elapsedRealtimeNanos,UncalGyroXRadPerSec,UncalGyroYRadPerSec,UncalGyroZRadPerSec,DriftXRadPerSec,DriftYRadPerSec,DriftZRadPerSec
# 
# Gyro,utcTimeMillis,elapsedRealtimeNanos,GyroXRadPerSec,GyroYRadPerSec,GyroZRadPerSec
# 
# UncalMag,utcTimeMillis,elapsedRealtimeNanos,UncalMagXMicroT,UncalMagYMicroT,UncalMagZMicroT,BiasXMicroT,BiasYMicroT,BiasZMicroT
# 
# Mag,utcTimeMillis,elapsedRealtimeNanos,MagXMicroT,MagYMicroT,MagZMicroT
# 
# Pressure,utcTimeMillis,elapsedRealtimeNanos,PressureHpa
# 
# OrientationDeg,utcTimeMillis,elapsedRealtimeNanos,yawDeg,rollDeg,pitchDeg
# 
# Fix,Provider,LatitudeDegrees,LongitudeDegrees,AltitudeMeters,SpeedMps,AccuracyMeters,BearingDegrees,UnixTimeMillis,SpeedAccuracyMps,BearingAccuracyDegrees,elapsedRealtimeNanos,VerticalAccuracyMeters,MockLocation,NumberOfUsedSignals,VerticalSpeedAccuracyMps,SolutionType
# 
# Nav,Svid,Type,Status,MessageId,Sub-messageId,Data(Bytes)
# 
# Status,UnixTimeMillis,SignalCount,SignalIndex,ConstellationType,Svid,CarrierFrequencyHz,Cn0DbHz,AzimuthDegrees,ElevationDegrees,UsedInFix,HasAlmanacData,HasEphemerisData,BasebandCn0DbHz
# 
# Agc,utcTimeMillis,TimeNanos,LeapSecond,TimeUncertaintyNanos,FullBiasNanos,BiasNanos,BiasUncertaintyNanos,DriftNanosPerSecond,DriftUncertaintyNanosPerSecond,HardwareClockDiscontinuityCount,AgcDb,CarrierFrequencyHz,ConstellationType
# 
Fix,FLP,37.4243826000,-122.1712482000,2.200000047683716,0.24299577,6.434,300.35223,1732146191197,1.9,129.2,25075044000000,0.8288352,0,,,
Status,,28,0,1,14,1575420030,40.10,314.0,74.0,1,0,0,35.1
Status,,28,1,1,30,1575420030,42.50,70.0,71.0,1,0,0,37.5
Status,,28,2,1,22,1575420030,44.80,268.0,59.0,1,0,0,39.8
Status,,28,3,1,13,1575420030,34.80,304.0,46.0,1,0,0,29.8
Status,,28,4,1,17,1575420030,39.60,176.0,43.0,1,0,0,34.6
Status,,28,5,1,7,1575420030,35.00,102.0,39.0,1,0,0,30.0
Status,,28,6,2,131,1575420030,41.00,3.0,23.0,0,0,0,36.0
Status,,28,7,1,2,1575420030,23.10,89.0,16.0,1,0,0,18.1
Status,,28,8,1,19,1575420030,41.80,193.0,16.0,1,0,0,36.8
Status,,28,9,1,15,1575420030,45.70,316.0,16.0,1,0,0,40.7
Status,,28,10,1,21,1575420030,0.00,70.0,13.0,0,0,0,0.0
Status,,28,11,1,8,1575420030,0.00,40.0,10.0,0,0,0,0.0
Status,,28,12,1,5,1575420030,24.80,264.0,7.0,1,0,0,19.8
Status,,28,13,1,9,1575420030,0.00,159.0,2.0,0,0,0,0.0
Status,,28,14,3,9,1602000000,42.10,14.0,54.0,1,0,0,37.1
Status,,28,15,3,8,1602000000,32.90,305.0,38.0,1,0,0,27.900002
Status,,28,16,3,19,1602000000,32.90,89.0,31.0,1,0,0,27.900002
Status,,28,17,3,16,1602000000,0.00,66.0,15.0,0,0,0,0.0
Status,,28,18,3,20,1602000000,0.00,150.0,9.0,0,0,0,0.0
Status,,28,19,3,17,1602000000,39.30,0.0,0.0,0,0,0,34.3
Status,,28,20,6,29,1575420030,27.40,205.0,62.0,1,0,0,22.4
Status,,28,21,6,27,1575420030,38.40,35.0,60.0,1,0,0,33.4
Status,,28,22,6,21,1575420030,0.00,266.0,56.0,0,0,0,0.0
Status,,28,23,6,19,1575420030,39.00,299.0,50.0,1,0,0,34.0
Status,,28,24,6,7,1575420030,0.00,160.0,18.0,0,0,0,0.0
Status,,28,25,6,30,1575420030,0.00,57.0,11.0,0,0,0,0.0
Status,,28,26,6,15,1575420030,0.00,96.0,10.0,0,0,0,0.0
Status,,28,27,6,34,1575420030,0.00,48.0,6.0,0,0,0,0.0
Fix,GPS,37.4243916667,-122.1712466667,14.599999999999998,0.30420083,1.8,13.45,1732146192000,1.7,179.9,25076044000000,35.3,0,,,
Fix,FLP,37.4243879000,-122.1712478000,2.200000047683716,0.22787367,6.434,354.07452,1732146192197,1.7,179.9,25076044000000,0.8430349,0,,,
Raw,1732146192000,14071000000,,91.37891198524697,-1416181395929999872,0.0,91.37891198524697,1920.8999941648744,0.0,0,14,0.0,16431,344609932950425,58,35.08300018310547,545.1627541829297,0.14999,17,7632.2451887117995,0.00039999998989515007,1575420030,,,,0,22.448423344509834,1,6.0,35.08300018310547,0.0,0.0,0.0,66.7128,C,25076044000000,
Raw,1732146192000,14071000000,,91.37891198524697,-1416181395929999872,0.0,91.37891198524697,1920.8999941648744,0.0,0,17,0.0,16431,344609928955365,58,34.606998443603516,66.46856711499547,0.14999,16,0.0,0.0,1575420030,,,,0,21.91323385785464,1,6.0,34.606998443603516,0.0,0.0,0.0,66.7128,C,25076044000000,
Raw,1732146192000,14071000000,,91.37891198524697,-1416181395929999872,0.0,91.37891198524697,1920.8999941648744,0.0,0,22,0.0,16431,344609930610983,42,39.83700180053711,396.1754450710192,0.14999,17,5555.8453074068875,0.00022499999613501132,1575420030,,,,0,27.6242049210327,1,6.0,39.83700180053711,0.0,0.0,0.0,66.7128,C,25076044000000,
Raw,1732146192000,14071000000,,91.37891198524697,-1416181395929999872,0.0,91.37891198524697,1920.8999941648744,0.0,0,15,0.0,16431,344609921989256,42,40.71500015258789,66.05648096320799,0.14999,17,5999.517148430723,0.00022499999613501132,1575420030,,,,0,28.558596465222234,1,6.0,40.71500015258789,0.0,0.0,0.0,66.7128,C,25076044000000,
Raw,1732146192000,14071000000,,91.37891198524697,-1416181395929999872,0.0,91.37891198524697,1920.8999941648744,0.0,0,7,0.0,16431,344609927135421,74,30.04400062561035,912.7509420071184,0.14999,17,9322.643109253033,0.0006249999860301614,1575420030,,,,0,16.595671932336202,1,6.0,30.04400062561035,0.0,0.0,0.0,66.7128,C,25076044000000,
Raw,1732146192000,14071000000,,91.37891198524697,-1416181395929999872,0.0,91.37891198524697,1920.8999941648744,0.0,0,29,0.0,16431,344609921325202,396,22.399999618530273,842.1329414482786,0.14999,16,0.0,0.0,1575420030,,,,0,7.751685242698889,6,6.0,22.399999618530273,0.0,0.0,10.782490346731535,66.7128,C,25076044000000,
Raw,1732146192000,14071000000,,91.37891198524697,-1416181395929999872,0.0,91.37891198524697,1920.8999941648744,0.0,0,30,0.0,16431,344609932141156,51,37.5,644.1590884909011,0.14999,16,0.0,0.0,1575420030,,,,0,25.1098501135897,1,6.0,37.5,0.0,0.0,0.0,66.7128,C,25076044000000,
Raw,1732146192000,14071000000,,91.37891198524697,-1416181395929999872,0.0,91.37891198524697,1920.8999941648744,0.0,0,19,0.0,16431,344609920109542,58,34.0,364.59812415687844,0.14999,16,0.0,0.0,1575420030,,,,0,21.402834514016256,6,6.0,34.0,0.0,0.0,10.782490346731535,66.7128,C,25076044000000,
Raw,1732146192000,14071000000,,91.37891198524697,-1416181395929999872,0.0,91.37891198524697,1920.8999941648744,0.0,0,27,0.0,16431,344609920412933,58,33.400001525878906,815.5661607224445,0.14999,17,11055.462993621883,0.00039999998989515007,1575420030,,,,0,20.69364235085203,6,6.0,33.400001525878906,0.0,0.0,10.782490346731535,66.7128,C,25076044000000,
Raw,1732146192000,14071000000,,91.37891198524697,-1416181395929999872,0.0,91.37891198524697,1920.8999941648744,0.0,0,9,0.0,17,945217,51,5.0,694.4354084520834,0.14999,16,0.0,0.0,1600875010,,,,0,24.651884973203774,3,6.0,37.0,0.0,0.0,38.67952786299239,66.7128,C,25076044000000,
Raw,1732146192000,14071000000,,91.37891198524697,-1416181395929999872,0.0,91.37891198524697,1920.8999941648744,0.0,0,8,0.0,17,271192,487,5.0,342.9064622617093,0.14999,16,0.0,0.0,1605374980,,,,0,14.622479943466727,3,6.0,19.0,0.0,0.0,38.67952786299239,66.7128,C,25076044000000,
Raw,1732146192000,14071000000,,91.37891198524697,-1416181395929999872,0.0,91.37891198524697,1920.8999941648744,0.0,0,19,0.0,17,301168,235,5.0,246.20984301379877,0.14999,16,0.0,0.0,1603687550,,,,0,14.616348005592524,3,6.0,28.0,0.0,0.0,38.67952786299239,66.7128,C,25076044000000,
Raw,1732146192000,14071000000,,91.37891198524697,-1416181395929999872,0.0,91.37891198524697,1920.8999941648744,0.0,0,13,0.0,16431,344609929853458,235,29.83799934387207,242.89101121013127,0.14999,17,7083.802069640566,0.0008999999845400453,1575420030,,,,0,16.342666968379383,1,6.0,29.83799934387207,0.0,0.0,0.0,66.7128,C,25076044000000,
Raw,1732146192000,14071000000,,91.37891198524697,-1416181395929999872,0.0,91.37891198524697,1920.8999941648744,0.0,0,19,0.0,16431,344609920163760,51,36.81999969482422,-124.12044183521981,0.14999,16,0.0,0.0,1575420030,,,,0,24.369658971078703,1,6.0,36.81999969482422,0.0,0.0,0.0,66.7128,C,25076044000000,
Raw,1732146192000,14071000000,,91.37891198524697,-1416181395929999872,0.0,91.37891198524697,1920.8999941648744,0.0,0,5,0.0,16431,344609917168637,797,19.76799964904785,997.662710564622,0.14999,16,0.0,0.0,1575420030,,,,0,0.2957457765132423,1,6.0,19.76799964904785,0.0,0.0,0.0,66.7128,C,25076044000000,
Raw,1732146192000,14071000000,,91.37891198524697,-1416181395929999872,0.0,91.37891198524697,1920.8999941648744,0.0,0,2,0.0,16431,344609920116500,487,18.097999572753906,335.989031454429,0.14999,16,0.0,0.0,1575420030,,,,0,0.0,1,6.0,18.097999572753906,0.0,0.0,0.0,66.7128,C,25076044000000,
Status,1732146192000,28,0,1,14,1575420030,41.40,314.0,74.0,1,0,0,36.4
Status,1732146192000,28,1,1,30,1575420030,45.60,70.0,71.0,1,0,0,40.6
Status,1732146192000,28,2,1,22,1575420030,44.70,268.0,59.0,1,0,0,39.7
Status,1732146192000,28,3,1,13,1575420030,37.30,304.0,46.0,1,0,0,32.3
Status,1732146192000,28,4,1,17,1575420030,38.20,176.0,43.0,1,0,0,33.2
Status,1732146192000,28,5,1,7,1575420030,41.60,102.0,39.0,1,0,0,36.6
Status,1732146192000,28,6,2,131,1575420030,39.00,3.0,23.0,0,0,0,34.0
Status,1732146192000,28,7,1,2,1575420030,28.30,89.0,16.0,1,0,0,23.3
Status,1732146192000,28,8,1,19,1575420030,44.40,193.0,16.0,1,0,0,39.4
Status,1732146192000,28,9,1,15,1575420030,45.70,316.0,16.0,1,0,0,40.7
Status,1732146192000,28,10,1,21,1575420030,0.00,70.0,13.0,0,0,0,0.0
Status,1732146192000,28,11,1,8,1575420030,0.00,40.0,10.0,0,0,0,0.0
Status,1732146192000,28,12,1,5,1575420030,24.70,264.0,7.0,1,0,0,19.7
Status,1732146192000,28,13,1,9,1575420030,0.00,159.0,2.0,0,0,0,0.0
Status,1732146192000,28,14,3,9,1602000000,43.30,14.0,54.0,1,0,0,38.3
Status,1732146192000,28,15,3,8,1602000000,28.50,305.0,38.0,1,0,0,23.5
Status,1732146192000,28,16,3,19,1602000000,31.60,89.0,31.0,1,0,0,26.6
Status,1732146192000,28,17,3,16,1602000000,0.00,66.0,15.0,0,0,0,0.0
Status,1732146192000,28,18,3,20,1602000000,0.00,150.0,9.0,0,0,0,0.0
Status,1732146192000,28,19,3,17,1602000000,31.00,0.0,0.0,0,0,0,26.0
Status,1732146192000,28,20,6,29,1575420030,38.20,205.0,62.0,1,0,0,33.2
Status,1732146192000,28,21,6,27,1575420030,38.90,35.0,60.0,1,0,0,33.9
Status,1732146192000,28,22,6,21,1575420030,0.00,266.0,56.0,0,0,0,0.0
Status,1732146192000,28,23,6,19,1575420030,36.30,299.0,50.0,1,0,0,31.3
Status,1732146192000,28,24,6,7,1575420030,0.00,160.0,18.0,0,0,0,0.0
Status,1732146192000,28,25,6,30,1575420030,0.00,57.0,11.0,0,0,0,0.0
Status,1732146192000,28,26,6,15,1575420030,0.00,96.0,10.0,0,0,0,0.0
Status,1732146192000,28,27,6,34,1575420030,0.00,48.0,6.0,0,0,0,0.0
Fix,GPS,37.4243966667,-122.1712416667,14.599999999999998,0.121474445,1.7,321.82,1732146193000,1.2,179.9,25077044000000,34.0,0,,,
Raw,1732146193000,15071000000,,89.08472358291891,-1416181395929999872,0.0,89.08472358291891,1919.9568994111717,0.0,0,14,0.0,16431,344610932948619,51,36.43199920654297,544.9219602117105,0.14999,17,8177.2444266915745,0.00022499999613501132,1575420030,,,,0,23.94332543440781,1,6.0,36.43199920654297,0.0,0.0,0.0,66.7128,C,25077044000000,
Raw,1732146193000,15071000000,,89.08472358291891,-1416181395929999872,0.0,89.08472358291891,1919.9568994111717,0.0,0,17,0.0,16431,344610928955141,58,33.1510009765625,66.41815973340702,0.14999,17,1038.2094867652145,0.00039999998989515007,1575420030,,,,0,20.25493494354251,1,6.0,33.1510009765625,0.0,0.0,0.0,66.7128,C,25077044000000,
Raw,1732146193000,15071000000,,89.08472358291891,-1416181395929999872,0.0,89.08472358291891,1919.9568994111717,0.0,0,22,0.0,16431,344610930609659,42,39.67900085449219,395.8967410321722,0.14999,17,5951.92202834346,0.00022499999613501132,1575420030,,,,0,27.45920341252424,1,6.0,39.67900085449219,0.0,0.0,0.0,66.7128,C,25077044000000,
Raw,1732146193000,15071000000,,89.08472358291891,-1416181395929999872,0.0,89.08472358291891,1919.9568994111717,0.0,0,15,0.0,16431,344610921989035,42,40.70100021362305,65.82832368119803,0.14999,17,6065.468769844893,0.00022499999613501132,1575420030,,,,0,28.54285640116606,1,6.0,40.70100021362305,0.0,0.0,0.0,66.7128,C,25077044000000,
Raw,1732146193000,15071000000,,89.08472358291891,-1416181395929999872,0.0,89.08472358291891,1919.9568994111717,0.0,0,7,0.0,16431,344610927132381,51,36.564998626708984,912.4557452305166,0.14999,17,10235.20701838744,0.00022499999613501132,1575420030,,,,0,24.084850188786497,1,6.0,36.564998626708984,0.0,0.0,0.0,66.7128,C,25077044000000,
Raw,1732146193000,15071000000,,89.08472358291891,-1416181395929999872,0.0,89.08472358291891,1919.9568994111717,0.0,0,29,0.0,16431,344610921322396,58,33.20000076293945,842.1251364343553,0.14999,16,0.0,0.0,1575420030,,,,0,20.510223084348702,6,6.0,33.20000076293945,0.0,0.0,9.645125144711855,66.7128,C,25077044000000,
Raw,1732146193000,15071000000,,89.08472358291891,-1416181395929999872,0.0,89.08472358291891,1919.9568994111717,0.0,0,30,0.0,16431,344610932139004,42,40.60900115966797,643.9818031746416,0.14999,17,8762.121667255062,0.00022499999613501132,1575420030,,,,0,28.447812283541584,1,6.0,40.60900115966797,0.0,0.0,0.0,66.7128,C,25077044000000,
Raw,1732146193000,15071000000,,89.08472358291891,-1416181395929999872,0.0,89.08472358291891,1919.9568994111717,0.0,0,13,0.0,16431,344610929852639,74,32.2760009765625,242.97849240785573,0.14999,16,0.0,0.0,1575420030,,,,0,19.243807474693632,1,6.0,32.2760009765625,0.0,0.0,0.0,66.7128,C,25077044000000,
Raw,1732146193000,15071000000,,89.08472358291891,-1416181395929999872,0.0,89.08472358291891,1919.9568994111717,0.0,0,19,0.0,16431,344610920108325,74,31.299999237060547,364.4574016141767,0.14999,17,5801.625201661125,0.0006249999860301614,1575420030,,,,0,18.425140329379726,6,6.0,31.299999237060547,0.0,0.0,9.645125144711855,66.7128,C,25077044000000,
Raw,1732146193000,15071000000,,89.08472358291891,-1416181395929999872,0.0,89.08472358291891,1919.9568994111717,0.0,0,27,0.0,16431,344610920410218,58,33.900001525878906,815.4296658956179,0.14999,17,11871.026982413368,0.00039999998989515007,1575420030,,,,0,21.2825294101915,6,6.0,33.900001525878906,0.0,0.0,9.645125144711855,66.7128,C,25077044000000,
Raw,1732146193000,15071000000,,89.08472358291891,-1416181395929999872,0.0,89.08472358291891,1919.9568994111717,0.0,0,9,0.0,17,942892,51,5.0,694.3234409169887,0.14999,17,10405.190072264882,0.00022499999613501132,1600875010,,,,0,25.949206096517933,3,6.0,38.0,0.0,0.0,40.1425338016102,66.7128,C,25077044000000,
Raw,1732146193000,15071000000,,89.08472358291891,-1416181395929999872,0.0,89.08472358291891,1919.9568994111717,0.0,0,8,0.0,17,270044,316,5.0,342.5712504659711,0.14999,16,0.0,0.0,1605374980,,,,0,9.142509855913001,3,6.0,24.0,0.0,0.0,40.1425338016102,66.7128,C,25077044000000,
Raw,1732146193000,15071000000,,89.08472358291891,-1416181395929999872,0.0,89.08472358291891,1919.9568994111717,0.0,0,19,0.0,17,300348,235,5.0,246.3289393255143,0.14999,16,0.0,0.0,1603687550,,,,0,13.003804883648968,3,6.0,27.0,0.0,0.0,40.1425338016102,66.7128,C,25077044000000,
Raw,1732146193000,15071000000,,89.08472358291891,-1416181395929999872,0.0,89.08472358291891,1919.9568994111717,0.0,0,19,0.0,16431,344610920164172,42,39.40299987792969,-124.33568367752322,0.14999,16,6108.090043181704,0.00022499999613501132,1575420030,,,,0,27.162686571922453,1,6.0,39.40299987792969,0.0,0.0,0.0,66.7128,C,25077044000000,
Raw,1732146193000,15071000000,,89.08472358291891,-1416181395929999872,0.0,89.08472358291891,1919.9568994111717,0.0,0,5,0.0,16431,344610917165305,797,19.725000381469727,999.4796992226161,0.14999,16,0.0,0.0,1575420030,,,,0,0.2957457765132423,1,6.0,19.725000381469727,0.0,0.0,0.0,66.7128,C,25077044000000,
Raw,1732146193000,15071000000,,89.08472358291891,-1416181395929999872,0.0,89.08472358291891,1919.9568994111717,0.0,0,2,0.0,16431,344610920115381,396,23.315000534057617,335.24516252327396,0.14999,16,0.0,0.0,1575420030,,,,0,7.577380604734647,1,6.0,23.315000534057617,0.0,0.0,0.0,66.7128,C,25077044000000,
Fix,FLP,37.4243929000,-122.1712451000,2.200000047683716,0.16585198,6.434,341.8001,1732146193196,1.2,179.9,25077044000000,0.848778,0,,,
Status,1732146193000,28,0,1,14,1575420030,41.50,314.0,74.0,1,0,0,36.5
Status,1732146193000,28,1,1,30,1575420030,46.30,70.0,71.0,1,0,0,41.3
Status,1732146193000,28,2,1,22,1575420030,41.20,268.0,59.0,1,0,0,36.2
Status,1732146193000,28,3,1,13,1575420030,46.20,304.0,46.0,1,0,0,41.2
Status,1732146193000,28,4,1,17,1575420030,42.60,176.0,43.0,1,0,0,37.6
Status,1732146193000,28,5,1,7,1575420030,35.60,102.0,39.0,1,0,0,30.599998
Status,1732146193000,28,6,2,131,1575420030,42.00,3.0,23.0,0,0,0,37.0
Status,1732146193000,28,7,1,2,1575420030,27.20,89.0,16.0,1,0,0,22.2
Status,1732146193000,28,8,1,19,1575420030,41.10,193.0,16.0,1,0,0,36.1
Status,1732146193000,28,9,1,15,1575420030,41.70,316.0,16.0,1,0,0,36.7
Status,1732146193000,28,10,1,21,1575420030,0.00,70.0,13.0,0,0,0,0.0
Status,1732146193000,28,11,1,8,1575420030,0.00,40.0,10.0,0,0,0,0.0
Status,1732146193000,28,12,1,5,1575420030,24.70,264.0,7.0,0,0,0,19.7
Status,1732146193000,28,13,1,9,1575420030,0.00,159.0,2.0,0,0,0,0.0
Status,1732146193000,28,14,3,9,1602000000,34.20,14.0,54.0,1,0,0,29.2
Status,1732146193000,28,15,3,8,1602000000,29.90,305.0,38.0,1,0,0,24.9
Status,1732146193000,28,16,3,19,1602000000,29.90,89.0,31.0,1,0,0,24.9
Status,1732146193000,28,17,3,16,1602000000,0.00,66.0,15.0,0,0,0,0.0
Status,1732146193000,28,18,3,20,1602000000,0.00,150.0,9.0,0,0,0,0.0
Status,1732146193000,28,19,3,17,1602000000,35.10,0.0,0.0,0,0,0,30.099998
Status,1732146193000,28,20,6,29,1575420030,42.40,205.0,62.0,1,0,0,37.4
Status,1732146193000,28,21,6,27,1575420030,44.20,35.0,60.0,1,0,0,39.2
Status,1732146193000,28,22,6,21,1575420030,0.00,266.0,56.0,0,0,0,0.0
Status,1732146193000,28,23,6,19,1575420030,27.40,299.0,50.0,1,0,0,22.4
Status,1732146193000,28,24,6,7,1575420030,25.80,160.0,18.0,1,0,0,20.8
Status,1732146193000,28,25,6,30,1575420030,0.00,57.0,11.0,0,0,0,0.0
Status,1732146193000,28,26,6,15,1575420030,0.00,96.0,10.0,0,0,0,0.0
Status,1732146193000,28,27,6,34,1575420030,0.00,48.0,6.0,0,0,0,0.0
Fix,GPS,37.4243933333,-122.1712350000,14.599999999999998,0.36751166,1.6,122.42,1732146194000,0.8,86.1,25078044000000,35.5,0,,,
Raw,1732146194000,16071000000,,94.67144246533017,-1416181395929999872,0.0,94.67144246533017,1918.713701056885,0.0,0,14,0.0,16431,344611932946797,51,36.472999572753906,544.7952216522881,0.14999,17,8721.954916903647,0.00022499999613501132,1575420030,,,,0,24.848660175901706,1,6.0,36.472999572753906,0.0,0.0,0.0,66.7128,C,25078044000000,
Raw,1732146194000,16071000000,,94.67144246533017,-1416181395929999872,0.0,94.67144246533017,1918.713701056885,0.0,0,17,0.0,16431,344611928954924,51,37.571998596191406,66.55084497010432,0.14999,16,0.0,0.0,1575420030,,,,0,25.187472521496343,1,6.0,37.571998596191406,0.0,0.0,0.0,66.7128,C,25078044000000,
Raw,1732146194000,16071000000,,94.67144246533017,-1416181395929999872,0.0,94.67144246533017,1918.713701056885,0.0,0,22,0.0,16431,344611930608337,51,36.220001220703125,395.9600638534672,0.14999,17,6347.7480161113945,0.00022499999613501132,1575420030,,,,0,23.708313043596824,1,6.0,36.220001220703125,0.0,0.0,0.0,66.7128,C,25078044000000,
Raw,1732146194000,16071000000,,94.67144246533017,-1416181395929999872,0.0,94.67144246533017,1918.713701056885,0.0,0,15,0.0,16431,344611921988815,51,36.696998596191406,66.3607371309708,0.14999,17,6131.287816361104,0.00022499999613501132,1575420030,,,,0,24.23273570790786,1,6.0,36.696998596191406,0.0,0.0,0.0,66.7128,C,25078044000000,
Raw,1732146194000,16071000000,,94.67144246533017,-1416181395929999872,0.0,94.67144246533017,1918.713701056885,0.0,0,7,0.0,16431,344611910425376,396,20.799999237060547,1158.7254912179756,0.14999,16,0.0,0.0,1575420030,,,,0,5.461306081373868,6,6.0,20.799999237060547,0.0,0.0,8.473301839654582,66.7128,C,25078044000000,
Raw,1732146194000,16071000000,,94.67144246533017,-1416181395929999872,0.0,94.67144246533017,1918.713701056885,0.0,0,29,0.0,16431,344611921319587,51,37.400001525878906,841.8737034858239,0.14999,17,13134.872358212082,0.00022499999613501132,1575420030,,,,0,24.968357379802505,6,6.0,37.400001525878906,0.0,0.0,8.473301839654582,66.7128,C,25078044000000,
Raw,1732146194000,16071000000,,94.67144246533017,-1416181395929999872,0.0,94.67144246533017,1918.713701056885,0.0,0,30,0.0,16431,344611932136854,31,41.334999084472656,643.689951404007,0.14999,17,9405.841134271617,0.00022499999613501132,1575420030,,,,0,29.214637346948386,1,6.0,41.334999084472656,0.0,0.0,0.0,66.7128,C,25078044000000,
Raw,1732146194000,16071000000,,94.67144246533017,-1416181395929999872,0.0,94.67144246533017,1918.713701056885,0.0,0,13,0.0,16431,344611929851820,42,41.21099853515625,243.24481527878262,0.14999,17,8765.018802475346,0.00022499999613501132,1575420030,,,,0,29.082399653118497,1,6.0,41.21099853515625,0.0,0.0,0.0,66.7128,C,25078044000000,
Raw,1732146194000,16071000000,,94.67144246533017,-1416181395929999872,0.0,94.67144246533017,1918.713701056885,0.0,0,19,0.0,16431,344611920107108,235,22.399999618530273,364.5273679889898,0.14999,16,0.0,0.0,1575420030,,,,0,7.63587166508098,6,6.0,22.399999618530273,0.0,0.0,8.473301839654582,66.7128,C,25078044000000,
Raw,1732146194000,16071000000,,94.67144246533017,-1416181395929999872,0.0,94.67144246533017,1918.713701056885,0.0,0,27,0.0,16431,344611920407496,42,39.20000076293945,815.1484066438793,0.14999,16,0.0,0.0,1575420030,,,,0,26.830141695725157,6,6.0,39.20000076293945,0.0,0.0,8.473301839654582,66.7128,C,25078044000000,
Raw,1732146194000,16071000000,,94.67144246533017,-1416181395929999872,0.0,94.67144246533017,1918.713701056885,0.0,0,9,0.0,17,940572,235,5.0,694.2536726611478,0.14999,16,0.0,0.0,1600875010,,,,0,16.056839373155615,3,6.0,29.0,0.0,0.0,40.23388703908487,66.7128,C,25078044000000,
Raw,1732146194000,16071000000,,94.67144246533017,-1416181395929999872,0.0,94.67144246533017,1918.713701056885,0.0,0,8,0.0,17,268898,316,5.0,342.17736235862253,0.14999,16,0.0,0.0,1605374980,,,,0,10.960070820675867,3,6.0,25.0,0.0,0.0,40.23388703908487,66.7128,C,25078044000000,
Raw,1732146194000,16071000000,,94.67144246533017,-1416181395929999872,0.0,94.67144246533017,1918.713701056885,0.0,0,19,0.0,17,299524,316,5.0,245.82596906176227,0.14999,16,0.0,0.0,1603687550,,,,0,10.935582370206456,3,6.0,25.0,0.0,0.0,40.23388703908487,66.7128,C,25078044000000,
Raw,1732146194000,16071000000,,94.67144246533017,-1416181395929999872,0.0,94.67144246533017,1918.713701056885,0.0,0,7,0.0,16431,344611927129360,74,30.56399917602539,911.9577110087397,0.14999,16,0.0,0.0,1575420030,,,,0,17.217073116901965,1,6.0,30.56399917602539,0.0,0.0,0.0,66.7128,C,25078044000000,
Raw,1732146194000,16071000000,,94.67144246533017,-1416181395929999872,0.0,94.67144246533017,1918.713701056885,0.0,0,19,0.0,16431,344611920164591,51,36.08100128173828,-124.91255783160948,0.14999,17,5983.375819232548,0.00022499999613501132,1575420030,,,,0,23.55113991646235,1,6.0,36.08100128173828,0.0,0.0,0.0,66.7128,C,25078044000000,
Raw,1732146194000,16071000000,,94.67144246533017,-1416181395929999872,0.0,94.67144246533017,1918.713701056885,0.0,0,5,0.0,17,161968,797,19.68400001525879,1001.656090188415,0.14999,16,0.0,0.0,1575420030,,,,0,0.2957457765132423,1,6.0,19.68400001525879,0.0,0.0,0.0,66.7128,C,25078044000000,
Raw,1732146194000,16071000000,,94.67144246533017,-1416181395929999872,0.0,94.67144246533017,1918.713701056885,0.0,0,2,0.0,16431,344611920114256,487,22.23200035095215,334.2498374143794,0.14999,16,0.0,0.0,1575420030,,,,0,5.899342910330464,1,6.0,22.23200035095215,0.0,0.0,0.0,66.7128,C,25078044000000,
Fix,FLP,37.4243931000,-122.1712399000,2.200000047683716,0.2380234,1.75,119.20356,1732146194196,0.8,86.1,25078044000000,0.8588094,0,,,
Status,1732146194000,28,0,1,14,1575420030,44.70,314.0,74.0,1,0,0,39.7
Status,1732146194000,28,1,1,30,1575420030,46.30,70.0,71.0,1,0,0,41.3
Status,1732146194000,28,2,1,22,1575420030,44.40,268.0,59.0,1,0,0,39.4
Status,1732146194000,28,3,1,13,1575420030,38.20,304.0,46.0,1,0,0,33.2
Status,1732146194000,28,4,1,17,1575420030,46.00,176.0,43.0,1,0,0,41.0
Status,1732146194000,28,5,1,7,1575420030,37.70,102.0,39.0,1,0,0,32.7
Status,1732146194000,28,6,2,131,1575420030,36.00,3.0,23.0,0,0,0,31.0
Status,1732146194000,28,7,1,2,1575420030,30.40,89.0,16.0,1,0,0,25.4
Status,1732146194000,28,8,1,19,1575420030,40.60,193.0,16.0,1,0,0,35.6
Status,1732146194000,28,9,1,15,1575420030,39.10,316.0,16.0,1,0,0,34.1
Status,1732146194000,28,10,1,21,1575420030,0.00,70.0,13.0,0,0,0,0.0
Status,1732146194000,28,11,1,8,1575420030,0.00,40.0,10.0,0,0,0,0.0
Status,1732146194000,28,12,1,5,1575420030,24.60,264.0,7.0,1,0,0,19.6
Status,1732146194000,28,13,1,9,1575420030,0.00,159.0,2.0,0,0,0,0.0
Status,1732146194000,28,14,3,9,1602000000,34.60,14.0,54.0,1,0,0,29.599998
Status,1732146194000,28,15,3,8,1602000000,34.40,305.0,38.0,1,0,0,29.400002
Status,1732146194000,28,16,3,19,1602000000,30.30,89.0,31.0,1,0,0,25.3
Status,1732146194000,28,17,3,16,1602000000,0.00,66.0,15.0,0,0,0,0.0
Status,1732146194000,28,18,3,20,1602000000,0.00,150.0,9.0,0,0,0,0.0
Status,1732146194000,28,19,3,17,1602000000,43.90,0.0,0.0,0,0,0,38.9
Status,1732146194000,28,20,6,29,1575420030,42.50,205.0,62.0,1,0,0,37.5
Status,1732146194000,28,21,6,27,1575420030,44.10,35.0,60.0,1,0,0,39.1
Status,1732146194000,28,22,6,21,1575420030,0.00,266.0,56.0,0,0,0,0.0
Status,1732146194000,28,23,6,19,1575420030,37.60,299.0,50.0,1,0,0,32.6
Status,1732146194000,28,24,6,7,1575420030,23.90,160.0,18.0,1,0,0,18.9
Status,1732146194000,28,25,6,30,1575420030,0.00,57.0,11.0,0,0,0,0.0
Status,1732146194000,28,26,6,15,1575420030,0.00,96.0,10.0,0,0,0,0.0
Status,1732146194000,28,27,6,34,1575420030,0.00,48.0,6.0,0,0,0,0.0
Fix,GPS,37.4243933333,-122.1712283333,14.7,0.6320789,1.6,90.28,1732146195000,0.7,46.3,25079044000000,35.2,0,,,
Raw,1732146195000,17071000000,,93.24663373441443,-1416181395929999872,0.0,93.24663373441443,1918.3136303123633,0.0,0,7,0.0,16431,344612927126295,58,32.724998474121094,911.8550379089144,0.14999,16,0.0,0.0,1575420030,,,,0,19.76407612199199,1,6.0,32.724998474121094,0.0,0.0,0.0,66.7128,C,25079044000000,
Raw,1732146195000,17071000000,,93.24663373441443,-1416181395929999872,0.0,93.24663373441443,1918.3136303123633,0.0,0,14,0.0,16431,344612932944985,42,39.685001373291016,544.7554067895957,0.14999,17,9266.363729390057,0.00022499999613501132,1575420030,,,,0,27.465150615521434,1,6.0,39.685001373291016,0.0,0.0,0.0,66.7128,C,25079044000000,
Raw,1732146195000,17071000000,,93.24663373441443,-1416181395929999872,0.0,93.24663373441443,1918.3136303123633,0.0,0,17,0.0,16431,344612928954704,42,41.02799987792969,66.04180010368546,0.14999,16,0.0,0.0,1575420030,,,,0,28.887763703386703,1,6.0,41.02799987792969,0.0,0.0,0.0,66.7128,C,25079044000000,
Raw,1732146195000,17071000000,,93.24663373441443,-1416181395929999872,0.0,93.24663373441443,1918.3136303123633,0.0,0,22,0.0,16431,344612930607022,42,39.38100051879883,396.4146129976711,0.14999,16,0.0,0.0,1575420030,,,,0,27.138028245530414,1,6.0,39.38100051879883,0.0,0.0,0.0,66.7128,C,25079044000000,
Raw,1732146195000,17071000000,,93.24663373441443,-1416181395929999872,0.0,93.24663373441443,1918.3136303123633,0.0,0,15,0.0,16431,344612921988596,235,34.112998962402344,66.56640853953485,0.14999,16,0.0,0.0,1575420030,,,,0,21.354912242726115,1,6.0,34.112998962402344,0.0,0.0,0.0,66.7128,C,25079044000000,
Raw,1732146195000,17071000000,,93.24663373441443,-1416181395929999872,0.0,93.24663373441443,1918.3136303123633,0.0,0,7,0.0,16431,344612910421497,487,18.899999618530273,1158.6799619700892,0.14999,16,0.0,0.0,1575420030,,,,0,2.4484233445098336,6,6.0,18.899999618530273,0.0,0.0,7.423936578302673,66.7128,C,25079044000000,
Raw,1732146195000,17071000000,,93.24663373441443,-1416181395929999872,0.0,93.24663373441443,1918.3136303123633,0.0,0,29,0.0,16431,344612921316778,42,37.5,841.6786710545721,0.14999,16,0.0,0.0,1575420030,,,,0,25.1098501135897,6,6.0,37.5,0.0,0.0,7.423936578302673,66.7128,C,25079044000000,
Raw,1732146195000,17071000000,,93.24663373441443,-1416181395929999872,0.0,93.24663373441443,1918.3136303123633,0.0,0,30,0.0,16431,344612932134707,31,41.297000885009766,643.4486928486258,0.14999,17,10049.030647230808,0.00022499999613501132,1575420030,,,,0,29.175665258514,1,6.0,41.297000885009766,0.0,0.0,0.0,66.7128,C,25079044000000,
Raw,1732146195000,17071000000,,93.24663373441443,-1416181395929999872,0.0,93.24663373441443,1918.3136303123633,0.0,0,13,0.0,16431,344612929851013,58,33.1619987487793,242.89828195226823,0.14999,16,0.0,0.0,1575420030,,,,0,20.268559871258745,1,6.0,33.1619987487793,0.0,0.0,0.0,66.7128,C,25079044000000,
Raw,1732146195000,17071000000,,93.24663373441443,-1416181395929999872,0.0,93.24663373441443,1918.3136303123633,0.0,0,19,0.0,16431,344612920105894,58,32.599998474121094,364.6133625173955,0.14999,16,0.0,0.0,1575420030,,,,0,19.821598780161224,6,6.0,32.599998474121094,0.0,0.0,7.423936578302673,66.7128,C,25079044000000,
Raw,1732146195000,17071000000,,93.24663373441443,-1416181395929999872,0.0,93.24663373441443,1918.3136303123633,0.0,0,27,0.0,16431,344612920404777,42,39.13999938964844,814.7818497399782,0.14999,16,0.0,0.0,1575420030,,,,0,25.580292731637893,6,6.0,39.13999938964844,0.0,0.0,7.423936578302673,66.7128,C,25079044000000,
Raw,1732146195000,17071000000,,93.24663373441443,-1416181395929999872,0.0,93.24663373441443,1918.3136303123633,0.0,0,9,0.0,17,938264,74,5.0,693.9681074409758,0.14999,16,0.0,0.0,1600875010,,,,0,16.56295667845102,3,6.0,30.0,0.0,0.0,40.932760220633135,66.7128,C,25079044000000,
Raw,1732146195000,17071000000,,93.24663373441443,-1416181395929999872,0.0,93.24663373441443,1918.3136303123633,0.0,0,8,0.0,17,267752,74,5.0,342.77283345881114,0.14999,16,0.0,0.0,1605374980,,,,0,16.28542860877125,3,6.0,30.0,0.0,0.0,40.932760220633135,66.7128,C,25079044000000,
Raw,1732146195000,17071000000,,93.24663373441443,-1416181395929999872,0.0,93.24663373441443,1918.3136303123633,0.0,0,19,0.0,17,298704,316,5.0,246.14969013438088,0.14999,16,0.0,0.0,1603687550,,,,0,11.433636029892796,3,6.0,24.0,0.0,0.0,40.932760220633135,66.7128,C,25079044000000,
Raw,1732146195000,17071000000,,93.24663373441443,-1416181395929999872,0.0,93.24663373441443,1918.3136303123633,0.0,0,19,0.0,16431,344612920165004,51,35.60900115966797,-124.3284826230106,0.14999,16,0.0,0.0,1575420030,,,,0,23.03213816415631,1,6.0,35.60900115966797,0.0,0.0,0.0,66.7128,C,25079044000000,
Raw,1732146195000,17071000000,,93.24663373441443,-1416181395929999872,0.0,93.24663373441443,1918.3136303123633,0.0,0,5,0.0,16431,344612917158638,797,19.583999633789062,1000.9529885174848,0.14999,16,0.0,0.0,1575420030,,,,0,0.0,1,6.0,19.583999633789062,0.0,0.0,0.0,66.7128,C,25079044000000,
Raw,1732146195000,17071000000,,93.24663373441443,-1416181395929999872,0.0,93.24663373441443,1918.3136303123633,0.0,0,2,0.0,16431,344612920113127,316,25.413000106811523,335.65341585572406,0.14999,16,0.0,0.0,1575420030,,,,0,10.616532191513883,1,6.0,25.413000106811523,0.0,0.0,0.0,66.7128,C,25079044000000,
Fix,FLP,37.4243928000,-122.1712325000,2.200000047683716,0.5119884,1.716,92.44447,1732146195196,0.7,46.3,25079044000000,0.8688186,0,,,
Status,1732146195000,28,0,1,14,1575420030,44.30,314.0,74.0,1,0,0,39.3
Status,1732146195000,28,1,1,30,1575420030,42.00,70.0,71.0,1,0,0,37.0
Status,1732146195000,28,2,1,22,1575420030,44.10,268.0,59.0,1,0,0,39.1
Status,1732146195000,28,3,1,13,1575420030,35.80,304.0,46.0,1,0,0,30.8
Status,1732146195000,28,4,1,17,1575420030,40.50,176.0,43.0,1,0,0,35.5
Status,1732146195000,28,5,1,7,1575420030,36.50,102.0,39.0,1,0,0,31.5
Status,1732146195000,28,6,2,131,1575420030,38.00,3.0,23.0,0,0,0,33.0
Status,1732146195000,28,7,1,2,1575420030,25.90,89.0,16.0,1,0,0,20.9
Status,1732146195000,28,8,1,19,1575420030,39.70,193.0,16.0,1,0,0,34.7
Status,1732146195000,28,9,1,15,1575420030,0.00,316.0,16.0,0,0,0,0.0
Status,1732146195000,28,10,1,21,1575420030,21.80,70.0,13.0,1,0,0,16.8
Status,1732146195000,28,11,1,8,1575420030,0.00,40.0,10.0,0,0,0,0.0
Status,1732146195000,28,12,1,5,1575420030,24.60,264.0,7.0,1,0,0,19.6
Status,1732146195000,28,13,1,9,1575420030,0.00,159.0,2.0,0,0,0,0.0
Status,1732146195000,28,14,3,9,1602000000,35.10,14.0,54.0,1,0,0,30.099998
Status,1732146195000,28,15,3,8,1602000000,38.60,305.0,38.0,1,0,0,33.6
Status,1732146195000,28,16,3,19,1602000000,29.60,89.0,31.0,1,0,0,24.6
Status,1732146195000,28,17,3,16,1602000000,0.00,66.0,15.0,0,0,0,0.0
Status,1732146195000,28,18,3,20,1602000000,0.00,150.0,9.0,0,0,0,0.0
Status,1732146195000,28,19,3,17,1602000000,42.40,0.0,0.0,0,0,0,37.4
Status,1732146195000,28,20,6,29,1575420030,36.10,205.0,62.0,1,0,0,31.099998
Status,1732146195000,28,21,6,27,1575420030,44.00,35.0,60.0,1,0,0,39.0
Status,1732146195000,28,22,6,21,1575420030,0.00,266.0,56.0,0,0,0,0.0
Status,1732146195000,28,23,6,19,1575420030,32.70,299.0,50.0,1,0,0,27.7
Status,1732146195000,28,24,6,7,1575420030,28.80,160.0,18.0,1,0,0,23.8
Status,1732146195000,28,25,6,30,1575420030,0.00,57.0,11.0,0,0,0,0.0
Status,1732146195000,28,26,6,15,1575420030,0.00,96.0,10.0,0,0,0,0.0
Status,1732146195000,28,27,6,34,1575420030,0.00,48.0,6.0,0,0,0,0.0
Fix,GPS,37.4243933333,-122.1712233333,14.8,0.57751834,1.6,84.8,1732146196000,1.8,120.4,25080044000000,35.5,0,,,
Fix,FLP,37.4243930000,-122.1712251000,2.200000047683716,0.5324784,1.683,88.73771,1732146196197,1.8,120.4,25080044000000,0.87889165,0,,,
Raw,1732146196000,18071000000,,93.9265207412725,-1416181395929999872,0.0,93.9265207412725,1918.4979945584553,0.0,0,7,0.0,16431,344613927123251,74,31.50200080871582,911.8298574473282,0.14999,16,0.0,0.0,1575420030,,,,0,18.340564299529753,1,6.0,31.50200080871582,0.0,0.0,0.0,66.7128,C,25080044000000,
Raw,1732146196000,18071000000,,93.9265207412725,-1416181395929999872,0.0,93.9265207412725,1918.4979945584553,0.0,0,14,0.0,16431,344613932943164,42,39.263999938964844,544.450732496087,0.14999,16,0.0,0.0,1575420030,,,,0,27.0136755183012,1,6.0,39.263999938964844,0.0,0.0,0.0,66.7128,C,25080044000000,
Raw,1732146196000,18071000000,,93.9265207412725,-1416181395929999872,0.0,93.9265207412725,1918.4979945584553,0.0,0,17,0.0,16431,344613928954480,51,35.49300003051758,67.04256084727666,0.14999,16,0.0,0.0,1575420030,,,,0,22.902421146413367,1,6.0,35.49300003051758,0.0,0.0,0.0,66.7128,C,25080044000000,
Raw,1732146196000,18071000000,,93.9265207412725,-1416181395929999872,0.0,93.9265207412725,1918.4979945584553,0.0,0,22,0.0,16431,344613930605703,42,39.06700134277344,396.35788727147803,0.14999,16,0.0,0.0,1575420030,,,,0,26.804519583818006,1,6.0,39.06700134277344,0.0,0.0,0.0,66.7128,C,25080044000000,
Raw,1732146196000,18071000000,,93.9265207412725,-1416181395929999872,0.0,93.9265207412725,1918.4979945584553,0.0,0,7,0.0,16431,344613910417625,316,23.799999237060547,1158.7570829409988,0.14999,16,0.0,0.0,1575420030,,,,0,9.562405181193824,6,6.0,23.799999237060547,0.0,0.0,6.974602064261617,66.7128,C,25080044000000,
Raw,1732146196000,18071000000,,93.9265207412725,-1416181395929999872,0.0,93.9265207412725,1918.4979945584553,0.0,0,29,0.0,16431,344613921313970,74,31.100000381469727,842.0854609469116,0.14999,16,0.0,0.0,1575420030,,,,0,18.16890081418041,6,6.0,31.100000381469727,0.0,0.0,6.974602064261617,66.7128,C,25080044000000,
Raw,1732146196000,18071000000,,93.9265207412725,-1416181395929999872,0.0,93.9265207412725,1918.4979945584553,0.0,0,30,0.0,16431,344613932132561,42,36.99599838256836,644.0949294181144,0.14999,16,0.0,0.0,1575420030,,,,0,24.56277998746061,1,6.0,36.99599838256836,0.0,0.0,0.0,66.7128,C,25080044000000,
Raw,1732146196000,18071000000,,93.9265207412725,-1416181395929999872,0.0,93.9265207412725,1918.4979945584553,0.0,0,13,0.0,16431,344613929850201,74,30.840999603271484,243.5193148309626,0.14999,16,0.0,0.0,1575420030,,,,0,17.558483908157744,1,6.0,30.840999603271484,0.0,0.0,0.0,66.7128,C,25080044000000,
Raw,1732146196000,18071000000,,93.9265207412725,-1416181395929999872,0.0,93.9265207412725,1918.4979945584553,0.0,0,19,0.0,16431,344613920104677,235,27.700000762939453,365.26603357752924,0.14999,16,0.0,0.0,1575420030,,,,0,14.356196743457557,6,6.0,27.700000762939453,0.0,0.0,6.974602064261617,66.7128,C,25080044000000,
Raw,1732146196000,18071000000,,93.9265207412725,-1416181395929999872,0.0,93.9265207412725,1918.4979945584553,0.0,0,27,0.0,16431,344613920402060,51,39.018001556396484,815.0268714270725,0.14999,16,0.0,0.0,1575420030,,,,0,24.26716940865552,6,6.0,39.018001556396484,0.0,0.0,6.974602064261617,66.7128,C,25080044000000,
Raw,1732146196000,18071000000,,93.9265207412725,-1416181395929999872,0.0,93.9265207412725,1918.4979945584553,0.0,0,9,0.0,17,935944,74,5.0,693.8672040722728,0.14999,16,0.0,0.0,1600875010,,,,0,17.07943564606517,3,6.0,30.0,0.0,0.0,41.8076337831173,66.7128,C,25080044000000,
Raw,1732146196000,18071000000,,93.9265207412725,-1416181395929999872,0.0,93.9265207412725,1918.4979945584553,0.0,0,8,0.0,17,266610,58,5.0,343.0586468212706,0.14999,16,0.0,0.0,1605374980,,,,0,20.95611876760227,3,6.0,34.0,0.0,0.0,41.8076337831173,66.7128,C,25080044000000,
Raw,1732146196000,18071000000,,93.9265207412725,-1416181395929999872,0.0,93.9265207412725,1918.4979945584553,0.0,0,19,0.0,17,297886,396,5.0,246.77447226092988,0.14999,16,0.0,0.0,1603687550,,,,0,10.550977996289166,3,6.0,21.0,0.0,0.0,41.8076337831173,66.7128,C,25080044000000,
Raw,1732146196000,18071000000,,93.9265207412725,-1416181395929999872,0.0,93.9265207412725,1918.4979945584553,0.0,0,21,0.0,16431,344613920479236,797,16.763999938964844,531.1481083488587,0.14999,16,0.0,0.0,1575420030,,,,0,0.0,1,6.0,16.763999938964844,0.0,0.0,0.0,66.7128,C,25080044000000,
Raw,1732146196000,18071000000,,93.9265207412725,-1416181395929999872,0.0,93.9265207412725,1918.4979945584553,0.0,0,19,0.0,16431,344613920165418,58,34.71699905395508,-124.55543198619907,0.14999,16,0.0,0.0,1575420030,,,,0,22.036281358032458,1,6.0,34.71699905395508,0.0,0.0,0.0,66.7128,C,25080044000000,
Raw,1732146196000,18071000000,,93.9265207412725,-1416181395929999872,0.0,93.9265207412725,1918.4979945584553,0.0,0,5,0.0,16431,344613917155261,487,19.576000213623047,1001.8237121541026,0.14999,16,0.0,0.0,1575420030,,,,0,1.1973132712170056,1,6.0,19.576000213623047,0.0,0.0,0.0,66.7128,C,25080044000000,
Raw,1732146196000,18071000000,,93.9265207412725,-1416181395929999872,0.0,93.9265207412725,1918.4979945584553,0.0,0,2,0.0,16431,344613920112005,487,20.856000900268555,334.25926847287013,0.14999,16,0.0,0.0,1575420030,,,,0,3.634703368829472,1,6.0,20.856000900268555,0.0,0.0,0.0,66.7128,C,25080044000000,
Status,1732146196000,28,0,1,14,1575420030,44.00,314.0,74.0,1,0,0,39.0
Status,1732146196000,28,1,1,30,1575420030,44.30,70.0,71.0,1,0,0,39.3
Status,1732146196000,28,2,1,22,1575420030,37.60,268.0,59.0,1,0,0,32.6
Status,1732146196000,28,3,1,13,1575420030,40.60,304.0,46.0,1,0,0,35.6
Status,1732146196000,28,4,1,17,1575420030,40.20,176.0,43.0,1,0,0,35.2
Status,1732146196000,28,5,1,7,1575420030,36.20,102.0,39.0,1,0,0,31.2
Status,1732146196000,28,6,2,131,1575420030,38.00,3.0,23.0,0,0,0,33.0
Status,1732146196000,28,7,1,2,1575420030,25.90,89.0,16.0,1,0,0,20.9
Status,1732146196000,28,8,1,19,1575420030,40.60,193.0,16.0,1,0,0,35.6
Status,1732146196000,28,9,1,15,1575420030,35.10,316.0,16.0,1,0,0,30.099998
Status,1732146196000,28,10,1,21,1575420030,0.00,70.0,13.0,0,0,0,0.0
Status,1732146196000,28,11,1,8,1575420030,18.80,40.0,10.0,1,0,0,13.799999
Status,1732146196000,28,12,1,5,1575420030,24.60,264.0,7.0,1,0,0,19.6
Status,1732146196000,28,13,1,9,1575420030,0.00,159.0,2.0,0,0,0,0.0
Status,1732146196000,28,14,3,9,1602000000,38.90,14.0,54.0,1,0,0,33.9
Status,1732146196000,28,15,3,8,1602000000,39.60,305.0,38.0,1,0,0,34.6
Status,1732146196000,28,16,3,19,1602000000,33.20,89.0,31.0,1,0,0,28.2
Status,1732146196000,28,17,3,16,1602000000,0.00,66.0,15.0,0,0,0,0.0
Status,1732146196000,28,18,3,20,1602000000,0.00,150.0,9.0,0,0,0,0.0
Status,1732146196000,28,19,3,17,1602000000,41.50,0.0,0.0,0,0,0,36.5
Status,1732146196000,28,20,6,29,1575420030,34.00,205.0,62.0,1,0,0,29.0
Status,1732146196000,28,21,6,27,1575420030,43.90,35.0,60.0,1,0,0,38.9
Status,1732146196000,28,22,6,21,1575420030,0.00,266.0,56.0,0,0,0,0.0
Status,1732146196000,28,23,6,19,1575420030,33.40,299.0,50.0,1,0,0,28.400002
Status,1732146196000,28,24,6,7,1575420030,31.00,160.0,18.0,1,0,0,26.0
Status,1732146196000,28,25,6,30,1575420030,0.00,57.0,11.0,0,0,0,0.0
Status,1732146196000,28,26,6,15,1575420030,0.00,96.0,10.0,0,0,0,0.0
Status,1732146196000,28,27,6,34,1575420030,0.00,48.0,6.0,0,0,0,0.0
Fix,GPS,37.4243933333,-122.1712200000,14.900000000000002,0.5178106,1.7,90.57,1732146197000,1.9,136.8,25081044000000,35.1,0,,,
Raw,1732146197000,19071000000,,92.33408633103191,-1416181395929999872,0.0,92.33408633103191,1918.3140187238885,0.0,0,7,0.0,16431,344614927120206,74,31.233999252319336,911.7217022543902,0.14999,16,0.0,0.0,1575420030,,,,0,18.0290846823801,1,6.0,31.233999252319336,0.0,0.0,0.0,66.7128,C,25081044000000,
Raw,1732146197000,19071000000,,92.33408633103191,-1416181395929999872,0.0,92.33408633103191,1918.3140187238885,0.0,0,14,0.0,16431,344614932941348,42,38.994998931884766,544.8206808643715,0.14999,16,0.0,0.0,1575420030,,,,0,26.727196613494964,1,6.0,38.994998931884766,0.0,0.0,0.0,66.7128,C,25081044000000,
Raw,1732146197000,19071000000,,92.33408633103191,-1416181395929999872,0.0,92.33408633103191,1918.3140187238885,0.0,0,17,0.0,16431,344614928954252,58,35.16999816894531,66.83136088718355,0.14999,16,0.0,0.0,1575420030,,,,0,22.54323690784097,1,6.0,35.16999816894531,0.0,0.0,0.0,66.7128,C,25081044000000,
Raw,1732146197000,19071000000,,92.33408633103191,-1416181395929999872,0.0,92.33408633103191,1918.3140187238885,0.0,0,22,0.0,16431,344614930604381,74,32.5620002746582,395.87211807158064,0.14999,16,0.0,0.0,1575420030,,,,0,19.57445219257753,1,6.0,32.5620002746582,0.0,0.0,0.0,66.7128,C,25081044000000,
Raw,1732146197000,19071000000,,92.33408633103191,-1416181395929999872,0.0,92.33408633103191,1918.3140187238885,0.0,0,7,0.0,16431,344614910413751,235,26.0,1158.4434886315776,0.14999,16,0.0,0.0,1575420030,,,,0,12.302949905514602,6,6.0,26.0,0.0,0.0,6.4100640368250055,66.7128,C,25081044000000,
Raw,1732146197000,19071000000,,92.33408633103191,-1416181395929999872,0.0,92.33408633103191,1918.3140187238885,0.0,0,29,0.0,16431,344614921311161,74,29.0,842.1251364343553,0.14999,16,0.0,0.0,1575420030,,,,0,15.813413555069673,6,6.0,29.0,0.0,0.0,6.4100640368250055,66.7128,C,25081044000000,
Raw,1732146197000,19071000000,,92.33408633103191,-1416181395929999872,0.0,92.33408633103191,1918.3140187238885,0.0,0,30,0.0,16431,344614932130414,42,39.323001861572266,643.5792874565935,0.14999,17,11336.221728517088,0.00022499999613501132,1575420030,,,,0,27.076074419119138,1,6.0,39.323001861572266,0.0,0.0,0.0,66.7128,C,25081044000000,
Raw,1732146197000,19071000000,,92.33408633103191,-1416181395929999872,0.0,92.33408633103191,1918.3140187238885,0.0,0,13,0.0,16431,344614929849394,74,35.60100173950195,242.19794455710246,0.14999,16,0.0,0.0,1575420030,,,,0,23.022228420197116,1,6.0,35.60100173950195,0.0,0.0,0.0,66.7128,C,25081044000000,
Raw,1732146197000,19071000000,,92.33408633103191,-1416181395929999872,0.0,92.33408633103191,1918.3140187238885,0.0,0,19,0.0,16431,344614920103458,235,28.399999618530273,364.9399419541475,0.14999,16,0.0,0.0,1575420030,,,,0,15.12764040459195,6,6.0,28.399999618530273,0.0,0.0,6.4100640368250055,66.7128,C,25081044000000,
Raw,1732146197000,19071000000,,92.33408633103191,-1416181395929999872,0.0,92.33408633103191,1918.3140187238885,0.0,0,27,0.0,16431,344614920399341,42,38.946998596191406,814.9935142842334,0.14999,16,0.0,0.0,1575420030,,,,0,25.195196745783125,6,6.0,38.946998596191406,0.0,0.0,6.4100640368250055,66.7128,C,25081044000000,
Raw,1732146197000,19071000000,,92.33408633103191,-1416181395929999872,0.0,92.33408633103191,1918.3140187238885,0.0,0,9,0.0,17,933636,58,5.0,694.1257489522075,0.14999,16,0.0,0.0,1600875010,,,,0,21.25826713285711,3,6.0,34.0,0.0,0.0,42.52430489446218,66.7128,C,25081044000000,
Raw,1732146197000,19071000000,,92.33408633103191,-1416181395929999872,0.0,92.33408633103191,1918.3140187238885,0.0,0,8,0.0,17,265465,58,5.0,343.1883319559836,0.14999,16,0.0,0.0,1605374980,,,,0,22.021768074068888,3,6.0,35.0,0.0,0.0,42.52430489446218,66.7128,C,25081044000000,
Raw,1732146197000,19071000000,,92.33408633103191,-1416181395929999872,0.0,92.33408633103191,1918.3140187238885,0.0,0,19,0.0,17,297060,235,5.0,245.8980794938414,0.14999,16,0.0,0.0,1603687550,,,,0,14.915267295514413,3,6.0,28.0,0.0,0.0,42.52430489446218,66.7128,C,25081044000000,
Raw,1732146197000,19071000000,,92.33408633103191,-1416181395929999872,0.0,92.33408633103191,1918.3140187238885,0.0,0,8,0.0,16431,344614918931667,797,13.800000190734863,1244.5672643511816,0.14999,16,0.0,0.0,1575420030,,,,0,0.0,1,6.0,13.800000190734863,0.0,0.0,0.0,66.7128,C,25081044000000,
Raw,1732146197000,19071000000,,92.33408633103191,-1416181395929999872,0.0,92.33408633103191,1918.3140187238885,0.0,0,15,0.0,16431,344614921988150,316,30.138999938964844,66.70648066440963,0.14999,16,0.0,0.0,1575420030,,,,0,16.698953644336346,1,6.0,30.138999938964844,0.0,0.0,0.0,66.7128,C,25081044000000,
Raw,1732146197000,19071000000,,92.33408633103191,-1416181395929999872,0.0,92.33408633103191,1918.3140187238885,0.0,0,19,0.0,16431,344614920165836,51,35.57600021362305,-125.24408508968789,0.14999,16,0.0,0.0,1575420030,,,,0,22.992431170946894,1,6.0,35.57600021362305,0.0,0.0,0.0,66.7128,C,25081044000000,
Raw,1732146197000,19071000000,,92.33408633103191,-1416181395929999872,0.0,92.33408633103191,1918.3140187238885,0.0,0,5,0.0,16431,344614917151950,487,19.583999633789062,1002.9229182816439,0.14999,16,0.0,0.0,1575420030,,,,0,1.7884181424513264,1,6.0,19.583999633789062,0.0,0.0,0.0,66.7128,C,25081044000000,
Raw,1732146197000,19071000000,,92.33408633103191,-1416181395929999872,0.0,92.33408633103191,1918.3140187238885,0.0,0,2,0.0,16431,344614920110886,487,20.864999771118164,335.84521942704924,0.14999,16,0.0,0.0,1575420030,,,,0,3.996667810685396,1,6.0,20.864999771118164,0.0,0.0,0.0,66.7128,C,25081044000000,
Fix,FLP,37.4243932000,-122.1712195000,2.200000047683716,0.5252175,1.666,89.274704,1732146197196,1.9,136.8,25081044000000,0.8888652,0,,,
Status,1732146197000,28,0,1,14,1575420030,45.70,314.0,74.0,1,0,0,40.7
Status,1732146197000,28,1,1,30,1575420030,42.40,70.0,71.0,1,0,0,37.4
Status,1732146197000,28,2,1,22,1575420030,37.60,268.0,59.0,1,0,0,32.6
Status,1732146197000,28,3,1,13,1575420030,40.70,304.0,46.0,1,0,0,35.7
Status,1732146197000,28,4,1,17,1575420030,42.70,176.0,43.0,1,0,0,37.7
Status,1732146197000,28,5,1,7,1575420030,45.10,102.0,39.0,1,0,0,40.1
Status,1732146197000,28,6,2,131,1575420030,37.00,3.0,23.0,0,0,0,32.0
Status,1732146197000,28,7,1,2,1575420030,25.90,89.0,16.0,1,0,0,20.9
Status,1732146197000,28,8,1,19,1575420030,42.90,193.0,16.0,1,0,0,37.9
Status,1732146197000,28,9,1,15,1575420030,31.50,316.0,16.0,1,0,0,26.5
Status,1732146197000,28,10,1,21,1575420030,26.80,70.0,13.0,1,0,0,21.8
Status,1732146197000,28,11,1,8,1575420030,18.80,40.0,10.0,1,0,0,13.799999
Status,1732146197000,28,12,1,5,1575420030,24.70,264.0,7.0,1,0,0,19.7
Status,1732146197000,28,13,1,9,1575420030,0.00,159.0,2.0,0,0,0,0.0
Status,1732146197000,28,14,3,9,1602000000,45.40,14.0,54.0,1,0,0,40.4
Status,1732146197000,28,15,3,8,1602000000,32.10,305.0,38.0,1,0,0,27.099998
Status,1732146197000,28,16,3,19,1602000000,30.90,89.0,31.0,1,0,0,25.9
Status,1732146197000,28,17,3,16,1602000000,0.00,66.0,15.0,0,0,0,0.0
Status,1732146197000,28,18,3,20,1602000000,0.00,150.0,9.0,0,0,0,0.0
Status,1732146197000,28,19,3,17,1602000000,40.20,0.0,0.0,0,0,0,35.2
Status,1732146197000,28,20,6,29,1575420030,33.70,205.0,62.0,1,0,0,28.7
Status,1732146197000,28,21,6,27,1575420030,44.00,35.0,60.0,1,0,0,39.0
Status,1732146197000,28,22,6,21,1575420030,0.00,266.0,56.0,0,0,0,0.0
Status,1732146197000,28,23,6,19,1575420030,32.80,299.0,50.0,1,0,0,27.8
Status,1732146197000,28,24,6,7,1575420030,36.70,160.0,18.0,1,0,0,31.7
Status,1732146197000,28,25,6,30,1575420030,0.00,57.0,11.0,0,0,0,0.0
Status,1732146197000,28,26,6,15,1575420030,0.00,96.0,10.0,0,0,0,0.0
Status,1732146197000,28,27,6,34,1575420030,0.00,48.0,6.0,0,0,0,0.0
Fix,GPS,37.4243916667,-122.1712166667,14.900000000000002,0.4864125,1.7,68.12,1732146198000,1.7,124.1,25082044000000,35.6,0,,,
Raw,1732146198000,20071000000,,93.26577768511426,-1416181395929999872,0.0,93.26577768511426,1917.1637289563068,0.0,0,7,0.0,16431,344615927117164,42,40.08100128173828,911.6275775031476,0.14999,16,0.0,0.0,1575420030,,,,0,27.882989393923,1,6.0,40.08100128173828,0.0,0.0,0.0,66.7128,C,25082044000000,
Raw,1732146198000,20071000000,,93.26577768511426,-1416181395929999872,0.0,93.26577768511426,1917.1637289563068,0.0,0,14,0.0,16431,344615932939526,42,40.66899871826172,544.5314772234609,0.14999,16,0.0,0.0,1575420030,,,,0,28.511290444057437,1,6.0,40.66899871826172,0.0,0.0,0.0,66.7128,C,25082044000000,
Raw,1732146198000,20071000000,,93.26577768511426,-1416181395929999872,0.0,93.26577768511426,1917.1637289563068,0.0,0,17,0.0,16431,344615928954038,51,37.689998626708984,66.20282497427118,0.14999,16,0.0,0.0,1575420030,,,,0,25.317859185199794,1,6.0,37.689998626708984,0.0,0.0,0.0,66.7128,C,25082044000000,
Raw,1732146198000,20071000000,,93.26577768511426,-1416181395929999872,0.0,93.26577768511426,1917.1637289563068,0.0,0,22,0.0,16431,344615930603059,74,32.63199996948242,395.46955589511634,0.14999,16,0.0,0.0,1575420030,,,,0,19.66248561140649,1,6.0,32.63199996948242,0.0,0.0,0.0,66.7128,C,25082044000000,
Raw,1732146198000,20071000000,,93.26577768511426,-1416181395929999872,0.0,93.26577768511426,1917.1637289563068,0.0,0,7,0.0,16431,344615910409881,58,31.700000762939453,1158.1180009676066,0.14999,16,0.0,0.0,1575420030,,,,0,18.85213202760324,6,6.0,31.700000762939453,0.0,0.0,5.749379696255133,66.7128,C,25082044000000,
Raw,1732146198000,20071000000,,93.26577768511426,-1416181395929999872,0.0,93.26577768511426,1917.1637289563068,0.0,0,29,0.0,16431,344615921308352,74,28.700000762939453,841.5832454676756,0.14999,16,0.0,0.0,1575420030,,,,0,15.512673620016706,6,6.0,28.700000762939453,0.0,0.0,5.749379696255133,66.7128,C,25082044000000,
Raw,1732146198000,20071000000,,93.26577768511426,-1416181395929999872,0.0,93.26577768511426,1917.1637289563068,0.0,0,30,0.0,16431,344615932128268,51,37.354000091552734,643.1094534934564,0.14999,16,0.0,0.0,1575420030,,,,0,24.95249273678374,1,6.0,37.354000091552734,0.0,0.0,0.0,66.7128,C,25082044000000,
Raw,1732146198000,20071000000,,93.26577768511426,-1416181395929999872,0.0,93.26577768511426,1917.1637289563068,0.0,0,13,0.0,16431,344615929848582,51,35.707000732421875,242.95825976759605,0.14999,16,0.0,0.0,1575420030,,,,0,23.14040561240752,1,6.0,35.707000732421875,0.0,0.0,0.0,66.7128,C,25082044000000,
Raw,1732146198000,20071000000,,93.26577768511426,-1416181395929999872,0.0,93.26577768511426,1917.1637289563068,0.0,0,19,0.0,16431,344615920102241,235,27.799999237060547,364.5431173920852,0.14999,16,0.0,0.0,1575420030,,,,0,14.43649829819428,6,6.0,27.799999237060547,0.0,0.0,5.749379696255133,66.7128,C,25082044000000,
Raw,1732146198000,20071000000,,93.26577768511426,-1416181395929999872,0.0,93.26577768511426,1917.1637289563068,0.0,0,27,0.0,16431,344615920396623,42,38.9739990234375,814.6570624340367,0.14999,16,0.0,0.0,1575420030,,,,0,27.162686571922453,6,6.0,38.9739990234375,0.0,0.0,5.749379696255133,66.7128,C,25082044000000,
Raw,1732146198000,20071000000,,93.26577768511426,-1416181395929999872,0.0,93.26577768511426,1917.1637289563068,0.0,0,9,0.0,17,931328,42,5.0,693.3022000711704,0.14999,17,13874.54573780805,0.00022499999613501132,1600875010,,,,0,28.105274426820486,3,6.0,41.0,0.0,0.0,43.1324831799727,66.7128,C,25082044000000,
Raw,1732146198000,20071000000,,93.26577768511426,-1416181395929999872,0.0,93.26577768511426,1917.1637289563068,0.0,0,8,0.0,17,264321,235,5.0,342.4204336526012,0.14999,16,0.0,0.0,1605374980,,,,0,13.65404229862499,3,6.0,27.0,0.0,0.0,43.1324831799727,66.7128,C,25082044000000,
Raw,1732146198000,20071000000,,93.26577768511426,-1416181395929999872,0.0,93.26577768511426,1917.1637289563068,0.0,0,19,0.0,17,296242,316,5.0,245.6734418060607,0.14999,16,0.0,0.0,1603687550,,,,0,12.194713120036166,3,6.0,26.0,0.0,0.0,43.1324831799727,66.7128,C,25082044000000,
Raw,1732146198000,20071000000,,93.26577768511426,-1416181395929999872,0.0,93.26577768511426,1917.1637289563068,0.0,0,21,0.0,16431,344615920475661,487,21.759000778198242,530.0788678997732,0.14999,16,0.0,0.0,1575420030,,,,0,5.156506750239131,1,6.0,21.759000778198242,0.0,0.0,0.0,66.7128,C,25082044000000,
Raw,1732146198000,20071000000,,93.26577768511426,-1416181395929999872,0.0,93.26577768511426,1917.1637289563068,0.0,0,8,0.0,16431,344615918927515,797,13.800000190734863,1244.8326348245762,0.14999,16,0.0,0.0,1575420030,,,,0,0.0,1,6.0,13.800000190734863,0.0,0.0,0.0,66.7128,C,25082044000000,
Raw,1732146198000,20071000000,,93.26577768511426,-1416181395929999872,0.0,93.26577768511426,1917.1637289563068,0.0,0,15,0.0,16431,344615921987933,316,26.540000915527344,66.37467465583396,0.14999,16,0.0,0.0,1575420030,,,,0,12.130946470276253,1,6.0,26.540000915527344,0.0,0.0,0.0,66.7128,C,25082044000000,
Raw,1732146198000,20071000000,,93.26577768511426,-1416181395929999872,0.0,93.26577768511426,1917.1637289563068,0.0,0,19,0.0,16431,344615920166251,51,37.90700149536133,-124.59677997662645,0.14999,16,5484.46391376748,0.00022499999613501132,1575420030,,,,0,25.550698530476936,1,6.0,37.90700149536133,0.0,0.0,0.0,66.7128,C,25082044000000,
Raw,1732146198000,20071000000,,93.26577768511426,-1416181395929999872,0.0,93.26577768511426,1917.1637289563068,0.0,0,5,0.0,16431,344615917148664,396,19.676000595092773,1002.4217248875647,0.14999,16,0.0,0.0,1575420030,,,,0,4.595932278234261,1,6.0,19.676000595092773,0.0,0.0,0.0,66.7128,C,25082044000000,
Raw,1732146198000,20071000000,,93.26577768511426,-1416181395929999872,0.0,93.26577768511426,1917.1637289563068,0.0,0,2,0.0,16431,344615920109767,487,20.929000854492188,335.23563854795077,0.14999,16,0.0,0.0,1575420030,,,,0,5.755771217787995,1,6.0,20.929000854492188,0.0,0.0,0.0,66.7128,C,25082044000000,
Fix,FLP,37.4243928000,-122.1712152000,2.200000047683716,0.49341425,1.65,78.95606,1732146198196,1.7,124.1,25082044000000,0.898905,0,,,
Status,1732146198000,28,0,1,14,1575420030,41.30,314.0,74.0,1,0,0,36.3
Status,1732146198000,28,1,1,30,1575420030,49.30,70.0,71.0,1,0,0,44.3
Status,1732146198000,28,2,1,22,1575420030,39.60,268.0,59.0,1,0,0,34.6
Status,1732146198000,28,3,1,13,1575420030,38.60,304.0,46.0,1,0,0,33.6
Status,1732146198000,28,4,1,17,1575420030,39.20,176.0,43.0,1,0,0,34.2
Status,1732146198000,28,5,1,7,1575420030,40.60,102.0,39.0,1,0,0,35.6
Status,1732146198000,28,6,2,131,1575420030,42.00,3.0,23.0,0,0,0,37.0
Status,1732146198000,28,7,1,2,1575420030,33.90,89.0,16.0,1,0,0,28.900002
Status,1732146198000,28,8,1,19,1575420030,34.50,193.0,16.0,1,0,0,29.5
Status,1732146198000,28,9,1,15,1575420030,37.30,316.0,16.0,1,0,0,32.3
Status,1732146198000,28,10,1,21,1575420030,26.20,70.0,13.0,1,0,0,21.2
Status,1732146198000,28,11,1,8,1575420030,23.50,40.0,10.0,1,0,0,18.5
Status,1732146198000,28,12,1,5,1575420030,27.40,264.0,7.0,1,0,0,22.4
Status,1732146198000,28,13,1,9,1575420030,0.00,159.0,2.0,0,0,0,0.0
Status,1732146198000,28,14,3,9,1602000000,45.90,14.0,54.0,1,0,0,40.9
Status,1732146198000,28,15,3,8,1602000000,31.50,305.0,38.0,1,0,0,26.5
Status,1732146198000,28,16,3,19,1602000000,28.20,89.0,31.0,1,0,0,23.2
Status,1732146198000,28,17,3,16,1602000000,0.00,66.0,15.0,0,0,0,0.0
Status,1732146198000,28,18,3,20,1602000000,0.00,150.0,9.0,0,0,0,0.0
Status,1732146198000,28,19,3,17,1602000000,33.10,0.0,0.0,0,0,0,28.099998
Status,1732146198000,28,20,6,29,1575420030,31.30,205.0,62.0,1,0,0,26.3
Status,1732146198000,28,21,6,27,1575420030,44.00,35.0,60.0,1,0,0,39.0
Status,1732146198000,28,22,6,21,1575420030,0.00,266.0,56.0,0,0,0,0.0
Status,1732146198000,28,23,6,19,1575420030,28.50,299.0,50.0,1,0,0,23.5
Status,1732146198000,28,24,6,7,1575420030,28.70,160.0,18.0,1,0,0,23.7
Status,1732146198000,28,25,6,30,1575420030,0.00,57.0,11.0,0,0,0,0.0
Status,1732146198000,28,26,6,15,1575420030,0.00,96.0,10.0,0,0,0,0.0
Status,1732146198000,28,27,6,34,1575420030,0.00,48.0,6.0,0,0,0,0.0
Fix,GPS,37.4243916667,-122.1712100000,14.900000000000002,0.45449972,1.7,132.71,1732146199000,1.8,179.9,25083044000000,32.7,0,,,
Fix,FLP,37.4243923000,-122.1712102000,2.200000047683716,0.42922446,1.65,97.43717,1732146199196,1.8,179.9,25083044000000,0.91311836,0,,,
Raw,1732146199000,21071000000,,84.61236840835986,-1416181395929999872,0.0,84.61236840835986,1917.9614879665694,0.0,0,7,0.0,16431,344616927114126,51,35.59199905395508,912.268053229026,0.14999,16,0.0,0.0,1575420030,,,,0,23.012307357281763,1,6.0,35.59199905395508,0.0,0.0,0.0,66.7128,C,25083044000000,
Raw,1732146199000,21071000000,,84.61236840835986,-1416181395929999872,0.0,84.61236840835986,1917.9614879665694,0.0,0,14,0.0,16431,344616932937709,51,36.28200149536133,545.9013500838448,0.14999,17,11445.123191705763,0.00022499999613501132,1575420030,,,,0,23.772213728510426,1,6.0,36.28200149536133,0.0,0.0,0.0,66.7128,C,25083044000000,
Raw,1732146199000,21071000000,,84.61236840835986,-1416181395929999872,0.0,84.61236840835986,1917.9614879665694,0.0,0,17,0.0,16431,344616928953811,58,34.209999084472656,67.48391580127678,0.14999,16,0.0,0.0,1575420030,,,,0,21.462367918003334,1,6.0,34.209999084472656,0.0,0.0,0.0,66.7128,C,25083044000000,
Raw,1732146199000,21071000000,,84.61236840835986,-1416181395929999872,0.0,84.61236840835986,1917.9614879665694,0.0,0,22,0.0,16431,344616930601740,58,34.5880012512207,397.3497279991568,0.14999,16,0.0,0.0,1575420030,,,,0,21.89067309286412,1,6.0,34.5880012512207,0.0,0.0,0.0,66.7128,C,25083044000000,
Raw,1732146199000,21071000000,,84.61236840835986,-1416181395929999872,0.0,84.61236840835986,1917.9614879665694,0.0,0,7,0.0,16431,344616910406012,316,23.700000762939453,1158.5381708838147,0.14999,16,0.0,0.0,1575420030,,,,0,9.421168091444088,6,6.0,23.700000762939453,0.0,0.0,5.368578000523286,66.7128,C,25083044000000,
Raw,1732146199000,21071000000,,84.61236840835986,-1416181395929999872,0.0,84.61236840835986,1917.9614879665694,0.0,0,29,0.0,16431,344616921305541,235,26.299999237060547,842.5676993071769,0.14999,16,0.0,0.0,1575420030,,,,0,12.702371524127003,6,6.0,26.299999237060547,0.0,0.0,5.368578000523286,66.7128,C,25083044000000,
Raw,1732146199000,21071000000,,84.61236840835986,-1416181395929999872,0.0,84.61236840835986,1917.9614879665694,0.0,0,30,0.0,16431,344616932126120,28,44.32500076293945,644.183339784163,0.14999,16,0.0,0.0,1575420030,,,,0,32.34372880500885,1,6.0,44.32500076293945,0.0,0.0,0.0,66.7128,C,25083044000000,
Raw,1732146199000,21071000000,,84.61236840835986,-1416181395929999872,0.0,84.61236840835986,1917.9614879665694,0.0,0,13,0.0,16431,344616929847768,58,33.555999755859375,244.9560413522735,0.14999,16,0.0,0.0,1575420030,,,,0,20.719531757912005,1,6.0,33.555999755859375,0.0,0.0,0.0,66.7128,C,25083044000000,
Raw,1732146199000,21071000000,,84.61236840835986,-1416181395929999872,0.0,84.61236840835986,1917.9614879665694,0.0,0,19,0.0,16431,344616920101025,316,23.5,365.1884944808739,0.14999,16,0.0,0.0,1575420030,,,,0,9.229206916433363,6,6.0,23.5,0.0,0.0,5.368578000523286,66.7128,C,25083044000000,
Raw,1732146199000,21071000000,,84.61236840835986,-1416181395929999872,0.0,84.61236840835986,1917.9614879665694,0.0,0,27,0.0,16431,344616920393902,42,39.0,815.1852946263505,0.14999,16,0.0,0.0,1575420030,,,,0,27.181134486053114,6,6.0,39.0,0.0,0.0,5.368578000523286,66.7128,C,25083044000000,
Raw,1732146199000,21071000000,,84.61236840835986,-1416181395929999872,0.0,84.61236840835986,1917.9614879665694,0.0,0,9,0.0,17,929014,42,5.0,694.7622128378965,0.14999,17,14568.57911297231,0.00022499999613501132,1600875010,,,,0,28.631427766465237,3,6.0,41.0,0.0,0.0,44.98413723228217,66.7128,C,25083044000000,
