# 
# Header Description:
# 
# Version: v3.1.0.3 Platform: 13 Manufacturer: samsung Model: SM-S135DL GNSS Hardware Model Name: MediaTek,MT6631,MTK_MNLD_default,MNL_VER_default
# 
# Raw,utcTimeMillis,TimeNanos,LeapSecond,TimeUncertaintyNanos,FullBiasNanos,BiasNanos,BiasUncertaintyNanos,DriftNanosPerSecond,DriftUncertaintyNanosPerSecond,HardwareClockDiscontinuityCount,Svid,TimeOffsetNanos,State,ReceivedSvTimeNanos,ReceivedSvTimeUncertaintyNanos,Cn0DbHz,PseudorangeRateMetersPerSecond,PseudorangeRateUncertaintyMetersPerSecond,AccumulatedDeltaRangeState,AccumulatedDeltaRangeMeters,AccumulatedDeltaRangeUncertaintyMeters,CarrierFrequencyHz,CarrierCycles,CarrierPhase,CarrierPhaseUncertainty,MultipathIndicator,SnrInDb,ConstellationType,AgcDb,BasebandCn0DbHz,FullInterSignalBiasNanos,FullInterSignalBiasUncertaintyNanos,SatelliteInterSignalBiasNanos,SatelliteInterSignalBiasUncertaintyNanos,CodeType,ChipsetElapsedRealtimeNanos,IsFullTracking
# 
# UncalAccel,utcTimeMillis,elapsedRealtimeNanos,UncalAccelXMps2,UncalAccelYMps2,UncalAccelZMps2,BiasXMps2,BiasYMps2,BiasZMps2
# 
# Accel,utcTimeMillis,elapsedRealtimeNanos,AccelXMps2,AccelYMps2,AccelZMps2
# 
# UncalGyro,utcTimeMillis,elapsedRealtimeNanos,UncalGyroXRadPerSec,UncalGyroYRadPerSec,UncalGyroZRadPerSec,DriftXRadPerSec,DriftYRadPerSec,DriftZRadPerSec
# 
# Gyro,utcTimeMillis,elapsedRealtimeNanos,GyroXRadPerSec,GyroYRadPerSec,GyroZRadPerSec
# 
# UncalMag,utcTimeMillis,elapsedRealtimeNanos,UncalMagXMicroT,UncalMagYMicroT,UncalMagZMicroT,BiasXMicroT,BiasYMicroT,BiasZMicroT
# 
# Mag,utcTimeMillis,elapsedRealtimeNanos,MagXMicroT,MagYMicroT,MagZMicroT
# 
# Pressure,utcTimeMillis,elapsedRealtimeNanos,PressureHpa
# 
# OrientationDeg,utcTimeMillis,elapsedRealtimeNanos,yawDeg,rollDeg,pitchDeg
# 
# Fix,Provider,LatitudeDegrees,LongitudeDegrees,AltitudeMeters,SpeedMps,AccuracyMeters,BearingDegrees,UnixTimeMillis,SpeedAccuracyMps,BearingAccuracyDegrees,elapsedRealtimeNanos,VerticalAccuracyMeters,MockLocation,NumberOfUsedSignals,VerticalSpeedAccuracyMps,SolutionType
# 
# Nav,Svid,Type,Status,MessageId,Sub-messageId,Data(Bytes)
# 
# Status,UnixTimeMillis,SignalCount,SignalIndex,ConstellationType,Svid,CarrierFrequencyHz,Cn0DbHz,AzimuthDegrees,ElevationDegrees,UsedInFix,HasAlmanacData,HasEphemerisData,BasebandCn0DbHz
# 
# Agc,utcTimeMillis,TimeNanos,LeapSecond,TimeUncertaintyNanos,FullBiasNanos,BiasNanos,BiasUncertaintyNanos,DriftNanosPerSecond,DriftUncertaintyNanosPerSecond,HardwareClockDiscontinuityCount,AgcDb,CarrierFrequencyHz,ConstellationType
# 
Fix,FLP,37.4243709000,-122.1712750000,2.299999952316284,0.3762908,1.716,246.94476,1732146135195,1.7,179.9,25019043000000,0.90115404,0,,,
Status,,28,0,1,14,1575420030,47.20,313.0,74.0,1,0,0,42.2
Status,,28,1,1,30,1575420030,47.40,68.0,71.0,1,0,0,42.4
Status,,28,2,1,22,1575420030,41.30,267.0,58.0,1,0,0,36.3
Status,,28,3,1,13,1575420030,36.20,305.0,46.0,1,0,0,31.2
Status,,28,4,1,17,1575420030,43.40,176.0,42.0,1,0,0,38.4
Status,,28,5,1,7,1575420030,45.00,101.0,39.0,1,0,0,40.0
Status,,28,6,2,131,1575420030,34.00,3.0,23.0,0,0,0,29.0
Status,,28,7,1,19,1575420030,42.30,193.0,16.0,1,0,0,37.3
Status,,28,8,1,15,1575420030,48.00,317.0,16.0,1,0,0,43.0
Status,,28,9,1,2,1575420030,28.60,89.0,15.0,1,0,0,23.6
Status,,28,10,1,21,1575420030,0.00,71.0,13.0,0,0,0,0.0
Status,,28,11,1,8,1575420030,19.10,40.0,10.0,1,0,0,14.1
Status,,28,12,1,5,1575420030,0.00,264.0,8.0,0,0,0,0.0
Status,,28,13,1,9,1575420030,0.00,159.0,2.0,0,0,0,0.0
Status,,28,14,3,9,1602000000,32.00,13.0,54.0,1,0,0,27.0
Status,,28,15,3,8,1602000000,31.50,306.0,38.0,1,0,0,26.5
Status,,28,16,3,19,1602000000,27.40,89.0,31.0,1,0,0,22.4
Status,,28,17,3,16,1602000000,0.00,65.0,16.0,0,0,0,0.0
Status,,28,18,3,20,1602000000,0.00,150.0,8.0,0,0,0,0.0
Status,,28,19,3,17,1602000000,35.60,0.0,0.0,0,0,0,30.599998
Status,,28,20,6,29,1575420030,43.20,206.0,63.0,1,0,0,38.2
Status,,28,21,6,27,1575420030,39.60,35.0,60.0,1,0,0,34.6
Status,,28,22,6,21,1575420030,33.00,266.0,56.0,1,0,0,28.0
Status,,28,23,6,19,1575420030,30.50,300.0,49.0,1,0,0,25.5
Status,,28,24,6,7,1575420030,24.40,160.0,18.0,1,0,0,19.4
Status,,28,25,6,30,1575420030,0.00,57.0,12.0,0,0,0,0.0
Status,,28,26,6,15,1575420030,0.00,96.0,10.0,0,0,0,0.0
Status,,28,27,6,34,1575420030,0.00,49.0,6.0,0,0,0,0.0
Fix,GPS,37.4243783333,-122.1712716667,14.2,0.063825555,1.6,316.9,1732146136000,1.2,179.9,25020043000000,32.8,0,,,
Raw,1732146136000,17516000000,,85.87009224951858,-1416181336484000000,0.0,85.87009224951858,1893.7436366711984,0.0,0,17,0.0,16431,344553928278933,42,38.4010009765625,54.09000086619479,0.14999,17,1023.1124953294091,0.00022499999613501132,1575420030,,,,0,26.090604821954486,1,6.0,38.4010009765625,0.0,0.0,0.0,66.7128,C,25020043000000,
Raw,1732146136000,17516000000,,85.87009224951858,-1416181336484000000,0.0,85.87009224951858,1893.7436366711984,0.0,0,30,0.0,16431,344553931572638,31,42.369998931884766,632.1381591300892,0.14999,17,11066.320318707356,0.00022499999613501132,1575420030,,,,0,30.305282722073947,1,6.0,42.369998931884766,0.0,0.0,0.0,66.7128,C,25020043000000,
Raw,1732146136000,17516000000,,85.87009224951858,-1416181336484000000,0.0,85.87009224951858,1893.7436366711984,0.0,0,7,0.0,16431,344553926617119,42,40.012001037597656,901.2367810503309,0.14999,17,15730.197468601447,0.00022499999613501132,1575420030,,,,0,27.81287827962368,1,6.0,40.012001037597656,0.0,0.0,0.0,66.7128,C,25020043000000,
Raw,1732146136000,17516000000,,85.87009224951858,-1416181336484000000,0.0,85.87009224951858,1893.7436366711984,0.0,0,2,0.0,16431,344553919490274,396,23.645999908447266,323.02327728314333,0.14999,16,0.0,0.0,1575420030,,,,0,8.094125755342258,1,6.0,23.645999908447266,0.0,0.0,0.0,66.7128,C,25020043000000,
Raw,1732146136000,17516000000,,85.87009224951858,-1416181336484000000,0.0,85.87009224951858,1893.7436366711984,0.0,0,15,0.0,16431,344553921312660,31,43.04100036621094,53.015464157661256,0.14999,17,8338.136669137995,0.00022499999613501132,1575420030,,,,0,31.006895136973917,1,6.0,43.04100036621094,0.0,0.0,0.0,66.7128,C,25020043000000,
Raw,1732146136000,17516000000,,85.87009224951858,-1416181336484000000,0.0,85.87009224951858,1893.7436366711984,0.0,0,29,0.0,16431,344553920793662,42,38.20000076293945,829.7742594016162,0.14999,16,0.0,0.0,1575420030,,,,0,25.774336037625922,6,6.0,38.20000076293945,0.0,0.0,8.741213745422469,66.7128,C,25020043000000,
Raw,1732146136000,17516000000,,85.87009224951858,-1416181336484000000,0.0,85.87009224951858,1893.7436366711984,0.0,0,7,0.0,16431,344553909961031,487,19.399999618530273,1149.9747697742234,0.14999,16,0.0,0.0,1575420030,,,,0,3.321962305595817,6,6.0,19.399999618530273,0.0,0.0,8.741213745422469,66.7128,C,25020043000000,
Raw,1732146136000,17516000000,,85.87009224951858,-1416181336484000000,0.0,85.87009224951858,1893.7436366711984,0.0,0,21,0.0,16431,344553919118432,74,28.0,377.21869229571985,0.14999,16,0.0,0.0,1575420030,,,,0,14.659015967607726,6,6.0,28.0,0.0,0.0,8.741213745422469,66.7128,C,25020043000000,
Raw,1732146136000,17516000000,,85.87009224951858,-1416181336484000000,0.0,85.87009224951858,1893.7436366711984,0.0,0,19,0.0,16431,344553919452066,51,37.314998626708984,-132.63905703158412,0.14999,17,-2184.3459814973357,0.00022499999613501132,1575420030,,,,0,24.909541649397433,1,6.0,37.314998626708984,0.0,0.0,0.0,66.7128,C,25020043000000,
Raw,1732146136000,17516000000,,85.87009224951858,-1416181336484000000,0.0,85.87009224951858,1893.7436366711984,0.0,0,13,0.0,16431,344553929209840,74,31.22100067138672,230.32997953166372,0.14999,16,0.0,0.0,1575420030,,,,0,18.011925480894853,1,6.0,31.22100067138672,0.0,0.0,0.0,66.7128,C,25020043000000,
Raw,1732146136000,17516000000,,85.87009224951858,-1416181336484000000,0.0,85.87009224951858,1893.7436366711984,0.0,0,19,0.0,16431,344553919488793,316,25.5,352.1296376435023,0.14999,16,0.0,0.0,1575420030,,,,0,11.751883126017471,6,6.0,25.5,0.0,0.0,8.741213745422469,66.7128,C,25020043000000,
Raw,1732146136000,17516000000,,85.87009224951858,-1416181336484000000,0.0,85.87009224951858,1893.7436366711984,0.0,0,27,0.0,16431,344553919876686,51,34.599998474121094,806.0379112249927,0.14999,16,0.0,0.0,1575420030,,,,0,22.018551673499612,6,6.0,34.599998474121094,0.0,0.0,8.741213745422469,66.7128,C,25020043000000,
Raw,1732146136000,17516000000,,85.87009224951858,-1416181336484000000,0.0,85.87009224951858,1893.7436366711984,0.0,0,9,0.0,32995,9735933386264,396,5.0,683.7230094002728,0.14999,16,0.0,0.0,1600875010,,,,0,13.551249505576768,3,6.0,23.0,0.0,0.0,41.22652225746451,66.7128,C,25020043000000,
Raw,1732146136000,17516000000,,85.87009224951858,-1416181336484000000,0.0,85.87009224951858,1893.7436366711984,0.0,0,19,0.0,17,657974,396,5.0,229.8295476113955,0.14999,16,0.0,0.0,1603687550,,,,0,7.652511305491819,3,6.0,23.0,0.0,0.0,41.22652225746451,66.7128,C,25020043000000,
Raw,1732146136000,17516000000,,85.87009224951858,-1416181336484000000,0.0,85.87009224951858,1893.7436366711984,0.0,0,8,0.0,17,645817,316,5.0,325.0169575642001,0.14999,16,0.0,0.0,1605374980,,,,0,12.958800173440752,3,6.0,24.0,0.0,0.0,41.22652225746451,66.7128,C,25020043000000,
Raw,1732146136000,17516000000,,85.87009224951858,-1416181336484000000,0.0,85.87009224951858,1893.7436366711984,0.0,0,8,0.0,16431,344553918496198,1797,14.100000381469727,1237.2408650316122,0.14999,16,0.0,0.0,1575420030,,,,0,0.0,1,6.0,14.100000381469727,0.0,0.0,0.0,66.7128,C,25020043000000,
Raw,1732146136000,17516000000,,85.87009224951858,-1416181336484000000,0.0,85.87009224951858,1893.7436366711984,0.0,0,22,0.0,16431,344553929996165,51,36.27799987792969,384.2458529564772,0.14999,17,8344.850662326031,0.00022499999613501132,1575420030,,,,0,23.779585063864918,1,6.0,36.27799987792969,0.0,0.0,0.0,66.7128,C,25020043000000,
Raw,1732146136000,17516000000,,85.87009224951858,-1416181336484000000,0.0,85.87009224951858,1893.7436366711984,0.0,0,14,0.0,16431,344553932363436,31,42.220001220703125,533.3913065171683,0.14999,17,9396.155677229035,0.00022499999613501132,1575420030,,,,0,30.262694308052932,1,6.0,42.220001220703125,0.0,0.0,0.0,66.7128,C,25020043000000,
Fix,FLP,37.4243739000,-122.1712751000,2.299999952316284,0.33111376,1.683,247.90071,1732146136196,1.2,179.9,25020043000000,0.9111488,0,,,
Status,1732146136000,28,0,1,14,1575420030,47.20,313.0,74.0,1,0,0,42.2
Status,1732146136000,28,1,1,30,1575420030,47.60,68.0,71.0,1,0,0,42.6
Status,1732146136000,28,2,1,22,1575420030,40.40,267.0,58.0,1,0,0,35.4
Status,1732146136000,28,3,1,13,1575420030,41.80,305.0,46.0,1,0,0,36.8
Status,1732146136000,28,4,1,17,1575420030,44.60,176.0,42.0,1,0,0,39.6
Status,1732146136000,28,5,1,7,1575420030,46.30,101.0,39.0,1,0,0,41.3
Status,1732146136000,28,6,2,131,1575420030,35.00,3.0,23.0,0,0,0,30.0
Status,1732146136000,28,7,1,19,1575420030,43.20,193.0,16.0,1,0,0,38.2
Status,1732146136000,28,8,1,15,1575420030,47.50,317.0,16.0,1,0,0,42.5
Status,1732146136000,28,9,1,2,1575420030,28.70,89.0,15.0,1,0,0,23.7
Status,1732146136000,28,10,1,21,1575420030,0.00,71.0,13.0,0,0,0,0.0
Status,1732146136000,28,11,1,8,1575420030,19.10,40.0,10.0,1,0,0,14.1
Status,1732146136000,28,12,1,5,1575420030,0.00,264.0,8.0,0,0,0,0.0
Status,1732146136000,28,13,1,9,1575420030,0.00,159.0,2.0,0,0,0,0.0
Status,1732146136000,28,14,3,9,1602000000,34.30,13.0,54.0,1,0,0,29.3
Status,1732146136000,28,15,3,8,1602000000,29.80,306.0,38.0,1,0,0,24.8
Status,1732146136000,28,16,3,19,1602000000,30.00,89.0,31.0,1,0,0,25.0
Status,1732146136000,28,17,3,16,1602000000,0.00,65.0,16.0,0,0,0,0.0
Status,1732146136000,28,18,3,20,1602000000,0.00,150.0,8.0,0,0,0,0.0
Status,1732146136000,28,19,3,17,1602000000,36.50,0.0,0.0,0,0,0,31.5
Status,1732146136000,28,20,6,29,1575420030,43.90,206.0,63.0,1,0,0,38.9
Status,1732146136000,28,21,6,27,1575420030,40.60,35.0,60.0,1,0,0,35.6
Status,1732146136000,28,22,6,21,1575420030,35.00,266.0,56.0,1,0,0,30.0
Status,1732146136000,28,23,6,19,1575420030,32.10,300.0,49.0,1,0,0,27.099998
Status,1732146136000,28,24,6,7,1575420030,22.30,160.0,18.0,1,0,0,17.3
Status,1732146136000,28,25,6,30,1575420030,0.00,57.0,12.0,0,0,0,0.0
Status,1732146136000,28,26,6,15,1575420030,0.00,96.0,10.0,0,0,0,0.0
Status,1732146136000,28,27,6,34,1575420030,0.00,49.0,6.0,0,0,0,0.0
Fix,FLP,37.4243765000,-122.1712735000,2.299999952316284,0.23190555,1.65,245.22878,1732146137195,0.8,179.9,25021043000000,0.9211809,0,,,
Fix,GPS,37.4243800000,-122.1712700000,14.099999999999998,0.0416925,1.5,328.23,1732146137000,0.8,179.9,25021043000000,32.2,0,,,
Raw,1732146137000,18516000000,,84.32310324966313,-1416181336484000000,0.0,84.32310324966313,1891.2305326227909,0.0,0,17,0.0,16431,344554928278755,42,39.63100051879883,53.41807279254178,0.14999,17,1076.5358847069558,0.00022499999613501132,1575420030,,,,0,27.4073279446192,1,6.0,39.63100051879883,0.0,0.0,0.0,66.7128,C,25021043000000,
Raw,1732146137000,18516000000,,84.32310324966313,-1416181336484000000,0.0,84.32310324966313,1891.2305326227909,0.0,0,30,0.0,16431,344554931570532,31,42.63800048828125,631.5040482072316,0.14999,17,11697.824308841567,0.00022499999613501132,1575420030,,,,0,30.585362139485383,1,6.0,42.63800048828125,0.0,0.0,0.0,66.7128,C,25021043000000,
Raw,1732146137000,18516000000,,84.32310324966313,-1416181336484000000,0.0,84.32310324966313,1891.2305326227909,0.0,0,7,0.0,16431,344554926614114,31,41.27299880981445,900.6405337366849,0.14999,17,16630.819636745473,0.00022499999613501132,1575420030,,,,0,29.153026931225288,1,6.0,41.27299880981445,0.0,0.0,0.0,66.7128,C,25021043000000,
Raw,1732146137000,18516000000,,84.32310324966313,-1416181336484000000,0.0,84.32310324966313,1891.2305326227909,0.0,0,2,0.0,16431,344554919489228,316,23.73900032043457,322.80564283240506,0.14999,16,0.0,0.0,1575420030,,,,0,10.762485914201859,1,6.0,23.73900032043457,0.0,0.0,0.0,66.7128,C,25021043000000,
Raw,1732146137000,18516000000,,84.32310324966313,-1416181336484000000,0.0,84.32310324966313,1891.2305326227909,0.0,0,15,0.0,16431,344554921312485,31,42.5099983215332,52.356126314801294,0.14999,17,8390.50074274562,0.00022499999613501132,1575420030,,,,0,30.452718918285896,1,6.0,42.5099983215332,0.0,0.0,0.0,66.7128,C,25021043000000,
Raw,1732146137000,18516000000,,84.32310324966313,-1416181336484000000,0.0,84.32310324966313,1891.2305326227909,0.0,0,29,0.0,16431,344554920790893,42,38.900001525878906,829.1589641373238,0.14999,17,13597.573487141548,0.00022499999613501132,1575420030,,,,0,26.59340082478475,6,6.0,38.900001525878906,0.0,0.0,8.884454900470848,66.7128,C,25021043000000,
Raw,1732146137000,18516000000,,84.32310324966313,-1416181336484000000,0.0,84.32310324966313,1891.2305326227909,0.0,0,7,0.0,16431,344554909957194,487,17.299999237060547,1149.3351302998367,0.14999,16,0.0,0.0,1575420030,,,,0,0.0,6,6.0,17.299999237060547,0.0,0.0,8.884454900470848,66.7128,C,25021043000000,
Raw,1732146137000,18516000000,,84.32310324966313,-1416181336484000000,0.0,84.32310324966313,1891.2305326227909,0.0,0,21,0.0,16431,344554919117196,74,30.0,376.56590508954554,0.14999,16,0.0,0.0,1575420030,,,,0,16.93293237830804,6,6.0,30.0,0.0,0.0,8.884454900470848,66.7128,C,25021043000000,
Raw,1732146137000,18516000000,,84.32310324966313,-1416181336484000000,0.0,84.32310324966313,1891.2305326227909,0.0,0,19,0.0,16431,344554919452516,51,38.209999084472656,-133.32408637860848,0.14999,17,-2317.6635433721176,0.00022499999613501132,1575420030,,,,0,25.88104364058885,1,6.0,38.209999084472656,0.0,0.0,0.0,66.7128,C,25021043000000,
Raw,1732146137000,18516000000,,84.32310324966313,-1416181336484000000,0.0,84.32310324966313,1891.2305326227909,0.0,0,19,0.0,16431,344554919487616,235,27.100000381469727,351.5361778348289,0.14999,16,0.0,0.0,1575420030,,,,0,13.650429951042018,6,6.0,27.100000381469727,0.0,0.0,8.884454900470848,66.7128,C,25021043000000,
Raw,1732146137000,18516000000,,84.32310324966313,-1416181336484000000,0.0,84.32310324966313,1891.2305326227909,0.0,0,27,0.0,16431,344554919873998,51,35.599998474121094,805.3493974967525,0.14999,17,14551.962520445119,0.00022499999613501132,1575420030,,,,0,23.066689067093257,6,6.0,35.599998474121094,0.0,0.0,8.884454900470848,66.7128,C,25021043000000,
Raw,1732146137000,18516000000,,84.32310324966313,-1416181336484000000,0.0,84.32310324966313,1891.2305326227909,0.0,0,9,0.0,32995,9736933383983,235,5.0,683.3818947496638,0.14999,16,0.0,0.0,1600875010,,,,0,16.196724853099354,3,6.0,29.0,0.0,0.0,41.34631757002319,66.7128,C,25021043000000,
Raw,1732146137000,18516000000,,84.32310324966313,-1416181336484000000,0.0,84.32310324966313,1891.2305326227909,0.0,0,19,0.0,17,657207,316,5.0,230.11205620289545,0.14999,16,0.0,0.0,1603687550,,,,0,11.048755171767432,3,6.0,25.0,0.0,0.0,41.34631757002319,66.7128,C,25021043000000,
Raw,1732146137000,18516000000,,84.32310324966313,-1416181336484000000,0.0,84.32310324966313,1891.2305326227909,0.0,0,8,0.0,17,644740,316,5.0,324.60321434130657,0.14999,16,0.0,0.0,1605374980,,,,0,10.775910784939391,3,6.0,25.0,0.0,0.0,41.34631757002319,66.7128,C,25021043000000,
Raw,1732146137000,18516000000,,84.32310324966313,-1416181336484000000,0.0,84.32310324966313,1891.2305326227909,0.0,0,13,0.0,16431,344554929209068,51,36.76900100708008,228.4187732055946,0.14999,16,0.0,0.0,1575420030,,,,0,24.312253718354555,1,6.0,36.76900100708008,0.0,0.0,0.0,66.7128,C,25021043000000,
Raw,1732146137000,18516000000,,84.32310324966313,-1416181336484000000,0.0,84.32310324966313,1891.2305326227909,0.0,0,8,0.0,16431,344554918492084,797,14.100000381469727,1229.9879629264879,0.14999,16,0.0,0.0,1575420030,,,,0,0.0,1,6.0,14.100000381469727,0.0,0.0,0.0,66.7128,C,25021043000000,
Raw,1732146137000,18516000000,,84.32310324966313,-1416181336484000000,0.0,84.32310324966313,1891.2305326227909,0.0,0,22,0.0,16431,344554929994884,51,35.422000885009766,383.6114168247061,0.14999,17,8728.435324910302,0.00022499999613501132,1575420030,,,,0,22.828840376465678,1,6.0,35.422000885009766,0.0,0.0,0.0,66.7128,C,25021043000000,
Raw,1732146137000,18516000000,,84.32310324966313,-1416181336484000000,0.0,84.32310324966313,1891.2305326227909,0.0,0,14,0.0,16431,344554932361656,31,42.23400115966797,532.74469828035,0.14999,17,9928.865607192154,0.00022499999613501132,1575420030,,,,0,30.44436107338982,1,6.0,42.23400115966797,0.0,0.0,0.0,66.7128,C,25021043000000,
Status,1732146137000,28,0,1,14,1575420030,43.60,313.0,74.0,1,0,0,38.6
Status,1732146137000,28,1,1,30,1575420030,44.00,68.0,71.0,1,0,0,39.0
Status,1732146137000,28,2,1,22,1575420030,43.80,267.0,58.0,1,0,0,38.8
Status,1732146137000,28,3,1,13,1575420030,42.40,305.0,46.0,1,0,0,37.4
Status,1732146137000,28,4,1,17,1575420030,43.20,176.0,42.0,1,0,0,38.2
Status,1732146137000,28,5,1,7,1575420030,35.60,101.0,39.0,1,0,0,30.599998
Status,1732146137000,28,6,2,131,1575420030,37.00,3.0,23.0,0,0,0,32.0
Status,1732146137000,28,7,1,19,1575420030,39.50,193.0,16.0,1,0,0,34.5
Status,1732146137000,28,8,1,15,1575420030,32.30,317.0,16.0,1,0,0,27.3
Status,1732146137000,28,9,1,2,1575420030,26.00,89.0,15.0,1,0,0,21.0
Status,1732146137000,28,10,1,21,1575420030,0.00,71.0,13.0,0,0,0,0.0
Status,1732146137000,28,11,1,8,1575420030,19.10,40.0,10.0,1,0,0,14.1
Status,1732146137000,28,12,1,5,1575420030,0.00,264.0,8.0,0,0,0,0.0
Status,1732146137000,28,13,1,9,1575420030,0.00,159.0,2.0,0,0,0,0.0
Status,1732146137000,28,14,3,9,1602000000,32.60,13.0,54.0,1,0,0,27.599998
Status,1732146137000,28,15,3,8,1602000000,31.70,306.0,38.0,1,0,0,26.7
Status,1732146137000,28,16,3,19,1602000000,30.30,89.0,31.0,1,0,0,25.3
Status,1732146137000,28,17,3,16,1602000000,0.00,65.0,16.0,0,0,0,0.0
Status,1732146137000,28,18,3,20,1602000000,0.00,150.0,8.0,0,0,0,0.0
Status,1732146137000,28,19,3,17,1602000000,32.90,0.0,0.0,0,0,0,27.900002
Status,1732146137000,28,20,6,29,1575420030,41.70,206.0,63.0,1,0,0,36.7
Status,1732146137000,28,21,6,27,1575420030,40.10,35.0,60.0,1,0,0,35.1
Status,1732146137000,28,22,6,21,1575420030,38.80,266.0,56.0,1,0,0,33.8
Status,1732146137000,28,23,6,19,1575420030,32.10,300.0,49.0,1,0,0,27.099998
Status,1732146137000,28,24,6,7,1575420030,21.80,160.0,18.0,1,0,0,16.8
Status,1732146137000,28,25,6,30,1575420030,0.00,57.0,12.0,0,0,0,0.0
Status,1732146137000,28,26,6,15,1575420030,0.00,96.0,10.0,0,0,0,0.0
Status,1732146137000,28,27,6,34,1575420030,0.00,49.0,6.0,0,0,0,0.0
Fix,GPS,37.4243816667,-122.1712666667,14.099999999999998,0.1780939,1.5,36.07,1732146138000,0.7,163.6,25022043000000,32.1,0,,,
Raw,1732146138000,19516000000,,84.5815306785353,-1416181336484000000,0.0,84.5815306785353,1886.859552690735,0.0,0,17,0.0,16431,344555928278579,51,38.209999084472656,52.32931980864781,0.14999,16,0.0,0.0,1575420030,,,,0,25.88104364058885,1,6.0,38.209999084472656,0.0,0.0,0.0,66.7128,C,25022043000000,
Raw,1732146138000,19516000000,,84.5815306785353,-1416181336484000000,0.0,84.5815306785353,1886.859552690735,0.0,0,30,0.0,16431,344555931568429,42,39.03799819946289,629.2838934133623,0.14999,17,12328.32158865126,0.00022499999613501132,1575420030,,,,0,26.77389333778652,1,6.0,39.03799819946289,0.0,0.0,0.0,66.7128,C,25022043000000,
Raw,1732146138000,19516000000,,84.5815306785353,-1416181336484000000,0.0,84.5815306785353,1886.859552690735,0.0,0,7,0.0,16431,344555926611113,74,30.615999221801758,899.1021097422891,0.14999,16,0.0,0.0,1575420030,,,,0,17.301362392316193,1,6.0,30.615999221801758,0.0,0.0,0.0,66.7128,C,25022043000000,
Raw,1732146138000,19516000000,,84.5815306785353,-1416181336484000000,0.0,84.5815306785353,1886.859552690735,0.0,0,2,0.0,16431,344555919488155,487,20.954999923706055,322.8870844360221,0.14999,16,0.0,0.0,1575420030,,,,0,3.873632738237588,1,6.0,20.954999923706055,0.0,0.0,0.0,66.7128,C,25022043000000,
Raw,1732146138000,19516000000,,84.5815306785353,-1416181336484000000,0.0,84.5815306785353,1886.859552690735,0.0,0,15,0.0,16431,344555921312315,235,27.32200050354004,51.89911487453823,0.14999,16,0.0,0.0,1575420030,,,,0,13.17518583888865,1,6.0,27.32200050354004,0.0,0.0,0.0,66.7128,C,25022043000000,
Raw,1732146138000,19516000000,,84.5815306785353,-1416181336484000000,0.0,84.5815306785353,1886.859552690735,0.0,0,29,0.0,16431,344555920788131,51,36.70000076293945,828.3805069153,0.14999,16,0.0,0.0,1575420030,,,,0,24.235688083748,6,6.0,36.70000076293945,0.0,0.0,8.981090128068578,66.7128,C,25022043000000,
Raw,1732146138000,19516000000,,84.5815306785353,-1416181336484000000,0.0,84.5815306785353,1886.859552690735,0.0,0,7,0.0,16431,344555909953364,396,16.799999237060547,1147.9388690590451,0.14999,16,0.0,0.0,1575420030,,,,0,0.0,6,6.0,16.799999237060547,0.0,0.0,8.981090128068578,66.7128,C,25022043000000,
Raw,1732146138000,19516000000,,84.5815306785353,-1416181336484000000,0.0,84.5815306785353,1886.859552690735,0.0,0,21,0.0,16431,344555919115947,58,33.79999923706055,375.9389487627843,0.14999,16,0.0,0.0,1575420030,,,,0,21.161419973280168,6,6.0,33.79999923706055,0.0,0.0,8.981090128068578,66.7128,C,25022043000000,
Raw,1732146138000,19516000000,,84.5815306785353,-1416181336484000000,0.0,84.5815306785353,1886.859552690735,0.0,0,19,0.0,16431,344555919452964,58,34.5359992980957,-134.01752469896698,0.14999,16,0.0,0.0,1575420030,,,,0,21.840259032250195,1,6.0,34.5359992980957,0.0,0.0,0.0,66.7128,C,25022043000000,
Raw,1732146138000,19516000000,,84.5815306785353,-1416181336484000000,0.0,84.5815306785353,1886.859552690735,0.0,0,19,0.0,16431,344555919486443,235,27.100000381469727,351.5610098582934,0.14999,16,0.0,0.0,1575420030,,,,0,13.650429951042018,6,6.0,27.100000381469727,0.0,0.0,8.981090128068578,66.7128,C,25022043000000,
Raw,1732146138000,19516000000,,84.5815306785353,-1416181336484000000,0.0,84.5815306785353,1886.859552690735,0.0,0,27,0.0,16431,344555919871315,51,35.099998474121094,804.0730918866167,0.14999,16,0.0,0.0,1575420030,,,,0,22.553236738444507,6,6.0,35.099998474121094,0.0,0.0,8.981090128068578,66.7128,C,25022043000000,
Raw,1732146138000,19516000000,,84.5815306785353,-1416181336484000000,0.0,84.5815306785353,1886.859552690735,0.0,0,9,0.0,32995,9737933381702,235,5.0,682.4471555683613,0.14999,16,0.0,0.0,1600875010,,,,0,14.177198754906927,3,6.0,27.0,0.0,0.0,41.5627861214404,66.7128,C,25022043000000,
Raw,1732146138000,19516000000,,84.5815306785353,-1416181336484000000,0.0,84.5815306785353,1886.859552690735,0.0,0,19,0.0,17,656441,316,5.0,228.72110073550553,0.14999,16,0.0,0.0,1603687550,,,,0,11.46612780750267,3,6.0,25.0,0.0,0.0,41.5627861214404,66.7128,C,25022043000000,
Raw,1732146138000,19516000000,,84.5815306785353,-1416181336484000000,0.0,84.5815306785353,1886.859552690735,0.0,0,8,0.0,17,643657,316,5.0,323.4709712483095,0.14999,16,0.0,0.0,1605374980,,,,0,13.104377150452029,3,6.0,26.0,0.0,0.0,41.5627861214404,66.7128,C,25022043000000,
Raw,1732146138000,19516000000,,84.5815306785353,-1416181336484000000,0.0,84.5815306785353,1886.859552690735,0.0,0,13,0.0,16431,344555929208304,51,37.42100143432617,227.2262553490944,0.14999,17,10451.73695995579,0.00022499999613501132,1575420030,,,,0,25.02734485166799,1,6.0,37.42100143432617,0.0,0.0,0.0,66.7128,C,25022043000000,
Raw,1732146138000,19516000000,,84.5815306785353,-1416181336484000000,0.0,84.5815306785353,1886.859552690735,0.0,0,8,0.0,16431,344555918487973,487,14.100000381469727,1235.5517299350295,0.14999,16,0.0,0.0,1575420030,,,,0,0.0,1,6.0,14.100000381469727,0.0,0.0,0.0,66.7128,C,25022043000000,
Raw,1732146138000,19516000000,,84.5815306785353,-1416181336484000000,0.0,84.5815306785353,1886.859552690735,0.0,0,22,0.0,16431,344555929993603,42,38.770999908447266,382.5770666461947,0.14999,16,0.0,0.0,1575420030,,,,0,26.48855290195854,1,6.0,38.770999908447266,0.0,0.0,0.0,66.7128,C,25022043000000,
Raw,1732146138000,19516000000,,84.5815306785353,-1416181336484000000,0.0,84.5815306785353,1886.859552690735,0.0,0,14,0.0,16431,344555932359884,42,38.582000732421875,531.1207443417106,0.14999,17,10460.837002231028,0.00022499999613501132,1575420030,,,,0,26.28173623519416,1,6.0,38.582000732421875,0.0,0.0,0.0,66.7128,C,25022043000000,
Fix,FLP,37.4243788000,-122.1712709000,2.299999952316284,0.16164884,1.616,249.85641,1732146138195,0.7,163.6,25022043000000,0.9311577,0,,,
Status,1732146138000,28,0,1,14,1575420030,43.50,313.0,74.0,1,0,0,38.5
Status,1732146138000,28,1,1,30,1575420030,41.00,68.0,71.0,1,0,0,36.0
Status,1732146138000,28,2,1,22,1575420030,36.20,267.0,58.0,1,0,0,31.2
Status,1732146138000,28,3,1,13,1575420030,45.00,305.0,46.0,1,0,0,40.0
Status,1732146138000,28,4,1,17,1575420030,40.40,176.0,42.0,1,0,0,35.4
Status,1732146138000,28,5,1,7,1575420030,35.00,101.0,39.0,1,0,0,30.0
Status,1732146138000,28,6,2,131,1575420030,37.00,3.0,23.0,0,0,0,32.0
Status,1732146138000,28,7,1,19,1575420030,41.00,193.0,16.0,1,0,0,36.0
Status,1732146138000,28,8,1,15,1575420030,39.40,317.0,16.0,1,0,0,34.4
Status,1732146138000,28,9,1,2,1575420030,26.00,89.0,15.0,1,0,0,21.0
Status,1732146138000,28,10,1,21,1575420030,0.00,71.0,13.0,0,0,0,0.0
Status,1732146138000,28,11,1,8,1575420030,23.10,40.0,10.0,1,0,0,18.1
Status,1732146138000,28,12,1,5,1575420030,0.00,264.0,8.0,0,0,0,0.0
Status,1732146138000,28,13,1,9,1575420030,0.00,159.0,2.0,0,0,0,0.0
Status,1732146138000,28,14,3,9,1602000000,36.90,13.0,54.0,1,0,0,31.900002
Status,1732146138000,28,15,3,8,1602000000,34.60,306.0,38.0,1,0,0,29.599998
Status,1732146138000,28,16,3,19,1602000000,30.20,89.0,31.0,1,0,0,25.2
Status,1732146138000,28,17,3,16,1602000000,0.00,65.0,16.0,0,0,0,0.0
Status,1732146138000,28,18,3,20,1602000000,0.00,150.0,8.0,0,0,0,0.0
Status,1732146138000,28,19,3,17,1602000000,40.10,0.0,0.0,0,0,0,35.1
Status,1732146138000,28,20,6,29,1575420030,35.60,206.0,63.0,1,0,0,30.599998
Status,1732146138000,28,21,6,27,1575420030,46.10,35.0,60.0,1,0,0,41.1
Status,1732146138000,28,22,6,21,1575420030,38.20,266.0,56.0,1,0,0,33.2
Status,1732146138000,28,23,6,19,1575420030,33.20,300.0,49.0,1,0,0,28.2
Status,1732146138000,28,24,6,7,1575420030,26.50,160.0,18.0,1,0,0,21.5
Status,1732146138000,28,25,6,30,1575420030,0.00,57.0,12.0,0,0,0,0.0
Status,1732146138000,28,26,6,15,1575420030,0.00,96.0,10.0,0,0,0,0.0
Status,1732146138000,28,27,6,34,1575420030,0.00,49.0,6.0,0,0,0,0.0
Fix,GPS,37.4243833333,-122.1712616667,14.099999999999998,0.36699694,1.5,60.07,1732146139000,0.7,153.9,25023043000000,32.1,0,,,
Fix,FLP,37.4243809000,-122.1712669000,2.299999952316284,0.105351605,1.583,251.37372,1732146139195,0.7,153.9,25023043000000,0.94114846,0,,,
Raw,1732146139000,20516000000,,84.9063543418719,-1416181336484000000,0.0,84.9063543418719,1883.4523479392415,0.0,0,17,0.0,16431,344556928278406,58,35.35499954223633,51.347978683032615,0.14999,16,0.0,0.0,1575420030,,,,0,22.758222998563014,1,6.0,35.35499954223633,0.0,0.0,0.0,66.7128,C,25023043000000,
Raw,1732146139000,20516000000,,84.9063543418719,-1416181336484000000,0.0,84.9063543418719,1883.4523479392415,0.0,0,30,0.0,16431,344556931566332,51,36.00899887084961,629.2517441893447,0.14999,16,0.0,0.0,1575420030,,,,0,23.47719760891208,1,6.0,36.00899887084961,0.0,0.0,0.0,66.7128,C,25023043000000,
Raw,1732146139000,20516000000,,84.9063543418719,-1416181336484000000,0.0,84.9063543418719,1883.4523479392415,0.0,0,7,0.0,16431,344556926608108,74,29.964000701904297,898.5958059224267,0.14999,16,0.0,0.0,1575420030,,,,0,16.506670020659268,1,6.0,29.964000701904297,0.0,0.0,0.0,66.7128,C,25023043000000,
Raw,1732146139000,20516000000,,84.9063543418719,-1416181336484000000,0.0,84.9063543418719,1883.4523479392415,0.0,0,2,0.0,16431,344556919487083,487,21.030000686645508,320.9217075966515,0.14999,16,0.0,0.0,1575420030,,,,0,6.271602977613117,1,6.0,21.030000686645508,0.0,0.0,0.0,66.7128,C,25023043000000,
Raw,1732146139000,20516000000,,84.9063543418719,-1416181336484000000,0.0,84.9063543418719,1883.4523479392415,0.0,0,15,0.0,16431,344556921312141,58,34.36899948120117,51.78115695577967,0.14999,16,0.0,0.0,1575420030,,,,0,21.646725306499025,1,6.0,34.36899948120117,0.0,0.0,0.0,66.7128,C,25023043000000,
Raw,1732146139000,20516000000,,84.9063543418719,-1416181336484000000,0.0,84.9063543418719,1883.4523479392415,0.0,0,29,0.0,16431,344556920785371,74,30.600000381469727,827.2688499322143,0.14999,16,0.0,0.0,1575420030,,,,0,17.654798523753755,6,6.0,30.600000381469727,0.0,0.0,8.799660284697472,66.7128,C,25023043000000,
Raw,1732146139000,20516000000,,84.9063543418719,-1416181336484000000,0.0,84.9063543418719,1883.4523479392415,0.0,0,7,0.0,16431,344556909949534,396,21.5,1147.3746780525844,0.14999,16,0.0,0.0,1575420030,,,,0,6.472055480782384,6,6.0,21.5,0.0,0.0,8.799660284697472,66.7128,C,25023043000000,
Raw,1732146139000,20516000000,,84.9063543418719,-1416181336484000000,0.0,84.9063543418719,1883.4523479392415,0.0,0,21,0.0,16431,344556919114703,58,33.20000076293945,375.1277848157483,0.14999,16,0.0,0.0,1575420030,,,,0,20.477836421914535,6,6.0,33.20000076293945,0.0,0.0,8.799660284697472,66.7128,C,25023043000000,
Raw,1732146139000,20516000000,,84.9063543418719,-1416181336484000000,0.0,84.9063543418719,1883.4523479392415,0.0,0,19,0.0,16431,344556919453408,51,35.986000061035156,-135.31139159043047,0.14999,17,-2587.254357368298,0.00022499999613501132,1575420030,,,,0,23.4585283064252,1,6.0,35.986000061035156,0.0,0.0,0.0,66.7128,C,25023043000000,
Raw,1732146139000,20516000000,,84.9063543418719,-1416181336484000000,0.0,84.9063543418719,1883.4523479392415,0.0,0,19,0.0,16431,344556919485274,235,28.200000762939453,350.21743246148463,0.14999,16,0.0,0.0,1575420030,,,,0,14.912636602789505,6,6.0,28.200000762939453,0.0,0.0,8.799660284697472,66.7128,C,25023043000000,
Raw,1732146139000,20516000000,,84.9063543418719,-1416181336484000000,0.0,84.9063543418719,1883.4523479392415,0.0,0,27,0.0,16431,344556919868635,31,41.099998474121094,803.1165130968417,0.14999,16,0.0,0.0,1575420030,,,,0,28.882032784415465,6,6.0,41.099998474121094,0.0,0.0,8.799660284697472,66.7128,C,25023043000000,
Raw,1732146139000,20516000000,,84.9063543418719,-1416181336484000000,0.0,84.9063543418719,1883.4523479392415,0.0,0,9,0.0,32995,9738933379429,74,5.0,681.7170120259108,0.14999,16,0.0,0.0,1600875010,,,,0,19.070884849059368,3,6.0,32.0,0.0,0.0,42.14265804969278,66.7128,C,25023043000000,
Raw,1732146139000,20516000000,,84.9063543418719,-1416181336484000000,0.0,84.9063543418719,1883.4523479392415,0.0,0,19,0.0,17,655682,316,5.0,226.47171164977598,0.14999,16,0.0,0.0,1603687550,,,,0,10.244024159466074,3,6.0,24.0,0.0,0.0,42.14265804969278,66.7128,C,25023043000000,
Raw,1732146139000,20516000000,,84.9063543418719,-1416181336484000000,0.0,84.9063543418719,1883.4523479392415,0.0,0,8,0.0,17,642573,74,5.0,323.6419623180023,0.14999,16,0.0,0.0,1605374980,,,,0,16.488777292870317,3,6.0,30.0,0.0,0.0,42.14265804969278,66.7128,C,25023043000000,
Raw,1732146139000,20516000000,,84.9063543418719,-1416181336484000000,0.0,84.9063543418719,1883.4523479392415,0.0,0,13,0.0,16431,344556929207544,42,40.00699996948242,227.38179812656728,0.14999,16,0.0,0.0,1575420030,,,,0,27.807216030636937,1,6.0,40.00699996948242,0.0,0.0,0.0,66.7128,C,25023043000000,
Raw,1732146139000,20516000000,,84.9063543418719,-1416181336484000000,0.0,84.9063543418719,1883.4523479392415,0.0,0,8,0.0,16431,344556918483827,1797,18.052000045776367,1239.923002316279,0.14999,16,0.0,0.0,1575420030,,,,0,0.0,1,6.0,18.052000045776367,0.0,0.0,0.0,66.7128,C,25023043000000,
Raw,1732146139000,20516000000,,84.9063543418719,-1416181336484000000,0.0,84.9063543418719,1883.4523479392415,0.0,0,22,0.0,16431,344556929992326,74,31.24799919128418,382.3937417358279,0.14999,16,0.0,0.0,1575420030,,,,0,18.04684367722034,1,6.0,31.24799919128418,0.0,0.0,0.0,66.7128,C,25023043000000,
Raw,1732146139000,20516000000,,84.9063543418719,-1416181336484000000,0.0,84.9063543418719,1883.4523479392415,0.0,0,14,0.0,16431,344556932358114,51,38.529998779296875,530.6766483411542,0.14999,17,10991.467761271571,0.00022499999613501132,1575420030,,,,0,25.1666315900818,1,6.0,38.529998779296875,0.0,0.0,0.0,66.7128,C,25023043000000,
Status,1732146139000,28,0,1,14,1575420030,38.10,313.0,74.0,1,0,0,33.1
Status,1732146139000,28,1,1,30,1575420030,47.80,68.0,71.0,1,0,0,42.8
Status,1732146139000,28,2,1,22,1575420030,42.80,267.0,58.0,1,0,0,37.8
Status,1732146139000,28,3,1,13,1575420030,43.00,305.0,46.0,1,0,0,38.0
Status,1732146139000,28,4,1,17,1575420030,43.00,176.0,42.0,1,0,0,38.0
Status,1732146139000,28,5,1,7,1575420030,37.20,101.0,39.0,1,0,0,32.2
Status,1732146139000,28,6,2,131,1575420030,37.00,3.0,23.0,0,0,0,32.0
Status,1732146139000,28,7,1,19,1575420030,44.60,193.0,16.0,1,0,0,39.6
Status,1732146139000,28,8,1,15,1575420030,34.80,317.0,16.0,1,0,0,29.8
Status,1732146139000,28,9,1,2,1575420030,30.10,89.0,15.0,1,0,0,25.1
Status,1732146139000,28,10,1,21,1575420030,19.80,71.0,13.0,1,0,0,14.799999
Status,1732146139000,28,11,1,8,1575420030,23.10,40.0,10.0,1,0,0,18.1
Status,1732146139000,28,12,1,5,1575420030,0.00,264.0,8.0,0,0,0,0.0
Status,1732146139000,28,13,1,9,1575420030,0.00,159.0,2.0,0,0,0,0.0
Status,1732146139000,28,14,3,9,1602000000,40.50,13.0,54.0,1,0,0,35.5
Status,1732146139000,28,15,3,8,1602000000,34.80,306.0,38.0,1,0,0,29.8
Status,1732146139000,28,16,3,19,1602000000,31.60,89.0,31.0,1,0,0,26.6
Status,1732146139000,28,17,3,16,1602000000,24.50,65.0,16.0,1,0,0,19.5
Status,1732146139000,28,18,3,20,1602000000,0.00,150.0,8.0,0,0,0,0.0
Status,1732146139000,28,19,3,17,1602000000,34.00,0.0,0.0,0,0,0,29.0
Status,1732146139000,28,20,6,29,1575420030,38.90,206.0,63.0,1,0,0,33.9
Status,1732146139000,28,21,6,27,1575420030,46.10,35.0,60.0,1,0,0,41.1
Status,1732146139000,28,22,6,21,1575420030,40.50,266.0,56.0,1,0,0,35.5
Status,1732146139000,28,23,6,19,1575420030,28.10,300.0,49.0,1,0,0,23.1
Status,1732146139000,28,24,6,7,1575420030,29.20,160.0,18.0,1,0,0,24.2
Status,1732146139000,28,25,6,30,1575420030,0.00,57.0,12.0,0,0,0,0.0
Status,1732146139000,28,26,6,15,1575420030,0.00,96.0,10.0,0,0,0,0.0
Status,1732146139000,28,27,6,34,1575420030,0.00,49.0,6.0,0,0,0,0.0
Fix,GPS,37.4243850000,-122.1712516667,14.2,0.32581916,1.5,71.29,1732146140000,0.7,69.3,25024043000000,31.7,0,,,
Raw,1732146140000,21516000000,,83.34718167116561,-1416181336484000000,0.0,83.34718167116561,1881.5982652533596,0.0,0,17,0.0,16431,344557928278230,51,38.03300094604492,50.83015317594995,0.14999,16,0.0,0.0,1575420030,,,,0,25.68801592706523,1,6.0,38.03300094604492,0.0,0.0,0.0,66.7128,C,25024043000000,
Raw,1732146140000,21516000000,,83.34718167116561,-1416181336484000000,0.0,83.34718167116561,1881.5982652533596,0.0,0,30,0.0,16431,344557931564229,31,42.803001403808594,628.8587059882035,0.14999,16,0.0,0.0,1575420030,,,,0,30.760470392754584,1,6.0,42.803001403808594,0.0,0.0,0.0,66.7128,C,25024043000000,
Raw,1732146140000,21516000000,,83.34718167116561,-1416181336484000000,0.0,83.34718167116561,1881.5982652533596,0.0,0,7,0.0,16431,344557926605113,235,32.231998443603516,897.5838487005287,0.14999,16,0.0,0.0,1575420030,,,,0,19.203414992569236,1,6.0,32.231998443603516,0.0,0.0,0.0,66.7128,C,25024043000000,
Raw,1732146140000,21516000000,,83.34718167116561,-1416181336484000000,0.0,83.34718167116561,1881.5982652533596,0.0,0,2,0.0,16431,344557919486007,316,25.075000762939453,320.42193118426667,0.14999,16,0.0,0.0,1575420030,,,,0,10.135827963390874,1,6.0,25.075000762939453,0.0,0.0,0.0,66.7128,C,25024043000000,
Raw,1732146140000,21516000000,,83.34718167116561,-1416181336484000000,0.0,83.34718167116561,1881.5982652533596,0.0,0,15,0.0,16431,344557921311968,74,29.756999969482422,50.458114178935965,0.14999,16,0.0,0.0,1575420030,,,,0,16.25335759521035,1,6.0,29.756999969482422,0.0,0.0,0.0,66.7128,C,25024043000000,
Raw,1732146140000,21516000000,,83.34718167116561,-1416181336484000000,0.0,83.34718167116561,1881.5982652533596,0.0,0,29,0.0,16431,344557920782613,58,33.900001525878906,826.8936517628979,0.14999,16,0.0,0.0,1575420030,,,,0,21.22207587367174,6,6.0,33.900001525878906,0.0,0.0,8.646682251678525,66.7128,C,25024043000000,
Raw,1732146140000,21516000000,,83.34718167116561,-1416181336484000000,0.0,83.34718167116561,1881.5982652533596,0.0,0,7,0.0,16431,344557909945704,316,24.200000762939453,1146.4246963579112,0.14999,16,0.0,0.0,1575420030,,,,0,10.092398424722191,6,6.0,24.200000762939453,0.0,0.0,8.646682251678525,66.7128,C,25024043000000,
Raw,1732146140000,21516000000,,83.34718167116561,-1416181336484000000,0.0,83.34718167116561,1881.5982652533596,0.0,0,21,0.0,16431,344557919113459,51,35.5,374.51681018416355,0.14999,16,0.0,0.0,1575420030,,,,0,23.007834705464056,6,6.0,35.5,0.0,0.0,8.646682251678525,66.7128,C,25024043000000,
Raw,1732146140000,21516000000,,83.34718167116561,-1416181336484000000,0.0,83.34718167116561,1881.5982652533596,0.0,0,19,0.0,16431,344557919453858,42,39.625999450683594,-135.62554340084614,0.14999,16,0.0,0.0,1575420030,,,,0,27.40139495966307,1,6.0,39.625999450683594,0.0,0.0,0.0,66.7128,C,25024043000000,
Raw,1732146140000,21516000000,,83.34718167116561,-1416181336484000000,0.0,83.34718167116561,1881.5982652533596,0.0,0,13,0.0,16431,344557929206762,51,38.03300094604492,226.87944327208274,0.14999,16,0.0,0.0,1575420030,,,,0,25.68801592706523,1,6.0,38.03300094604492,0.0,0.0,0.0,66.7128,C,25024043000000,
Raw,1732146140000,21516000000,,83.34718167116561,-1416181336484000000,0.0,83.34718167116561,1881.5982652533596,0.0,0,19,0.0,16431,344557919484104,74,23.100000381469727,350.10760476556294,0.14999,16,0.0,0.0,1575420030,,,,0,8.67693447504887,6,6.0,23.100000381469727,0.0,0.0,8.646682251678525,66.7128,C,25024043000000,
Raw,1732146140000,21516000000,,83.34718167116561,-1416181336484000000,0.0,83.34718167116561,1881.5982652533596,0.0,0,27,0.0,16431,344557919865953,31,41.09000015258789,802.5022399177059,0.14999,16,0.0,0.0,1575420030,,,,0,28.586791001087445,6,6.0,41.09000015258789,0.0,0.0,8.646682251678525,66.7128,C,25024043000000,
Raw,1732146140000,21516000000,,83.34718167116561,-1416181336484000000,0.0,83.34718167116561,1881.5982652533596,0.0,0,9,0.0,32995,9739933377159,51,5.0,680.9658831430729,0.14999,17,14696.268084604166,0.00022499999613501132,1600875010,,,,0,22.95254182580883,3,6.0,36.0,0.0,0.0,42.41390435288897,66.7128,C,25024043000000,
Raw,1732146140000,21516000000,,83.34718167116561,-1416181336484000000,0.0,83.34718167116561,1881.5982652533596,0.0,0,19,0.0,17,654931,235,5.0,226.6220938483208,0.14999,16,0.0,0.0,1603687550,,,,0,13.096674332398761,3,6.0,27.0,0.0,0.0,42.41390435288897,66.7128,C,25024043000000,
Raw,1732146140000,21516000000,,83.34718167116561,-1416181336484000000,0.0,83.34718167116561,1881.5982652533596,0.0,0,16,0.0,17,305179,487,5.0,1048.8476451038107,0.14999,16,0.0,0.0,1601437440,,,,0,3.416375079047504,3,6.0,18.0,0.0,0.0,42.41390435288897,66.7128,C,25024043000000,
Raw,1732146140000,21516000000,,83.34718167116561,-1416181336484000000,0.0,83.34718167116561,1881.5982652533596,0.0,0,8,0.0,17,641492,74,5.0,322.6066468384346,0.14999,16,0.0,0.0,1605374980,,,,0,16.777265089374573,3,6.0,30.0,0.0,0.0,42.41390435288897,66.7128,C,25024043000000,
Raw,1732146140000,21516000000,,83.34718167116561,-1416181336484000000,0.0,83.34718167116561,1881.5982652533596,0.0,0,21,0.0,16431,344557919889499,797,14.800000190734863,513.614144570007,0.14999,16,0.0,0.0,1575420030,,,,0,0.0,1,6.0,14.800000190734863,0.0,0.0,0.0,66.7128,C,25024043000000,
Raw,1732146140000,21516000000,,83.34718167116561,-1416181336484000000,0.0,83.34718167116561,1881.5982652533596,0.0,0,8,0.0,16431,344557918479698,1797,18.052000045776367,1235.0746949173797,0.14999,16,0.0,0.0,1575420030,,,,0,0.0,1,6.0,18.052000045776367,0.0,0.0,0.0,66.7128,C,25024043000000,
Raw,1732146140000,21516000000,,83.34718167116561,-1416181336484000000,0.0,83.34718167116561,1881.5982652533596,0.0,0,22,0.0,16431,344557929991055,51,37.827999114990234,381.6918479837191,0.14999,17,9874.530509143939,0.00022499999613501132,1575420030,,,,0,25.46838628292648,1,6.0,37.827999114990234,0.0,0.0,0.0,66.7128,C,25024043000000,
Raw,1732146140000,21516000000,,83.34718167116561,-1416181336484000000,0.0,83.34718167116561,1881.5982652533596,0.0,0,14,0.0,16431,344557932356345,58,33.1150016784668,530.0933164672147,0.14999,17,11521.486268074083,0.00039999998989515007,1575420030,,,,0,20.223923105880957,1,6.0,33.1150016784668,0.0,0.0,0.0,66.7128,C,25024043000000,
Fix,FLP,37.4243830000,-122.1712597000,2.299999952316284,0.039042756,1.55,,1732146140195,0.7,,25024043000000,0.95114493,0,,,
Status,1732146140000,28,0,1,14,1575420030,41.40,313.0,74.0,1,0,0,36.4
Status,1732146140000,28,1,1,30,1575420030,46.30,68.0,71.0,1,0,0,41.3
Status,1732146140000,28,2,1,22,1575420030,46.70,267.0,58.0,1,0,0,41.7
Status,1732146140000,28,3,1,13,1575420030,44.60,305.0,46.0,1,0,0,39.6
Status,1732146140000,28,4,1,17,1575420030,38.90,176.0,42.0,1,0,0,33.9
Status,1732146140000,28,5,1,7,1575420030,39.60,101.0,39.0,1,0,0,34.6
Status,1732146140000,28,6,2,131,1575420030,38.00,3.0,23.0,0,0,0,33.0
Status,1732146140000,28,7,1,19,1575420030,43.40,193.0,16.0,1,0,0,38.4
Status,1732146140000,28,8,1,15,1575420030,30.20,317.0,16.0,1,0,0,25.2
Status,1732146140000,28,9,1,2,1575420030,30.50,89.0,15.0,1,0,0,25.5
Status,1732146140000,28,10,1,21,1575420030,21.20,71.0,13.0,1,0,0,16.2
Status,1732146140000,28,11,1,8,1575420030,23.00,40.0,10.0,1,0,0,18.0
Status,1732146140000,28,12,1,5,1575420030,24.80,264.0,8.0,0,0,0,19.8
Status,1732146140000,28,13,1,9,1575420030,0.00,159.0,2.0,0,0,0,0.0
Status,1732146140000,28,14,3,9,1602000000,48.90,13.0,54.0,1,0,0,43.9
Status,1732146140000,28,15,3,8,1602000000,34.20,306.0,38.0,1,0,0,29.2
Status,1732146140000,28,16,3,19,1602000000,32.20,89.0,31.0,1,0,0,27.2
Status,1732146140000,28,17,3,16,1602000000,23.20,65.0,16.0,1,0,0,18.2
Status,1732146140000,28,18,3,20,1602000000,0.00,150.0,8.0,0,0,0,0.0
Status,1732146140000,28,19,3,17,1602000000,41.90,0.0,0.0,0,0,0,36.9
Status,1732146140000,28,20,6,29,1575420030,38.90,206.0,63.0,1,0,0,33.9
Status,1732146140000,28,21,6,27,1575420030,41.40,35.0,60.0,1,0,0,36.4
Status,1732146140000,28,22,6,21,1575420030,41.80,266.0,56.0,1,0,0,36.8
Status,1732146140000,28,23,6,19,1575420030,35.10,300.0,49.0,1,0,0,30.099998
Status,1732146140000,28,24,6,7,1575420030,32.10,160.0,18.0,1,0,0,27.099998
Status,1732146140000,28,25,6,30,1575420030,0.00,57.0,12.0,0,0,0,0.0
Status,1732146140000,28,26,6,15,1575420030,0.00,96.0,10.0,0,0,0,0.0
Status,1732146140000,28,27,6,34,1575420030,0.00,49.0,6.0,0,0,0,0.0
Fix,GPS,37.4243883333,-122.1712416667,14.3,0.2985389,1.5,75.66,1732146141000,0.7,57.8,25025043000000,32.0,0,,,
Fix,FLP,37.4243858000,-122.1712508000,2.299999952316284,0.037106253,1.516,,1732146141195,0.7,,25025043000000,0.9611068,0,,,
Raw,1732146141000,22516000000,,83.89368452168539,-1416181336484000000,0.0,83.89368452168539,1879.7812635321434,0.0,0,17,0.0,16431,344558928278056,74,33.92499923706055,50.96952842458157,0.14999,16,0.0,0.0,1575420030,,,,0,21.14923779787781,1,6.0,33.92499923706055,0.0,0.0,0.0,66.7128,C,25025043000000,
Raw,1732146141000,22516000000,,83.89368452168539,-1416181336484000000,0.0,83.89368452168539,1879.7812635321434,0.0,0,30,0.0,16431,344558931562134,31,41.345001220703125,628.2518661556614,0.14999,17,14213.988129225047,0.00022499999613501132,1575420030,,,,0,29.22549027952376,1,6.0,41.345001220703125,0.0,0.0,0.0,66.7128,C,25025043000000,
Raw,1732146141000,22516000000,,83.89368452168539,-1416181336484000000,0.0,83.89368452168539,1879.7812635321434,0.0,0,7,0.0,16431,344558926602117,58,34.60100173950195,897.5145327435426,0.14999,16,0.0,0.0,1575420030,,,,0,21.907548378244353,1,6.0,34.60100173950195,0.0,0.0,0.0,66.7128,C,25025043000000,
Raw,1732146141000,22516000000,,83.89368452168539,-1416181336484000000,0.0,83.89368452168539,1879.7812635321434,0.0,0,2,0.0,16431,344558919484926,316,25.464000701904297,320.5267181420295,0.14999,16,0.0,0.0,1575420030,,,,0,10.681498011487705,1,6.0,25.464000701904297,0.0,0.0,0.0,66.7128,C,25025043000000,
Raw,1732146141000,22516000000,,83.89368452168539,-1416181336484000000,0.0,83.89368452168539,1879.7812635321434,0.0,0,15,0.0,16431,344558921311799,316,25.218000411987305,49.4760761770776,0.14999,16,0.0,0.0,1575420030,,,,0,10.34977694850861,1,6.0,25.218000411987305,0.0,0.0,0.0,66.7128,C,25025043000000,
Raw,1732146141000,22516000000,,83.89368452168539,-1416181336484000000,0.0,83.89368452168539,1879.7812635321434,0.0,0,29,0.0,16431,344558920779859,58,33.8650016784668,826.247786860739,0.14999,16,0.0,0.0,1575420030,,,,0,20.50413739473725,6,6.0,33.8650016784668,0.0,0.0,8.469264365740356,66.7128,C,25025043000000,
Raw,1732146141000,22516000000,,83.89368452168539,-1416181336484000000,0.0,83.89368452168539,1879.7812635321434,0.0,0,7,0.0,16431,344558909941878,235,27.100000381469727,1146.079510325467,0.14999,16,0.0,0.0,1575420030,,,,0,13.621476958773455,6,6.0,27.100000381469727,0.0,0.0,8.469264365740356,66.7128,C,25025043000000,
Raw,1732146141000,22516000000,,83.89368452168539,-1416181336484000000,0.0,83.89368452168539,1879.7812635321434,0.0,0,21,0.0,16431,344558919112216,51,36.79999923706055,373.9668819114794,0.14999,16,0.0,0.0,1575420030,,,,0,24.404926552864445,6,6.0,36.79999923706055,0.0,0.0,8.469264365740356,66.7128,C,25025043000000,
Raw,1732146141000,22516000000,,83.89368452168539,-1416181336484000000,0.0,83.89368452168539,1879.7812635321434,0.0,0,19,0.0,16431,344558919454309,42,38.382999420166016,-136.37426723649517,0.14999,17,-2859.815275334724,0.00022499999613501132,1575420030,,,,0,26.069874765245675,1,6.0,38.382999420166016,0.0,0.0,0.0,66.7128,C,25025043000000,
Raw,1732146141000,22516000000,,83.89368452168539,-1416181336484000000,0.0,83.89368452168539,1879.7812635321434,0.0,0,13,0.0,16431,344558929206008,42,39.64099884033203,226.2313483659457,0.14999,16,0.0,0.0,1575420030,,,,0,27.419181770598268,1,6.0,39.64099884033203,0.0,0.0,0.0,66.7128,C,25025043000000,
Raw,1732146141000,22516000000,,83.89368452168539,-1416181336484000000,0.0,83.89368452168539,1879.7812635321434,0.0,0,19,0.0,16431,344558919482939,74,30.100000381469727,349.21353577479925,0.14999,16,0.0,0.0,1575420030,,,,0,17.050975730391503,6,6.0,30.100000381469727,0.0,0.0,8.469264365740356,66.7128,C,25025043000000,
Raw,1732146141000,22516000000,,83.89368452168539,-1416181336484000000,0.0,83.89368452168539,1879.7812635321434,0.0,0,27,0.0,16431,344558919863277,51,36.400001525878906,801.9321951508026,0.14999,16,0.0,0.0,1575420030,,,,0,23.94902770937396,6,6.0,36.400001525878906,0.0,0.0,8.469264365740356,66.7128,C,25025043000000,
Raw,1732146141000,22516000000,,83.89368452168539,-1416181336484000000,0.0,83.89368452168539,1879.7812635321434,0.0,0,9,0.0,32995,9740933374896,31,5.0,680.2418203201682,0.14999,17,15376.450034982641,0.00022499999613501132,1600875010,,,,0,31.743310427051412,3,6.0,44.0,0.0,0.0,41.39250938428565,66.7128,C,25025043000000,
Raw,1732146141000,22516000000,,83.89368452168539,-1416181336484000000,0.0,83.89368452168539,1879.7812635321434,0.0,0,19,0.0,17,654170,235,5.0,226.2962277185454,0.14999,16,0.0,0.0,1603687550,,,,0,13.797175852014396,3,6.0,28.0,0.0,0.0,41.39250938428565,66.7128,C,25025043000000,
Raw,1732146141000,22516000000,,83.89368452168539,-1416181336484000000,0.0,83.89368452168539,1879.7812635321434,0.0,0,16,0.0,17,301684,487,5.0,1048.948832955974,0.14999,16,0.0,0.0,1601437440,,,,0,1.233485690546142,3,6.0,19.0,0.0,0.0,41.39250938428565,66.7128,C,25025043000000,
Raw,1732146141000,22516000000,,83.89368452168539,-1416181336484000000,0.0,83.89368452168539,1879.7812635321434,0.0,0,8,0.0,17,640423,235,5.0,322.69584668588266,0.14999,16,0.0,0.0,1605374980,,,,0,16.088588759074046,3,6.0,29.0,0.0,0.0,41.39250938428565,66.7128,C,25025043000000,
Raw,1732146141000,22516000000,,83.89368452168539,-1416181336484000000,0.0,83.89368452168539,1879.7812635321434,0.0,0,5,0.0,17,650423,487,19.763999938964844,987.39298474445,0.14999,16,0.0,0.0,1575420030,,,,0,1.8795744743930562,1,6.0,19.763999938964844,0.0,0.0,0.0,66.7128,C,25025043000000,
Raw,1732146141000,22516000000,,83.89368452168539,-1416181336484000000,0.0,83.89368452168539,1879.7812635321434,0.0,0,21,0.0,16431,344558919887761,797,16.19099998474121,512.7677186850672,0.14999,16,0.0,0.0,1575420030,,,,0,0.0,1,6.0,16.19099998474121,0.0,0.0,0.0,66.7128,C,25025043000000,
Raw,1732146141000,22516000000,,83.89368452168539,-1416181336484000000,0.0,83.89368452168539,1879.7812635321434,0.0,0,8,0.0,16431,344558918475557,797,17.979999542236328,1230.9775271917722,0.14999,16,0.0,0.0,1575420030,,,,0,0.0,1,6.0,17.979999542236328,0.0,0.0,0.0,66.7128,C,25025043000000,
Raw,1732146141000,22516000000,,83.89368452168539,-1416181336484000000,0.0,83.89368452168539,1879.7812635321434,0.0,0,22,0.0,16431,344558929989781,31,41.69900131225586,380.9522067684392,0.14999,16,0.0,0.0,1575420030,,,,0,29.60207115909963,1,6.0,41.69900131225586,0.0,0.0,0.0,66.7128,C,25025043000000,
Raw,1732146141000,22516000000,,83.89368452168539,-1416181336484000000,0.0,83.89368452168539,1879.7812635321434,0.0,0,14,0.0,16431,344558932354576,51,36.41999816894531,530.3543663079016,0.14999,16,0.0,0.0,1575420030,,,,0,23.931346502987353,1,6.0,36.41999816894531,0.0,0.0,0.0,66.7128,C,25025043000000,
Status,1732146141000,28,0,1,14,1575420030,41.10,313.0,74.0,1,0,0,36.1
Status,1732146141000,28,1,1,30,1575420030,46.80,68.0,71.0,1,0,0,41.8
Status,1732146141000,28,2,1,22,1575420030,46.90,267.0,58.0,1,0,0,41.9
Status,1732146141000,28,3,1,13,1575420030,42.50,305.0,46.0,1,0,0,37.5
Status,1732146141000,28,4,1,17,1575420030,35.90,176.0,42.0,1,0,0,30.900002
Status,1732146141000,28,5,1,7,1575420030,43.40,101.0,39.0,1,0,0,38.4
Status,1732146141000,28,6,2,131,1575420030,38.00,3.0,23.0,0,0,0,33.0
Status,1732146141000,28,7,1,19,1575420030,41.10,193.0,16.0,1,0,0,36.1
Status,1732146141000,28,8,1,15,1575420030,0.00,317.0,16.0,0,0,0,0.0
Status,1732146141000,28,9,1,2,1575420030,36.50,89.0,15.0,1,0,0,31.5
Status,1732146141000,28,10,1,21,1575420030,21.20,71.0,13.0,0,0,0,16.2
Status,1732146141000,28,11,1,8,1575420030,23.00,40.0,10.0,1,0,0,18.0
Status,1732146141000,28,12,1,5,1575420030,30.50,264.0,8.0,1,0,0,25.5
Status,1732146141000,28,13,1,9,1575420030,0.00,159.0,2.0,0,0,0,0.0
Status,1732146141000,28,14,3,9,1602000000,48.90,13.0,54.0,1,0,0,43.9
Status,1732146141000,28,15,3,8,1602000000,30.40,306.0,38.0,1,0,0,25.4
Status,1732146141000,28,16,3,19,1602000000,32.80,89.0,31.0,1,0,0,27.8
Status,1732146141000,28,17,3,16,1602000000,23.00,65.0,16.0,1,0,0,18.0
Status,1732146141000,28,18,3,20,1602000000,0.00,150.0,8.0,0,0,0,0.0
Status,1732146141000,28,19,3,17,1602000000,35.20,0.0,0.0,0,0,0,30.2
Status,1732146141000,28,20,6,29,1575420030,40.10,206.0,63.0,1,0,0,35.1
Status,1732146141000,28,21,6,27,1575420030,45.50,35.0,60.0,1,0,0,40.5
Status,1732146141000,28,22,6,21,1575420030,40.60,266.0,56.0,1,0,0,35.6
Status,1732146141000,28,23,6,19,1575420030,35.50,300.0,49.0,1,0,0,30.5
Status,1732146141000,28,24,6,7,1575420030,31.90,160.0,18.0,1,0,0,26.9
Status,1732146141000,28,25,6,30,1575420030,0.00,57.0,12.0,0,0,0,0.0
Status,1732146141000,28,26,6,15,1575420030,0.00,96.0,10.0,0,0,0,0.0
Status,1732146141000,28,27,6,34,1575420030,0.00,49.0,6.0,0,0,0,0.0
Fix,GPS,37.4243883333,-122.1712350000,14.400000000000002,0.27177334,1.5,84.49,1732146142000,0.8,69.1,25026043000000,32.6,0,,,
Raw,1732146142000,23516000000,,85.33409344107439,-1416181336484000000,0.0,85.33409344107439,1878.0570828243249,0.0,0,17,0.0,16431,344559928277880,74,30.91699981689453,51.05120232027969,0.14999,16,0.0,0.0,1575420030,,,,0,17.654798523753755,1,6.0,30.91699981689453,0.0,0.0,0.0,66.7128,C,25026043000000,
Raw,1732146142000,23516000000,,85.33409344107439,-1416181336484000000,0.0,85.33409344107439,1878.0570828243249,0.0,0,30,0.0,16431,344559931560040,31,41.7869987487793,627.8207320532276,0.14999,17,14841.580910155486,0.00022499999613501132,1575420030,,,,0,29.693719486430574,1,6.0,41.7869987487793,0.0,0.0,0.0,66.7128,C,25026043000000,
Raw,1732146142000,23516000000,,85.33409344107439,-1416181336484000000,0.0,85.33409344107439,1878.0570828243249,0.0,0,7,0.0,16431,344559926599128,42,38.40700149536133,896.4259191348973,0.14999,16,0.0,0.0,1575420030,,,,0,26.097503860949487,1,6.0,38.40700149536133,0.0,0.0,0.0,66.7128,C,25026043000000,
Raw,1732146142000,23516000000,,85.33409344107439,-1416181336484000000,0.0,85.33409344107439,1878.0570828243249,0.0,0,2,0.0,16431,344559919483860,74,31.488000869750977,318.6541884474557,0.14999,16,0.0,0.0,1575420030,,,,0,18.33811381665756,1,6.0,31.488000869750977,0.0,0.0,0.0,66.7128,C,25026043000000,
Raw,1732146142000,23516000000,,85.33409344107439,-1416181336484000000,0.0,85.33409344107439,1878.0570828243249,0.0,0,29,0.0,16431,344559920777104,51,35.099998474121094,825.8151660889865,0.14999,16,0.0,0.0,1575420030,,,,0,22.56360176310894,6,6.0,35.099998474121094,0.0,0.0,7.945880473958607,66.7128,C,25026043000000,
Raw,1732146142000,23516000000,,85.33409344107439,-1416181336484000000,0.0,85.33409344107439,1878.0570828243249,0.0,0,7,0.0,16431,344559909938057,235,26.899999618530273,1145.7184355146787,0.14999,16,0.0,0.0,1575420030,,,,0,13.445702535939517,6,6.0,26.899999618530273,0.0,0.0,7.945880473958607,66.7128,C,25026043000000,
Raw,1732146142000,23516000000,,85.33409344107439,-1416181336484000000,0.0,85.33409344107439,1878.0570828243249,0.0,0,21,0.0,16431,344559919110975,51,35.599998474121094,373.3350009925999,0.14999,16,0.0,0.0,1575420030,,,,0,23.066689067093257,6,6.0,35.599998474121094,0.0,0.0,7.945880473958607,66.7128,C,25026043000000,
Raw,1732146142000,23516000000,,85.33409344107439,-1416181336484000000,0.0,85.33409344107439,1878.0570828243249,0.0,0,19,0.0,16431,344559919454766,51,36.132999420166016,-137.02273380996186,0.14999,16,0.0,0.0,1575420030,,,,0,23.61595279026316,1,6.0,36.132999420166016,0.0,0.0,0.0,66.7128,C,25026043000000,
Raw,1732146142000,23516000000,,85.33409344107439,-1416181336484000000,0.0,85.33409344107439,1878.0570828243249,0.0,0,13,0.0,16431,344559929205261,51,37.499000549316406,225.44506290079048,0.14999,16,0.0,0.0,1575420030,,,,0,25.11272961969987,1,6.0,37.499000549316406,0.0,0.0,0.0,66.7128,C,25026043000000,
Raw,1732146142000,23516000000,,85.33409344107439,-1416181336484000000,0.0,85.33409344107439,1878.0570828243249,0.0,0,19,0.0,16431,344559919481776,74,30.5,348.6942932860222,0.14999,16,0.0,0.0,1575420030,,,,0,17.581576681172486,6,6.0,30.5,0.0,0.0,7.945880473958607,66.7128,C,25026043000000,
Raw,1732146142000,23516000000,,85.33409344107439,-1416181336484000000,0.0,85.33409344107439,1878.0570828243249,0.0,0,27,0.0,16431,344559919860601,31,40.5,801.5561607299945,0.14999,16,0.0,0.0,1575420030,,,,0,28.238146621233916,6,6.0,40.5,0.0,0.0,7.945880473958607,66.7128,C,25026043000000,
Raw,1732146142000,23516000000,,85.33409344107439,-1416181336484000000,0.0,85.33409344107439,1878.0570828243249,0.0,0,9,0.0,32995,9741933372630,31,5.0,679.9920993415292,0.14999,17,16056.140675794733,0.00022499999613501132,1600875010,,,,0,31.407813673750226,3,6.0,44.0,0.0,0.0,40.26486895880557,66.7128,C,25026043000000,
Raw,1732146142000,23516000000,,85.33409344107439,-1416181336484000000,0.0,85.33409344107439,1878.0570828243249,0.0,0,19,0.0,17,653415,235,5.0,225.9896671031811,0.14999,16,0.0,0.0,1603687550,,,,0,14.484325281525104,3,6.0,28.0,0.0,0.0,40.26486895880557,66.7128,C,25026043000000,
Raw,1732146142000,23516000000,,85.33409344107439,-1416181336484000000,0.0,85.33409344107439,1878.0570828243249,0.0,0,16,0.0,17,298191,487,5.0,1047.988965173166,0.14999,16,0.0,0.0,1601437440,,,,0,0.8961271848002319,3,6.0,19.0,0.0,0.0,40.26486895880557,66.7128,C,25026043000000,
Raw,1732146142000,23516000000,,85.33409344107439,-1416181336484000000,0.0,85.33409344107439,1878.0570828243249,0.0,0,8,0.0,17,639353,235,5.0,320.97180261164385,0.14999,16,0.0,0.0,1605374980,,,,0,11.58308568238497,3,6.0,27.0,0.0,0.0,40.26486895880557,66.7128,C,25026043000000,
Raw,1732146142000,23516000000,,85.33409344107439,-1416181336484000000,0.0,85.33409344107439,1878.0570828243249,0.0,0,5,0.0,16431,344559916647136,396,25.516000747680664,986.2667398186742,0.14999,16,0.0,0.0,1575420030,,,,0,10.762485914201859,1,6.0,25.516000747680664,0.0,0.0,0.0,66.7128,C,25026043000000,
Raw,1732146142000,23516000000,,85.33409344107439,-1416181336484000000,0.0,85.33409344107439,1878.0570828243249,0.0,0,21,0.0,17,886053,797,16.19099998474121,511.65304190492776,0.14999,16,0.0,0.0,1575420030,,,,0,0.0,1,6.0,16.19099998474121,0.0,0.0,0.0,66.7128,C,25026043000000,
Raw,1732146142000,23516000000,,85.33409344107439,-1416181336484000000,0.0,85.33409344107439,1878.0570828243249,0.0,0,8,0.0,16431,344559918471477,487,18.04400062561035,1229.2431415978003,0.14999,16,0.0,0.0,1575420030,,,,0,0.9332365160691296,1,6.0,18.04400062561035,0.0,0.0,0.0,66.7128,C,25026043000000,
Raw,1732146142000,23516000000,,85.33409344107439,-1416181336484000000,0.0,85.33409344107439,1878.0570828243249,0.0,0,22,0.0,16431,344559929988509,31,41.92900085449219,380.48309291075327,0.14999,17,10635.461563691837,0.00022499999613501132,1575420030,,,,0,29.842856531131424,1,6.0,41.92900085449219,0.0,0.0,0.0,66.7128,C,25026043000000,
Raw,1732146142000,23516000000,,85.33409344107439,-1416181336484000000,0.0,85.33409344107439,1878.0570828243249,0.0,0,14,0.0,16431,344559932352810,51,36.125999450683594,529.009952659601,0.14999,16,0.0,0.0,1575420030,,,,0,23.606771087888024,1,6.0,36.125999450683594,0.0,0.0,0.0,66.7128,C,25026043000000,
Fix,FLP,37.4243871000,-122.1712429000,2.299999952316284,0.05618064,1.5,,1732146142195,0.8,,25026043000000,0.97519547,0,,,
Status,1732146142000,28,0,1,14,1575420030,42.10,313.0,74.0,1,0,0,37.1
Status,1732146142000,28,1,1,30,1575420030,44.60,68.0,71.0,1,0,0,39.6
Status,1732146142000,28,2,1,22,1575420030,40.50,267.0,58.0,1,0,0,35.5
Status,1732146142000,28,3,1,13,1575420030,43.20,305.0,46.0,1,0,0,38.2
Status,1732146142000,28,4,1,17,1575420030,36.20,176.0,42.0,1,0,0,31.2
Status,1732146142000,28,5,1,7,1575420030,42.90,101.0,39.0,1,0,0,37.9
Status,1732146142000,28,6,2,131,1575420030,35.00,3.0,23.0,0,0,0,30.0
Status,1732146142000,28,7,1,19,1575420030,41.50,193.0,16.0,1,0,0,36.5
Status,1732146142000,28,8,1,15,1575420030,40.10,317.0,16.0,1,0,0,35.1
Status,1732146142000,28,9,1,2,1575420030,43.50,89.0,15.0,1,0,0,38.5
Status,1732146142000,28,10,1,21,1575420030,25.30,71.0,13.0,0,0,0,20.3
Status,1732146142000,28,11,1,8,1575420030,23.10,40.0,10.0,1,0,0,18.1
Status,1732146142000,28,12,1,5,1575420030,35.40,264.0,8.0,1,0,0,30.400002
Status,1732146142000,28,13,1,9,1575420030,0.00,159.0,2.0,0,0,0,0.0
Status,1732146142000,28,14,3,9,1602000000,44.60,13.0,54.0,1,0,0,39.6
Status,1732146142000,28,15,3,8,1602000000,34.50,306.0,38.0,1,0,0,29.5
Status,1732146142000,28,16,3,19,1602000000,29.80,89.0,31.0,1,0,0,24.8
Status,1732146142000,28,17,3,16,1602000000,26.90,65.0,16.0,1,0,0,21.9
Status,1732146142000,28,18,3,20,1602000000,0.00,150.0,8.0,0,0,0,0.0
Status,1732146142000,28,19,3,17,1602000000,38.40,0.0,0.0,0,0,0,33.4
Status,1732146142000,28,20,6,29,1575420030,41.90,206.0,63.0,1,0,0,36.9
Status,1732146142000,28,21,6,27,1575420030,45.40,35.0,60.0,1,0,0,40.4
Status,1732146142000,28,22,6,21,1575420030,41.60,266.0,56.0,1,0,0,36.6
Status,1732146142000,28,23,6,19,1575420030,35.00,300.0,49.0,1,0,0,30.0
