# 
# Header Description:
# 
# Version: v3.1.0.3 Platform: 13 Manufacturer: samsung Model: SM-S135DL GNSS Hardware Model Name: MediaTek,MT6631,MTK_MNLD_default,MNL_VER_default
# 
# Raw,utcTimeMillis,TimeNanos,LeapSecond,TimeUncertaintyNanos,FullBiasNanos,BiasNanos,BiasUncertaintyNanos,DriftNanosPerSecond,DriftUncertaintyNanosPerSecond,HardwareClockDiscontinuityCount,Svid,TimeOffsetNanos,State,ReceivedSvTimeNanos,ReceivedSvTimeUncertaintyNanos,Cn0DbHz,PseudorangeRateMetersPerSecond,PseudorangeRateUncertaintyMetersPerSecond,AccumulatedDeltaRangeState,AccumulatedDeltaRangeMeters,AccumulatedDeltaRangeUncertaintyMeters,CarrierFrequencyHz,CarrierCycles,CarrierPhase,CarrierPhaseUncertainty,MultipathIndicator,SnrInDb,ConstellationType,AgcDb,BasebandCn0DbHz,FullInterSignalBiasNanos,FullInterSignalBiasUncertaintyNanos,SatelliteInterSignalBiasNanos,SatelliteInterSignalBiasUncertaintyNanos,CodeType,ChipsetElapsedRealtimeNanos,IsFullTracking
# 
# UncalAccel,utcTimeMillis,elapsedRealtimeNanos,UncalAccelXMps2,UncalAccelYMps2,UncalAccelZMps2,BiasXMps2,BiasYMps2,BiasZMps2
# 
# Accel,utcTimeMillis,elapsedRealtimeNanos,AccelXMps2,AccelYMps2,AccelZMps2
# 
# UncalGyro,utcTimeMillis,elapsedRealtimeNanos,UncalGyroXRadPerSec,UncalGyroYRadPerSec,UncalGyroZRadPerSec,DriftXRadPerSec,DriftYRadPerSec,DriftZRadPerSec
# 
# Gyro,utcTimeMillis,elapsedRealtimeNanos,GyroXRadPerSec,GyroYRadPerSec,GyroZRadPerSec
# 
# UncalMag,utcTimeMillis,elapsedRealtimeNanos,UncalMagXMicroT,UncalMagYMicroT,UncalMagZMicroT,BiasXMicroT,BiasYMicroT,BiasZMicroT
# 
# Mag,utcTimeMillis,elapsedRealtimeNanos,MagXMicroT,MagYMicroT,MagZMicroT
# 
# Pressure,utcTimeMillis,elapsedRealtimeNanos,PressureHpa
# 
# OrientationDeg,utcTimeMillis,elapsedRealtimeNanos,yawDeg,rollDeg,pitchDeg
# 
# Fix,Provider,LatitudeDegrees,LongitudeDegrees,AltitudeMeters,SpeedMps,AccuracyMeters,BearingDegrees,UnixTimeMillis,SpeedAccuracyMps,BearingAccuracyDegrees,elapsedRealtimeNanos,VerticalAccuracyMeters,MockLocation,NumberOfUsedSignals,VerticalSpeedAccuracyMps,SolutionType
# 
# Nav,Svid,Type,Status,MessageId,Sub-messageId,Data(Bytes)
# 
# Status,UnixTimeMillis,SignalCount,SignalIndex,ConstellationType,Svid,CarrierFrequencyHz,Cn0DbHz,AzimuthDegrees,ElevationDegrees,UsedInFix,HasAlmanacData,HasEphemerisData,BasebandCn0DbHz
# 
# Agc,utcTimeMillis,TimeNanos,LeapSecond,TimeUncertaintyNanos,FullBiasNanos,BiasNanos,BiasUncertaintyNanos,DriftNanosPerSecond,DriftUncertaintyNanosPerSecond,HardwareClockDiscontinuityCount,AgcDb,CarrierFrequencyHz,ConstellationType
# 
Fix,FLP,37.4243917000,-122.1712345000,-0.3939937320516558,0.34112766,1.633,252.72186,1732146934197,0.9,164.4,25818045000000,0.9201098,0,,,
Status,,29,0,1,14,1575420030,42.20,335.0,73.0,1,0,0,37.2
Status,,29,1,1,30,1575420030,42.70,84.0,68.0,1,0,0,37.7
Status,,29,2,1,22,1575420030,45.30,278.0,62.0,1,0,0,40.3
Status,,29,3,1,13,1575420030,48.10,298.0,50.0,1,0,0,43.1
Status,,29,4,1,17,1575420030,42.50,174.0,49.0,1,0,0,37.5
Status,,29,5,1,7,1575420030,32.50,107.0,35.0,1,0,0,27.5
Status,,29,6,2,131,1575420030,45.00,2.0,24.0,0,0,0,40.0
Status,,29,7,1,19,1575420030,40.70,193.0,21.0,1,0,0,35.7
Status,,29,8,1,15,1575420030,42.80,313.0,20.0,1,0,0,37.8
Status,,29,9,1,2,1575420030,30.30,84.0,18.0,1,0,0,25.3
Status,,29,10,1,21,1575420030,24.30,65.0,14.0,1,0,0,19.3
Status,,29,11,1,8,1575420030,0.00,39.0,6.0,0,0,0,0.0
Status,,29,12,1,5,1575420030,0.00,259.0,4.0,0,0,0,0.0
Status,,29,13,3,9,1602000000,31.80,24.0,52.0,1,0,0,26.8
Status,,29,14,3,8,1602000000,37.30,297.0,40.0,1,0,0,32.3
Status,,29,15,3,20,1602000000,26.80,147.0,14.0,1,0,0,21.8
Status,,29,16,3,16,1602000000,23.40,71.0,12.0,1,0,0,18.4
Status,,29,17,3,11,1602000000,0.00,275.0,4.0,0,0,0,0.0
Status,,29,18,3,17,1602000000,44.20,0.0,0.0,0,0,0,39.2
Status,,29,19,6,21,1575420030,0.00,274.0,59.0,0,0,0,0.0
Status,,29,20,6,29,1575420030,41.50,202.0,58.0,1,0,0,36.5
Status,,29,21,6,27,1575420030,36.50,39.0,56.0,1,0,0,31.5
Status,,29,22,6,19,1575420030,33.50,293.0,52.0,1,0,0,28.5
Status,,29,23,6,7,1575420030,0.00,161.0,13.0,0,0,0,0.0
Status,,29,24,6,15,1575420030,0.00,92.0,13.0,0,0,0,0.0
Status,,29,25,6,30,1575420030,0.00,60.0,8.0,0,0,0,0.0
Status,,29,26,6,34,1575420030,0.00,44.0,6.0,0,0,0,0.0
Status,,29,27,6,4,1575420030,0.00,325.0,3.0,0,0,0,0.0
Status,,29,28,6,13,1575420030,0.00,140.0,3.0,0,0,0,0.0
Fix,GPS,37.4243933333,-122.1712333333,12.099999999999998,0.0694875,1.7,286.27,1732146935000,0.8,179.9,25819045000000,31.8,0,,,
Fix,FLP,37.4243924000,-122.1712355000,-0.39626573113755015,0.29568785,1.65,260.66068,1732146935197,0.8,179.9,25819045000000,0.92520905,0,,,
Raw,1732146935000,17405000000,,87.8519905820224,-1416182135595000064,0.0,87.8519905820224,2148.674707705311,0.0,0,30,0.0,16431,345352931551256,51,37.74800109863281,767.4954980941518,0.14999,17,13262.78051383754,0.00022499999613501132,1575420030,,,,0,25.378546870601202,1,6.0,37.74800109863281,0.0,0.0,0.0,66.7128,C,25819045000000,
Raw,1732146935000,17405000000,,87.8519905820224,-1416182135595000064,0.0,87.8519905820224,2148.674707705311,0.0,0,17,0.0,16431,345352929784740,51,37.46699905395508,200.71266950982124,0.14999,17,3527.4939946174177,0.00022499999613501132,1575420030,,,,0,25.0707772198187,1,6.0,37.46699905395508,0.0,0.0,0.0,66.7128,C,25819045000000,
Raw,1732146935000,17405000000,,87.8519905820224,-1416182135595000064,0.0,87.8519905820224,2148.674707705311,0.0,0,13,0.0,16431,345352930221601,31,43.10599899291992,396.33061618116244,0.14999,17,6840.353197150891,0.00022499999613501132,1575420030,,,,0,31.07569862768958,1,6.0,43.10599899291992,0.0,0.0,0.0,66.7128,C,25819045000000,
Raw,1732146935000,17405000000,,87.8519905820224,-1416182135595000064,0.0,87.8519905820224,2148.674707705311,0.0,0,19,0.0,16431,345352921533296,51,35.7400016784668,-44.320957397523856,0.14999,16,0.0,0.0,1575420030,,,,0,23.17944338435796,1,6.0,35.7400016784668,0.0,0.0,0.0,66.7128,C,25819045000000,
Raw,1732146935000,17405000000,,87.8519905820224,-1416182135595000064,0.0,87.8519905820224,2148.674707705311,0.0,0,27,0.0,16431,345352919441507,58,31.5,902.9977408583752,0.14999,16,0.0,0.0,1575420030,,,,0,18.706690477366944,6,6.0,31.5,0.0,0.0,3.153528428913193,66.7128,C,25819045000000,
Raw,1732146935000,17405000000,,87.8519905820224,-1416182135595000064,0.0,87.8519905820224,2148.674707705311,0.0,0,19,0.0,16431,345352920205331,74,28.5,494.0246746243363,0.14999,16,0.0,0.0,1575420030,,,,0,15.225510619079364,6,6.0,28.5,0.0,0.0,3.153528428913193,66.7128,C,25819045000000,
Raw,1732146935000,17405000000,,87.8519905820224,-1416182135595000064,0.0,87.8519905820224,2148.674707705311,0.0,0,29,0.0,16431,345352920240880,51,36.5,967.4867613170559,0.14999,16,0.0,0.0,1575420030,,,,0,24.058489350228236,6,6.0,36.5,0.0,0.0,3.153528428913193,66.7128,C,25819045000000,
Raw,1732146935000,17405000000,,87.8519905820224,-1416182135595000064,0.0,87.8519905820224,2148.674707705311,0.0,0,9,0.0,32995,10534933260098,487,5.0,794.1893382822394,0.14999,16,0.0,0.0,1600875010,,,,0,13.287383642413529,3,6.0,20.0,0.0,0.0,34.37100321341626,66.7128,C,25819045000000,
Raw,1732146935000,17405000000,,87.8519905820224,-1416182135595000064,0.0,87.8519905820224,2148.674707705311,0.0,0,8,0.0,17,345812,74,5.0,533.4626853068385,0.14999,17,9196.440245826161,0.0006249999860301614,1605374980,,,,0,19.53615070234033,3,6.0,32.0,0.0,0.0,34.37100321341626,66.7128,C,25819045000000,
Raw,1732146935000,17405000000,,87.8519905820224,-1416182135595000064,0.0,87.8519905820224,2148.674707705311,0.0,0,20,0.0,17,65737,396,5.0,-133.8631033557188,0.14999,16,0.0,0.0,1603124990,,,,0,6.870252928225289,3,6.0,21.0,0.0,0.0,34.37100321341626,66.7128,C,25819045000000,
Raw,1732146935000,17405000000,,87.8519905820224,-1416182135595000064,0.0,87.8519905820224,2148.674707705311,0.0,0,16,0.0,17,250083,797,5.0,1130.3737012526265,0.14999,16,0.0,0.0,1601437440,,,,0,1.687483492449675,3,6.0,17.0,0.0,0.0,34.37100321341626,66.7128,C,25819045000000,
Raw,1732146935000,17405000000,,87.8519905820224,-1416182135595000064,0.0,87.8519905820224,2148.674707705311,0.0,0,21,0.0,16431,345352920145601,487,19.315000534057617,680.6732665452386,0.14999,16,0.0,0.0,1575420030,,,,0,0.9491281115806061,1,6.0,19.315000534057617,0.0,0.0,0.0,66.7128,C,25819045000000,
Raw,1732146935000,17405000000,,87.8519905820224,-1416182135595000064,0.0,87.8519905820224,2148.674707705311,0.0,0,7,0.0,16431,345352925891933,396,27.5310001373291,1027.2656417066473,0.14999,16,0.0,0.0,1575420030,,,,0,13.450006076553645,1,6.0,27.5310001373291,0.0,0.0,0.0,66.7128,C,25819045000000,
Raw,1732146935000,17405000000,,87.8519905820224,-1416182135595000064,0.0,87.8519905820224,2148.674707705311,0.0,0,15,0.0,16431,345352922812572,51,37.75400161743164,206.3766008637128,0.14999,17,9978.66437265696,0.00022499999613501132,1575420030,,,,0,25.386103103907733,1,6.0,37.75400161743164,0.0,0.0,0.0,66.7128,C,25819045000000,
Raw,1732146935000,17405000000,,87.8519905820224,-1416182135595000064,0.0,87.8519905820224,2148.674707705311,0.0,0,22,0.0,16431,345352930639994,42,40.28200149536133,515.2341495432685,0.14999,17,10237.868339165701,0.00022499999613501132,1575420030,,,,0,27.477032819341716,1,6.0,40.28200149536133,0.0,0.0,0.0,66.7128,C,25819045000000,
Raw,1732146935000,17405000000,,87.8519905820224,-1416182135595000064,0.0,87.8519905820224,2148.674707705311,0.0,0,14,0.0,16431,345352932614268,51,37.17900085449219,660.8559180680551,0.14999,17,11401.62579661281,0.00022499999613501132,1575420030,,,,0,23.961142650169336,1,6.0,37.17900085449219,0.0,0.0,0.0,66.7128,C,25819045000000,
Raw,1732146935000,17405000000,,87.8519905820224,-1416182135595000064,0.0,87.8519905820224,2148.674707705311,0.0,0,2,0.0,16431,345352920281201,316,25.33099937438965,467.89348800889206,0.14999,16,0.0,0.0,1575420030,,,,0,10.491553205973855,1,6.0,25.33099937438965,0.0,0.0,0.0,66.7128,C,25819045000000,
Status,1732146935000,29,0,1,14,1575420030,40.10,335.0,73.0,1,0,0,35.1
Status,1732146935000,29,1,1,30,1575420030,45.30,84.0,68.0,1,0,0,40.3
Status,1732146935000,29,2,1,22,1575420030,45.30,278.0,62.0,1,0,0,40.3
Status,1732146935000,29,3,1,13,1575420030,48.10,298.0,50.0,1,0,0,43.1
Status,1732146935000,29,4,1,17,1575420030,39.80,174.0,49.0,1,0,0,34.8
Status,1732146935000,29,5,1,7,1575420030,32.50,107.0,35.0,1,0,0,27.5
Status,1732146935000,29,6,2,131,1575420030,43.00,2.0,24.0,0,0,0,38.0
Status,1732146935000,29,7,1,19,1575420030,39.90,193.0,21.0,1,0,0,34.9
Status,1732146935000,29,8,1,15,1575420030,36.50,313.0,20.0,1,0,0,31.5
Status,1732146935000,29,9,1,2,1575420030,30.40,84.0,18.0,1,0,0,25.4
Status,1732146935000,29,10,1,21,1575420030,26.30,65.0,14.0,1,0,0,21.3
Status,1732146935000,29,11,1,8,1575420030,0.00,39.0,6.0,0,0,0,0.0
Status,1732146935000,29,12,1,5,1575420030,0.00,259.0,4.0,0,0,0,0.0
Status,1732146935000,29,13,3,9,1602000000,33.30,24.0,52.0,1,0,0,28.3
Status,1732146935000,29,14,3,8,1602000000,32.60,297.0,40.0,1,0,0,27.599998
Status,1732146935000,29,15,3,20,1602000000,26.70,147.0,14.0,1,0,0,21.7
Status,1732146935000,29,16,3,16,1602000000,21.60,71.0,12.0,1,0,0,16.6
Status,1732146935000,29,17,3,11,1602000000,0.00,275.0,4.0,0,0,0,0.0
Status,1732146935000,29,18,3,17,1602000000,40.30,0.0,0.0,0,0,0,35.3
Status,1732146935000,29,19,6,21,1575420030,0.00,274.0,59.0,0,0,0,0.0
Status,1732146935000,29,20,6,29,1575420030,36.80,202.0,58.0,1,0,0,31.8
Status,1732146935000,29,21,6,27,1575420030,36.50,39.0,56.0,1,0,0,31.5
Status,1732146935000,29,22,6,19,1575420030,32.60,293.0,52.0,1,0,0,27.599998
Status,1732146935000,29,23,6,7,1575420030,0.00,161.0,13.0,0,0,0,0.0
Status,1732146935000,29,24,6,15,1575420030,0.00,92.0,13.0,0,0,0,0.0
Status,1732146935000,29,25,6,30,1575420030,0.00,60.0,8.0,0,0,0,0.0
Status,1732146935000,29,26,6,34,1575420030,0.00,44.0,6.0,0,0,0,0.0
Status,1732146935000,29,27,6,4,1575420030,0.00,325.0,3.0,0,0,0,0.0
Status,1732146935000,29,28,6,13,1575420030,0.00,140.0,3.0,0,0,0,0.0
Fix,GPS,37.4243933333,-122.1712333333,12.099999999999998,0.056619443,1.7,346.07,1732146936000,0.7,179.9,25820045000000,31.6,0,,,
Raw,1732146936000,18405000000,,87.33992012139544,-1416182135595000064,0.0,87.33992012139544,2148.8112937713126,0.0,0,30,0.0,16431,345353931548691,42,40.28900146484375,767.6863028095286,0.14999,17,14030.549936560972,0.00022499999613501132,1575420030,,,,0,28.10672074930124,1,6.0,40.28900146484375,0.0,0.0,0.0,66.7128,C,25820045000000,
Raw,1732146936000,18405000000,,87.33992012139544,-1416182135595000064,0.0,87.33992012139544,2148.8112937713126,0.0,0,17,0.0,16431,345353929784060,58,34.81700134277344,200.85236996736634,0.14999,17,3728.4274954977427,0.00039999998989515007,1575420030,,,,0,22.146649928625372,1,6.0,34.81700134277344,0.0,0.0,0.0,66.7128,C,25820045000000,
Raw,1732146936000,18405000000,,87.33992012139544,-1416182135595000064,0.0,87.33992012139544,2148.8112937713126,0.0,0,13,0.0,16431,345353930220282,31,43.064998626708984,396.496008142872,0.14999,17,7236.912403258064,0.00022499999613501132,1575420030,,,,0,30.227420466295133,1,6.0,43.064998626708984,0.0,0.0,0.0,66.7128,C,25820045000000,
Raw,1732146936000,18405000000,,87.33992012139544,-1416182135595000064,0.0,87.33992012139544,2148.8112937713126,0.0,0,19,0.0,16431,345353921533443,58,34.86199951171875,-44.117748285018955,0.14999,17,-442.3667470379685,0.00039999998989515007,1575420030,,,,0,22.20131272475775,1,6.0,34.86199951171875,0.0,0.0,0.0,66.7128,C,25820045000000,
Raw,1732146936000,18405000000,,87.33992012139544,-1416182135595000064,0.0,87.33992012139544,2148.8112937713126,0.0,0,27,0.0,16431,345353919438501,58,31.530000686645508,902.8809444000219,0.14999,16,0.0,0.0,1575420030,,,,0,19.30486846175246,6,6.0,31.530000686645508,0.0,0.0,3.4343650606407032,66.7128,C,25820045000000,
Raw,1732146936000,18405000000,,87.33992012139544,-1416182135595000064,0.0,87.33992012139544,2148.8112937713126,0.0,0,19,0.0,16431,345353920203686,235,27.600000381469727,494.1284627261506,0.14999,16,0.0,0.0,1575420030,,,,0,14.19333154119053,6,6.0,27.600000381469727,0.0,0.0,3.4343650606407032,66.7128,C,25820045000000,
Raw,1732146936000,18405000000,,87.33992012139544,-1416182135595000064,0.0,87.33992012139544,2148.8112937713126,0.0,0,29,0.0,16431,345353920237649,58,31.799999237060547,967.5466926739674,0.14999,16,0.0,0.0,1575420030,,,,0,18.96359318583734,6,6.0,31.799999237060547,0.0,0.0,3.4343650606407032,66.7128,C,25820045000000,
Raw,1732146936000,18405000000,,87.33992012139544,-1416182135595000064,0.0,87.33992012139544,2148.8112937713126,0.0,0,9,0.0,32995,10535933257441,235,5.0,793.1927403524751,0.14999,16,0.0,0.0,1600875010,,,,0,15.066951679902614,3,6.0,29.0,0.0,0.0,34.29241179532063,66.7128,C,25820045000000,
Raw,1732146936000,18405000000,,87.33992012139544,-1416182135595000064,0.0,87.33992012139544,2148.8112937713126,0.0,0,8,0.0,17,344029,316,5.0,533.3531288369087,0.14999,16,0.0,0.0,1605374980,,,,0,14.231069549860255,3,6.0,24.0,0.0,0.0,34.29241179532063,66.7128,C,25820045000000,
Raw,1732146936000,18405000000,,87.33992012139544,-1416182135595000064,0.0,87.33992012139544,2148.8112937713126,0.0,0,20,0.0,17,66185,487,5.0,-134.39234223442494,0.14999,16,0.0,0.0,1603124990,,,,0,3.9839969263988744,3,6.0,20.0,0.0,0.0,34.29241179532063,66.7128,C,25820045000000,
Raw,1732146936000,18405000000,,87.33992012139544,-1416182135595000064,0.0,87.33992012139544,2148.8112937713126,0.0,0,16,0.0,17,246307,797,5.0,1133.2260652334403,0.14999,16,0.0,0.0,1601437440,,,,0,0.0,3,6.0,17.0,0.0,0.0,34.29241179532063,66.7128,C,25820045000000,
Raw,1732146936000,18405000000,,87.33992012139544,-1416182135595000064,0.0,87.33992012139544,2148.8112937713126,0.0,0,21,0.0,16431,345353920143417,487,21.34600067138672,679.8879799360318,0.14999,16,0.0,0.0,1575420030,,,,0,4.512813082811106,1,6.0,21.34600067138672,0.0,0.0,0.0,66.7128,C,25820045000000,
Raw,1732146936000,18405000000,,87.33992012139544,-1416182135595000064,0.0,87.33992012139544,2148.8112937713126,0.0,0,7,0.0,16431,345353925888507,235,27.5310001373291,1026.2695732630934,0.14999,16,0.0,0.0,1575420030,,,,0,13.450006076553645,1,6.0,27.5310001373291,0.0,0.0,0.0,66.7128,C,25820045000000,
Raw,1732146936000,18405000000,,87.33992012139544,-1416182135595000064,0.0,87.33992012139544,2148.8112937713126,0.0,0,15,0.0,16431,345353922811887,74,31.48900032043457,206.47546437340884,0.14999,17,10185.275115227421,0.0006249999860301614,1575420030,,,,0,18.323549818794227,1,6.0,31.48900032043457,0.0,0.0,0.0,66.7128,C,25820045000000,
Raw,1732146936000,18405000000,,87.33992012139544,-1416182135595000064,0.0,87.33992012139544,2148.8112937713126,0.0,0,22,0.0,16431,345353930638277,42,40.29499816894531,515.3232567855603,0.14999,17,10753.322655143393,0.00022499999613501132,1575420030,,,,0,28.383866794938626,1,6.0,40.29499816894531,0.0,0.0,0.0,66.7128,C,25820045000000,
Raw,1732146936000,18405000000,,87.33992012139544,-1416182135595000064,0.0,87.33992012139544,2148.8112937713126,0.0,0,14,0.0,16431,345353932612061,58,35.05699920654297,661.0775247133794,0.14999,16,0.0,0.0,1575420030,,,,0,22.416587427483808,1,6.0,35.05699920654297,0.0,0.0,0.0,66.7128,C,25820045000000,
Raw,1732146936000,18405000000,,87.33992012139544,-1416182135595000064,0.0,87.33992012139544,2148.8112937713126,0.0,0,2,0.0,16431,345353920279642,396,25.357999801635742,468.32522607073656,0.14999,16,0.0,0.0,1575420030,,,,0,10.53341299609073,1,6.0,25.357999801635742,0.0,0.0,0.0,66.7128,C,25820045000000,
Fix,FLP,37.4243927000,-122.1712346000,-0.39626573113755015,0.13372754,1.666,253.72714,1732146936197,0.7,179.9,25820045000000,0.9353223,0,,,
Status,1732146936000,29,0,1,14,1575420030,44.10,335.0,73.0,1,0,0,39.1
Status,1732146936000,29,1,1,30,1575420030,45.20,84.0,68.0,1,0,0,40.2
Status,1732146936000,29,2,1,22,1575420030,39.30,278.0,62.0,1,0,0,34.3
Status,1732146936000,29,3,1,13,1575420030,41.20,298.0,50.0,1,0,0,36.2
Status,1732146936000,29,4,1,17,1575420030,43.60,174.0,49.0,1,0,0,38.6
Status,1732146936000,29,5,1,7,1575420030,46.90,107.0,35.0,1,0,0,41.9
Status,1732146936000,29,6,2,131,1575420030,43.00,2.0,24.0,0,0,0,38.0
Status,1732146936000,29,7,1,19,1575420030,32.30,193.0,21.0,1,0,0,27.3
Status,1732146936000,29,8,1,15,1575420030,34.10,313.0,20.0,1,0,0,29.099998
Status,1732146936000,29,9,1,2,1575420030,27.80,84.0,18.0,1,0,0,22.8
Status,1732146936000,29,10,1,21,1575420030,0.00,65.0,14.0,0,0,0,0.0
Status,1732146936000,29,11,1,8,1575420030,0.00,39.0,6.0,0,0,0,0.0
Status,1732146936000,29,12,1,5,1575420030,0.00,259.0,4.0,0,0,0,0.0
Status,1732146936000,29,13,3,9,1602000000,30.40,24.0,52.0,1,0,0,25.4
Status,1732146936000,29,14,3,8,1602000000,34.10,297.0,40.0,1,0,0,29.099998
Status,1732146936000,29,15,3,20,1602000000,24.10,147.0,14.0,1,0,0,19.1
Status,1732146936000,29,16,3,16,1602000000,22.50,71.0,12.0,1,0,0,17.5
Status,1732146936000,29,17,3,11,1602000000,0.00,275.0,4.0,0,0,0,0.0
Status,1732146936000,29,18,3,17,1602000000,40.20,0.0,0.0,0,0,0,35.2
Status,1732146936000,29,19,6,21,1575420030,34.50,274.0,59.0,1,0,0,29.5
Status,1732146936000,29,20,6,29,1575420030,31.20,202.0,58.0,1,0,0,26.2
Status,1732146936000,29,21,6,27,1575420030,36.60,39.0,56.0,1,0,0,31.599998
Status,1732146936000,29,22,6,19,1575420030,33.60,293.0,52.0,1,0,0,28.599998
Status,1732146936000,29,23,6,7,1575420030,0.00,161.0,13.0,0,0,0,0.0
Status,1732146936000,29,24,6,15,1575420030,0.00,92.0,13.0,0,0,0,0.0
Status,1732146936000,29,25,6,30,1575420030,0.00,60.0,8.0,0,0,0,0.0
Status,1732146936000,29,26,6,34,1575420030,0.00,44.0,6.0,0,0,0,0.0
Status,1732146936000,29,27,6,4,1575420030,0.00,325.0,3.0,0,0,0,0.0
Status,1732146936000,29,28,6,13,1575420030,0.00,140.0,3.0,0,0,0,0.0
Fix,GPS,37.4243966667,-122.1712400000,12.099999999999998,0.16985834,1.7,356.22,1732146937000,0.8,159.8,25821045000000,35.0,0,,,
Fix,FLP,37.4243945000,-122.1712378000,-0.39626573113755015,0.11201402,1.683,260.02917,1732146937197,0.8,159.8,25821045000000,0.944267,0,,,
Raw,1732146937000,19405000000,,95.77209556708131,-1416182135595000064,0.0,95.77209556708131,2147.930699688915,0.0,0,30,0.0,16431,345354931546125,42,40.249000549316406,766.3168480748905,0.14999,17,14797.896834507223,0.00022499999613501132,1575420030,,,,0,27.266710445638612,1,6.0,40.249000549316406,0.0,0.0,0.0,66.7128,C,25821045000000,
Raw,1732146937000,19405000000,,95.77209556708131,-1416182135595000064,0.0,95.77209556708131,2147.930699688915,0.0,0,17,0.0,16431,345354929783390,42,38.619998931884766,199.5089784042224,0.14999,16,0.0,0.0,1575420030,,,,0,26.323128891729226,1,6.0,38.619998931884766,0.0,0.0,0.0,66.7128,C,25821045000000,
Raw,1732146937000,19405000000,,95.77209556708131,-1416182135595000064,0.0,95.77209556708131,2147.930699688915,0.0,0,13,0.0,16431,345354930218960,51,36.159000396728516,396.23008016848286,0.14999,17,7633.422006294981,0.00022499999613501132,1575420030,,,,0,23.643938765380636,1,6.0,36.159000396728516,0.0,0.0,0.0,66.7128,C,25821045000000,
Raw,1732146937000,19405000000,,95.77209556708131,-1416182135595000064,0.0,95.77209556708131,2147.930699688915,0.0,0,19,0.0,16431,345354921533593,235,27.34000015258789,-45.07511686786952,0.14999,16,0.0,0.0,1575420030,,,,0,13.17712846322272,1,6.0,27.34000015258789,0.0,0.0,0.0,66.7128,C,25821045000000,
Raw,1732146937000,19405000000,,95.77209556708131,-1416182135595000064,0.0,95.77209556708131,2147.930699688915,0.0,0,15,0.0,16431,345354922811251,235,29.077999114990234,206.44642786327725,0.14999,16,0.0,0.0,1575420030,,,,0,15.394173969816618,1,6.0,29.077999114990234,0.0,0.0,0.0,66.7128,C,25821045000000,
Raw,1732146937000,19405000000,,95.77209556708131,-1416182135595000064,0.0,95.77209556708131,2147.930699688915,0.0,0,7,0.0,16431,345354925885160,31,41.89799880981445,1025.24934644311,0.14999,16,0.0,0.0,1575420030,,,,0,29.806445697381413,1,6.0,41.89799880981445,0.0,0.0,0.0,66.7128,C,25821045000000,
Raw,1732146937000,19405000000,,95.77209556708131,-1416182135595000064,0.0,95.77209556708131,2147.930699688915,0.0,0,27,0.0,16431,345354919435492,58,31.62299919128418,902.2587732901304,0.14999,16,0.0,0.0,1575420030,,,,0,20.745344227541896,6,6.0,31.62299919128418,0.0,0.0,3.715874792832468,66.7128,C,25821045000000,
Raw,1732146937000,19405000000,,95.77209556708131,-1416182135595000064,0.0,95.77209556708131,2147.930699688915,0.0,0,19,0.0,16431,345354920202034,235,28.600000381469727,493.9363107167038,0.14999,16,0.0,0.0,1575420030,,,,0,15.394173969816618,6,6.0,28.600000381469727,0.0,0.0,3.715874792832468,66.7128,C,25821045000000,
Raw,1732146937000,19405000000,,95.77209556708131,-1416182135595000064,0.0,95.77209556708131,2147.930699688915,0.0,0,29,0.0,16431,345354920234425,74,26.200000762939453,966.7457495784978,0.14999,16,0.0,0.0,1575420030,,,,0,12.571261266630657,6,6.0,26.200000762939453,0.0,0.0,3.715874792832468,66.7128,C,25821045000000,
Raw,1732146937000,19405000000,,95.77209556708131,-1416182135595000064,0.0,95.77209556708131,2147.930699688915,0.0,0,21,0.0,16431,345354919805770,74,29.5,487.1374931716212,0.14999,16,0.0,0.0,1575420030,,,,0,16.42782343123021,6,6.0,29.5,0.0,0.0,3.715874792832468,66.7128,C,25821045000000,
Raw,1732146937000,19405000000,,95.77209556708131,-1416182135595000064,0.0,95.77209556708131,2147.930699688915,0.0,0,9,0.0,32995,10536933254796,316,5.0,793.4545313308139,0.14999,16,0.0,0.0,1600875010,,,,0,11.60240530030078,3,6.0,25.0,0.0,0.0,34.4999485331158,66.7128,C,25821045000000,
Raw,1732146937000,19405000000,,95.77209556708131,-1416182135595000064,0.0,95.77209556708131,2147.930699688915,0.0,0,8,0.0,17,342246,74,5.0,533.5664516512247,0.14999,16,0.0,0.0,1605374980,,,,0,15.987072816239188,3,6.0,30.0,0.0,0.0,34.4999485331158,66.7128,C,25821045000000,
Raw,1732146937000,19405000000,,95.77209556708131,-1416182135595000064,0.0,95.77209556708131,2147.930699688915,0.0,0,20,0.0,17,66643,797,5.0,-136.30923522626037,0.14999,16,0.0,0.0,1603124990,,,,0,2.8007683872270563,3,6.0,17.0,0.0,0.0,34.4999485331158,66.7128,C,25821045000000,
Raw,1732146937000,19405000000,,95.77209556708131,-1416182135595000064,0.0,95.77209556708131,2147.930699688915,0.0,0,16,0.0,17,242527,487,5.0,1131.82241513604,0.14999,16,0.0,0.0,1601437440,,,,0,0.0,3,6.0,18.0,0.0,0.0,34.4999485331158,66.7128,C,25821045000000,
Raw,1732146937000,19405000000,,95.77209556708131,-1416182135595000064,0.0,95.77209556708131,2147.930699688915,0.0,0,22,0.0,16431,345354930636555,58,34.257999420166016,514.143724056391,0.14999,16,0.0,0.0,1575420030,,,,0,21.52149605401653,1,6.0,34.257999420166016,0.0,0.0,0.0,66.7128,C,25821045000000,
Raw,1732146937000,19405000000,,95.77209556708131,-1416182135595000064,0.0,95.77209556708131,2147.930699688915,0.0,0,14,0.0,16431,345354932609854,42,39.073001861572266,659.9802698393189,0.14999,16,0.0,0.0,1575420030,,,,0,26.81093220104399,1,6.0,39.073001861572266,0.0,0.0,0.0,66.7128,C,25821045000000,
Raw,1732146937000,19405000000,,95.77209556708131,-1416182135595000064,0.0,95.77209556708131,2147.930699688915,0.0,0,2,0.0,16431,345354920278075,396,22.832000732421875,467.79866638140635,0.14999,16,0.0,0.0,1575420030,,,,0,6.842924464239849,1,6.0,22.832000732421875,0.0,0.0,0.0,66.7128,C,25821045000000,
Status,1732146937000,29,0,1,14,1575420030,46.90,335.0,73.0,1,0,0,41.9
Status,1732146937000,29,1,1,30,1575420030,42.50,84.0,68.0,1,0,0,37.5
Status,1732146937000,29,2,1,22,1575420030,41.20,278.0,62.0,1,0,0,36.2
Status,1732146937000,29,3,1,13,1575420030,44.10,298.0,50.0,1,0,0,39.1
Status,1732146937000,29,4,1,17,1575420030,37.90,174.0,49.0,1,0,0,32.9
Status,1732146937000,29,5,1,7,1575420030,40.10,107.0,35.0,1,0,0,35.1
Status,1732146937000,29,6,2,131,1575420030,43.00,2.0,24.0,0,0,0,38.0
Status,1732146937000,29,7,1,19,1575420030,32.90,193.0,21.0,1,0,0,27.900002
Status,1732146937000,29,8,1,15,1575420030,36.80,313.0,20.0,1,0,0,31.8
Status,1732146937000,29,9,1,2,1575420030,29.20,84.0,18.0,1,0,0,24.2
Status,1732146937000,29,10,1,21,1575420030,24.70,65.0,14.0,1,0,0,19.7
Status,1732146937000,29,11,1,8,1575420030,0.00,39.0,6.0,0,0,0,0.0
Status,1732146937000,29,12,1,5,1575420030,0.00,259.0,4.0,0,0,0,0.0
Status,1732146937000,29,13,3,9,1602000000,36.10,24.0,52.0,1,0,0,31.099998
Status,1732146937000,29,14,3,8,1602000000,30.70,297.0,40.0,1,0,0,25.7
Status,1732146937000,29,15,3,20,1602000000,24.10,147.0,14.0,1,0,0,19.1
Status,1732146937000,29,16,3,16,1602000000,22.50,71.0,12.0,1,0,0,17.5
Status,1732146937000,29,17,3,11,1602000000,0.00,275.0,4.0,0,0,0,0.0
Status,1732146937000,29,18,3,17,1602000000,40.20,0.0,0.0,0,0,0,35.2
Status,1732146937000,29,19,6,21,1575420030,39.30,274.0,59.0,1,0,0,34.3
Status,1732146937000,29,20,6,29,1575420030,29.00,202.0,58.0,1,0,0,24.0
Status,1732146937000,29,21,6,27,1575420030,40.60,39.0,56.0,1,0,0,35.6
Status,1732146937000,29,22,6,19,1575420030,33.90,293.0,52.0,1,0,0,28.900002
Status,1732146937000,29,23,6,7,1575420030,0.00,161.0,13.0,0,0,0,0.0
Status,1732146937000,29,24,6,15,1575420030,0.00,92.0,13.0,0,0,0,0.0
Status,1732146937000,29,25,6,30,1575420030,0.00,60.0,8.0,0,0,0,0.0
Status,1732146937000,29,26,6,34,1575420030,0.00,44.0,6.0,0,0,0,0.0
Status,1732146937000,29,27,6,4,1575420030,0.00,325.0,3.0,0,0,0,0.0
Status,1732146937000,29,28,6,13,1575420030,0.00,140.0,3.0,0,0,0,0.0
Fix,GPS,37.4244000000,-122.1712350000,12.099999999999998,0.46170583,1.7,48.73,1732146938000,1.6,62.8,25822045000000,38.8,0,,,
Raw,1732146938000,20405000000,,106.01881087961497,-1416182135595000064,0.0,106.01881087961497,2144.7204696016897,0.0,0,30,0.0,16431,345355931543569,51,37.54600143432617,765.8348884651224,0.14999,17,15563.82410553298,0.00022499999613501132,1575420030,,,,0,25.15650675023913,1,6.0,37.54600143432617,0.0,0.0,0.0,66.7128,C,25822045000000,
Raw,1732146938000,20405000000,,106.01881087961497,-1416182135595000064,0.0,106.01881087961497,2144.7204696016897,0.0,0,17,0.0,16431,345355929782725,74,32.88399887084961,198.83965200187717,0.14999,16,0.0,0.0,1575420030,,,,0,19.949648612343832,1,6.0,32.88399887084961,0.0,0.0,0.0,66.7128,C,25822045000000,
Raw,1732146938000,20405000000,,106.01881087961497,-1416182135595000064,0.0,106.01881087961497,2144.7204696016897,0.0,0,13,0.0,16431,345355930217636,42,39.12200164794922,395.79848148188694,0.14999,16,0.0,0.0,1575420030,,,,0,26.86206341352897,1,6.0,39.12200164794922,0.0,0.0,0.0,66.7128,C,25822045000000,
Raw,1732146938000,20405000000,,106.01881087961497,-1416182135595000064,0.0,106.01881087961497,2144.7204696016897,0.0,0,19,0.0,16431,345355921533740,235,27.865999221801758,-46.07699261344978,0.14999,16,0.0,0.0,1575420030,,,,0,13.858143083771216,1,6.0,27.865999221801758,0.0,0.0,0.0,66.7128,C,25822045000000,
Raw,1732146938000,20405000000,,106.01881087961497,-1416182135595000064,0.0,106.01881087961497,2144.7204696016897,0.0,0,27,0.0,16431,345355919432484,51,35.599998474121094,901.0799374372042,0.14999,16,0.0,0.0,1575420030,,,,0,23.120820734576515,6,6.0,35.599998474121094,0.0,0.0,3.994806032049541,66.7128,C,25822045000000,
Raw,1732146938000,20405000000,,106.01881087961497,-1416182135595000064,0.0,106.01881087961497,2144.7204696016897,0.0,0,19,0.0,16431,345355920200384,74,28.899999618530273,492.7357787834073,0.14999,16,0.0,0.0,1575420030,,,,0,15.67590319538872,6,6.0,28.899999618530273,0.0,0.0,3.994806032049541,66.7128,C,25822045000000,
Raw,1732146938000,20405000000,,106.01881087961497,-1416182135595000064,0.0,106.01881087961497,2144.7204696016897,0.0,0,29,0.0,16431,345355920231200,316,24.0,965.8976976489906,0.14999,16,0.0,0.0,1575420030,,,,0,9.79281364179005,6,6.0,24.0,0.0,0.0,3.994806032049541,66.7128,C,25822045000000,
Raw,1732146938000,20405000000,,106.01881087961497,-1416182135595000064,0.0,106.01881087961497,2144.7204696016897,0.0,0,21,0.0,16431,345355919804142,58,34.29999923706055,486.16539727083193,0.14999,16,0.0,0.0,1575420030,,,,0,21.71957321423098,6,6.0,34.29999923706055,0.0,0.0,3.994806032049541,66.7128,C,25822045000000,
Raw,1732146938000,20405000000,,106.01881087961497,-1416182135595000064,0.0,106.01881087961497,2144.7204696016897,0.0,0,9,0.0,32995,10537933252154,74,5.0,791.8712582641225,0.14999,16,0.0,0.0,1600875010,,,,0,18.156777271782662,3,6.0,30.0,0.0,0.0,34.40216310058677,66.7128,C,25822045000000,
Raw,1732146938000,20405000000,,106.01881087961497,-1416182135595000064,0.0,106.01881087961497,2144.7204696016897,0.0,0,8,0.0,17,340467,316,5.0,533.3264577861767,0.14999,16,0.0,0.0,1605374980,,,,0,11.904673163120695,3,6.0,26.0,0.0,0.0,34.40216310058677,66.7128,C,25822045000000,
Raw,1732146938000,20405000000,,106.01881087961497,-1416182135595000064,0.0,106.01881087961497,2144.7204696016897,0.0,0,20,0.0,17,67096,487,5.0,-136.74497158395286,0.14999,16,0.0,0.0,1603124990,,,,0,2.652288025642919,3,6.0,20.0,0.0,0.0,34.40216310058677,66.7128,C,25822045000000,
Raw,1732146938000,20405000000,,106.01881087961497,-1416182135595000064,0.0,106.01881087961497,2144.7204696016897,0.0,0,16,0.0,17,238753,487,5.0,1130.79572863604,0.14999,16,0.0,0.0,1601437440,,,,0,0.0,3,6.0,20.0,0.0,0.0,34.40216310058677,66.7128,C,25822045000000,
Raw,1732146938000,20405000000,,106.01881087961497,-1416182135595000064,0.0,106.01881087961497,2144.7204696016897,0.0,0,21,0.0,16431,345355920138862,487,19.69099998474121,678.4928801556455,0.14999,16,0.0,0.0,1575420030,,,,0,1.6733715646694995,1,6.0,19.69099998474121,0.0,0.0,0.0,66.7128,C,25822045000000,
Raw,1732146938000,20405000000,,106.01881087961497,-1416182135595000064,0.0,106.01881087961497,2144.7204696016897,0.0,0,7,0.0,16431,345355925881727,58,35.08300018310547,1024.4687521339404,0.14999,16,0.0,0.0,1575420030,,,,0,22.448423344509834,1,6.0,35.08300018310547,0.0,0.0,0.0,66.7128,C,25822045000000,
Raw,1732146938000,20405000000,,106.01881087961497,-1416182135595000064,0.0,106.01881087961497,2144.7204696016897,0.0,0,15,0.0,16431,345355922810528,74,31.840999603271484,205.67837732648462,0.14999,16,0.0,0.0,1575420030,,,,0,18.739221937260066,1,6.0,31.840999603271484,0.0,0.0,0.0,66.7128,C,25822045000000,
Raw,1732146938000,20405000000,,106.01881087961497,-1416182135595000064,0.0,106.01881087961497,2144.7204696016897,0.0,0,22,0.0,16431,345355930634839,51,36.1510009765625,514.4055172317373,0.14999,16,0.0,0.0,1575420030,,,,0,23.634703368829474,1,6.0,36.1510009765625,0.0,0.0,0.0,66.7128,C,25822045000000,
Raw,1732146938000,20405000000,,106.01881087961497,-1416182135595000064,0.0,106.01881087961497,2144.7204696016897,0.0,0,14,0.0,16431,345355932607648,31,41.86199951171875,659.7011941331422,0.14999,17,13382.850911299445,0.00022499999613501132,1575420030,,,,0,29.77004589706826,1,6.0,41.86199951171875,0.0,0.0,0.0,66.7128,C,25822045000000,
Raw,1732146938000,20405000000,,106.01881087961497,-1416182135595000064,0.0,106.01881087961497,2144.7204696016897,0.0,0,2,0.0,16431,345355920276518,396,24.229999542236328,467.6866551399227,0.14999,16,0.0,0.0,1575420030,,,,0,8.933068359411408,1,6.0,24.229999542236328,0.0,0.0,0.0,66.7128,C,25822045000000,
Fix,FLP,37.4243972000,-122.1712370000,-0.3128143255274143,0.095892094,1.7,,1732146938197,1.6,,25822045000000,0.959755,0,,,
Status,1732146938000,29,0,1,14,1575420030,42.30,335.0,73.0,1,0,0,37.3
Status,1732146938000,29,1,1,30,1575420030,39.60,84.0,68.0,1,0,0,34.6
Status,1732146938000,29,2,1,22,1575420030,42.50,278.0,62.0,1,0,0,37.5
Status,1732146938000,29,3,1,13,1575420030,45.00,298.0,50.0,1,0,0,40.0
Status,1732146938000,29,4,1,17,1575420030,45.70,174.0,49.0,1,0,0,40.7
Status,1732146938000,29,5,1,7,1575420030,43.20,107.0,35.0,1,0,0,38.2
Status,1732146938000,29,6,2,131,1575420030,38.00,2.0,24.0,0,0,0,33.0
Status,1732146938000,29,7,1,19,1575420030,39.90,193.0,21.0,1,0,0,34.9
Status,1732146938000,29,8,1,15,1575420030,37.10,313.0,20.0,1,0,0,32.1
Status,1732146938000,29,9,1,2,1575420030,27.90,84.0,18.0,1,0,0,22.9
Status,1732146938000,29,10,1,21,1575420030,23.90,65.0,14.0,1,0,0,18.9
Status,1732146938000,29,11,1,8,1575420030,0.00,39.0,6.0,0,0,0,0.0
Status,1732146938000,29,12,1,5,1575420030,0.00,259.0,4.0,0,0,0,0.0
Status,1732146938000,29,13,3,9,1602000000,37.90,24.0,52.0,1,0,0,32.9
Status,1732146938000,29,14,3,8,1602000000,30.00,297.0,40.0,1,0,0,25.0
Status,1732146938000,29,15,3,20,1602000000,24.10,147.0,14.0,1,0,0,19.1
Status,1732146938000,29,16,3,16,1602000000,24.60,71.0,12.0,1,0,0,19.6
Status,1732146938000,29,17,3,11,1602000000,0.00,275.0,4.0,0,0,0,0.0
Status,1732146938000,29,18,3,17,1602000000,44.90,0.0,0.0,0,0,0,39.9
Status,1732146938000,29,19,6,21,1575420030,37.50,274.0,59.0,1,0,0,32.5
Status,1732146938000,29,20,6,29,1575420030,37.90,202.0,58.0,1,0,0,32.9
Status,1732146938000,29,21,6,27,1575420030,40.50,39.0,56.0,1,0,0,35.5
Status,1732146938000,29,22,6,19,1575420030,29.40,293.0,52.0,1,0,0,24.4
Status,1732146938000,29,23,6,7,1575420030,0.00,161.0,13.0,0,0,0,0.0
Status,1732146938000,29,24,6,15,1575420030,0.00,92.0,13.0,0,0,0,0.0
Status,1732146938000,29,25,6,30,1575420030,0.00,60.0,8.0,0,0,0,0.0
Status,1732146938000,29,26,6,34,1575420030,0.00,44.0,6.0,0,0,0,0.0
Status,1732146938000,29,27,6,4,1575420030,0.00,325.0,3.0,0,0,0,0.0
Status,1732146938000,29,28,6,13,1575420030,0.00,140.0,3.0,0,0,0,0.0
Fix,GPS,37.4244083333,-122.1712300000,12.099999999999998,0.46582362,1.7,45.15,1732146939000,1.8,89.0,25823045000000,38.0,0,,,
Raw,1732146939000,21405000000,,102.70015072006211,-1416182135595000064,0.0,102.70015072006211,2143.503337050067,0.0,0,30,0.0,16431,345356931541011,58,34.57899856567383,766.2914817796395,0.14999,17,16329.669775254315,0.00039999998989515007,1575420030,,,,0,21.87937069746574,1,6.0,34.57899856567383,0.0,0.0,0.0,66.7128,C,25823045000000,
Raw,1732146939000,21405000000,,102.70015072006211,-1416182135595000064,0.0,102.70015072006211,2143.503337050067,0.0,0,17,0.0,16431,345356929782059,42,40.65999984741211,199.55882828481631,0.14999,16,0.0,0.0,1575420030,,,,0,28.50074291436052,1,6.0,40.65999984741211,0.0,0.0,0.0,66.7128,C,25823045000000,
Raw,1732146939000,21405000000,,102.70015072006211,-1416182135595000064,0.0,102.70015072006211,2143.503337050067,0.0,0,13,0.0,16431,345356930216316,42,39.981998443603516,395.35117985061186,0.14999,16,0.0,0.0,1575420030,,,,0,27.780398953601978,1,6.0,39.981998443603516,0.0,0.0,0.0,66.7128,C,25823045000000,
Raw,1732146939000,21405000000,,102.70015072006211,-1416182135595000064,0.0,102.70015072006211,2143.503337050067,0.0,0,19,0.0,16431,345356921533889,58,34.85300064086914,-46.048745896393775,0.14999,16,0.0,0.0,1575420030,,,,0,22.190407651588878,1,6.0,34.85300064086914,0.0,0.0,0.0,66.7128,C,25823045000000,
Raw,1732146939000,21405000000,,102.70015072006211,-1416182135595000064,0.0,102.70015072006211,2143.503337050067,0.0,0,27,0.0,16431,345356919429475,58,35.529998779296875,900.9944539513768,0.14999,16,0.0,0.0,1575420030,,,,0,21.591922572047007,6,6.0,35.529998779296875,0.0,0.0,4.118819983934979,66.7128,C,25823045000000,
Raw,1732146939000,21405000000,,102.70015072006211,-1416182135595000064,0.0,102.70015072006211,2143.503337050067,0.0,0,19,0.0,16431,345356920198739,235,24.399999618530273,492.72230584270625,0.14999,16,0.0,0.0,1575420030,,,,0,10.322067055099758,6,6.0,24.399999618530273,0.0,0.0,4.118819983934979,66.7128,C,25823045000000,
Raw,1732146939000,21405000000,,102.70015072006211,-1416182135595000064,0.0,102.70015072006211,2143.503337050067,0.0,0,29,0.0,16431,345356920227980,58,32.900001525878906,965.6809226789522,0.14999,16,0.0,0.0,1575420030,,,,0,20.172733481718186,6,6.0,32.900001525878906,0.0,0.0,4.118819983934979,66.7128,C,25823045000000,
Raw,1732146939000,21405000000,,102.70015072006211,-1416182135595000064,0.0,102.70015072006211,2143.503337050067,0.0,0,21,0.0,16431,345356919802518,58,32.5,486.1342701319709,0.14999,16,0.0,0.0,1575420030,,,,0,19.74963573689029,6,6.0,32.5,0.0,0.0,4.118819983934979,66.7128,C,25823045000000,
Raw,1732146939000,21405000000,,102.70015072006211,-1416182135595000064,0.0,102.70015072006211,2143.503337050067,0.0,0,9,0.0,32995,10538933249514,58,5.0,792.0334717449374,0.14999,16,0.0,0.0,1600875010,,,,0,20.23421038261217,3,6.0,33.0,0.0,0.0,34.46127689777736,66.7128,C,25823045000000,
Raw,1732146939000,21405000000,,102.70015072006211,-1416182135595000064,0.0,102.70015072006211,2143.503337050067,0.0,0,8,0.0,17,338686,316,5.0,532.4803699921869,0.14999,16,0.0,0.0,1605374980,,,,0,11.143806087375992,3,6.0,25.0,0.0,0.0,34.46127689777736,66.7128,C,25823045000000,
Raw,1732146939000,21405000000,,102.70015072006211,-1416182135595000064,0.0,102.70015072006211,2143.503337050067,0.0,0,20,0.0,17,67557,487,5.0,-136.4956924019536,0.14999,16,0.0,0.0,1603124990,,,,0,3.2315619443492505,3,6.0,18.0,0.0,0.0,34.46127689777736,66.7128,C,25823045000000,
Raw,1732146939000,21405000000,,102.70015072006211,-1416182135595000064,0.0,102.70015072006211,2143.503337050067,0.0,0,16,0.0,17,234982,797,5.0,1130.454596689993,0.14999,16,0.0,0.0,1601437440,,,,0,3.5822204923064964,3,6.0,17.0,0.0,0.0,34.46127689777736,66.7128,C,25823045000000,
Raw,1732146939000,21405000000,,102.70015072006211,-1416182135595000064,0.0,102.70015072006211,2143.503337050067,0.0,0,21,0.0,16431,345356920136579,487,18.913000106811523,679.0273377757316,0.14999,16,0.0,0.0,1575420030,,,,0,0.2957457765132423,1,6.0,18.913000106811523,0.0,0.0,0.0,66.7128,C,25823045000000,
Raw,1732146939000,21405000000,,102.70015072006211,-1416182135595000064,0.0,102.70015072006211,2143.503337050067,0.0,0,7,0.0,16431,345356925878321,51,38.215999603271484,1024.4054757710617,0.14999,17,14361.122639694355,0.00022499999613501132,1575420030,,,,0,25.885092062772628,1,6.0,38.215999603271484,0.0,0.0,0.0,66.7128,C,25823045000000,
Raw,1732146939000,21405000000,,102.70015072006211,-1416182135595000064,0.0,102.70015072006211,2143.503337050067,0.0,0,15,0.0,16431,345356922809840,74,32.06700134277344,205.69631027514188,0.14999,16,0.0,0.0,1575420030,,,,0,19.010927851419478,1,6.0,32.06700134277344,0.0,0.0,0.0,66.7128,C,25823045000000,
Raw,1732146939000,21405000000,,102.70015072006211,-1416182135595000064,0.0,102.70015072006211,2143.503337050067,0.0,0,22,0.0,16431,345356930633120,51,37.49300003051758,514.0155452860661,0.14999,16,0.0,0.0,1575420030,,,,0,25.102049583529666,1,6.0,37.49300003051758,0.0,0.0,0.0,66.7128,C,25823045000000,
Raw,1732146939000,21405000000,,102.70015072006211,-1416182135595000064,0.0,102.70015072006211,2143.503337050067,0.0,0,14,0.0,16431,345356932605446,51,37.292999267578125,659.7139237391839,0.14999,17,14042.252602541534,0.00022499999613501132,1575420030,,,,0,24.880741060526464,1,6.0,37.292999267578125,0.0,0.0,0.0,66.7128,C,25823045000000,
Raw,1732146939000,21405000000,,102.70015072006211,-1416182135595000064,0.0,102.70015072006211,2143.503337050067,0.0,0,2,0.0,16431,345356920274960,396,22.8700008392334,466.9422983953975,0.14999,16,0.0,0.0,1575420030,,,,0,6.9065576399636335,1,6.0,22.8700008392334,0.0,0.0,0.0,66.7128,C,25823045000000,
Fix,FLP,37.4244026000,-122.1712341000,-0.22936209607307667,0.08262479,1.7,,1732146939198,1.8,,25823045000000,0.9603644,0,,,
Status,1732146939000,29,0,1,14,1575420030,47.60,335.0,73.0,1,0,0,42.6
Status,1732146939000,29,1,1,30,1575420030,44.40,84.0,68.0,1,0,0,39.4
Status,1732146939000,29,2,1,22,1575420030,41.00,278.0,62.0,1,0,0,36.0
Status,1732146939000,29,3,1,13,1575420030,44.90,298.0,50.0,1,0,0,39.9
Status,1732146939000,29,4,1,17,1575420030,44.20,174.0,49.0,1,0,0,39.2
Status,1732146939000,29,5,1,7,1575420030,35.50,107.0,35.0,1,0,0,30.5
Status,1732146939000,29,6,2,131,1575420030,40.00,2.0,24.0,0,0,0,35.0
Status,1732146939000,29,7,1,19,1575420030,37.60,193.0,21.0,1,0,0,32.6
Status,1732146939000,29,8,1,15,1575420030,39.10,313.0,20.0,1,0,0,34.1
Status,1732146939000,29,9,1,2,1575420030,29.70,84.0,18.0,1,0,0,24.7
Status,1732146939000,29,10,1,21,1575420030,25.30,65.0,14.0,1,0,0,20.3
Status,1732146939000,29,11,1,8,1575420030,0.00,39.0,6.0,0,0,0,0.0
Status,1732146939000,29,12,1,5,1575420030,0.00,259.0,4.0,0,0,0,0.0
Status,1732146939000,29,13,3,9,1602000000,34.70,24.0,52.0,1,0,0,29.7
Status,1732146939000,29,14,3,8,1602000000,38.40,297.0,40.0,1,0,0,33.4
Status,1732146939000,29,15,3,20,1602000000,24.00,147.0,14.0,1,0,0,19.0
Status,1732146939000,29,16,3,16,1602000000,20.50,71.0,12.0,1,0,0,15.5
Status,1732146939000,29,17,3,11,1602000000,0.00,275.0,4.0,0,0,0,0.0
Status,1732146939000,29,18,3,17,1602000000,36.30,0.0,0.0,0,0,0,31.3
Status,1732146939000,29,19,6,21,1575420030,34.70,274.0,59.0,1,0,0,29.7
Status,1732146939000,29,20,6,29,1575420030,37.40,202.0,58.0,1,0,0,32.4
Status,1732146939000,29,21,6,27,1575420030,40.50,39.0,56.0,1,0,0,35.5
Status,1732146939000,29,22,6,19,1575420030,32.60,293.0,52.0,1,0,0,27.599998
Status,1732146939000,29,23,6,7,1575420030,0.00,161.0,13.0,0,0,0,0.0
Status,1732146939000,29,24,6,15,1575420030,0.00,92.0,13.0,0,0,0,0.0
Status,1732146939000,29,25,6,30,1575420030,0.00,60.0,8.0,0,0,0,0.0
Status,1732146939000,29,26,6,34,1575420030,0.00,44.0,6.0,0,0,0,0.0
Status,1732146939000,29,27,6,4,1575420030,0.00,325.0,3.0,0,0,0,0.0
Status,1732146939000,29,28,6,13,1575420030,0.00,140.0,3.0,0,0,0,0.0
Fix,GPS,37.4244083333,-122.1712216667,12.2,0.44111696,1.7,76.67,1732146940000,1.7,125.0,25824045000000,35.6,0,,,
Fix,FLP,37.4244055000,-122.1712285000,0.020490662888853706,0.0692976,1.7,,1732146940197,1.7,,25824045000000,0.9709384,0,,,
Raw,1732146940000,22405000000,,96.08511093114942,-1416182135595000064,0.0,96.08511093114942,2141.163267224765,0.0,0,30,0.0,16431,345357931538458,42,39.40800094604492,765.7215763879849,0.14999,17,17094.884104135857,0.00022499999613501132,1575420030,,,,0,27.1688402311512,1,6.0,39.40800094604492,0.0,0.0,0.0,66.7128,C,25824045000000,
Raw,1732146940000,22405000000,,96.08511093114942,-1416182135595000064,0.0,96.08511093114942,2141.163267224765,0.0,0,17,0.0,16431,345357929781397,42,39.23699951171875,199.2290199881377,0.14999,17,4526.400913833878,0.00022499999613501132,1575420030,,,,0,26.98230715759909,1,6.0,39.23699951171875,0.0,0.0,0.0,66.7128,C,25824045000000,
Raw,1732146940000,22405000000,,96.08511093114942,-1416182135595000064,0.0,96.08511093114942,2141.163267224765,0.0,0,13,0.0,16431,345357930214992,42,39.92300033569336,395.1899691463613,0.14999,16,0.0,0.0,1575420030,,,,0,27.71710302194797,1,6.0,39.92300033569336,0.0,0.0,0.0,66.7128,C,25824045000000,
Raw,1732146940000,22405000000,,96.08511093114942,-1416182135595000064,0.0,96.08511093114942,2141.163267224765,0.0,0,19,0.0,16431,345357921534040,74,32.5620002746582,-45.88409726934363,0.14999,16,0.0,0.0,1575420030,,,,0,19.57445219257753,1,6.0,32.5620002746582,0.0,0.0,0.0,66.7128,C,25824045000000,
Raw,1732146940000,22405000000,,96.08511093114942,-1416182135595000064,0.0,96.08511093114942,2141.163267224765,0.0,0,27,0.0,16431,345357919426469,51,35.50299835205078,900.6301270514538,0.14999,16,0.0,0.0,1575420030,,,,0,22.448423344509834,6,6.0,35.50299835205078,0.0,0.0,4.135946018900155,66.7128,C,25824045000000,
Raw,1732146940000,22405000000,,96.08511093114942,-1416182135595000064,0.0,96.08511093114942,2141.163267224765,0.0,0,19,0.0,16431,345357920197097,235,27.600000381469727,492.11537309333175,0.14999,16,0.0,0.0,1575420030,,,,0,14.220688696524153,6,6.0,27.600000381469727,0.0,0.0,4.135946018900155,66.7128,C,25824045000000,
Raw,1732146940000,22405000000,,96.08511093114942,-1416182135595000064,0.0,96.08511093114942,2141.163267224765,0.0,0,29,0.0,16431,345357920224759,58,32.400001525878906,965.3572004347972,0.14999,16,0.0,0.0,1575420030,,,,0,19.603895914460608,6,6.0,32.400001525878906,0.0,0.0,4.135946018900155,66.7128,C,25824045000000,
Raw,1732146940000,22405000000,,96.08511093114942,-1416182135595000064,0.0,96.08511093114942,2141.163267224765,0.0,0,21,0.0,16431,345357919800896,74,29.700000762939453,485.3291457790422,0.14999,16,0.0,0.0,1575420030,,,,0,16.67839531606898,6,6.0,29.700000762939453,0.0,0.0,4.135946018900155,66.7128,C,25824045000000,
Raw,1732146940000,22405000000,,96.08511093114942,-1416182135595000064,0.0,96.08511093114942,2141.163267224765,0.0,0,9,0.0,32995,10539933246882,74,5.0,791.2583400217874,0.14999,16,0.0,0.0,1600875010,,,,0,16.634609703254633,3,6.0,30.0,0.0,0.0,34.91668341582912,66.7128,C,25824045000000,
Raw,1732146940000,22405000000,,96.08511093114942,-1416182135595000064,0.0,96.08511093114942,2141.163267224765,0.0,0,8,0.0,17,336907,58,5.0,533.0123320775556,0.14999,16,0.0,0.0,1605374980,,,,0,20.75459621249213,3,6.0,34.0,0.0,0.0,34.91668341582912,66.7128,C,25824045000000,
Raw,1732146940000,22405000000,,96.08511093114942,-1416182135595000064,0.0,96.08511093114942,2141.163267224765,0.0,0,20,0.0,17,68015,487,5.0,-135.78017896966557,0.14999,16,0.0,0.0,1603124990,,,,0,0.252781684107922,3,6.0,18.0,0.0,0.0,34.91668341582912,66.7128,C,25824045000000,
Raw,1732146940000,22405000000,,96.08511093114942,-1416182135595000064,0.0,96.08511093114942,2141.163267224765,0.0,0,16,0.0,17,231223,797,5.0,1129.8675791772614,0.14999,16,0.0,0.0,1601437440,,,,0,0.0,3,6.0,16.0,0.0,0.0,34.91668341582912,66.7128,C,25824045000000,
Raw,1732146940000,22405000000,,96.08511093114942,-1416182135595000064,0.0,96.08511093114942,2141.163267224765,0.0,0,21,0.0,16431,345357920134345,487,20.32699966430664,678.4824734704143,0.14999,16,0.0,0.0,1575420030,,,,0,2.760524811121354,1,6.0,20.32699966430664,0.0,0.0,0.0,66.7128,C,25824045000000,
Raw,1732146940000,22405000000,,96.08511093114942,-1416182135595000064,0.0,96.08511093114942,2141.163267224765,0.0,0,7,0.0,16431,345357925874907,74,30.503999710083008,1023.569874697099,0.14999,16,0.0,0.0,1575420030,,,,0,17.158843471078338,1,6.0,30.503999710083008,0.0,0.0,0.0,66.7128,C,25824045000000,
Raw,1732146940000,22405000000,,96.08511093114942,-1416182135595000064,0.0,96.08511093114942,2141.163267224765,0.0,0,15,0.0,16431,345357922809151,58,34.12200164794922,205.19167895826303,0.14999,16,0.0,0.0,1575420030,,,,0,21.366917620778437,1,6.0,34.12200164794922,0.0,0.0,0.0,66.7128,C,25824045000000,
Raw,1732146940000,22405000000,,96.08511093114942,-1416182135595000064,0.0,96.08511093114942,2141.163267224765,0.0,0,22,0.0,16431,345357930631405,51,36.0260009765625,513.3672645462642,0.14999,16,0.0,0.0,1575420030,,,,0,23.49498095161615,1,6.0,36.0260009765625,0.0,0.0,0.0,66.7128,C,25824045000000,
Raw,1732146940000,22405000000,,96.08511093114942,-1416182135595000064,0.0,96.08511093114942,2141.163267224765,0.0,0,14,0.0,16431,345357932603245,31,42.58599853515625,659.3785404325599,0.14999,17,14700.983451675447,0.00022499999613501132,1575420030,,,,0,30.52923608346488,1,6.0,42.58599853515625,0.0,0.0,0.0,66.7128,C,25824045000000,
Raw,1732146940000,22405000000,,96.08511093114942,-1416182135595000064,0.0,96.08511093114942,2141.163267224765,0.0,0,2,0.0,16431,345357920273407,316,24.663999557495117,465.7905013407058,0.14999,16,0.0,0.0,1575420030,,,,0,9.562405181193824,1,6.0,24.663999557495117,0.0,0.0,0.0,66.7128,C,25824045000000,
Status,1732146940000,29,0,1,14,1575420030,46.10,335.0,73.0,1,0,0,41.1
Status,1732146940000,29,1,1,30,1575420030,48.20,84.0,68.0,1,0,0,43.2
Status,1732146940000,29,2,1,22,1575420030,37.60,278.0,62.0,1,0,0,32.6
Status,1732146940000,29,3,1,13,1575420030,38.40,298.0,50.0,1,0,0,33.4
Status,1732146940000,29,4,1,17,1575420030,41.30,174.0,49.0,1,0,0,36.3
Status,1732146940000,29,5,1,7,1575420030,37.60,107.0,35.0,1,0,0,32.6
Status,1732146940000,29,6,2,131,1575420030,39.00,2.0,24.0,0,0,0,34.0
Status,1732146940000,29,7,1,19,1575420030,39.60,193.0,21.0,1,0,0,34.6
Status,1732146940000,29,8,1,15,1575420030,35.60,313.0,20.0,1,0,0,30.599998
Status,1732146940000,29,9,1,2,1575420030,29.70,84.0,18.0,1,0,0,24.7
Status,1732146940000,29,10,1,21,1575420030,26.60,65.0,14.0,1,0,0,21.6
Status,1732146940000,29,11,1,8,1575420030,0.00,39.0,6.0,0,0,0,0.0
Status,1732146940000,29,12,1,5,1575420030,0.00,259.0,4.0,0,0,0,0.0
Status,1732146940000,29,13,3,9,1602000000,43.00,24.0,52.0,1,0,0,38.0
Status,1732146940000,29,14,3,8,1602000000,34.40,297.0,40.0,1,0,0,29.400002
Status,1732146940000,29,15,3,20,1602000000,28.50,147.0,14.0,1,0,0,23.5
Status,1732146940000,29,16,3,16,1602000000,28.30,71.0,12.0,1,0,0,23.3
Status,1732146940000,29,17,3,11,1602000000,0.00,275.0,4.0,0,0,0,0.0
Status,1732146940000,29,18,3,17,1602000000,39.30,0.0,0.0,0,0,0,34.3
Status,1732146940000,29,19,6,21,1575420030,33.80,274.0,59.0,1,0,0,28.8
Status,1732146940000,29,20,6,29,1575420030,34.90,202.0,58.0,1,0,0,29.900002
Status,1732146940000,29,21,6,27,1575420030,43.90,39.0,56.0,1,0,0,38.9
Status,1732146940000,29,22,6,19,1575420030,32.20,293.0,52.0,1,0,0,27.2
Status,1732146940000,29,23,6,7,1575420030,0.00,161.0,13.0,0,0,0,0.0
Status,1732146940000,29,24,6,15,1575420030,0.00,92.0,13.0,0,0,0,0.0
Status,1732146940000,29,25,6,30,1575420030,0.00,60.0,8.0,0,0,0,0.0
Status,1732146940000,29,26,6,34,1575420030,0.00,44.0,6.0,0,0,0,0.0
Status,1732146940000,29,27,6,4,1575420030,0.00,325.0,3.0,0,0,0,0.0
Status,1732146940000,29,28,6,13,1575420030,0.00,140.0,3.0,0,0,0,0.0
Fix,GPS,37.4244066667,-122.1712133333,12.2,0.42258695,1.7,122.88,1732146941000,1.5,123.1,25825045000000,36.1,0,,,
Fix,FLP,37.4244061000,-122.1712214000,0.0807261084063029,0.043517586,1.7,,1732146941198,1.5,,25825045000000,0.9793597,0,,,
Raw,1732146941000,23405000000,,97.07770791502554,-1416182135595000064,0.0,97.07770791502554,2141.8156184381137,0.0,0,30,0.0,16431,345358931535905,31,43.167999267578125,766.0004662604968,0.14999,17,17860.669081743716,0.00022499999613501132,1575420030,,,,0,31.138243557798717,1,6.0,43.167999267578125,0.0,0.0,0.0,66.7128,C,25825045000000,
Raw,1732146941000,23405000000,,97.07770791502554,-1416182135595000064,0.0,97.07770791502554,2141.8156184381137,0.0,0,17,0.0,16431,345358929780729,51,36.25899887084961,199.078587636448,0.14999,16,0.0,0.0,1575420030,,,,0,23.754004309602028,1,6.0,36.25899887084961,0.0,0.0,0.0,66.7128,C,25825045000000,
Raw,1732146941000,23405000000,,97.07770791502554,-1416182135595000064,0.0,97.07770791502554,2141.8156184381137,0.0,0,13,0.0,16431,345358930213673,58,33.409000396728516,395.8104677532692,0.14999,16,0.0,0.0,1575420030,,,,0,20.549854588715696,1,6.0,33.409000396728516,0.0,0.0,0.0,66.7128,C,25825045000000,
Raw,1732146941000,23405000000,,97.07770791502554,-1416182135595000064,0.0,97.07770791502554,2141.8156184381137,0.0,0,19,0.0,16431,345358921534191,58,34.606998443603516,-46.39040108920607,0.14999,16,0.0,0.0,1575420030,,,,0,21.91323385785464,1,6.0,34.606998443603516,0.0,0.0,0.0,66.7128,C,25825045000000,
Raw,1732146941000,23405000000,,97.07770791502554,-1416182135595000064,0.0,97.07770791502554,2141.8156184381137,0.0,0,27,0.0,16431,345358919423465,42,38.900001525878906,901.0715749222863,0.14999,16,0.0,0.0,1575420030,,,,0,26.57704220776281,6,6.0,38.900001525878906,0.0,0.0,4.096678974423057,66.7128,C,25825045000000,
Raw,1732146941000,23405000000,,97.07770791502554,-1416182135595000064,0.0,97.07770791502554,2141.8156184381137,0.0,0,19,0.0,16431,345358920195453,235,27.200000762939453,493.1051231922811,0.14999,16,0.0,0.0,1575420030,,,,0,13.772285155978512,6,6.0,27.200000762939453,0.0,0.0,4.096678974423057,66.7128,C,25825045000000,
Raw,1732146941000,23405000000,,97.07770791502554,-1416182135595000064,0.0,97.07770791502554,2141.8156184381137,0.0,0,29,0.0,16431,345358920221535,74,29.899999618530273,966.4584507326518,0.14999,16,0.0,0.0,1575420030,,,,0,16.86169170005013,6,6.0,29.899999618530273,0.0,0.0,4.096678974423057,66.7128,C,25825045000000,
Raw,1732146941000,23405000000,,97.07770791502554,-1416182135595000064,0.0,97.07770791502554,2141.8156184381137,0.0,0,21,0.0,16431,345358919799275,58,28.799999237060547,486.06444313240644,0.14999,16,0.0,0.0,1575420030,,,,0,15.629578340845104,6,6.0,28.799999237060547,0.0,0.0,4.096678974423057,66.7128,C,25825045000000,
Raw,1732146941000,23405000000,,97.07770791502554,-1416182135595000064,0.0,97.07770791502554,2141.8156184381137,0.0,0,9,0.0,32995,10540933244241,51,5.0,791.7232178890157,0.14999,16,0.0,0.0,1600875010,,,,0,25.56388401277193,3,6.0,38.0,0.0,0.0,34.92317169796291,66.7128,C,25825045000000,
Raw,1732146941000,23405000000,,97.07770791502554,-1416182135595000064,0.0,97.07770791502554,2141.8156184381137,0.0,0,8,0.0,17,335128,74,5.0,532.44654106972,0.14999,16,0.0,0.0,1605374980,,,,0,16.25758026930803,3,6.0,30.0,0.0,0.0,34.92317169796291,66.7128,C,25825045000000,
Raw,1732146941000,23405000000,,97.07770791502554,-1416182135595000064,0.0,97.07770791502554,2141.8156184381137,0.0,0,20,0.0,17,68467,316,5.0,-137.3033386894201,0.14999,16,0.0,0.0,1603124990,,,,0,9.110924767879139,3,6.0,24.0,0.0,0.0,34.92317169796291,66.7128,C,25825045000000,
Raw,1732146941000,23405000000,,97.07770791502554,-1416182135595000064,0.0,97.07770791502554,2141.8156184381137,0.0,0,16,0.0,17,227455,396,5.0,1129.995000917023,0.14999,16,0.0,0.0,1601437440,,,,0,8.930648385964517,3,6.0,22.0,0.0,0.0,34.92317169796291,66.7128,C,25825045000000,
Raw,1732146941000,23405000000,,97.07770791502554,-1416182135595000064,0.0,97.07770791502554,2141.8156184381137,0.0,0,21,0.0,16431,345358920132080,396,21.576000213623047,678.8015034145321,0.14999,16,0.0,0.0,1575420030,,,,0,4.840621406574493,1,6.0,21.576000213623047,0.0,0.0,0.0,66.7128,C,25825045000000,
Raw,1732146941000,23405000000,,97.07770791502554,-1416182135595000064,0.0,97.07770791502554,2141.8156184381137,0.0,0,7,0.0,16431,345358925871486,58,32.64400100708008,1025.1541996067108,0.14999,16,0.0,0.0,1575420030,,,,0,19.677071491640227,1,6.0,32.64400100708008,0.0,0.0,0.0,66.7128,C,25825045000000,
Raw,1732146941000,23405000000,,97.07770791502554,-1416182135595000064,0.0,97.07770791502554,2141.8156184381137,0.0,0,15,0.0,16431,345358922808461,74,30.607999801635742,205.67493940368504,0.14999,16,0.0,0.0,1575420030,,,,0,17.274914993063142,1,6.0,30.607999801635742,0.0,0.0,0.0,66.7128,C,25825045000000,
Raw,1732146941000,23405000000,,97.07770791502554,-1416182135595000064,0.0,97.07770791502554,2141.8156184381137,0.0,0,22,0.0,16431,345358930629686,58,32.64400100708008,514.1252800651554,0.14999,16,0.0,0.0,1575420030,,,,0,19.677071491640227,1,6.0,32.64400100708008,0.0,0.0,0.0,66.7128,C,25825045000000,
Raw,1732146941000,23405000000,,97.07770791502554,-1416182135595000064,0.0,97.07770791502554,2141.8156184381137,0.0,0,14,0.0,16431,345358932601042,42,41.097999572753906,659.5180550564402,0.14999,17,15360.302115920465,0.00022499999613501132,1575420030,,,,0,28.96314071364496,1,6.0,41.097999572753906,0.0,0.0,0.0,66.7128,C,25825045000000,
Raw,1732146941000,23405000000,,97.07770791502554,-1416182135595000064,0.0,97.07770791502554,2141.8156184381137,0.0,0,2,0.0,16431,345358920271851,316,24.68600082397461,466.3643556977384,0.14999,16,0.0,0.0,1575420030,,,,0,10.149207825029633,1,6.0,24.68600082397461,0.0,0.0,0.0,66.7128,C,25825045000000,
Status,1732146941000,29,0,1,14,1575420030,45.90,335.0,73.0,1,0,0,40.9
Status,1732146941000,29,1,1,30,1575420030,46.30,84.0,68.0,1,0,0,41.3
Status,1732146941000,29,2,1,22,1575420030,39.20,278.0,62.0,1,0,0,34.2
Status,1732146941000,29,3,1,13,1575420030,45.20,298.0,50.0,1,0,0,40.2
Status,1732146941000,29,4,1,17,1575420030,42.50,174.0,49.0,1,0,0,37.5
Status,1732146941000,29,5,1,7,1575420030,38.50,107.0,35.0,1,0,0,33.5
Status,1732146941000,29,6,2,131,1575420030,42.00,2.0,24.0,0,0,0,37.0
Status,1732146941000,29,7,1,19,1575420030,33.90,193.0,21.0,1,0,0,28.900002
Status,1732146941000,29,8,1,15,1575420030,0.00,313.0,20.0,0,0,0,0.0
Status,1732146941000,29,9,1,2,1575420030,31.80,84.0,18.0,1,0,0,26.8
Status,1732146941000,29,10,1,21,1575420030,0.00,65.0,14.0,0,0,0,0.0
Status,1732146941000,29,11,1,8,1575420030,0.00,39.0,6.0,0,0,0,0.0
Status,1732146941000,29,12,1,5,1575420030,0.00,259.0,4.0,0,0,0,0.0
Status,1732146941000,29,13,3,9,1602000000,45.40,24.0,52.0,1,0,0,40.4
Status,1732146941000,29,14,3,8,1602000000,34.80,297.0,40.0,1,0,0,29.8
Status,1732146941000,29,15,3,20,1602000000,28.40,147.0,14.0,1,0,0,23.4
Status,1732146941000,29,16,3,16,1602000000,25.30,71.0,12.0,1,0,0,20.3
Status,1732146941000,29,17,3,11,1602000000,0.00,275.0,4.0,0,0,0,0.0
Status,1732146941000,29,18,3,17,1602000000,34.80,0.0,0.0,0,0,0,29.8
Status,1732146941000,29,19,6,21,1575420030,34.40,274.0,59.0,1,0,0,29.400002
Status,1732146941000,29,20,6,29,1575420030,35.20,202.0,58.0,1,0,0,30.2
Status,1732146941000,29,21,6,27,1575420030,43.90,39.0,56.0,1,0,0,38.9
Status,1732146941000,29,22,6,19,1575420030,30.60,293.0,52.0,1,0,0,25.6
Status,1732146941000,29,23,6,7,1575420030,0.00,161.0,13.0,0,0,0,0.0
Status,1732146941000,29,24,6,15,1575420030,0.00,92.0,13.0,0,0,0,0.0
Status,1732146941000,29,25,6,30,1575420030,0.00,60.0,8.0,0,0,0,0.0
Status,1732146941000,29,26,6,34,1575420030,0.00,44.0,6.0,0,0,0,0.0
Status,1732146941000,29,27,6,4,1575420030,0.00,325.0,3.0,0,0,0,0.0
Status,1732146941000,29,28,6,13,1575420030,0.00,140.0,3.0,0,0,0,0.0
Fix,GPS,37.4244016667,-122.1712033333,12.2,0.43288139,1.7,128.58,1732146942000,1.3,84.8,25826045000000,37.0,0,,,
Raw,1732146942000,24405000000,,100.48633637196833,-1416182135595000064,0.0,100.48633637196833,2143.1450845461263,0.0,0,30,0.0,16431,345359931533349,31,41.275001525878906,766.3504375098107,0.14999,16,0.0,0.0,1575420030,,,,0,29.15121860674965,1,6.0,41.275001525878906,0.0,0.0,0.0,66.7128,C,25826045000000,
Raw,1732146942000,24405000000,,100.48633637196833,-1416182135595000064,0.0,100.48633637196833,2143.1450845461263,0.0,0,17,0.0,16431,345359929780068,51,37.472999572753906,199.81211956999616,0.14999,16,0.0,0.0,1575420030,,,,0,25.078605872568648,1,6.0,37.472999572753906,0.0,0.0,0.0,66.7128,C,25826045000000,
Raw,1732146942000,24405000000,,100.48633637196833,-1416182135595000064,0.0,100.48633637196833,2143.1450845461263,0.0,0,13,0.0,16431,345359930212353,42,40.21699905395508,396.01149332021225,0.14999,16,0.0,0.0,1575420030,,,,0,28.02906860061233,1,6.0,40.21699905395508,0.0,0.0,0.0,66.7128,C,25826045000000,
Raw,1732146942000,24405000000,,100.48633637196833,-1416182135595000064,0.0,100.48633637196833,2143.1450845461263,0.0,0,19,0.0,16431,345359921534342,235,28.93600082397461,-44.62563169103256,0.14999,16,0.0,0.0,1575420030,,,,0,15.225510619079364,1,6.0,28.93600082397461,0.0,0.0,0.0,66.7128,C,25826045000000,
Raw,1732146942000,24405000000,,100.48633637196833,-1416182135595000064,0.0,100.48633637196833,2143.1450845461263,0.0,0,22,0.0,16431,345359930628167,58,34.152000427246094,513.6342610642262,0.14999,16,0.0,0.0,1575420030,,,,0,21.402834514016256,1,6.0,34.152000427246094,0.0,0.0,0.0,66.7128,C,25826045000000,
Raw,1732146942000,24405000000,,100.48633637196833,-1416182135595000064,0.0,100.48633637196833,2143.1450845461263,0.0,0,7,0.0,16431,345359925868108,58,33.46200180053711,1024.844229053754,0.14999,16,0.0,0.0,1575420030,,,,0,20.61550788419585,1,6.0,33.46200180053711,0.0,0.0,0.0,66.7128,C,25826045000000,
Raw,1732146942000,24405000000,,100.48633637196833,-1416182135595000064,0.0,100.48633637196833,2143.1450845461263,0.0,0,27,0.0,16431,345359919420455,42,38.880001068115234,901.5740691520194,0.14999,16,0.0,0.0,1575420030,,,,0,26.096438003763605,6,6.0,38.880001068115234,0.0,0.0,4.42518403091357,66.7128,C,25826045000000,
