# 
# Header Description:
# 
# Version: v3.1.0.3 Platform: 13 Manufacturer: samsung Model: SM-S135DL GNSS Hardware Model Name: MediaTek,MT6631,MTK_MNLD_default,MNL_VER_default
# 
# Raw,utcTimeMillis,TimeNanos,LeapSecond,TimeUncertaintyNanos,FullBiasNanos,BiasNanos,BiasUncertaintyNanos,DriftNanosPerSecond,DriftUncertaintyNanosPerSecond,HardwareClockDiscontinuityCount,Svid,TimeOffsetNanos,State,ReceivedSvTimeNanos,ReceivedSvTimeUncertaintyNanos,Cn0DbHz,PseudorangeRateMetersPerSecond,PseudorangeRateUncertaintyMetersPerSecond,AccumulatedDeltaRangeState,AccumulatedDeltaRangeMeters,AccumulatedDeltaRangeUncertaintyMeters,CarrierFrequencyHz,CarrierCycles,CarrierPhase,CarrierPhaseUncertainty,MultipathIndicator,SnrInDb,ConstellationType,AgcDb,BasebandCn0DbHz,FullInterSignalBiasNanos,FullInterSignalBiasUncertaintyNanos,SatelliteInterSignalBiasNanos,SatelliteInterSignalBiasUncertaintyNanos,CodeType,ChipsetElapsedRealtimeNanos,IsFullTracking
# 
# UncalAccel,utcTimeMillis,elapsedRealtimeNanos,UncalAccelXMps2,UncalAccelYMps2,UncalAccelZMps2,BiasXMps2,BiasYMps2,BiasZMps2
# 
# Accel,utcTimeMillis,elapsedRealtimeNanos,AccelXMps2,AccelYMps2,AccelZMps2
# 
# UncalGyro,utcTimeMillis,elapsedRealtimeNanos,UncalGyroXRadPerSec,UncalGyroYRadPerSec,UncalGyroZRadPerSec,DriftXRadPerSec,DriftYRadPerSec,DriftZRadPerSec
# 
# Gyro,utcTimeMillis,elapsedRealtimeNanos,GyroXRadPerSec,GyroYRadPerSec,GyroZRadPerSec
# 
# UncalMag,utcTimeMillis,elapsedRealtimeNanos,UncalMagXMicroT,UncalMagYMicroT,UncalMagZMicroT,BiasXMicroT,BiasYMicroT,BiasZMicroT
# 
# Mag,utcTimeMillis,elapsedRealtimeNanos,MagXMicroT,MagYMicroT,MagZMicroT
# 
# Pressure,utcTimeMillis,elapsedRealtimeNanos,PressureHpa
# 
# OrientationDeg,utcTimeMillis,elapsedRealtimeNanos,yawDeg,rollDeg,pitchDeg
# 
# Fix,Provider,LatitudeDegrees,LongitudeDegrees,AltitudeMeters,SpeedMps,AccuracyMeters,BearingDegrees,UnixTimeMillis,SpeedAccuracyMps,BearingAccuracyDegrees,elapsedRealtimeNanos,VerticalAccuracyMeters,MockLocation,NumberOfUsedSignals,VerticalSpeedAccuracyMps,SolutionType
# 
# Nav,Svid,Type,Status,MessageId,Sub-messageId,Data(Bytes)
# 
# Status,UnixTimeMillis,SignalCount,SignalIndex,ConstellationType,Svid,CarrierFrequencyHz,Cn0DbHz,AzimuthDegrees,ElevationDegrees,UsedInFix,HasAlmanacData,HasEphemerisData,BasebandCn0DbHz
# 
# Agc,utcTimeMillis,TimeNanos,LeapSecond,TimeUncertaintyNanos,FullBiasNanos,BiasNanos,BiasUncertaintyNanos,DriftNanosPerSecond,DriftUncertaintyNanosPerSecond,HardwareClockDiscontinuityCount,AgcDb,CarrierFrequencyHz,ConstellationType
# 
Fix,FLP,37.4243822000,-122.1712538000,2.200000047683716,0.44250625,1.7,271.10764,1732146077196,1.5,110.1,24961043000000,0.9734188,0,,,
Status,,28,0,1,14,1575420030,46.50,311.0,74.0,1,0,0,41.5
Status,,28,1,1,30,1575420030,46.80,67.0,71.0,1,0,0,41.8
Status,,28,2,1,22,1575420030,42.20,267.0,58.0,1,0,0,37.2
Status,,28,3,1,13,1575420030,43.90,305.0,46.0,1,0,0,38.9
Status,,28,4,1,17,1575420030,46.90,176.0,42.0,1,0,0,41.9
Status,,28,5,1,7,1575420030,42.30,101.0,39.0,1,0,0,37.3
Status,,28,6,2,131,1575420030,42.00,3.0,23.0,0,0,0,37.0
Status,,28,7,1,2,1575420030,24.30,90.0,15.0,1,0,0,19.3
Status,,28,8,1,19,1575420030,43.90,193.0,15.0,1,0,0,38.9
Status,,28,9,1,15,1575420030,38.70,317.0,15.0,1,0,0,33.7
Status,,28,10,1,21,1575420030,0.00,71.0,13.0,0,0,0,0.0
Status,,28,11,1,8,1575420030,0.00,40.0,11.0,0,0,0,0.0
Status,,28,12,1,5,1575420030,22.30,264.0,8.0,0,0,0,17.3
Status,,28,13,1,9,1575420030,17.10,159.0,3.0,0,0,0,12.1
Status,,28,14,3,9,1602000000,28.70,12.0,54.0,1,0,0,23.7
Status,,28,15,3,8,1602000000,39.40,307.0,38.0,1,0,0,34.4
Status,,28,16,3,19,1602000000,29.60,90.0,31.0,1,0,0,24.6
Status,,28,17,3,16,1602000000,0.00,65.0,16.0,0,0,0,0.0
Status,,28,18,3,20,1602000000,0.00,151.0,8.0,0,0,0,0.0
Status,,28,19,3,17,1602000000,36.20,0.0,0.0,0,0,0,31.2
Status,,28,20,6,29,1575420030,0.00,206.0,63.0,0,0,0,0.0
Status,,28,21,6,27,1575420030,41.40,35.0,60.0,1,0,0,36.4
Status,,28,22,6,21,1575420030,41.30,265.0,56.0,1,0,0,36.3
Status,,28,23,6,19,1575420030,0.00,300.0,49.0,0,0,0,0.0
Status,,28,24,6,7,1575420030,32.10,160.0,18.0,1,0,0,27.099998
Status,,28,25,6,30,1575420030,0.00,57.0,12.0,0,0,0,0.0
Status,,28,26,6,15,1575420030,0.00,96.0,9.0,0,0,0,0.0
Status,,28,27,6,34,1575420030,0.00,49.0,6.0,0,0,0,0.0
Fix,GPS,37.4243866667,-122.1712633333,13.099999999999998,0.086988054,1.7,299.1,1732146078000,1.0,179.9,24962043000000,46.1,0,,,
Raw,1732146078000,11105000000,,684941.7118258525,-1416181284895000064,0.0,119.69049921849914,1888.1051055659966,0.0,0,14,0.0,16431,344495932593332,31,41.51499938964844,527.893603376478,0.14999,16,0.0,0.0,1575420030,,,,0,29.406403263109556,1,6.0,41.51499938964844,0.0,0.0,0.0,66.7128,C,24962043000000,
Raw,1732146078000,11105000000,,684941.7118258525,-1416181284895000064,0.0,119.69049921849914,1888.1051055659966,0.0,0,17,0.0,16431,344495928416016,31,41.88399887084961,47.81281841832412,0.14999,16,0.0,0.0,1575420030,,,,0,30.593585467567603,1,6.0,41.88399887084961,0.0,0.0,0.0,66.7128,C,24962043000000,
Raw,1732146078000,11105000000,,684941.7118258525,-1416181284895000064,0.0,119.69049921849914,1888.1051055659966,0.0,0,7,0.0,16431,344495926918242,51,37.27399826049805,896.1044268947204,0.14999,16,0.0,0.0,1575420030,,,,0,24.869916171739966,1,6.0,37.27399826049805,0.0,0.0,0.0,66.7128,C,24962043000000,
Raw,1732146078000,11105000000,,684941.7118258525,-1416181284895000064,0.0,119.69049921849914,1888.1051055659966,0.0,0,22,0.0,16431,344495930197182,51,37.207000732421875,378.6644782081918,0.14999,16,0.0,0.0,1575420030,,,,0,24.790118737383587,1,6.0,37.207000732421875,0.0,0.0,0.0,66.7128,C,24962043000000,
Raw,1732146078000,11105000000,,684941.7118258525,-1416181284895000064,0.0,119.69049921849914,1888.1051055659966,0.0,0,13,0.0,16431,344495929380604,42,38.87200164794922,221.31298167540086,0.14999,16,0.0,0.0,1575420030,,,,0,26.59340082478475,1,6.0,38.87200164794922,0.0,0.0,0.0,66.7128,C,24962043000000,
Raw,1732146078000,11105000000,,684941.7118258525,-1416181284895000064,0.0,119.69049921849914,1888.1051055659966,0.0,0,21,0.0,16431,344495919318329,51,36.29999923706055,373.48394667497087,0.14999,16,0.0,0.0,1575420030,,,,0,23.833451218754483,6,6.0,36.29999923706055,0.0,0.0,7.7332278041798395,66.7128,C,24962043000000,
Raw,1732146078000,11105000000,,684941.7118258525,-1416181284895000064,0.0,119.69049921849914,1888.1051055659966,0.0,0,7,0.0,16431,344495910310524,235,27.100000381469727,1147.7533141447002,0.14999,16,0.0,0.0,1575420030,,,,0,13.621476958773455,6,6.0,27.100000381469727,0.0,0.0,7.7332278041798395,66.7128,C,24962043000000,
Raw,1732146078000,11105000000,,684941.7118258525,-1416181284895000064,0.0,119.69049921849914,1888.1051055659966,0.0,0,27,0.0,16431,344495920159545,51,36.400001525878906,802.9959999651916,0.14999,17,8510.191773533585,0.00022499999613501132,1575420030,,,,0,23.92249238434291,6,6.0,36.400001525878906,0.0,0.0,7.7332278041798395,66.7128,C,24962043000000,
Raw,1732146078000,11105000000,,684941.7118258525,-1416181284895000064,0.0,119.69049921849914,1888.1051055659966,0.0,0,19,0.0,16431,344495919553450,42,38.882999420166016,-134.50594202858838,0.14999,16,0.0,0.0,1575420030,,,,0,26.606418271414682,1,6.0,38.882999420166016,0.0,0.0,0.0,66.7128,C,24962043000000,
Raw,1732146078000,11105000000,,684941.7118258525,-1416181284895000064,0.0,119.69049921849914,1888.1051055659966,0.0,0,9,0.0,17,645469,316,5.0,679.8146154823061,0.14999,16,0.0,0.0,1600875010,,,,0,9.458134295453801,3,6.0,24.0,0.0,0.0,34.73695756411499,66.7128,C,24962043000000,
Raw,1732146078000,11105000000,,684941.7118258525,-1416181284895000064,0.0,119.69049921849914,1888.1051055659966,0.0,0,8,0.0,17,834942,58,5.0,314.212218567668,0.14999,16,0.0,0.0,1605374980,,,,0,21.805303468981585,3,6.0,35.0,0.0,0.0,34.73695756411499,66.7128,C,24962043000000,
Raw,1732146078000,11105000000,,684941.7118258525,-1416181284895000064,0.0,119.69049921849914,1888.1051055659966,0.0,0,19,0.0,17,828886,316,5.0,220.47273983422988,0.14999,16,0.0,0.0,1603687550,,,,0,10.58693799035293,3,6.0,25.0,0.0,0.0,34.73695756411499,66.7128,C,24962043000000,
Raw,1732146078000,11105000000,,684941.7118258525,-1416181284895000064,0.0,119.69049921849914,1888.1051055659966,0.0,0,15,0.0,16431,344495921449511,58,33.67300033569336,46.41632488545155,0.14999,16,0.0,0.0,1575420030,,,,0,20.86422583450422,1,6.0,33.67300033569336,0.0,0.0,0.0,66.7128,C,24962043000000,
Raw,1732146078000,11105000000,,684941.7118258525,-1416181284895000064,0.0,119.69049921849914,1888.1051055659966,0.0,0,9,0.0,16431,344495915842549,797,12.100000381469727,1300.0655591879665,0.14999,16,0.0,0.0,1575420030,,,,0,0.0,1,6.0,12.100000381469727,0.0,0.0,0.0,66.7128,C,24962043000000,
Raw,1732146078000,11105000000,,684941.7118258525,-1416181284895000064,0.0,119.69049921849914,1888.1051055659966,0.0,0,2,0.0,16431,344495919679585,487,19.332000732421875,317.58943123553445,0.14999,16,0.0,0.0,1575420030,,,,0,1.0573227640948248,1,6.0,19.332000732421875,0.0,0.0,0.0,66.7128,C,24962043000000,
Raw,1732146078000,11105000000,,684941.7118258525,-1416181284895000064,0.0,119.69049921849914,1888.1051055659966,0.0,0,5,0.0,17,985342,487,17.29400062561035,984.852452712393,0.14999,16,0.0,0.0,1575420030,,,,0,0.0,1,6.0,17.29400062561035,0.0,0.0,0.0,66.7128,C,24962043000000,
Raw,1732146078000,11105000000,,684941.7118258525,-1416181284895000064,0.0,119.69049921849914,1888.1051055659966,0.0,0,30,0.0,16431,344495931821612,31,41.8390007019043,626.586424851346,0.14999,16,0.0,0.0,1575420030,,,,0,29.748247876687223,1,6.0,41.8390007019043,0.0,0.0,0.0,66.7128,C,24962043000000,
Fix,FLP,37.4243844000,-122.1712607000,2.200000047683716,0.4124975,1.683,272.17474,1732146078195,1.0,179.9,24962043000000,0.98340607,0,,,
Status,1732146078000,28,0,1,14,1575420030,47.30,311.0,74.0,1,0,0,42.3
Status,1732146078000,28,1,1,30,1575420030,47.00,67.0,71.0,1,0,0,42.0
Status,1732146078000,28,2,1,22,1575420030,35.40,267.0,58.0,1,0,0,30.400002
Status,1732146078000,28,3,1,13,1575420030,46.30,305.0,46.0,1,0,0,41.3
Status,1732146078000,28,4,1,17,1575420030,38.10,176.0,42.0,1,0,0,33.1
Status,1732146078000,28,5,1,7,1575420030,43.40,101.0,39.0,1,0,0,38.4
Status,1732146078000,28,6,2,131,1575420030,32.00,3.0,23.0,0,0,0,27.0
Status,1732146078000,28,7,1,2,1575420030,25.30,90.0,15.0,1,0,0,20.3
Status,1732146078000,28,8,1,19,1575420030,44.90,193.0,15.0,1,0,0,39.9
Status,1732146078000,28,9,1,15,1575420030,38.50,317.0,15.0,1,0,0,33.5
Status,1732146078000,28,10,1,21,1575420030,0.00,71.0,13.0,0,0,0,0.0
Status,1732146078000,28,11,1,8,1575420030,0.00,40.0,11.0,0,0,0,0.0
Status,1732146078000,28,12,1,5,1575420030,21.70,264.0,8.0,0,0,0,16.7
Status,1732146078000,28,13,1,9,1575420030,16.90,159.0,3.0,0,0,0,11.9
Status,1732146078000,28,14,3,9,1602000000,27.80,12.0,54.0,1,0,0,22.8
Status,1732146078000,28,15,3,8,1602000000,40.90,307.0,38.0,1,0,0,35.9
Status,1732146078000,28,16,3,19,1602000000,31.90,90.0,31.0,1,0,0,26.9
Status,1732146078000,28,17,3,16,1602000000,0.00,65.0,16.0,0,0,0,0.0
Status,1732146078000,28,18,3,20,1602000000,0.00,151.0,8.0,0,0,0,0.0
Status,1732146078000,28,19,3,17,1602000000,30.70,0.0,0.0,0,0,0,25.7
Status,1732146078000,28,20,6,29,1575420030,0.00,206.0,63.0,0,0,0,0.0
Status,1732146078000,28,21,6,27,1575420030,43.60,35.0,60.0,1,0,0,38.6
Status,1732146078000,28,22,6,21,1575420030,35.60,265.0,56.0,1,0,0,30.599998
Status,1732146078000,28,23,6,19,1575420030,25.10,300.0,49.0,1,0,0,20.1
Status,1732146078000,28,24,6,7,1575420030,31.30,160.0,18.0,1,0,0,26.3
Status,1732146078000,28,25,6,30,1575420030,0.00,57.0,12.0,0,0,0,0.0
Status,1732146078000,28,26,6,15,1575420030,0.00,96.0,9.0,0,0,0,0.0
Status,1732146078000,28,27,6,34,1575420030,0.00,49.0,6.0,0,0,0,0.0
Fix,GPS,37.4243866667,-122.1712650000,12.900000000000002,0.064855,1.6,19.04,1732146079000,0.7,179.9,24963043000000,44.6,0,,,
Raw,1732146079000,12105000000,,683382.2996808012,-1416181284895000064,0.0,114.88385974428225,1888.191554222519,0.0,0,14,0.0,16431,344496932591569,31,42.25699996948242,528.0788330819095,0.14999,16,0.0,0.0,1575420030,,,,0,30.1855049511396,1,6.0,42.25699996948242,0.0,0.0,0.0,66.7128,C,24963043000000,
Raw,1732146079000,12105000000,,683382.2996808012,-1416181284895000064,0.0,114.88385974428225,1888.191554222519,0.0,0,17,0.0,16431,344496928415857,58,33.125,48.09616829879219,0.14999,17,627.0602213689474,0.00039999998989515007,1575420030,,,,0,20.2374736384858,1,6.0,33.125,0.0,0.0,0.0,66.7128,C,24963043000000,
Raw,1732146079000,12105000000,,683382.2996808012,-1416181284895000064,0.0,114.88385974428225,1888.191554222519,0.0,0,7,0.0,16431,344496926915248,51,38.36000061035156,896.1044268947204,0.14999,16,0.0,0.0,1575420030,,,,0,26.042157503151692,1,6.0,38.36000061035156,0.0,0.0,0.0,66.7128,C,24963043000000,
Raw,1732146079000,12105000000,,683382.2996808012,-1416181284895000064,0.0,114.88385974428225,1888.191554222519,0.0,0,22,0.0,16431,344496930195920,74,30.36400032043457,378.36245204440706,0.14999,16,0.0,0.0,1575420030,,,,0,16.9921545825386,1,6.0,30.36400032043457,0.0,0.0,0.0,66.7128,C,24963043000000,
Raw,1732146079000,12105000000,,683382.2996808012,-1416181284895000064,0.0,114.88385974428225,1888.191554222519,0.0,0,13,0.0,16431,344496929379870,31,41.290000915527344,221.24975177093833,0.14999,16,0.0,0.0,1575420030,,,,0,29.16756804450656,1,6.0,41.290000915527344,0.0,0.0,0.0,66.7128,C,24963043000000,
Raw,1732146079000,12105000000,,683382.2996808012,-1416181284895000064,0.0,114.88385974428225,1888.191554222519,0.0,0,21,0.0,16431,344496919317083,74,30.600000381469727,373.3294259826546,0.14999,16,0.0,0.0,1575420030,,,,0,17.61826475953308,6,6.0,30.600000381469727,0.0,0.0,8.396641961122661,66.7128,C,24963043000000,
Raw,1732146079000,12105000000,,683382.2996808012,-1416181284895000064,0.0,114.88385974428225,1888.191554222519,0.0,0,7,0.0,16431,344496910306691,316,26.299999237060547,1147.5037395328172,0.14999,16,0.0,0.0,1575420030,,,,0,12.704715814722,6,6.0,26.299999237060547,0.0,0.0,8.396641961122661,66.7128,C,24963043000000,
Raw,1732146079000,12105000000,,683382.2996808012,-1416181284895000064,0.0,114.88385974428225,1888.191554222519,0.0,0,19,0.0,16431,344496919682426,487,20.100000381469727,346.0141537132524,0.14999,16,0.0,0.0,1575420030,,,,0,4.392347420125583,6,6.0,20.100000381469727,0.0,0.0,8.396641961122661,66.7128,C,24963043000000,
Raw,1732146079000,12105000000,,683382.2996808012,-1416181284895000064,0.0,114.88385974428225,1888.191554222519,0.0,0,27,0.0,16431,344496920156860,42,38.599998474121094,802.9337456874695,0.14999,17,9313.178905748582,0.00022499999613501132,1575420030,,,,0,26.220758600401858,6,6.0,38.599998474121094,0.0,0.0,8.396641961122661,66.7128,C,24963043000000,
Raw,1732146079000,12105000000,,683382.2996808012,-1416181284895000064,0.0,114.88385974428225,1888.191554222519,0.0,0,19,0.0,16431,344496919553895,42,39.88800048828125,-134.69507424098148,0.14999,16,0.0,0.0,1575420030,,,,0,27.681703454543566,1,6.0,39.88800048828125,0.0,0.0,0.0,66.7128,C,24963043000000,
Raw,1732146079000,12105000000,,683382.2996808012,-1416181284895000064,0.0,114.88385974428225,1888.191554222519,0.0,0,9,0.0,17,643203,235,5.0,680.7040921647341,0.14999,16,0.0,0.0,1600875010,,,,0,8.234662180176281,3,6.0,28.0,0.0,0.0,35.23750067107767,66.7128,C,24963043000000,
Raw,1732146079000,12105000000,,683382.2996808012,-1416181284895000064,0.0,114.88385974428225,1888.191554222519,0.0,0,8,0.0,17,833893,51,5.0,314.6383170978237,0.14999,16,0.0,0.0,1605374980,,,,0,23.41392800489748,3,6.0,36.0,0.0,0.0,35.23750067107767,66.7128,C,24963043000000,
Raw,1732146079000,12105000000,,683382.2996808012,-1416181284895000064,0.0,114.88385974428225,1888.191554222519,0.0,0,19,0.0,17,828146,235,5.0,220.65842419683366,0.14999,16,0.0,0.0,1603687550,,,,0,13.44147376777514,3,6.0,27.0,0.0,0.0,35.23750067107767,66.7128,C,24963043000000,
Raw,1732146079000,12105000000,,683382.2996808012,-1416181284895000064,0.0,114.88385974428225,1888.191554222519,0.0,0,15,0.0,16431,344496921449356,58,33.54899978637695,46.22895809287445,0.14999,16,0.0,0.0,1575420030,,,,0,20.72453746418197,1,6.0,33.54899978637695,0.0,0.0,0.0,66.7128,C,24963043000000,
Raw,1732146079000,12105000000,,683382.2996808012,-1416181284895000064,0.0,114.88385974428225,1888.191554222519,0.0,0,9,0.0,16431,344496915838213,797,11.899999618530273,1300.0663025226258,0.14999,16,0.0,0.0,1575420030,,,,0,0.0,1,6.0,11.899999618530273,0.0,0.0,0.0,66.7128,C,24963043000000,
Raw,1732146079000,12105000000,,683382.2996808012,-1416181284895000064,0.0,114.88385974428225,1888.191554222519,0.0,0,2,0.0,16431,344496919678512,487,20.27899932861328,318.54345481241785,0.14999,16,0.0,0.0,1575420030,,,,0,2.732862718830304,1,6.0,20.27899932861328,0.0,0.0,0.0,66.7128,C,24963043000000,
Raw,1732146079000,12105000000,,683382.2996808012,-1416181284895000064,0.0,114.88385974428225,1888.191554222519,0.0,0,5,0.0,17,982055,487,16.719999313354492,985.5313960068938,0.14999,16,0.0,0.0,1575420030,,,,0,0.0,1,6.0,16.719999313354492,0.0,0.0,0.0,66.7128,C,24963043000000,
Raw,1732146079000,12105000000,,683382.2996808012,-1416181284895000064,0.0,114.88385974428225,1888.191554222519,0.0,0,30,0.0,16431,344496931819524,31,42.04199981689453,626.3266293878967,0.14999,16,0.0,0.0,1575420030,,,,0,29.96300138738901,1,6.0,42.04199981689453,0.0,0.0,0.0,66.7128,C,24963043000000,
Fix,FLP,37.4243856000,-122.1712633000,2.200000047683716,0.21070166,1.666,275.9189,1732146079195,0.7,179.9,24963043000000,0.99341536,0,,,
Status,1732146079000,28,0,1,14,1575420030,45.70,311.0,74.0,1,0,0,40.7
Status,1732146079000,28,1,1,30,1575420030,42.30,67.0,71.0,1,0,0,37.3
Status,1732146079000,28,2,1,22,1575420030,42.50,267.0,58.0,1,0,0,37.5
Status,1732146079000,28,3,1,13,1575420030,42.10,305.0,46.0,1,0,0,37.1
Status,1732146079000,28,4,1,17,1575420030,43.00,176.0,42.0,1,0,0,38.0
Status,1732146079000,28,5,1,7,1575420030,35.20,101.0,39.0,1,0,0,30.2
Status,1732146079000,28,6,2,131,1575420030,40.00,3.0,23.0,0,0,0,35.0
Status,1732146079000,28,7,1,2,1575420030,23.60,90.0,15.0,1,0,0,18.6
Status,1732146079000,28,8,1,19,1575420030,35.20,193.0,15.0,1,0,0,30.2
Status,1732146079000,28,9,1,15,1575420030,32.20,317.0,15.0,1,0,0,27.2
Status,1732146079000,28,10,1,21,1575420030,23.10,71.0,13.0,1,0,0,18.1
Status,1732146079000,28,11,1,8,1575420030,20.70,40.0,11.0,1,0,0,15.700001
Status,1732146079000,28,12,1,5,1575420030,25.10,264.0,8.0,1,0,0,20.1
Status,1732146079000,28,13,1,9,1575420030,16.90,159.0,3.0,0,0,0,11.9
Status,1732146079000,28,14,3,9,1602000000,29.60,12.0,54.0,1,0,0,24.6
Status,1732146079000,28,15,3,8,1602000000,37.20,307.0,38.0,1,0,0,32.2
Status,1732146079000,28,16,3,19,1602000000,29.70,90.0,31.0,1,0,0,24.7
Status,1732146079000,28,17,3,16,1602000000,0.00,65.0,16.0,0,0,0,0.0
Status,1732146079000,28,18,3,20,1602000000,0.00,151.0,8.0,0,0,0,0.0
Status,1732146079000,28,19,3,17,1602000000,40.70,0.0,0.0,0,0,0,35.7
Status,1732146079000,28,20,6,29,1575420030,0.00,206.0,63.0,0,0,0,0.0
Status,1732146079000,28,21,6,27,1575420030,43.50,35.0,60.0,1,0,0,38.5
Status,1732146079000,28,22,6,21,1575420030,38.00,265.0,56.0,1,0,0,33.0
Status,1732146079000,28,23,6,19,1575420030,31.90,300.0,49.0,1,0,0,26.9
Status,1732146079000,28,24,6,7,1575420030,25.30,160.0,18.0,1,0,0,20.3
Status,1732146079000,28,25,6,30,1575420030,0.00,57.0,12.0,0,0,0,0.0
Status,1732146079000,28,26,6,15,1575420030,0.00,96.0,9.0,0,0,0,0.0
Status,1732146079000,28,27,6,34,1575420030,0.00,49.0,6.0,0,0,0,0.0
Fix,GPS,37.4243883333,-122.1712683333,13.000000000000004,0.14000444,1.6,312.46,1732146080000,0.8,179.9,24964043000000,37.8,0,,,
Fix,FLP,37.4243871000,-122.1712668000,2.200000047683716,0.20190096,1.65,279.21173,1732146080195,0.8,179.9,24964043000000,1.003415,0,,,
Raw,1732146080000,13105000000,,97.5594559864749,-1416181284895000064,0.0,97.5594559864749,1889.2421592601415,0.0,0,14,0.0,16431,344497932589809,42,40.676998138427734,527.2495503525514,0.14999,16,0.0,0.0,1575420030,,,,0,28.519216414120578,1,6.0,40.676998138427734,0.0,0.0,0.0,66.7128,C,24964043000000,
Raw,1732146080000,13105000000,,97.5594559864749,-1416181284895000064,0.0,97.5594559864749,1889.2421592601415,0.0,0,17,0.0,16431,344497928415694,51,38.03900146484375,47.49225534647141,0.14999,16,0.0,0.0,1575420030,,,,0,25.69524212518424,1,6.0,38.03900146484375,0.0,0.0,0.0,66.7128,C,24964043000000,
Raw,1732146080000,13105000000,,97.5594559864749,-1416181284895000064,0.0,97.5594559864749,1889.2421592601415,0.0,0,7,0.0,16431,344497926912253,74,30.150999069213867,896.2475188166488,0.14999,16,0.0,0.0,1575420030,,,,0,16.73255694945119,1,6.0,30.150999069213867,0.0,0.0,0.0,66.7128,C,24964043000000,
Raw,1732146080000,13105000000,,97.5594559864749,-1416181284895000064,0.0,97.5594559864749,1889.2421592601415,0.0,0,22,0.0,16431,344497930194659,51,37.46699905395508,378.3808031188102,0.14999,16,0.0,0.0,1575420030,,,,0,25.074022382567833,1,6.0,37.46699905395508,0.0,0.0,0.0,66.7128,C,24964043000000,
Raw,1732146080000,13105000000,,97.5594559864749,-1416181284895000064,0.0,97.5594559864749,1889.2421592601415,0.0,0,13,0.0,16431,344497929379130,51,37.06999969482422,221.386269826973,0.14999,16,0.0,0.0,1575420030,,,,0,24.644609505271266,1,6.0,37.06999969482422,0.0,0.0,0.0,66.7128,C,24964043000000,
Raw,1732146080000,13105000000,,97.5594559864749,-1416181284895000064,0.0,97.5594559864749,1889.2421592601415,0.0,0,21,0.0,16431,344497919315838,58,33.0,373.1415481474992,0.14999,16,0.0,0.0,1575420030,,,,0,20.304911008595106,6,6.0,33.0,0.0,0.0,8.479350447016085,66.7128,C,24964043000000,
Raw,1732146080000,13105000000,,97.5594559864749,-1416181284895000064,0.0,97.5594559864749,1889.2421592601415,0.0,0,7,0.0,16431,344497910302864,316,20.299999237060547,1147.2487757446538,0.14999,16,0.0,0.0,1575420030,,,,0,4.721709709299334,6,6.0,20.299999237060547,0.0,0.0,8.479350447016085,66.7128,C,24964043000000,
Raw,1732146080000,13105000000,,97.5594559864749,-1416181284895000064,0.0,97.5594559864749,1889.2421592601415,0.0,0,19,0.0,16431,344497919681274,316,26.899999618530273,346.0742476746207,0.14999,16,0.0,0.0,1575420030,,,,0,13.38631160616751,6,6.0,26.899999618530273,0.0,0.0,8.479350447016085,66.7128,C,24964043000000,
Raw,1732146080000,13105000000,,97.5594559864749,-1416181284895000064,0.0,97.5594559864749,1889.2421592601415,0.0,0,27,0.0,16431,344497920154194,51,38.5099983215332,802.3227245974684,0.14999,16,0.0,0.0,1575420030,,,,0,24.312253718354555,6,6.0,38.5099983215332,0.0,0.0,8.479350447016085,66.7128,C,24964043000000,
Raw,1732146080000,13105000000,,97.5594559864749,-1416181284895000064,0.0,97.5594559864749,1889.2421592601415,0.0,0,19,0.0,16431,344497919554341,74,30.16699981689453,-134.76959354058317,0.14999,16,0.0,0.0,1575420030,,,,0,16.752803787612073,1,6.0,30.16699981689453,0.0,0.0,0.0,66.7128,C,24964043000000,
Raw,1732146080000,13105000000,,97.5594559864749,-1416181284895000064,0.0,97.5594559864749,1889.2421592601415,0.0,0,9,0.0,17,640922,316,5.0,680.8269867071327,0.14999,16,0.0,0.0,1600875010,,,,0,10.608869297644075,3,6.0,24.0,0.0,0.0,35.42662902294613,66.7128,C,24964043000000,
Raw,1732146080000,13105000000,,97.5594559864749,-1416181284895000064,0.0,97.5594559864749,1889.2421592601415,0.0,0,8,0.0,17,832844,74,5.0,314.3470327505987,0.14999,16,0.0,0.0,1605374980,,,,0,19.374009387550377,3,6.0,32.0,0.0,0.0,35.42662902294613,66.7128,C,24964043000000,
Raw,1732146080000,13105000000,,97.5594559864749,-1416181284895000064,0.0,97.5594559864749,1889.2421592601415,0.0,0,19,0.0,17,827405,316,5.0,220.5316376270135,0.14999,16,0.0,0.0,1603687550,,,,0,10.704714569614985,3,6.0,25.0,0.0,0.0,35.42662902294613,66.7128,C,24964043000000,
Raw,1732146080000,13105000000,,97.5594559864749,-1416181284895000064,0.0,97.5594559864749,1889.2421592601415,0.0,0,21,0.0,16431,344497920119280,487,18.052000045776367,512.1736084585668,0.14999,16,0.0,0.0,1575420030,,,,0,0.0,1,6.0,18.052000045776367,0.0,0.0,0.0,66.7128,C,24964043000000,
Raw,1732146080000,13105000000,,97.5594559864749,-1416181284895000064,0.0,97.5594559864749,1889.2421592601415,0.0,0,8,0.0,16431,344497918853785,797,15.72599983215332,1230.3396531372016,0.14999,16,0.0,0.0,1575420030,,,,0,0.0,1,6.0,15.72599983215332,0.0,0.0,0.0,66.7128,C,24964043000000,
Raw,1732146080000,13105000000,,97.5594559864749,-1416181284895000064,0.0,97.5594559864749,1889.2421592601415,0.0,0,15,0.0,16431,344497921449198,235,27.16900062561035,47.12216760293826,0.14999,16,0.0,0.0,1575420030,,,,0,12.990044414461806,1,6.0,27.16900062561035,0.0,0.0,0.0,66.7128,C,24964043000000,
Raw,1732146080000,13105000000,,97.5594559864749,-1416181284895000064,0.0,97.5594559864749,1889.2421592601415,0.0,0,9,0.0,16431,344497915833874,1797,11.899999618530273,1301.0305004926593,0.14999,16,0.0,0.0,1575420030,,,,0,0.0,1,6.0,11.899999618530273,0.0,0.0,0.0,66.7128,C,24964043000000,
Raw,1732146080000,13105000000,,97.5594559864749,-1416181284895000064,0.0,97.5594559864749,1889.2421592601415,0.0,0,2,0.0,16431,344497919677439,487,18.582000732421875,318.5243139449391,0.14999,16,0.0,0.0,1575420030,,,,0,0.0,1,6.0,18.582000732421875,0.0,0.0,0.0,66.7128,C,24964043000000,
Raw,1732146080000,13105000000,,97.5594559864749,-1416181284895000064,0.0,97.5594559864749,1889.2421592601415,0.0,0,5,0.0,16431,344497916978755,487,20.110000610351562,987.605485540197,0.14999,16,0.0,0.0,1575420030,,,,0,2.4226193952653525,1,6.0,20.110000610351562,0.0,0.0,0.0,66.7128,C,24964043000000,
Raw,1732146080000,13105000000,,97.5594559864749,-1416181284895000064,0.0,97.5594559864749,1889.2421592601415,0.0,0,30,0.0,16431,344497931817437,51,37.28099822998047,624.9581967384153,0.14999,17,8097.775183357162,0.00022499999613501132,1575420030,,,,0,24.87785574234586,1,6.0,37.28099822998047,0.0,0.0,0.0,66.7128,C,24964043000000,
Status,1732146080000,28,0,1,14,1575420030,45.70,311.0,74.0,1,0,0,40.7
Status,1732146080000,28,1,1,30,1575420030,46.50,67.0,71.0,1,0,0,41.5
Status,1732146080000,28,2,1,22,1575420030,46.80,267.0,58.0,1,0,0,41.8
Status,1732146080000,28,3,1,13,1575420030,42.60,305.0,46.0,1,0,0,37.6
Status,1732146080000,28,4,1,17,1575420030,39.20,176.0,42.0,1,0,0,34.2
Status,1732146080000,28,5,1,7,1575420030,40.40,101.0,39.0,1,0,0,35.4
Status,1732146080000,28,6,2,131,1575420030,40.00,3.0,23.0,0,0,0,35.0
Status,1732146080000,28,7,1,2,1575420030,22.60,90.0,15.0,1,0,0,17.6
Status,1732146080000,28,8,1,19,1575420030,37.90,193.0,15.0,1,0,0,32.9
Status,1732146080000,28,9,1,15,1575420030,38.90,317.0,15.0,1,0,0,33.9
Status,1732146080000,28,10,1,21,1575420030,21.30,71.0,13.0,1,0,0,16.3
Status,1732146080000,28,11,1,8,1575420030,20.70,40.0,11.0,1,0,0,15.700001
Status,1732146080000,28,12,1,5,1575420030,25.20,264.0,8.0,1,0,0,20.2
Status,1732146080000,28,13,1,9,1575420030,17.70,159.0,3.0,0,0,0,12.700001
Status,1732146080000,28,14,3,9,1602000000,36.40,12.0,54.0,1,0,0,31.400002
Status,1732146080000,28,15,3,8,1602000000,38.20,307.0,38.0,1,0,0,33.2
Status,1732146080000,28,16,3,19,1602000000,33.10,90.0,31.0,1,0,0,28.099998
Status,1732146080000,28,17,3,16,1602000000,25.90,65.0,16.0,1,0,0,20.9
Status,1732146080000,28,18,3,20,1602000000,0.00,151.0,8.0,0,0,0,0.0
Status,1732146080000,28,19,3,17,1602000000,42.10,0.0,0.0,0,0,0,37.1
Status,1732146080000,28,20,6,29,1575420030,0.00,206.0,63.0,0,0,0,0.0
Status,1732146080000,28,21,6,27,1575420030,40.30,35.0,60.0,1,0,0,35.3
Status,1732146080000,28,22,6,21,1575420030,39.20,265.0,56.0,1,0,0,34.2
Status,1732146080000,28,23,6,19,1575420030,35.60,300.0,49.0,1,0,0,30.599998
Status,1732146080000,28,24,6,7,1575420030,26.90,160.0,18.0,1,0,0,21.9
Status,1732146080000,28,25,6,30,1575420030,0.00,57.0,12.0,0,0,0,0.0
Status,1732146080000,28,26,6,15,1575420030,0.00,96.0,9.0,0,0,0,0.0
Status,1732146080000,28,27,6,34,1575420030,0.00,49.0,6.0,0,0,0,0.0
Fix,GPS,37.4243916667,-122.1712683333,13.099999999999998,0.13228361,1.6,325.3,1732146081000,0.9,179.9,24965043000000,37.0,0,,,
Fix,FLP,37.4243895000,-122.1712686000,2.200000047683716,0.18797696,1.65,282.7051,1732146081195,0.9,179.9,24965043000000,1.0175076,0,,,
Raw,1732146081000,14105000000,,95.71380481390356,-1416181284895000064,0.0,95.71380481390356,1886.2379393970516,0.0,0,14,0.0,16431,344498932588050,42,40.6870002746582,526.6151142207802,0.14999,17,7421.601254721108,0.00022499999613501132,1575420030,,,,0,28.74075467133825,1,6.0,40.6870002746582,0.0,0.0,0.0,66.7128,C,24965043000000,
Raw,1732146081000,14105000000,,95.71380481390356,-1416181284895000064,0.0,95.71380481390356,1886.2379393970516,0.0,0,17,0.0,16431,344498928415533,58,34.198001861572266,46.19002594009002,0.14999,16,0.0,0.0,1575420030,,,,0,21.460550417226216,1,6.0,34.198001861572266,0.0,0.0,0.0,66.7128,C,24965043000000,
Raw,1732146081000,14105000000,,95.71380481390356,-1416181284895000064,0.0,95.71380481390356,1886.2379393970516,0.0,0,7,0.0,16431,344498926909270,58,35.422000885009766,894.2708990405553,0.14999,16,0.0,0.0,1575420030,,,,0,22.828840376465678,1,6.0,35.422000885009766,0.0,0.0,0.0,66.7128,C,24965043000000,
Raw,1732146081000,14105000000,,95.71380481390356,-1416181284895000064,0.0,95.71380481390356,1886.2379393970516,0.0,0,22,0.0,16431,344498930193398,31,41.766998291015625,377.7395375998562,0.14999,16,0.0,0.0,1575420030,,,,0,29.670897903049305,1,6.0,41.766998291015625,0.0,0.0,0.0,66.7128,C,24965043000000,
Raw,1732146081000,14105000000,,95.71380481390356,-1416181284895000064,0.0,95.71380481390356,1886.2379393970516,0.0,0,13,0.0,16431,344498929378390,51,37.551998138427734,220.828211331452,0.14999,17,3135.3065549070616,0.00022499999613501132,1575420030,,,,0,25.1666315900818,1,6.0,37.551998138427734,0.0,0.0,0.0,66.7128,C,24965043000000,
Raw,1732146081000,14105000000,,95.71380481390356,-1416181284895000064,0.0,95.71380481390356,1886.2379393970516,0.0,0,21,0.0,16431,344498919314592,58,34.20000076293945,372.10180879270735,0.14999,16,0.0,0.0,1575420030,,,,0,21.61212012272539,6,6.0,34.20000076293945,0.0,0.0,8.416537192418414,66.7128,C,24965043000000,
Raw,1732146081000,14105000000,,95.71380481390356,-1416181284895000064,0.0,95.71380481390356,1886.2379393970516,0.0,0,7,0.0,16431,344498910299040,396,21.899999618530273,1146.365694169324,0.14999,16,0.0,0.0,1575420030,,,,0,6.985024576459178,6,6.0,21.899999618530273,0.0,0.0,8.416537192418414,66.7128,C,24965043000000,
Raw,1732146081000,14105000000,,95.71380481390356,-1416181284895000064,0.0,95.71380481390356,1886.2379393970516,0.0,0,19,0.0,16431,344498919680123,74,30.600000381469727,345.5059683275334,0.14999,16,0.0,0.0,1575420030,,,,0,17.599940091052694,6,6.0,30.600000381469727,0.0,0.0,8.416537192418414,66.7128,C,24965043000000,
Raw,1732146081000,14105000000,,95.71380481390356,-1416181284895000064,0.0,95.71380481390356,1886.2379393970516,0.0,0,27,0.0,16431,344498920151520,51,35.29999923706055,801.095293241186,0.14999,16,0.0,0.0,1575420030,,,,0,22.737940701809233,6,6.0,35.29999923706055,0.0,0.0,8.416537192418414,66.7128,C,24965043000000,
Raw,1732146081000,14105000000,,95.71380481390356,-1416181284895000064,0.0,95.71380481390356,1886.2379393970516,0.0,0,19,0.0,16431,344498919554790,58,32.94900131225586,-135.51102340488717,0.14999,16,0.0,0.0,1575420030,,,,0,20.031961930870228,1,6.0,32.94900131225586,0.0,0.0,0.0,66.7128,C,24965043000000,
Raw,1732146081000,14105000000,,95.71380481390356,-1416181284895000064,0.0,95.71380481390356,1886.2379393970516,0.0,0,9,0.0,17,638655,74,5.0,678.5673821799861,0.14999,16,0.0,0.0,1600875010,,,,0,18.57328958751388,3,6.0,32.0,0.0,0.0,36.114779170922205,66.7128,C,24965043000000,
Raw,1732146081000,14105000000,,95.71380481390356,-1416181284895000064,0.0,95.71380481390356,1886.2379393970516,0.0,0,8,0.0,17,831796,58,5.0,314.342222843159,0.14999,16,0.0,0.0,1605374980,,,,0,20.470784604833717,3,6.0,33.0,0.0,0.0,36.114779170922205,66.7128,C,24965043000000,
Raw,1732146081000,14105000000,,95.71380481390356,-1416181284895000064,0.0,95.71380481390356,1886.2379393970516,0.0,0,19,0.0,17,826671,235,5.0,219.28709372045265,0.14999,16,0.0,0.0,1603687550,,,,0,14.819953164073018,3,6.0,28.0,0.0,0.0,36.114779170922205,66.7128,C,24965043000000,
Raw,1732146081000,14105000000,,95.71380481390356,-1416181284895000064,0.0,95.71380481390356,1886.2379393970516,0.0,0,16,0.0,17,640013,396,5.0,1031.0325502429666,0.14999,16,0.0,0.0,1601437440,,,,0,5.613376395329039,3,6.0,22.0,0.0,0.0,36.114779170922205,66.7128,C,24965043000000,
Raw,1732146081000,14105000000,,95.71380481390356,-1416181284895000064,0.0,95.71380481390356,1886.2379393970516,0.0,0,21,0.0,16431,344498920117594,487,16.301000595092773,509.2735347434564,0.14999,16,0.0,0.0,1575420030,,,,0,0.0,1,6.0,16.301000595092773,0.0,0.0,0.0,66.7128,C,24965043000000,
Raw,1732146081000,14105000000,,95.71380481390356,-1416181284895000064,0.0,95.71380481390356,1886.2379393970516,0.0,0,8,0.0,16431,344498918849682,487,15.72599983215332,1229.7989700893434,0.14999,16,0.0,0.0,1575420030,,,,0,0.0,1,6.0,15.72599983215332,0.0,0.0,0.0,66.7128,C,24965043000000,
Raw,1732146081000,14105000000,,95.71380481390356,-1416181284895000064,0.0,95.71380481390356,1886.2379393970516,0.0,0,15,0.0,16431,344498921449046,58,33.875,45.317955009402006,0.14999,16,0.0,0.0,1575420030,,,,0,21.088069308193408,1,6.0,33.875,0.0,0.0,0.0,66.7128,C,24965043000000,
Raw,1732146081000,14105000000,,95.71380481390356,-1416181284895000064,0.0,95.71380481390356,1886.2379393970516,0.0,0,9,0.0,16431,344498915829538,797,12.699999809265137,1298.5373560451371,0.14999,16,0.0,0.0,1575420030,,,,0,0.0,1,6.0,12.699999809265137,0.0,0.0,0.0,66.7128,C,24965043000000,
Raw,1732146081000,14105000000,,95.71380481390356,-1416181284895000064,0.0,95.71380481390356,1886.2379393970516,0.0,0,2,0.0,16431,344498919676380,487,17.55500030517578,317.46503882613075,0.14999,16,0.0,0.0,1575420030,,,,0,0.0,1,6.0,17.55500030517578,0.0,0.0,0.0,66.7128,C,24965043000000,
Raw,1732146081000,14105000000,,95.71380481390356,-1416181284895000064,0.0,95.71380481390356,1886.2379393970516,0.0,0,5,0.0,16431,344498916975469,396,20.159000396728516,983.3217408150881,0.14999,16,0.0,0.0,1575420030,,,,0,4.136861659397004,1,6.0,20.159000396728516,0.0,0.0,0.0,66.7128,C,24965043000000,
Raw,1732146081000,14105000000,,95.71380481390356,-1416181284895000064,0.0,95.71380481390356,1886.2379393970516,0.0,0,30,0.0,16431,344498931815352,31,41.4739990234375,625.0086970368361,0.14999,17,8722.721202183227,0.00022499999613501132,1575420030,,,,0,29.363894746106183,1,6.0,41.4739990234375,0.0,0.0,0.0,66.7128,C,24965043000000,
Status,1732146081000,28,0,1,14,1575420030,42.00,311.0,74.0,1,0,0,37.0
Status,1732146081000,28,1,1,30,1575420030,46.00,67.0,71.0,1,0,0,41.0
Status,1732146081000,28,2,1,22,1575420030,42.50,267.0,58.0,1,0,0,37.5
Status,1732146081000,28,3,1,13,1575420030,45.30,305.0,46.0,1,0,0,40.3
Status,1732146081000,28,4,1,17,1575420030,36.90,176.0,42.0,1,0,0,31.900002
Status,1732146081000,28,5,1,7,1575420030,34.70,101.0,39.0,1,0,0,29.7
Status,1732146081000,28,6,2,131,1575420030,41.00,3.0,23.0,0,0,0,36.0
Status,1732146081000,28,7,1,2,1575420030,23.90,90.0,15.0,1,0,0,18.9
Status,1732146081000,28,8,1,19,1575420030,32.70,193.0,15.0,1,0,0,27.7
Status,1732146081000,28,9,1,15,1575420030,34.50,317.0,15.0,1,0,0,29.5
Status,1732146081000,28,10,1,21,1575420030,0.00,71.0,13.0,0,0,0,0.0
Status,1732146081000,28,11,1,8,1575420030,0.00,40.0,11.0,0,0,0,0.0
Status,1732146081000,28,12,1,5,1575420030,25.10,264.0,8.0,0,0,0,20.1
Status,1732146081000,28,13,1,9,1575420030,17.70,159.0,3.0,0,0,0,12.700001
Status,1732146081000,28,14,3,9,1602000000,42.60,12.0,54.0,1,0,0,37.6
Status,1732146081000,28,15,3,8,1602000000,32.50,307.0,38.0,1,0,0,27.5
Status,1732146081000,28,16,3,19,1602000000,31.90,90.0,31.0,1,0,0,26.9
Status,1732146081000,28,17,3,16,1602000000,0.00,65.0,16.0,0,0,0,0.0
Status,1732146081000,28,18,3,20,1602000000,0.00,151.0,8.0,0,0,0,0.0
Status,1732146081000,28,19,3,17,1602000000,41.10,0.0,0.0,0,0,0,36.1
Status,1732146081000,28,20,6,29,1575420030,0.00,206.0,63.0,0,0,0,0.0
Status,1732146081000,28,21,6,27,1575420030,40.40,35.0,60.0,1,0,0,35.4
Status,1732146081000,28,22,6,21,1575420030,44.80,265.0,56.0,1,0,0,39.8
Status,1732146081000,28,23,6,19,1575420030,39.70,300.0,49.0,1,0,0,34.7
Status,1732146081000,28,24,6,7,1575420030,27.90,160.0,18.0,1,0,0,22.9
Status,1732146081000,28,25,6,30,1575420030,0.00,57.0,12.0,0,0,0,0.0
Status,1732146081000,28,26,6,15,1575420030,0.00,96.0,9.0,0,0,0,0.0
Status,1732146081000,28,27,6,34,1575420030,0.00,49.0,6.0,0,0,0,0.0
Fix,GPS,37.4243916667,-122.1712566667,13.3,0.42721945,1.6,66.85,1732146082000,0.8,82.8,24966043000000,37.3,0,,,
Fix,FLP,37.4243909000,-122.1712635000,2.200000047683716,0.14122917,1.633,295.11444,1732146082195,0.8,82.8,24966043000000,1.0317353,0,,,
Raw,1732146082000,15105000000,,96.40465394341228,-1416181284895000064,0.0,96.40465394341228,1881.822375224552,0.0,0,14,0.0,16431,344499932586294,51,36.99399948120117,526.6273327842437,0.14999,17,7947.520834185498,0.00022499999613501132,1575420030,,,,0,24.562705177140355,1,6.0,36.99399948120117,0.0,0.0,0.0,66.7128,C,24966043000000,
Raw,1732146082000,15105000000,,96.40465394341228,-1416181284895000064,0.0,96.40465394341228,1881.822375224552,0.0,0,17,0.0,16431,344499928415382,74,31.86199951171875,46.505617961408205,0.14999,16,0.0,0.0,1575420030,,,,0,18.765509643493633,1,6.0,31.86199951171875,0.0,0.0,0.0,66.7128,C,24966043000000,
Raw,1732146082000,15105000000,,96.40465394341228,-1416181284895000064,0.0,96.40465394341228,1881.822375224552,0.0,0,7,0.0,16431,344499926906284,235,29.676000595092773,894.1554963346883,0.14999,16,0.0,0.0,1575420030,,,,0,16.14559083267198,1,6.0,29.676000595092773,0.0,0.0,0.0,66.7128,C,24966043000000,
Raw,1732146082000,15105000000,,96.40465394341228,-1416181284895000064,0.0,96.40465394341228,1881.822375224552,0.0,0,22,0.0,16431,344499930192137,51,37.51300048828125,377.14082799015097,0.14999,16,0.0,0.0,1575420030,,,,0,25.128164345463844,1,6.0,37.51300048828125,0.0,0.0,0.0,66.7128,C,24966043000000,
Raw,1732146082000,15105000000,,96.40465394341228,-1416181284895000064,0.0,96.40465394341228,1881.822375224552,0.0,0,13,0.0,16431,344499929377651,42,40.34400177001953,220.07735040865728,0.14999,17,3355.0690914728725,0.00022499999613501132,1575420030,,,,0,28.167793236420987,1,6.0,40.34400177001953,0.0,0.0,0.0,66.7128,C,24966043000000,
Raw,1732146082000,15105000000,,96.40465394341228,-1416181284895000064,0.0,96.40465394341228,1881.822375224552,0.0,0,21,0.0,16431,344499919313352,42,39.79999923706055,371.41422423279136,0.14999,16,0.0,0.0,1575420030,,,,0,27.536838695085983,6,6.0,39.79999923706055,0.0,0.0,7.892280831872763,66.7128,C,24966043000000,
Raw,1732146082000,15105000000,,96.40465394341228,-1416181284895000064,0.0,96.40465394341228,1881.822375224552,0.0,0,7,0.0,16431,344499910295215,316,22.899999618530273,1145.8043835846681,0.14999,16,0.0,0.0,1575420030,,,,0,8.36389556419295,6,6.0,22.899999618530273,0.0,0.0,7.892280831872763,66.7128,C,24966043000000,
Raw,1732146082000,15105000000,,96.40465394341228,-1416181284895000064,0.0,96.40465394341228,1881.822375224552,0.0,0,15,0.0,16431,344499921448851,235,29.476999282836914,44.11584348995433,0.14999,16,0.0,0.0,1575420030,,,,0,15.903689664438517,1,6.0,29.476999282836914,0.0,0.0,0.0,66.7128,C,24966043000000,
Raw,1732146082000,15105000000,,96.40465394341228,-1416181284895000064,0.0,96.40465394341228,1881.822375224552,0.0,0,19,0.0,16431,344499919678969,51,34.70000076293945,344.9979223170631,0.14999,16,0.0,0.0,1575420030,,,,0,22.08447904608419,6,6.0,34.70000076293945,0.0,0.0,7.892280831872763,66.7128,C,24966043000000,
Raw,1732146082000,15105000000,,96.40465394341228,-1416181284895000064,0.0,96.40465394341228,1881.822375224552,0.0,0,27,0.0,16431,344499920148850,51,35.369998931884766,800.3994390831846,0.14999,16,0.0,0.0,1575420030,,,,0,24.26980060530864,6,6.0,35.369998931884766,0.0,0.0,7.892280831872763,66.7128,C,24966043000000,
Raw,1732146082000,15105000000,,96.40465394341228,-1416181284895000064,0.0,96.40465394341228,1881.822375224552,0.0,0,19,0.0,16431,344499919555242,235,27.701000213623047,-136.03210100110456,0.14999,16,0.0,0.0,1575420030,,,,0,13.679286753790254,1,6.0,27.701000213623047,0.0,0.0,0.0,66.7128,C,24966043000000,
Raw,1732146082000,15105000000,,96.40465394341228,-1416181284895000064,0.0,96.40465394341228,1881.822375224552,0.0,0,9,0.0,17,636392,51,5.0,678.4957851363118,0.14999,17,10222.01085925724,0.00022499999613501132,1600875010,,,,0,25.154112822037757,3,6.0,38.0,0.0,0.0,36.54190819751446,66.7128,C,24966043000000,
Raw,1732146082000,15105000000,,96.40465394341228,-1416181284895000064,0.0,96.40465394341228,1881.822375224552,0.0,0,8,0.0,17,830751,235,5.0,313.9658190912903,0.14999,16,0.0,0.0,1605374980,,,,0,14.16196034812464,3,6.0,28.0,0.0,0.0,36.54190819751446,66.7128,C,24966043000000,
Raw,1732146082000,15105000000,,96.40465394341228,-1416181284895000064,0.0,96.40465394341228,1881.822375224552,0.0,0,19,0.0,17,825939,235,5.0,218.54937661657462,0.14999,16,0.0,0.0,1603687550,,,,0,13.44147376777514,3,6.0,27.0,0.0,0.0,36.54190819751446,66.7128,C,24966043000000,
Raw,1732146082000,15105000000,,96.40465394341228,-1416181284895000064,0.0,96.40465394341228,1881.822375224552,0.0,0,9,0.0,16431,344499915825208,797,12.699999809265137,1297.0157499974096,0.14999,16,0.0,0.0,1575420030,,,,0,0.0,1,6.0,12.699999809265137,0.0,0.0,0.0,66.7128,C,24966043000000,
Raw,1732146082000,15105000000,,96.40465394341228,-1416181284895000064,0.0,96.40465394341228,1881.822375224552,0.0,0,2,0.0,16431,344499919675322,487,18.867000579833984,313.799191036622,0.14999,16,0.0,0.0,1575420030,,,,0,0.2847347169722063,1,6.0,18.867000579833984,0.0,0.0,0.0,66.7128,C,24966043000000,
Raw,1732146082000,15105000000,,96.40465394341228,-1416181284895000064,0.0,96.40465394341228,1881.822375224552,0.0,0,5,0.0,17,972188,487,20.117000579833984,983.9327619050891,0.14999,16,0.0,0.0,1575420030,,,,0,1.0573227640948248,1,6.0,20.117000579833984,0.0,0.0,0.0,66.7128,C,24966043000000,
Raw,1732146082000,15105000000,,96.40465394341228,-1416181284895000064,0.0,96.40465394341228,1881.822375224552,0.0,0,30,0.0,16431,344499931813267,42,41.02799987792969,624.7260440326112,0.14999,16,0.0,0.0,1575420030,,,,0,28.89203668950988,1,6.0,41.02799987792969,0.0,0.0,0.0,66.7128,C,24966043000000,
Fix,NLP,37.4243146000,-122.1711255000,2.200000047683716,,21.851,,1732146081771,,,24965619000000,1.0,0,,,
Status,1732146082000,28,0,1,14,1575420030,45.80,311.0,74.0,1,0,0,40.8
Status,1732146082000,28,1,1,30,1575420030,37.00,67.0,71.0,1,0,0,32.0
Status,1732146082000,28,2,1,22,1575420030,43.40,267.0,58.0,1,0,0,38.4
Status,1732146082000,28,3,1,13,1575420030,37.40,305.0,46.0,1,0,0,32.4
Status,1732146082000,28,4,1,17,1575420030,39.40,176.0,42.0,1,0,0,34.4
Status,1732146082000,28,5,1,7,1575420030,38.10,101.0,39.0,1,0,0,33.1
Status,1732146082000,28,6,2,131,1575420030,40.00,3.0,23.0,0,0,0,35.0
Status,1732146082000,28,7,1,2,1575420030,23.90,90.0,15.0,1,0,0,18.9
Status,1732146082000,28,8,1,19,1575420030,41.90,193.0,15.0,1,0,0,36.9
Status,1732146082000,28,9,1,15,1575420030,30.30,317.0,15.0,1,0,0,25.3
Status,1732146082000,28,10,1,21,1575420030,0.00,71.0,13.0,0,0,0,0.0
Status,1732146082000,28,11,1,8,1575420030,0.00,40.0,11.0,0,0,0,0.0
Status,1732146082000,28,12,1,5,1575420030,29.90,264.0,8.0,1,0,0,24.9
Status,1732146082000,28,13,1,9,1575420030,19.40,159.0,3.0,0,0,0,14.4
Status,1732146082000,28,14,3,9,1602000000,46.00,12.0,54.0,1,0,0,41.0
Status,1732146082000,28,15,3,8,1602000000,39.30,307.0,38.0,1,0,0,34.3
Status,1732146082000,28,16,3,19,1602000000,34.90,90.0,31.0,1,0,0,29.900002
Status,1732146082000,28,17,3,16,1602000000,0.00,65.0,16.0,0,0,0,0.0
Status,1732146082000,28,18,3,20,1602000000,0.00,151.0,8.0,0,0,0,0.0
Status,1732146082000,28,19,3,17,1602000000,32.00,0.0,0.0,0,0,0,27.0
Status,1732146082000,28,20,6,29,1575420030,0.00,206.0,63.0,0,0,0,0.0
Status,1732146082000,28,21,6,27,1575420030,44.30,35.0,60.0,1,0,0,39.3
Status,1732146082000,28,22,6,21,1575420030,42.10,265.0,56.0,1,0,0,37.1
Status,1732146082000,28,23,6,19,1575420030,33.70,300.0,49.0,1,0,0,28.7
Status,1732146082000,28,24,6,7,1575420030,29.60,160.0,18.0,1,0,0,24.6
Status,1732146082000,28,25,6,30,1575420030,0.00,57.0,12.0,0,0,0,0.0
Status,1732146082000,28,26,6,15,1575420030,0.00,96.0,9.0,0,0,0,0.0
Status,1732146082000,28,27,6,34,1575420030,0.00,49.0,6.0,0,0,0,0.0
Fix,GPS,37.4243916667,-122.1712500000,13.400000000000002,0.42927834,1.6,118.11,1732146083000,1.3,127.0,24967043000000,41.6,0,,,
Fix,FLP,37.4243914000,-122.1712576000,2.200000047683716,0.11162288,1.616,293.7235,1732146083195,1.3,127.0,24967043000000,0.83333623,0,,,
Raw,1732146083000,16105000000,,107.56589531292356,-1416181284895000064,0.0,107.56589531292356,1881.1408086991119,0.0,0,14,0.0,16431,344500932584538,42,40.757999420166016,526.1579169468523,0.14999,17,8473.772103512423,0.00022499999613501132,1575420030,,,,0,28.607477857279942,1,6.0,40.757999420166016,0.0,0.0,0.0,66.7128,C,24967043000000,
Raw,1732146083000,16105000000,,107.56589531292356,-1416181284895000064,0.0,107.56589531292356,1881.1408086991119,0.0,0,17,0.0,16431,344500928415225,58,34.444000244140625,45.74546535537138,0.14999,16,0.0,0.0,1575420030,,,,0,21.73833738464332,1,6.0,34.444000244140625,0.0,0.0,0.0,66.7128,C,24967043000000,
Raw,1732146083000,16105000000,,107.56589531292356,-1416181284895000064,0.0,107.56589531292356,1881.1408086991119,0.0,0,7,0.0,16431,344500926903299,58,33.1150016784668,893.7357910026423,0.14999,16,0.0,0.0,1575420030,,,,0,20.223923105880957,1,6.0,33.1150016784668,0.0,0.0,0.0,66.7128,C,24967043000000,
Raw,1732146083000,16105000000,,107.56589531292356,-1416181284895000064,0.0,107.56589531292356,1881.1408086991119,0.0,0,22,0.0,16431,344500930190878,51,38.36000061035156,376.8962011995944,0.14999,16,0.0,0.0,1575420030,,,,0,26.042157503151692,1,6.0,38.36000061035156,0.0,0.0,0.0,66.7128,C,24967043000000,
Raw,1732146083000,16105000000,,107.56589531292356,-1416181284895000064,0.0,107.56589531292356,1881.1408086991119,0.0,0,13,0.0,16431,344500929376917,74,32.38800048828125,219.99024087826254,0.14999,16,0.0,0.0,1575420030,,,,0,19.384534805556193,1,6.0,32.38800048828125,0.0,0.0,0.0,66.7128,C,24967043000000,
Raw,1732146083000,16105000000,,107.56589531292356,-1416181284895000064,0.0,107.56589531292356,1881.1408086991119,0.0,0,21,0.0,16431,344500919312110,51,37.099998474121094,371.58126546827634,0.14999,16,0.0,0.0,1575420030,,,,0,24.693383931823803,6,6.0,37.099998474121094,0.0,0.0,7.511599650850239,66.7128,C,24967043000000,
Raw,1732146083000,16105000000,,107.56589531292356,-1416181284895000064,0.0,107.56589531292356,1881.1408086991119,0.0,0,7,0.0,16431,344500910291392,316,24.600000381469727,1145.5586185629145,0.14999,16,0.0,0.0,1575420030,,,,0,10.558582427700593,6,6.0,24.600000381469727,0.0,0.0,7.511599650850239,66.7128,C,24967043000000,
Raw,1732146083000,16105000000,,107.56589531292356,-1416181284895000064,0.0,107.56589531292356,1881.1408086991119,0.0,0,19,0.0,16431,344500919677818,74,28.700000762939453,344.7121798281602,0.14999,16,0.0,0.0,1575420030,,,,0,15.539352547295202,6,6.0,28.700000762939453,0.0,0.0,7.511599650850239,66.7128,C,24967043000000,
Raw,1732146083000,16105000000,,107.56589531292356,-1416181284895000064,0.0,107.56589531292356,1881.1408086991119,0.0,0,27,0.0,16431,344500920146181,42,39.29999923706055,800.7794689277868,0.14999,16,0.0,0.0,1575420030,,,,0,26.988137240759848,6,6.0,39.29999923706055,0.0,0.0,7.511599650850239,66.7128,C,24967043000000,
Raw,1732146083000,16105000000,,107.56589531292356,-1416181284895000064,0.0,107.56589531292356,1881.1408086991119,0.0,0,19,0.0,16431,344500919555695,51,36.875,-137.09929727987682,0.14999,16,0.0,0.0,1575420030,,,,0,24.43003029761661,1,6.0,36.875,0.0,0.0,0.0,66.7128,C,24967043000000,
Raw,1732146083000,16105000000,,107.56589531292356,-1416181284895000064,0.0,107.56589531292356,1881.1408086991119,0.0,0,9,0.0,17,634132,42,5.0,678.3584888897258,0.14999,17,10900.153839788214,0.00022499999613501132,1600875010,,,,0,28.695230244503808,3,6.0,41.0,0.0,0.0,37.32853951315573,66.7128,C,24967043000000,
Raw,1732146083000,16105000000,,107.56589531292356,-1416181284895000064,0.0,107.56589531292356,1881.1408086991119,0.0,0,8,0.0,17,829698,58,5.0,313.536643132204,0.14999,16,0.0,0.0,1605374980,,,,0,21.704749468006128,3,6.0,34.0,0.0,0.0,37.32853951315573,66.7128,C,24967043000000,
Raw,1732146083000,16105000000,,107.56589531292356,-1416181284895000064,0.0,107.56589531292356,1881.1408086991119,0.0,0,19,0.0,17,825213,74,5.0,218.9378373397655,0.14999,16,0.0,0.0,1603687550,,,,0,16.827075023325527,3,6.0,30.0,0.0,0.0,37.32853951315573,66.7128,C,24967043000000,
Raw,1732146083000,16105000000,,107.56589531292356,-1416181284895000064,0.0,107.56589531292356,1881.1408086991119,0.0,0,15,0.0,16431,344500921448649,316,25.301000595092773,45.250079263318405,0.14999,16,0.0,0.0,1575420030,,,,0,10.475661610462378,1,6.0,25.301000595092773,0.0,0.0,0.0,66.7128,C,24967043000000,
Raw,1732146083000,16105000000,,107.56589531292356,-1416181284895000064,0.0,107.56589531292356,1881.1408086991119,0.0,0,9,0.0,17,820889,797,14.399999618530273,1294.756291383426,0.14999,16,0.0,0.0,1575420030,,,,0,0.0,1,6.0,14.399999618530273,0.0,0.0,0.0,66.7128,C,24967043000000,
Raw,1732146083000,16105000000,,107.56589531292356,-1416181284895000064,0.0,107.56589531292356,1881.1408086991119,0.0,0,2,0.0,16431,344500919674266,396,18.863000869750977,316.62948421058417,0.14999,16,0.0,0.0,1575420030,,,,0,0.14901493010636546,1,6.0,18.863000869750977,0.0,0.0,0.0,66.7128,C,24967043000000,
Raw,1732146083000,16105000000,,107.56589531292356,-1416181284895000064,0.0,107.56589531292356,1881.1408086991119,0.0,0,5,0.0,16431,344500916968911,396,24.875,985.3109043635585,0.14999,16,0.0,0.0,1575420030,,,,0,9.871932537501383,1,6.0,24.875,0.0,0.0,0.0,66.7128,C,24967043000000,
Raw,1732146083000,16105000000,,107.56589531292356,-1416181284895000064,0.0,107.56589531292356,1881.1408086991119,0.0,0,30,0.0,16431,344500931811181,58,31.974000930786133,623.9896781356742,0.14999,17,9971.255396801123,0.00039999998989515007,1575420030,,,,0,18.908686890422263,1,6.0,31.974000930786133,0.0,0.0,0.0,66.7128,C,24967043000000,
Status,1732146083000,28,0,1,14,1575420030,43.90,311.0,74.0,1,0,0,38.9
Status,1732146083000,28,1,1,30,1575420030,43.30,67.0,71.0,1,0,0,38.3
Status,1732146083000,28,2,1,22,1575420030,48.20,267.0,58.0,1,0,0,43.2
Status,1732146083000,28,3,1,13,1575420030,44.80,305.0,46.0,1,0,0,39.8
Status,1732146083000,28,4,1,17,1575420030,35.50,176.0,42.0,1,0,0,30.5
Status,1732146083000,28,5,1,7,1575420030,44.10,101.0,39.0,1,0,0,39.1
Status,1732146083000,28,6,2,131,1575420030,38.00,3.0,23.0,0,0,0,33.0
Status,1732146083000,28,7,1,2,1575420030,32.90,90.0,15.0,1,0,0,27.900002
Status,1732146083000,28,8,1,19,1575420030,34.60,193.0,15.0,1,0,0,29.599998
Status,1732146083000,28,9,1,15,1575420030,34.50,317.0,15.0,1,0,0,29.5
Status,1732146083000,28,10,1,21,1575420030,0.00,71.0,13.0,0,0,0,0.0
Status,1732146083000,28,11,1,8,1575420030,0.00,40.0,11.0,0,0,0,0.0
Status,1732146083000,28,12,1,5,1575420030,32.90,264.0,8.0,1,0,0,27.900002
Status,1732146083000,28,13,1,9,1575420030,19.40,159.0,3.0,0,0,0,14.4
Status,1732146083000,28,14,3,9,1602000000,46.10,12.0,54.0,1,0,0,41.1
Status,1732146083000,28,15,3,8,1602000000,38.10,307.0,38.0,1,0,0,33.1
Status,1732146083000,28,16,3,19,1602000000,32.00,90.0,31.0,1,0,0,27.0
Status,1732146083000,28,17,3,16,1602000000,0.00,65.0,16.0,0,0,0,0.0
Status,1732146083000,28,18,3,20,1602000000,0.00,151.0,8.0,0,0,0,0.0
Status,1732146083000,28,19,3,17,1602000000,41.30,0.0,0.0,0,0,0,36.3
Status,1732146083000,28,20,6,29,1575420030,0.00,206.0,63.0,0,0,0,0.0
Status,1732146083000,28,21,6,27,1575420030,44.40,35.0,60.0,1,0,0,39.4
Status,1732146083000,28,22,6,21,1575420030,43.40,265.0,56.0,1,0,0,38.4
Status,1732146083000,28,23,6,19,1575420030,29.60,300.0,49.0,1,0,0,24.6
Status,1732146083000,28,24,6,7,1575420030,29.10,160.0,18.0,1,0,0,24.1
Status,1732146083000,28,25,6,30,1575420030,0.00,57.0,12.0,0,0,0,0.0
Status,1732146083000,28,26,6,15,1575420030,0.00,96.0,9.0,0,0,0,0.0
Status,1732146083000,28,27,6,34,1575420030,0.00,49.0,6.0,0,0,0,0.0
Fix,GPS,37.4243883333,-122.1712383333,13.599999999999998,0.77877474,1.7,126.21,1732146084000,1.0,51.7,24968043000000,42.1,0,,,
Raw,1732146084000,17105000000,,108.64751262188841,-1416181284895000064,0.0,108.64751262188841,1878.8042745455652,0.0,0,14,0.0,16431,344501932582787,42,38.9109992980957,525.8158900867104,0.14999,16,0.0,0.0,1575420030,,,,0,26.63887679064482,1,6.0,38.9109992980957,0.0,0.0,0.0,66.7128,C,24968043000000,
Raw,1732146084000,17105000000,,108.64751262188841,-1416181284895000064,0.0,108.64751262188841,1878.8042745455652,0.0,0,17,0.0,16431,344501928415068,74,30.527000427246094,46.356486445372376,0.14999,16,0.0,0.0,1575420030,,,,0,17.186695517257345,1,6.0,30.527000427246094,0.0,0.0,0.0,66.7128,C,24968043000000,
Raw,1732146084000,17105000000,,108.64751262188841,-1416181284895000064,0.0,108.64751262188841,1878.8042745455652,0.0,0,7,0.0,16431,344501926900326,42,39.10300064086914,893.5579481853883,0.14999,17,15110.748718506651,0.00022499999613501132,1575420030,,,,0,26.84378748670944,1,6.0,39.10300064086914,0.0,0.0,0.0,66.7128,C,24968043000000,
Raw,1732146084000,17105000000,,108.64751262188841,-1416181284895000064,0.0,108.64751262188841,1878.8042745455652,0.0,0,22,0.0,16431,344501930189619,31,43.178001403808594,376.5851388738567,0.14999,16,0.0,0.0,1575420030,,,,0,31.15069167240678,1,6.0,43.178001403808594,0.0,0.0,0.0,66.7128,C,24968043000000,
Raw,1732146084000,17105000000,,108.64751262188841,-1416181284895000064,0.0,108.64751262188841,1878.8042745455652,0.0,0,13,0.0,16431,344501929376185,42,39.757999420166016,219.53276485383736,0.14999,17,3793.9930304461923,0.00022499999613501132,1575420030,,,,0,27.542679912278594,1,6.0,39.757999420166016,0.0,0.0,0.0,66.7128,C,24968043000000,
Raw,1732146084000,17105000000,,108.64751262188841,-1416181284895000064,0.0,108.64751262188841,1878.8042745455652,0.0,0,15,0.0,16431,344501921448579,235,29.542999267578125,43.94478360146712,0.14999,16,0.0,0.0,1575420030,,,,0,15.992435158168519,1,6.0,29.542999267578125,0.0,0.0,0.0,66.7128,C,24968043000000,
Raw,1732146084000,17105000000,,108.64751262188841,-1416181284895000064,0.0,108.64751262188841,1878.8042745455652,0.0,0,21,0.0,16431,344501919310869,42,38.400001525878906,371.07558883703274,0.14999,16,0.0,0.0,1575420030,,,,0,25.986456216385946,6,6.0,38.400001525878906,0.0,0.0,7.319952966217232,66.7128,C,24968043000000,
Raw,1732146084000,17105000000,,108.64751262188841,-1416181284895000064,0.0,108.64751262188841,1878.8042745455652,0.0,0,7,0.0,16431,344501910287569,316,24.100000381469727,1145.1940129124941,0.14999,16,0.0,0.0,1575420030,,,,0,10.004882423516433,6,6.0,24.100000381469727,0.0,0.0,7.319952966217232,66.7128,C,24968043000000,
Raw,1732146084000,17105000000,,108.64751262188841,-1416181284895000064,0.0,108.64751262188841,1878.8042745455652,0.0,0,19,0.0,16431,344501919676670,235,24.600000381469727,343.9962788635639,0.14999,16,0.0,0.0,1575420030,,,,0,10.558582427700593,6,6.0,24.600000381469727,0.0,0.0,7.319952966217232,66.7128,C,24968043000000,
Raw,1732146084000,17105000000,,108.64751262188841,-1416181284895000064,0.0,108.64751262188841,1878.8042745455652,0.0,0,27,0.0,16431,344501920143512,31,39.3650016784668,799.9918129393533,0.14999,16,0.0,0.0,1575420030,,,,0,28.30258628350726,6,6.0,39.3650016784668,0.0,0.0,7.319952966217232,66.7128,C,24968043000000,
Raw,1732146084000,17105000000,,108.64751262188841,-1416181284895000064,0.0,108.64751262188841,1878.8042745455652,0.0,0,19,0.0,16431,344501919556154,235,29.62700080871582,-137.53944431505548,0.14999,16,0.0,0.0,1575420030,,,,0,16.102106938909476,1,6.0,29.62700080871582,0.0,0.0,0.0,66.7128,C,24968043000000,
Raw,1732146084000,17105000000,,108.64751262188841,-1416181284895000064,0.0,108.64751262188841,1878.8042745455652,0.0,0,9,0.0,17,631874,31,5.0,677.8963542042474,0.14999,17,11577.367327472983,0.00022499999613501132,1600875010,,,,0,30.296939229799996,3,6.0,43.0,0.0,0.0,38.31267550807493,66.7128,C,24968043000000,
Raw,1732146084000,17105000000,,108.64751262188841,-1416181284895000064,0.0,108.64751262188841,1878.8042745455652,0.0,0,8,0.0,17,828648,235,5.0,313.16441100621904,0.14999,16,0.0,0.0,1605374980,,,,0,20.35371633410957,3,6.0,27.0,0.0,0.0,38.31267550807493,66.7128,C,24968043000000,
Raw,1732146084000,17105000000,,108.64751262188841,-1416181284895000064,0.0,108.64751262188841,1878.8042745455652,0.0,0,19,0.0,17,824480,316,5.0,218.37756666621894,0.14999,16,0.0,0.0,1603687550,,,,0,13.484051743417576,3,6.0,26.0,0.0,0.0,38.31267550807493,66.7128,C,24968043000000,
Raw,1732146084000,17105000000,,108.64751262188841,-1416181284895000064,0.0,108.64751262188841,1878.8042745455652,0.0,0,9,0.0,16431,344501915816575,797,14.399999618530273,1293.18599691551,0.14999,16,0.0,0.0,1575420030,,,,0,0.0,1,6.0,14.399999618530273,0.0,0.0,0.0,66.7128,C,24968043000000,
Raw,1732146084000,17105000000,,108.64751262188841,-1416181284895000064,0.0,108.64751262188841,1878.8042745455652,0.0,0,2,0.0,16431,344501919673227,235,27.885000228881836,314.4893075802214,0.14999,16,0.0,0.0,1575420030,,,,0,13.906753491389587,1,6.0,27.885000228881836,0.0,0.0,0.0,66.7128,C,24968043000000,
Raw,1732146084000,17105000000,,108.64751262188841,-1416181284895000064,0.0,108.64751262188841,1878.8042745455652,0.0,0,5,0.0,16431,344501916965626,235,27.885000228881836,983.944190675477,0.14999,16,0.0,0.0,1575420030,,,,0,13.906753491389587,1,6.0,27.885000228881836,0.0,0.0,0.0,66.7128,C,24968043000000,
Raw,1732146084000,17105000000,,108.64751262188841,-1416181284895000064,0.0,108.64751262188841,1878.8042745455652,0.0,0,30,0.0,16431,344501931809102,51,38.33000183105469,624.2685215497698,0.14999,17,10594.757424171044,0.00022499999613501132,1575420030,,,,0,26.014351510175402,1,6.0,38.33000183105469,0.0,0.0,0.0,66.7128,C,24968043000000,
Fix,FLP,37.4243898000,-122.1712484000,2.200000047683716,0.037308525,1.616,,1732146084195,1.0,,24968043000000,0.8433034,0,,,
Status,1732146084000,28,0,1,14,1575420030,44.30,311.0,74.0,1,0,0,39.3
Status,1732146084000,28,1,1,30,1575420030,46.20,67.0,71.0,1,0,0,41.2
Status,1732146084000,28,2,1,22,1575420030,45.40,267.0,58.0,1,0,0,40.4
Status,1732146084000,28,3,1,13,1575420030,42.90,305.0,46.0,1,0,0,37.9
Status,1732146084000,28,4,1,17,1575420030,40.90,176.0,42.0,1,0,0,35.9
Status,1732146084000,28,5,1,7,1575420030,33.60,101.0,39.0,1,0,0,28.599998
Status,1732146084000,28,6,2,131,1575420030,40.00,3.0,23.0,0,0,0,35.0
Status,1732146084000,28,7,1,2,1575420030,33.10,90.0,15.0,1,0,0,28.099998
Status,1732146084000,28,8,1,19,1575420030,37.30,193.0,15.0,1,0,0,32.3
Status,1732146084000,28,9,1,15,1575420030,35.10,317.0,15.0,1,0,0,30.099998
Status,1732146084000,28,10,1,21,1575420030,0.00,71.0,13.0,0,0,0,0.0
Status,1732146084000,28,11,1,8,1575420030,0.00,40.0,11.0,0,0,0,0.0
Status,1732146084000,28,12,1,5,1575420030,29.80,264.0,8.0,1,0,0,24.8
Status,1732146084000,28,13,1,9,1575420030,17.20,159.0,3.0,0,0,0,12.200001
Status,1732146084000,28,14,3,9,1602000000,49.50,12.0,54.0,1,0,0,44.5
Status,1732146084000,28,15,3,8,1602000000,38.60,307.0,38.0,1,0,0,33.6
Status,1732146084000,28,16,3,19,1602000000,30.10,90.0,31.0,1,0,0,25.1
Status,1732146084000,28,17,3,16,1602000000,0.00,65.0,16.0,0,0,0,0.0
Status,1732146084000,28,18,3,20,1602000000,0.00,151.0,8.0,0,0,0,0.0
Status,1732146084000,28,19,3,17,1602000000,45.90,0.0,0.0,0,0,0,40.9
Status,1732146084000,28,20,6,29,1575420030,0.00,206.0,63.0,0,0,0,0.0
Status,1732146084000,28,21,6,27,1575420030,47.00,35.0,60.0,1,0,0,42.0
Status,1732146084000,28,22,6,21,1575420030,44.70,265.0,56.0,1,0,0,39.7
Status,1732146084000,28,23,6,19,1575420030,37.40,300.0,49.0,1,0,0,32.4
Status,1732146084000,28,24,6,7,1575420030,27.70,160.0,18.0,1,0,0,22.7
Status,1732146084000,28,25,6,30,1575420030,0.00,57.0,12.0,0,0,0,0.0
Status,1732146084000,28,26,6,15,1575420030,0.00,96.0,9.0,0,0,0,0.0
Status,1732146084000,28,27,6,34,1575420030,0.00,49.0,6.0,0,0,0,0.0
Fix,GPS,37.4243866667,-122.1712283333,13.8,1.0963583,1.6,140.63,1732146085000,1.2,44.3,24969043000000,38.0,0,,,
Raw,1732146085000,18105000000,,98.29638038715947,-1416181284895000064,0.0,98.29638038715947,1879.7171632393922,0.0,0,14,0.0,16431,344502932581032,42,39.255001068115234,526.0315965131759,0.14999,17,9524.94423282681,0.00022499999613501132,1575420030,,,,0,27.006789838417774,1,6.0,39.255001068115234,0.0,0.0,0.0,66.7128,C,24969043000000,
Raw,1732146085000,18105000000,,98.29638038715947,-1416181284895000064,0.0,98.29638038715947,1879.7171632393922,0.0,0,17,0.0,16431,344502928414917,51,35.875999450683594,46.258691479249194,0.14999,16,0.0,0.0,1575420030,,,,0,23.33618981023156,1,6.0,35.875999450683594,0.0,0.0,0.0,66.7128,C,24969043000000,
