# 
# Header Description:
# 
# Version: v3.1.0.3 Platform: 13 Manufacturer: samsung Model: SM-S135DL GNSS Hardware Model Name: MediaTek,MT6631,MTK_MNLD_default,MNL_VER_default
# 
# Raw,utcTimeMillis,TimeNanos,LeapSecond,TimeUncertaintyNanos,FullBiasNanos,BiasNanos,BiasUncertaintyNanos,DriftNanosPerSecond,DriftUncertaintyNanosPerSecond,HardwareClockDiscontinuityCount,Svid,TimeOffsetNanos,State,ReceivedSvTimeNanos,ReceivedSvTimeUncertaintyNanos,Cn0DbHz,PseudorangeRateMetersPerSecond,PseudorangeRateUncertaintyMetersPerSecond,AccumulatedDeltaRangeState,AccumulatedDeltaRangeMeters,AccumulatedDeltaRangeUncertaintyMeters,CarrierFrequencyHz,CarrierCycles,CarrierPhase,CarrierPhaseUncertainty,MultipathIndicator,SnrInDb,ConstellationType,AgcDb,BasebandCn0DbHz,FullInterSignalBiasNanos,FullInterSignalBiasUncertaintyNanos,SatelliteInterSignalBiasNanos,SatelliteInterSignalBiasUncertaintyNanos,CodeType,ChipsetElapsedRealtimeNanos,IsFullTracking
# 
# UncalAccel,utcTimeMillis,elapsedRealtimeNanos,UncalAccelXMps2,UncalAccelYMps2,UncalAccelZMps2,BiasXMps2,BiasYMps2,BiasZMps2
# 
# Accel,utcTimeMillis,elapsedRealtimeNanos,AccelXMps2,AccelYMps2,AccelZMps2
# 
# UncalGyro,utcTimeMillis,elapsedRealtimeNanos,UncalGyroXRadPerSec,UncalGyroYRadPerSec,UncalGyroZRadPerSec,DriftXRadPerSec,DriftYRadPerSec,DriftZRadPerSec
# 
# Gyro,utcTimeMillis,elapsedRealtimeNanos,GyroXRadPerSec,GyroYRadPerSec,GyroZRadPerSec
# 
# UncalMag,utcTimeMillis,elapsedRealtimeNanos,UncalMagXMicroT,UncalMagYMicroT,UncalMagZMicroT,BiasXMicroT,BiasYMicroT,BiasZMicroT
# 
# Mag,utcTimeMillis,elapsedRealtimeNanos,MagXMicroT,MagYMicroT,MagZMicroT
# 
# Pressure,utcTimeMillis,elapsedRealtimeNanos,PressureHpa
# 
# OrientationDeg,utcTimeMillis,elapsedRealtimeNanos,yawDeg,rollDeg,pitchDeg
# 
# Fix,Provider,LatitudeDegrees,LongitudeDegrees,AltitudeMeters,SpeedMps,AccuracyMeters,BearingDegrees,UnixTimeMillis,SpeedAccuracyMps,BearingAccuracyDegrees,elapsedRealtimeNanos,VerticalAccuracyMeters,MockLocation,NumberOfUsedSignals,VerticalSpeedAccuracyMps,SolutionType
# 
# Nav,Svid,Type,Status,MessageId,Sub-messageId,Data(Bytes)
# 
# Status,UnixTimeMillis,SignalCount,SignalIndex,ConstellationType,Svid,CarrierFrequencyHz,Cn0DbHz,AzimuthDegrees,ElevationDegrees,UsedInFix,HasAlmanacData,HasEphemerisData,BasebandCn0DbHz
# 
# Agc,utcTimeMillis,TimeNanos,LeapSecond,TimeUncertaintyNanos,FullBiasNanos,BiasNanos,BiasUncertaintyNanos,DriftNanosPerSecond,DriftUncertaintyNanosPerSecond,HardwareClockDiscontinuityCount,AgcDb,CarrierFrequencyHz,ConstellationType
# 
Fix,FLP,37.4244286000,-122.1712198000,-1.3380900267838074,0.19179386,1.95,40.28179,1732146799196,0.9,90.9,25683044000000,1.0464721,0,,,
Status,,29,0,1,14,1575420030,43.40,331.0,74.0,1,0,0,38.4
Status,,29,1,1,30,1575420030,46.40,82.0,68.0,1,0,0,41.4
Status,,29,2,1,22,1575420030,40.40,276.0,61.0,1,0,0,35.4
Status,,29,3,1,13,1575420030,38.50,299.0,50.0,1,0,0,33.5
Status,,29,4,1,17,1575420030,44.50,175.0,48.0,1,0,0,39.5
Status,,29,5,1,7,1575420030,36.20,106.0,35.0,1,0,0,31.2
Status,,29,6,2,131,1575420030,42.00,3.0,23.0,0,0,0,37.0
Status,,29,7,1,19,1575420030,39.20,193.0,21.0,1,0,0,34.2
Status,,29,8,1,15,1575420030,25.90,314.0,19.0,1,0,0,20.9
Status,,29,9,1,2,1575420030,25.80,85.0,17.0,1,0,0,20.8
Status,,29,10,1,21,1575420030,24.70,66.0,14.0,0,0,0,19.7
Status,,29,11,1,8,1575420030,0.00,39.0,6.0,0,0,0,0.0
Status,,29,12,1,5,1575420030,0.00,260.0,5.0,0,0,0,0.0
Status,,29,13,3,9,1602000000,35.00,22.0,53.0,1,0,0,30.0
Status,,29,14,3,8,1602000000,34.50,299.0,39.0,1,0,0,29.5
Status,,29,15,3,20,1602000000,20.80,148.0,13.0,1,0,0,15.799999
Status,,29,16,3,16,1602000000,0.00,70.0,12.0,0,0,0,0.0
Status,,29,17,3,11,1602000000,0.00,274.0,3.0,0,0,0,0.0
Status,,29,18,3,17,1602000000,43.20,0.0,0.0,0,0,0,38.2
Status,,29,19,6,21,1575420030,40.40,273.0,58.0,1,0,0,35.4
Status,,29,20,6,29,1575420030,37.20,202.0,58.0,1,0,0,32.2
Status,,29,21,6,27,1575420030,0.00,38.0,57.0,0,0,0,0.0
Status,,29,22,6,19,1575420030,35.40,294.0,52.0,1,0,0,30.400002
Status,,29,23,6,7,1575420030,0.00,161.0,14.0,0,0,0,0.0
Status,,29,24,6,15,1575420030,0.00,93.0,12.0,0,0,0,0.0
Status,,29,25,6,30,1575420030,0.00,60.0,9.0,0,0,0,0.0
Status,,29,26,6,34,1575420030,0.00,45.0,6.0,0,0,0,0.0
Status,,29,27,6,13,1575420030,0.00,141.0,3.0,0,0,0,0.0
Status,,29,28,6,4,1575420030,0.00,326.0,2.0,0,0,0,0.0
Fix,GPS,37.4244166667,-122.1712283333,11.8,0.21463917,1.9,99.39,1732146800000,0.8,136.9,25684044000000,43.9,0,,,
Fix,FLP,37.4244232000,-122.1712231000,-1.2330382442582097,0.164317,1.933,52.373497,1732146800196,0.8,136.9,25684044000000,0.84879714,0,,,
Raw,1732146800000,16495000000,,119.56368724596707,-1416182001505999872,0.0,119.56368724596707,2077.8428746190034,0.0,0,30,0.0,16431,345217931861235,31,41.39799880981445,736.5562835266628,0.14999,17,12192.866046630348,0.00022499999613501132,1575420030,,,,0,29.635828185075663,1,6.0,41.39799880981445,0.0,0.0,0.0,66.7128,C,25684044000000,
Raw,1732146800000,16495000000,,119.56368724596707,-1416182001505999872,0.0,119.56368724596707,2077.8428746190034,0.0,0,14,0.0,16431,345217932876637,42,38.40700149536133,631.8164345978312,0.14999,16,0.0,0.0,1575420030,,,,0,26.093873470878428,1,6.0,38.40700149536133,0.0,0.0,0.0,66.7128,C,25684044000000,
Raw,1732146800000,16495000000,,119.56368724596707,-1416182001505999872,0.0,119.56368724596707,2077.8428746190034,0.0,0,21,0.0,17,415172,797,19.708999633789062,635.8533457576135,0.14999,16,0.0,0.0,1575420030,,,,0,0.0,1,6.0,19.708999633789062,0.0,0.0,0.0,66.7128,C,25684044000000,
Raw,1732146800000,16495000000,,119.56368724596707,-1416182001505999872,0.0,119.56368724596707,2077.8428746190034,0.0,0,2,0.0,16431,345217920455791,396,20.79800033569336,435.0302445924598,0.14999,16,0.0,0.0,1575420030,,,,0,4.689756676435049,1,6.0,20.79800033569336,0.0,0.0,0.0,66.7128,C,25684044000000,
Raw,1732146800000,16495000000,,119.56368724596707,-1416182001505999872,0.0,119.56368724596707,2077.8428746190034,0.0,0,21,0.0,16431,345217919993819,51,35.400001525878906,460.55375512387013,0.14999,16,0.0,0.0,1575420030,,,,0,22.820375369905076,6,6.0,35.400001525878906,0.0,0.0,5.079394118492086,66.7128,C,25684044000000,
Raw,1732146800000,16495000000,,119.56368724596707,-1416182001505999872,0.0,119.56368724596707,2077.8428746190034,0.0,0,19,0.0,16431,345217920391821,74,30.399999618530273,461.41235311385714,0.14999,16,0.0,0.0,1575420030,,,,0,17.450460905512927,6,6.0,30.399999618530273,0.0,0.0,5.079394118492086,66.7128,C,25684044000000,
Raw,1732146800000,16495000000,,119.56368724596707,-1416182001505999872,0.0,119.56368724596707,2077.8428746190034,0.0,0,29,0.0,16431,345217920640899,58,32.20000076293945,936.3229203071888,0.14999,16,0.0,0.0,1575420030,,,,0,19.468249216073573,6,6.0,32.20000076293945,0.0,0.0,5.079394118492086,66.7128,C,25684044000000,
Raw,1732146800000,16495000000,,119.56368724596707,-1416182001505999872,0.0,119.56368724596707,2077.8428746190034,0.0,0,9,0.0,17,582803,74,5.0,766.9439657021386,0.14999,16,0.0,0.0,1600875010,,,,0,17.002794946137406,3,6.0,30.0,0.0,0.0,34.26365468317768,66.7128,C,25684044000000,
Raw,1732146800000,16495000000,,119.56368724596707,-1416182001505999872,0.0,119.56368724596707,2077.8428746190034,0.0,0,8,0.0,17,547548,74,5.0,489.82073101525515,0.14999,16,0.0,0.0,1605374980,,,,0,16.456123533968253,3,6.0,30.0,0.0,0.0,34.26365468317768,66.7128,C,25684044000000,
Raw,1732146800000,16495000000,,119.56368724596707,-1416182001505999872,0.0,119.56368724596707,2077.8428746190034,0.0,0,20,0.0,17,971220,797,5.0,-155.59737172780123,0.14999,16,0.0,0.0,1603124990,,,,0,0.0,3,6.0,16.0,0.0,0.0,34.26365468317768,66.7128,C,25684044000000,
Raw,1732146800000,16495000000,,119.56368724596707,-1416182001505999872,0.0,119.56368724596707,2077.8428746190034,0.0,0,19,0.0,16431,345217921479378,58,34.20000076293945,-67.84652373980002,0.14999,16,9067.329739277959,0.00039999998989515007,1575420030,,,,0,21.455287085911618,1,6.0,34.20000076293945,0.0,0.0,0.0,66.7128,C,25684044000000,
Raw,1732146800000,16495000000,,119.56368724596707,-1416182001505999872,0.0,119.56368724596707,2077.8428746190034,0.0,0,15,0.0,16431,345217922869024,396,20.909000396728516,171.45845523987222,0.14999,16,0.0,0.0,1575420030,,,,0,3.7746068652215468,1,6.0,20.909000396728516,0.0,0.0,0.0,66.7128,C,25684044000000,
Raw,1732146800000,16495000000,,119.56368724596707,-1416182001505999872,0.0,119.56368724596707,2077.8428746190034,0.0,0,7,0.0,16431,345217926318829,74,31.23900032043457,996.5064535019741,0.14999,16,0.0,0.0,1575420030,,,,0,18.030320975964806,1,6.0,31.23900032043457,0.0,0.0,0.0,66.7128,C,25684044000000,
Raw,1732146800000,16495000000,,119.56368724596707,-1416182001505999872,0.0,119.56368724596707,2077.8428746190034,0.0,0,13,0.0,16431,345217930363058,58,33.54899978637695,359.5936932503036,0.14999,16,0.0,0.0,1575420030,,,,0,20.71408776548179,1,6.0,33.54899978637695,0.0,0.0,0.0,66.7128,C,25684044000000,
Raw,1732146800000,16495000000,,119.56368724596707,-1416182001505999872,0.0,119.56368724596707,2077.8428746190034,0.0,0,22,0.0,16431,345217930836616,51,35.433998107910156,485.3487512306831,0.14999,16,0.0,0.0,1575420030,,,,0,22.839938192674822,1,6.0,35.433998107910156,0.0,0.0,0.0,66.7128,C,25684044000000,
Raw,1732146800000,16495000000,,119.56368724596707,-1416182001505999872,0.0,119.56368724596707,2077.8428746190034,0.0,0,17,0.0,16431,345217929838932,51,39.487998962402344,167.3808929659057,0.14999,16,0.0,0.0,1575420030,,,,0,25.166025534356788,1,6.0,39.487998962402344,0.0,0.0,0.0,66.7128,C,25684044000000,
Status,1732146800000,29,0,1,14,1575420030,46.60,331.0,74.0,1,0,0,41.6
Status,1732146800000,29,1,1,30,1575420030,46.30,82.0,68.0,1,0,0,41.3
Status,1732146800000,29,2,1,22,1575420030,37.30,276.0,61.0,1,0,0,32.3
Status,1732146800000,29,3,1,13,1575420030,42.70,299.0,50.0,1,0,0,37.7
Status,1732146800000,29,4,1,17,1575420030,36.70,175.0,48.0,1,0,0,31.7
Status,1732146800000,29,5,1,7,1575420030,34.20,106.0,35.0,1,0,0,29.2
Status,1732146800000,29,6,2,131,1575420030,35.00,3.0,23.0,0,0,0,30.0
Status,1732146800000,29,7,1,19,1575420030,37.80,193.0,21.0,1,0,0,32.8
Status,1732146800000,29,8,1,15,1575420030,31.70,314.0,19.0,1,0,0,26.7
Status,1732146800000,29,9,1,2,1575420030,32.50,85.0,17.0,1,0,0,27.5
Status,1732146800000,29,10,1,21,1575420030,24.60,66.0,14.0,0,0,0,19.6
Status,1732146800000,29,11,1,8,1575420030,0.00,39.0,6.0,0,0,0,0.0
Status,1732146800000,29,12,1,5,1575420030,0.00,260.0,5.0,0,0,0,0.0
Status,1732146800000,29,13,3,9,1602000000,30.90,22.0,53.0,1,0,0,25.9
Status,1732146800000,29,14,3,8,1602000000,31.70,299.0,39.0,1,0,0,26.7
Status,1732146800000,29,15,3,20,1602000000,20.90,148.0,13.0,1,0,0,15.9
Status,1732146800000,29,16,3,16,1602000000,0.00,70.0,12.0,0,0,0,0.0
Status,1732146800000,29,17,3,11,1602000000,0.00,274.0,3.0,0,0,0,0.0
Status,1732146800000,29,18,3,17,1602000000,43.20,0.0,0.0,0,0,0,38.2
Status,1732146800000,29,19,6,21,1575420030,41.60,273.0,58.0,1,0,0,36.6
Status,1732146800000,29,20,6,29,1575420030,37.20,202.0,58.0,1,0,0,32.2
Status,1732146800000,29,21,6,27,1575420030,0.00,38.0,57.0,0,0,0,0.0
Status,1732146800000,29,22,6,19,1575420030,24.30,294.0,52.0,1,0,0,19.3
Status,1732146800000,29,23,6,7,1575420030,0.00,161.0,14.0,0,0,0,0.0
Status,1732146800000,29,24,6,15,1575420030,0.00,93.0,12.0,0,0,0,0.0
Status,1732146800000,29,25,6,30,1575420030,0.00,60.0,9.0,0,0,0,0.0
Status,1732146800000,29,26,6,34,1575420030,0.00,45.0,6.0,0,0,0,0.0
Status,1732146800000,29,27,6,13,1575420030,0.00,141.0,3.0,0,0,0,0.0
Status,1732146800000,29,28,6,4,1575420030,0.00,326.0,2.0,0,0,0,0.0
Fix,GPS,37.4244100000,-122.1712266667,12.3,0.231625,1.8,121.09,1732146801000,0.9,143.9,25685044000000,43.1,0,,,
Raw,1732146801000,17495000000,,117.50051778476946,-1416182001505999872,0.0,117.50051778476946,2075.8296482349024,0.0,0,30,0.0,16431,345218931858783,42,41.292999267578125,736.0234984095604,0.14999,17,12928.86256141104,0.00022499999613501132,1575420030,,,,0,27.05925991512188,1,6.0,41.292999267578125,0.0,0.0,0.0,66.7128,C,25685044000000,
Raw,1732146801000,17495000000,,117.50051778476946,-1416182001505999872,0.0,117.50051778476946,2075.8296482349024,0.0,0,14,0.0,16431,345218932874527,31,41.62200164794922,631.257911518148,0.14999,17,11107.054591877008,0.00022499999613501132,1575420030,,,,0,29.518875029963443,1,6.0,41.62200164794922,0.0,0.0,0.0,66.7128,C,25685044000000,
Raw,1732146801000,17495000000,,117.50051778476946,-1416182001505999872,0.0,117.50051778476946,2075.8296482349024,0.0,0,21,0.0,17,413064,1797,19.64900016784668,627.2047863711083,0.14999,16,0.0,0.0,1575420030,,,,0,0.0,1,6.0,19.64900016784668,0.0,0.0,0.0,66.7128,C,25685044000000,
Raw,1732146801000,17495000000,,117.50051778476946,-1416182001505999872,0.0,117.50051778476946,2075.8296482349024,0.0,0,2,0.0,16431,345218920454330,235,27.457000732421875,434.34972171180783,0.14999,16,0.0,0.0,1575420030,,,,0,13.346228254795653,1,6.0,27.457000732421875,0.0,0.0,0.0,66.7128,C,25685044000000,
Raw,1732146801000,17495000000,,117.50051778476946,-1416182001505999872,0.0,117.50051778476946,2075.8296482349024,0.0,0,21,0.0,16431,345218919992283,51,36.599998474121094,460.3787462700051,0.14999,16,0.0,0.0,1575420030,,,,0,24.118647467373993,6,6.0,36.599998474121094,0.0,0.0,0.636037768966002,66.7128,C,25685044000000,
Raw,1732146801000,17495000000,,117.50051778476946,-1416182001505999872,0.0,117.50051778476946,2075.8296482349024,0.0,0,19,0.0,16431,345218920390284,487,19.299999237060547,460.82307456264266,0.14999,16,0.0,0.0,1575420030,,,,0,3.1376595201816526,6,6.0,19.299999237060547,0.0,0.0,0.636037768966002,66.7128,C,25685044000000,
Raw,1732146801000,17495000000,,117.50051778476946,-1416182001505999872,0.0,117.50051778476946,2075.8296482349024,0.0,0,29,0.0,16431,345218920637782,58,32.20000076293945,935.9673275895134,0.14999,16,0.0,0.0,1575420030,,,,0,19.45383279842704,6,6.0,32.20000076293945,0.0,0.0,0.636037768966002,66.7128,C,25685044000000,
Raw,1732146801000,17495000000,,117.50051778476946,-1416182001505999872,0.0,117.50051778476946,2075.8296482349024,0.0,0,9,0.0,17,580239,235,5.0,766.4192864727609,0.14999,16,0.0,0.0,1600875010,,,,0,12.190013598948676,3,6.0,27.0,0.0,0.0,37.209570860843385,66.7128,C,25685044000000,
Raw,1732146801000,17495000000,,117.50051778476946,-1416182001505999872,0.0,117.50051778476946,2075.8296482349024,0.0,0,8,0.0,17,545917,316,5.0,489.8220531699068,0.14999,16,0.0,0.0,1605374980,,,,0,13.104377150452029,3,6.0,26.0,0.0,0.0,37.209570860843385,66.7128,C,25685044000000,
Raw,1732146801000,17495000000,,117.50051778476946,-1416182001505999872,0.0,117.50051778476946,2075.8296482349024,0.0,0,20,0.0,17,971740,1797,5.0,-155.70447959611082,0.14999,16,0.0,0.0,1603124990,,,,0,0.0,3,6.0,14.0,0.0,0.0,37.209570860843385,66.7128,C,25685044000000,
Raw,1732146801000,17495000000,,117.50051778476946,-1416182001505999872,0.0,117.50051778476946,2075.8296482349024,0.0,0,19,0.0,16431,345218921479594,58,32.82500076293945,-68.3287156416492,0.14999,17,8998.830254112923,0.00039999998989515007,1575420030,,,,0,19.889977173617652,1,6.0,32.82500076293945,0.0,0.0,0.0,66.7128,C,25685044000000,
Raw,1732146801000,17495000000,,117.50051778476946,-1416182001505999872,0.0,117.50051778476946,2075.8296482349024,0.0,0,15,0.0,16431,345218922868457,316,26.701000213623047,171.79853084653337,0.14999,16,0.0,0.0,1575420030,,,,0,12.359535705891888,1,6.0,26.701000213623047,0.0,0.0,0.0,66.7128,C,25685044000000,
Raw,1732146801000,17495000000,,117.50051778476946,-1416182001505999872,0.0,117.50051778476946,2075.8296482349024,0.0,0,7,0.0,16431,345218926315505,74,29.204999923706055,996.6766771389695,0.14999,16,0.0,0.0,1575420030,,,,0,15.571117563440563,1,6.0,29.204999923706055,0.0,0.0,0.0,66.7128,C,25685044000000,
Raw,1732146801000,17495000000,,117.50051778476946,-1416182001505999872,0.0,117.50051778476946,2075.8296482349024,0.0,0,13,0.0,16431,345218930361865,51,37.731998443603516,359.240725433144,0.14999,16,0.0,0.0,1575420030,,,,0,25.35823178617404,1,6.0,37.731998443603516,0.0,0.0,0.0,66.7128,C,25685044000000,
Raw,1732146801000,17495000000,,117.50051778476946,-1416182001505999872,0.0,117.50051778476946,2075.8296482349024,0.0,0,22,0.0,16431,345218930834998,58,32.31700134277344,485.4287061649814,0.14999,16,0.0,0.0,1575420030,,,,0,19.293652590895654,1,6.0,32.31700134277344,0.0,0.0,0.0,66.7128,C,25685044000000,
Raw,1732146801000,17495000000,,117.50051778476946,-1416182001505999872,0.0,117.50051778476946,2075.8296482349024,0.0,0,17,0.0,16431,345218929838378,74,31.663999557495117,166.9568205427359,0.14999,16,0.0,0.0,1575420030,,,,0,18.525848275401938,1,6.0,31.663999557495117,0.0,0.0,0.0,66.7128,C,25685044000000,
Fix,FLP,37.4244171000,-122.1712240000,-1.2546479184265351,0.15034032,1.883,64.447464,1732146801196,0.9,143.9,25685044000000,0.86130464,0,,,
Status,1732146801000,29,0,1,14,1575420030,41.90,331.0,74.0,1,0,0,36.9
Status,1732146801000,29,1,1,30,1575420030,46.30,82.0,68.0,1,0,0,41.3
Status,1732146801000,29,2,1,22,1575420030,42.80,276.0,61.0,1,0,0,37.8
Status,1732146801000,29,3,1,13,1575420030,45.00,299.0,50.0,1,0,0,40.0
Status,1732146801000,29,4,1,17,1575420030,33.90,175.0,48.0,1,0,0,28.900002
Status,1732146801000,29,5,1,7,1575420030,36.40,106.0,35.0,1,0,0,31.400002
Status,1732146801000,29,6,2,131,1575420030,37.00,3.0,23.0,0,0,0,32.0
Status,1732146801000,29,7,1,19,1575420030,38.70,193.0,21.0,1,0,0,33.7
Status,1732146801000,29,8,1,15,1575420030,33.80,314.0,19.0,1,0,0,28.8
Status,1732146801000,29,9,1,2,1575420030,29.60,85.0,17.0,1,0,0,24.6
Status,1732146801000,29,10,1,21,1575420030,0.00,66.0,14.0,0,0,0,0.0
Status,1732146801000,29,11,1,8,1575420030,0.00,39.0,6.0,0,0,0,0.0
Status,1732146801000,29,12,1,5,1575420030,0.00,260.0,5.0,0,0,0,0.0
Status,1732146801000,29,13,3,9,1602000000,32.60,22.0,53.0,1,0,0,27.599998
Status,1732146801000,29,14,3,8,1602000000,37.70,299.0,39.0,1,0,0,32.7
Status,1732146801000,29,15,3,20,1602000000,20.90,148.0,13.0,1,0,0,15.9
Status,1732146801000,29,16,3,16,1602000000,0.00,70.0,12.0,0,0,0,0.0
Status,1732146801000,29,17,3,11,1602000000,0.00,274.0,3.0,0,0,0,0.0
Status,1732146801000,29,18,3,17,1602000000,43.10,0.0,0.0,0,0,0,38.1
Status,1732146801000,29,19,6,21,1575420030,39.30,273.0,58.0,1,0,0,34.3
Status,1732146801000,29,20,6,29,1575420030,42.00,202.0,58.0,1,0,0,37.0
Status,1732146801000,29,21,6,27,1575420030,0.00,38.0,57.0,0,0,0,0.0
Status,1732146801000,29,22,6,19,1575420030,21.40,294.0,52.0,1,0,0,16.4
Status,1732146801000,29,23,6,7,1575420030,0.00,161.0,14.0,0,0,0,0.0
Status,1732146801000,29,24,6,15,1575420030,0.00,93.0,12.0,0,0,0,0.0
Status,1732146801000,29,25,6,30,1575420030,0.00,60.0,9.0,0,0,0,0.0
Status,1732146801000,29,26,6,34,1575420030,0.00,45.0,6.0,0,0,0,0.0
Status,1732146801000,29,27,6,13,1575420030,0.00,141.0,3.0,0,0,0,0.0
Status,1732146801000,29,28,6,4,1575420030,0.00,326.0,2.0,0,0,0,0.0
Fix,GPS,37.4244016667,-122.1712216667,12.7,0.43494028,1.8,125.58,1732146802000,0.8,74.8,25686044000000,41.4,0,,,
Fix,FLP,37.4244097000,-122.1712217000,-1.2546479184265351,0.17006937,1.866,85.60069,1732146802197,0.8,74.8,25686044000000,0.8713035,0,,,
Raw,1732146802000,18495000000,,111.770782329483,-1416182001505999872,0.0,111.770782329483,2076.653147877013,0.0,0,30,0.0,16431,345219931856327,31,41.308998107910156,736.1506086363124,0.14999,17,13665.055865331851,0.00022499999613501132,1575420030,,,,0,29.518875029963443,1,6.0,41.308998107910156,0.0,0.0,0.0,66.7128,C,25686044000000,
Raw,1732146802000,18495000000,,111.770782329483,-1416182001505999872,0.0,111.770782329483,2076.653147877013,0.0,0,14,0.0,16431,345219932872420,51,36.85100173950195,631.8918366073409,0.14999,17,11738.52233283197,0.00022499999613501132,1575420030,,,,0,24.400735532451137,1,6.0,36.85100173950195,0.0,0.0,0.0,66.7128,C,25686044000000,
Raw,1732146802000,18495000000,,111.770782329483,-1416182001505999872,0.0,111.770782329483,2076.653147877013,0.0,0,21,0.0,17,410986,1797,14.0,619.2542182297502,0.14999,16,0.0,0.0,1575420030,,,,0,0.0,1,6.0,14.0,0.0,0.0,0.0,66.7128,C,25686044000000,
Raw,1732146802000,18495000000,,111.770782329483,-1416182001505999872,0.0,111.770782329483,2076.653147877013,0.0,0,2,0.0,16431,345219920452873,316,24.59000015258789,433.7752169369483,0.14999,16,0.0,0.0,1575420030,,,,0,9.436974992327128,1,6.0,24.59000015258789,0.0,0.0,0.0,66.7128,C,25686044000000,
Raw,1732146802000,18495000000,,111.770782329483,-1416182001505999872,0.0,111.770782329483,2076.653147877013,0.0,0,21,0.0,16431,345219919990748,58,34.29999923706055,460.90307595535717,0.14999,17,8811.99955971873,0.00039999998989515007,1575420030,,,,0,21.692652126721836,6,6.0,34.29999923706055,0.0,0.0,-1.3116904319801286,66.7128,C,25686044000000,
Raw,1732146802000,18495000000,,111.770782329483,-1416182001505999872,0.0,111.770782329483,2076.653147877013,0.0,0,19,0.0,16431,345219920388745,235,16.399999618530273,461.6511493731793,0.14999,16,0.0,0.0,1575420030,,,,0,0.0,6,6.0,16.399999618530273,0.0,0.0,-1.3116904319801286,66.7128,C,25686044000000,
Raw,1732146802000,18495000000,,111.770782329483,-1416182001505999872,0.0,111.770782329483,2076.653147877013,0.0,0,29,0.0,16431,345219920634659,51,37.0,936.4609947201666,0.14999,16,0.0,0.0,1575420030,,,,0,24.53037808300954,6,6.0,37.0,0.0,0.0,-1.3116904319801286,66.7128,C,25686044000000,
Raw,1732146802000,18495000000,,111.770782329483,-1416182001505999872,0.0,111.770782329483,2076.653147877013,0.0,0,9,0.0,17,577682,316,5.0,767.2102372106691,0.14999,16,0.0,0.0,1600875010,,,,0,14.247959957979122,3,6.0,24.0,0.0,0.0,37.57016708039414,66.7128,C,25686044000000,
Raw,1732146802000,18495000000,,111.770782329483,-1416182001505999872,0.0,111.770782329483,2076.653147877013,0.0,0,8,0.0,17,544286,58,5.0,490.3165846011713,0.14999,16,0.0,0.0,1605374980,,,,0,19.917762782292403,3,6.0,33.0,0.0,0.0,37.57016708039414,66.7128,C,25686044000000,
Raw,1732146802000,18495000000,,111.770782329483,-1416182001505999872,0.0,111.770782329483,2076.653147877013,0.0,0,20,0.0,17,972267,797,5.0,-159.716185171769,0.14999,16,0.0,0.0,1603124990,,,,0,0.0,3,6.0,17.0,0.0,0.0,37.57016708039414,66.7128,C,25686044000000,
Raw,1732146802000,18495000000,,111.770782329483,-1416182001505999872,0.0,111.770782329483,2076.653147877013,0.0,0,19,0.0,16431,345219921479824,58,33.7400016784668,-67.77042485404716,0.14999,17,8930.685316351199,0.00039999998989515007,1575420030,,,,0,20.935867208794036,1,6.0,33.7400016784668,0.0,0.0,0.0,66.7128,C,25686044000000,
Raw,1732146802000,18495000000,,111.770782329483,-1416182001505999872,0.0,111.770782329483,2076.653147877013,0.0,0,15,0.0,16431,345219922867887,235,28.844999313354492,170.96720394686199,0.14999,16,0.0,0.0,1575420030,,,,0,15.107760262400042,1,6.0,28.844999313354492,0.0,0.0,0.0,66.7128,C,25686044000000,
Raw,1732146802000,18495000000,,111.770782329483,-1416182001505999872,0.0,111.770782329483,2076.653147877013,0.0,0,7,0.0,16431,345219926312181,74,31.382999420166016,996.5402752289754,0.14999,16,0.0,0.0,1575420030,,,,0,18.19865743926104,1,6.0,31.382999420166016,0.0,0.0,0.0,66.7128,C,25686044000000,
Raw,1732146802000,18495000000,,111.770782329483,-1416182001505999872,0.0,111.770782329483,2076.653147877013,0.0,0,13,0.0,16431,345219930360669,42,40.040000915527344,359.60855994349095,0.14999,17,10741.33058865438,0.00022499999613501132,1575420030,,,,0,27.840540371914727,1,6.0,40.040000915527344,0.0,0.0,0.0,66.7128,C,25686044000000,
Raw,1732146802000,18495000000,,111.770782329483,-1416182001505999872,0.0,111.770782329483,2076.653147877013,0.0,0,22,0.0,16431,345219930833382,42,37.82500076293945,485.5986510514796,0.14999,16,0.0,0.0,1575420030,,,,0,25.45999232660496,1,6.0,37.82500076293945,0.0,0.0,0.0,66.7128,C,25686044000000,
Raw,1732146802000,18495000000,,111.770782329483,-1416182001505999872,0.0,111.770782329483,2076.653147877013,0.0,0,17,0.0,16431,345219929837821,235,28.913999557495117,167.1199825004673,0.14999,16,0.0,0.0,1575420030,,,,0,15.202430296451757,1,6.0,28.913999557495117,0.0,0.0,0.0,66.7128,C,25686044000000,
Status,1732146802000,29,0,1,14,1575420030,44.40,331.0,74.0,1,0,0,39.4
Status,1732146802000,29,1,1,30,1575420030,46.20,82.0,68.0,1,0,0,41.2
Status,1732146802000,29,2,1,22,1575420030,38.50,276.0,62.0,1,0,0,33.5
Status,1732146802000,29,3,1,13,1575420030,42.60,299.0,50.0,1,0,0,37.6
Status,1732146802000,29,4,1,17,1575420030,44.40,175.0,48.0,1,0,0,39.4
Status,1732146802000,29,5,1,7,1575420030,41.90,106.0,35.0,1,0,0,36.9
Status,1732146802000,29,6,2,131,1575420030,42.00,3.0,23.0,0,0,0,37.0
Status,1732146802000,29,7,1,19,1575420030,41.80,193.0,21.0,1,0,0,36.8
Status,1732146802000,29,8,1,15,1575420030,37.00,314.0,19.0,1,0,0,32.0
Status,1732146802000,29,9,1,2,1575420030,26.80,85.0,17.0,1,0,0,21.8
Status,1732146802000,29,10,1,21,1575420030,0.00,66.0,14.0,0,0,0,0.0
Status,1732146802000,29,11,1,8,1575420030,0.00,39.0,6.0,0,0,0,0.0
Status,1732146802000,29,12,1,5,1575420030,0.00,260.0,5.0,0,0,0,0.0
Status,1732146802000,29,13,3,9,1602000000,32.10,22.0,53.0,1,0,0,27.099998
Status,1732146802000,29,14,3,8,1602000000,35.40,299.0,39.0,1,0,0,30.400002
Status,1732146802000,29,15,3,20,1602000000,20.80,148.0,13.0,1,0,0,15.799999
Status,1732146802000,29,16,3,16,1602000000,0.00,70.0,12.0,0,0,0,0.0
Status,1732146802000,29,17,3,11,1602000000,0.00,274.0,3.0,0,0,0,0.0
Status,1732146802000,29,18,3,17,1602000000,34.90,0.0,0.0,0,0,0,29.900002
Status,1732146802000,29,19,6,21,1575420030,36.40,273.0,58.0,1,0,0,31.400002
Status,1732146802000,29,20,6,29,1575420030,38.90,202.0,58.0,1,0,0,33.9
Status,1732146802000,29,21,6,27,1575420030,0.00,38.0,57.0,0,0,0,0.0
Status,1732146802000,29,22,6,19,1575420030,29.00,294.0,52.0,1,0,0,24.0
Status,1732146802000,29,23,6,7,1575420030,0.00,161.0,14.0,0,0,0,0.0
Status,1732146802000,29,24,6,15,1575420030,0.00,93.0,12.0,0,0,0,0.0
Status,1732146802000,29,25,6,30,1575420030,0.00,60.0,9.0,0,0,0,0.0
Status,1732146802000,29,26,6,34,1575420030,0.00,45.0,6.0,0,0,0,0.0
Status,1732146802000,29,27,6,13,1575420030,0.00,141.0,3.0,0,0,0,0.0
Status,1732146802000,29,28,6,4,1575420030,0.00,326.0,2.0,0,0,0,0.0
Fix,GPS,37.4243950000,-122.1712133333,12.599999999999998,0.64957947,1.8,118.49,1732146803000,0.8,53.4,25687044000000,43.3,0,,,
Raw,1732146803000,19495000000,,117.93676318576179,-1416182001505999872,0.0,117.93676318576179,2075.7922290560355,0.0,0,30,0.0,16431,345220931853866,42,41.22200012207031,735.5161260461251,0.14999,16,0.0,0.0,1575420030,,,,0,27.354726826479517,1,6.0,41.22200012207031,0.0,0.0,0.0,66.7128,C,25687044000000,
Raw,1732146803000,19495000000,,117.93676318576179,-1416182001505999872,0.0,117.93676318576179,2075.7922290560355,0.0,0,14,0.0,16431,345220932870316,42,39.393001556396484,631.3214666315241,0.14999,17,12370.54373034752,0.00022499999613501132,1575420030,,,,0,27.14896008895929,1,6.0,39.393001556396484,0.0,0.0,0.0,66.7128,C,25687044000000,
Raw,1732146803000,19495000000,,117.93676318576179,-1416182001505999872,0.0,117.93676318576179,2075.7922290560355,0.0,0,21,0.0,17,408921,1797,13.0,619.6828900361248,0.14999,16,0.0,0.0,1575420030,,,,0,0.0,1,6.0,13.0,0.0,0.0,0.0,66.7128,C,25687044000000,
Raw,1732146803000,19495000000,,117.93676318576179,-1416182001505999872,0.0,117.93676318576179,2075.7922290560355,0.0,0,2,0.0,16431,345220920451417,487,21.819000244140625,434.8503111464764,0.14999,16,0.0,0.0,1575420030,,,,0,5.2256202081937815,1,6.0,21.819000244140625,0.0,0.0,0.0,66.7128,C,25687044000000,
Raw,1732146803000,19495000000,,117.93676318576179,-1416182001505999872,0.0,117.93676318576179,2075.7922290560355,0.0,0,7,0.0,16431,345220926308897,51,36.94599914550781,997.4467718460754,0.14999,16,0.0,0.0,1575420030,,,,0,24.50621703923018,1,6.0,36.94599914550781,0.0,0.0,0.0,66.7128,C,25687044000000,
Raw,1732146803000,19495000000,,117.93676318576179,-1416182001505999872,0.0,117.93676318576179,2075.7922290560355,0.0,0,22,0.0,16431,345220930831750,58,33.54899978637695,485.91108390049544,0.14999,16,0.0,0.0,1575420030,,,,0,20.71408776548179,1,6.0,33.54899978637695,0.0,0.0,0.0,66.7128,C,25687044000000,
Raw,1732146803000,19495000000,,117.93676318576179,-1416182001505999872,0.0,117.93676318576179,2075.7922290560355,0.0,0,19,0.0,16431,345220921480064,51,36.75400161743164,-67.88912610746509,0.14999,16,0.0,0.0,1575420030,,,,0,24.29395729383539,1,6.0,36.75400161743164,0.0,0.0,0.0,66.7128,C,25687044000000,
Raw,1732146803000,19495000000,,117.93676318576179,-1416182001505999872,0.0,117.93676318576179,2075.7922290560355,0.0,0,21,0.0,16431,345220919989209,58,31.399999618530273,461.51911455430894,0.14999,16,0.0,0.0,1575420030,,,,0,18.525848275401938,6,6.0,31.399999618530273,0.0,0.0,-1.1981841373389983,66.7128,C,25687044000000,
Raw,1732146803000,19495000000,,117.93676318576179,-1416182001505999872,0.0,117.93676318576179,2075.7922290560355,0.0,0,17,0.0,16431,345220929837249,42,39.43899917602539,166.7823227314491,0.14999,16,0.0,0.0,1575420030,,,,0,27.20233888907568,1,6.0,39.43899917602539,0.0,0.0,0.0,66.7128,C,25687044000000,
Raw,1732146803000,19495000000,,117.93676318576179,-1416182001505999872,0.0,117.93676318576179,2075.7922290560355,0.0,0,13,0.0,16431,345220930359483,51,37.57500076293945,361.08363788738365,0.14999,16,0.0,0.0,1575420030,,,,0,25.188421480511302,1,6.0,37.57500076293945,0.0,0.0,0.0,66.7128,C,25687044000000,
Raw,1732146803000,19495000000,,117.93676318576179,-1416182001505999872,0.0,117.93676318576179,2075.7922290560355,0.0,0,19,0.0,16431,345220920387202,235,24.0,462.96778088858593,0.14999,16,0.0,0.0,1575420030,,,,0,9.795206778501171,6,6.0,24.0,0.0,0.0,-1.1981841373389983,66.7128,C,25687044000000,
Raw,1732146803000,19495000000,,117.93676318576179,-1416182001505999872,0.0,117.93676318576179,2075.7922290560355,0.0,0,29,0.0,16431,345220920631534,58,33.900001525878906,936.9064380147933,0.14999,16,0.0,0.0,1575420030,,,,0,21.29336168418812,6,6.0,33.900001525878906,0.0,0.0,-1.1981841373389983,66.7128,C,25687044000000,
Raw,1732146803000,19495000000,,117.93676318576179,-1416182001505999872,0.0,117.93676318576179,2075.7922290560355,0.0,0,9,0.0,17,575129,235,5.0,767.0539672903124,0.14999,16,0.0,0.0,1600875010,,,,0,13.582270572971531,3,6.0,27.0,0.0,0.0,36.1620685537268,66.7128,C,25687044000000,
Raw,1732146803000,19495000000,,117.93676318576179,-1416182001505999872,0.0,117.93676318576179,2075.7922290560355,0.0,0,8,0.0,17,542647,74,5.0,490.6297072959187,0.14999,16,0.0,0.0,1605374980,,,,0,17.385982729963978,3,6.0,31.0,0.0,0.0,36.1620685537268,66.7128,C,25687044000000,
Raw,1732146803000,19495000000,,117.93676318576179,-1416182001505999872,0.0,117.93676318576179,2075.7922290560355,0.0,0,20,0.0,17,972815,797,5.0,-156.58805102637305,0.14999,16,0.0,0.0,1603124990,,,,0,0.0,3,6.0,16.0,0.0,0.0,36.1620685537268,66.7128,C,25687044000000,
Raw,1732146803000,19495000000,,117.93676318576179,-1416182001505999872,0.0,117.93676318576179,2075.7922290560355,0.0,0,15,0.0,16431,345220922867332,74,32.03200149536133,171.67406874950532,0.14999,16,0.0,0.0,1575420030,,,,0,18.96414830117197,1,6.0,32.03200149536133,0.0,0.0,0.0,66.7128,C,25687044000000,
Fix,FLP,37.4244023000,-122.1712161000,-1.3380900267838074,0.23078233,1.85,99.59792,1732146803197,0.8,53.4,25687044000000,0.8813115,0,,,
Status,1732146803000,29,0,1,14,1575420030,45.90,331.0,74.0,1,0,0,40.9
Status,1732146803000,29,1,1,30,1575420030,46.20,82.0,68.0,1,0,0,41.2
Status,1732146803000,29,2,1,22,1575420030,40.00,276.0,62.0,1,0,0,35.0
Status,1732146803000,29,3,1,13,1575420030,0.00,299.0,50.0,0,0,0,0.0
Status,1732146803000,29,4,1,17,1575420030,40.90,175.0,48.0,1,0,0,35.9
Status,1732146803000,29,5,1,7,1575420030,36.90,106.0,35.0,1,0,0,31.900002
Status,1732146803000,29,6,2,131,1575420030,42.00,3.0,23.0,0,0,0,37.0
Status,1732146803000,29,7,1,19,1575420030,34.80,193.0,21.0,1,0,0,29.8
Status,1732146803000,29,8,1,15,1575420030,0.00,314.0,19.0,0,0,0,0.0
Status,1732146803000,29,9,1,2,1575420030,26.40,85.0,17.0,1,0,0,21.4
Status,1732146803000,29,10,1,21,1575420030,0.00,66.0,14.0,0,0,0,0.0
Status,1732146803000,29,11,1,8,1575420030,0.00,39.0,6.0,0,0,0,0.0
Status,1732146803000,29,12,1,5,1575420030,0.00,260.0,5.0,0,0,0,0.0
Status,1732146803000,29,13,3,9,1602000000,31.70,22.0,53.0,1,0,0,26.7
Status,1732146803000,29,14,3,8,1602000000,38.30,299.0,39.0,1,0,0,33.3
Status,1732146803000,29,15,3,20,1602000000,20.80,148.0,13.0,1,0,0,15.799999
Status,1732146803000,29,16,3,16,1602000000,0.00,70.0,12.0,0,0,0,0.0
Status,1732146803000,29,17,3,11,1602000000,0.00,274.0,3.0,0,0,0,0.0
Status,1732146803000,29,18,3,17,1602000000,38.90,0.0,0.0,0,0,0,33.9
Status,1732146803000,29,19,6,21,1575420030,34.80,273.0,58.0,1,0,0,29.8
Status,1732146803000,29,20,6,29,1575420030,33.40,202.0,58.0,1,0,0,28.400002
Status,1732146803000,29,21,6,27,1575420030,0.00,38.0,57.0,0,0,0,0.0
Status,1732146803000,29,22,6,19,1575420030,0.00,294.0,52.0,0,0,0,0.0
Status,1732146803000,29,23,6,7,1575420030,0.00,161.0,14.0,0,0,0,0.0
Status,1732146803000,29,24,6,15,1575420030,0.00,93.0,12.0,0,0,0,0.0
Status,1732146803000,29,25,6,30,1575420030,0.00,60.0,9.0,0,0,0,0.0
Status,1732146803000,29,26,6,34,1575420030,0.00,45.0,6.0,0,0,0,0.0
Status,1732146803000,29,27,6,13,1575420030,0.00,141.0,3.0,0,0,0,0.0
Status,1732146803000,29,28,6,4,1575420030,0.00,326.0,2.0,0,0,0,0.0
Fix,GPS,37.4243933333,-122.1712083333,12.599999999999998,0.42670473,1.8,111.86,1732146804000,1.8,179.9,25688044000000,45.5,0,,,
Raw,1732146804000,20495000000,,126.32390040379592,-1416182001505999872,0.0,126.32390040379592,2078.5019545457935,0.0,0,30,0.0,16431,345221931851407,42,41.198001861572266,736.9369637890919,0.14999,17,15138.767043270747,0.00022499999613501132,1575420030,,,,0,28.607749724619723,1,6.0,41.198001861572266,0.0,0.0,0.0,66.7128,C,25688044000000,
Raw,1732146804000,20495000000,,126.32390040379592,-1416182001505999872,0.0,126.32390040379592,2078.5019545457935,0.0,0,14,0.0,16431,345221932868212,42,40.90800094604492,632.0710267186649,0.14999,17,13003.020617790198,0.00022499999613501132,1575420030,,,,0,28.76228038802561,1,6.0,40.90800094604492,0.0,0.0,0.0,66.7128,C,25688044000000,
Raw,1732146804000,20495000000,,126.32390040379592,-1416182001505999872,0.0,126.32390040379592,2078.5019545457935,0.0,0,21,0.0,17,406854,1797,14.0,620.0002939356752,0.14999,16,0.0,0.0,1575420030,,,,0,0.0,1,6.0,14.0,0.0,0.0,0.0,66.7128,C,25688044000000,
Raw,1732146804000,20495000000,,126.32390040379592,-1416182001505999872,0.0,126.32390040379592,2078.5019545457935,0.0,0,2,0.0,16431,345221920449960,487,21.378999710083008,435.97432606827414,0.14999,16,0.0,0.0,1575420030,,,,0,4.530378083009541,1,6.0,21.378999710083008,0.0,0.0,0.0,66.7128,C,25688044000000,
Raw,1732146804000,20495000000,,126.32390040379592,-1416182001505999872,0.0,126.32390040379592,2078.5019545457935,0.0,0,21,0.0,16431,345221919987670,74,29.799999237060547,461.99889061851513,0.14999,16,0.0,0.0,1575420030,,,,0,16.809562375562948,6,6.0,29.799999237060547,0.0,0.0,-0.8869859312457322,66.7128,C,25688044000000,
Raw,1732146804000,20495000000,,126.32390040379592,-1416182001505999872,0.0,126.32390040379592,2078.5019545457935,0.0,0,29,0.0,16431,345221920628406,74,28.399999618530273,937.3213116715533,0.14999,16,0.0,0.0,1575420030,,,,0,15.202430296451757,6,6.0,28.399999618530273,0.0,0.0,-0.8869859312457322,66.7128,C,25688044000000,
Raw,1732146804000,20495000000,,126.32390040379592,-1416182001505999872,0.0,126.32390040379592,2078.5019545457935,0.0,0,9,0.0,17,572568,235,5.0,767.3772969792423,0.14999,16,0.0,0.0,1600875010,,,,0,13.19787644883086,3,6.0,27.0,0.0,0.0,37.67375000041325,66.7128,C,25688044000000,
Raw,1732146804000,20495000000,,126.32390040379592,-1416182001505999872,0.0,126.32390040379592,2078.5019545457935,0.0,0,8,0.0,17,541010,58,5.0,491.4567378263086,0.14999,16,0.0,0.0,1605374980,,,,0,20.665817800721094,3,6.0,33.0,0.0,0.0,37.67375000041325,66.7128,C,25688044000000,
Raw,1732146804000,20495000000,,126.32390040379592,-1416182001505999872,0.0,126.32390040379592,2078.5019545457935,0.0,0,20,0.0,17,973340,487,5.0,-158.14631984703553,0.14999,16,0.0,0.0,1603124990,,,,0,0.0,3,6.0,19.0,0.0,0.0,37.67375000041325,66.7128,C,25688044000000,
Raw,1732146804000,20495000000,,126.32390040379592,-1416182001505999872,0.0,126.32390040379592,2078.5019545457935,0.0,0,7,0.0,16431,345221926305520,74,31.934999465942383,997.1615171705427,0.14999,16,0.0,0.0,1575420030,,,,0,18.856629284651767,1,6.0,31.934999465942383,0.0,0.0,0.0,66.7128,C,25688044000000,
Raw,1732146804000,20495000000,,126.32390040379592,-1416182001505999872,0.0,126.32390040379592,2078.5019545457935,0.0,0,19,0.0,16431,345221921480275,235,29.756999969482422,-67.62106104593029,0.14999,16,0.0,0.0,1575420030,,,,0,16.243769585805403,1,6.0,29.756999969482422,0.0,0.0,0.0,66.7128,C,25688044000000,
Raw,1732146804000,20495000000,,126.32390040379592,-1416182001505999872,0.0,126.32390040379592,2078.5019545457935,0.0,0,17,0.0,16431,345221929836737,51,35.9379997253418,167.8204825000898,0.14999,16,0.0,0.0,1575420030,,,,0,23.398069720031874,1,6.0,35.9379997253418,0.0,0.0,0.0,66.7128,C,25688044000000,
Raw,1732146804000,20495000000,,126.32390040379592,-1416182001505999872,0.0,126.32390040379592,2078.5019545457935,0.0,0,22,0.0,16431,345221930830097,58,35.00199890136719,486.60405763669183,0.14999,16,0.0,0.0,1575420030,,,,0,22.357822889228792,1,6.0,35.00199890136719,0.0,0.0,0.0,66.7128,C,25688044000000,
Fix,FLP,37.4243978000,-122.1712110000,-1.2546479184265351,0.24003719,1.833,101.30549,1732146804196,1.8,179.9,25688044000000,0.8913275,0,,,
Status,1732146804000,29,0,1,14,1575420030,43.00,331.0,74.0,1,0,0,38.0
Status,1732146804000,29,1,1,30,1575420030,46.30,82.0,68.0,1,0,0,41.3
Status,1732146804000,29,2,1,22,1575420030,40.10,276.0,62.0,1,0,0,35.1
Status,1732146804000,29,3,1,13,1575420030,44.60,299.0,50.0,1,0,0,39.6
Status,1732146804000,29,4,1,17,1575420030,44.50,175.0,48.0,1,0,0,39.5
Status,1732146804000,29,5,1,7,1575420030,34.70,106.0,35.0,1,0,0,29.7
Status,1732146804000,29,6,2,131,1575420030,42.00,3.0,23.0,0,0,0,37.0
Status,1732146804000,29,7,1,19,1575420030,35.30,193.0,21.0,1,0,0,30.3
Status,1732146804000,29,8,1,15,1575420030,39.10,314.0,19.0,1,0,0,34.1
Status,1732146804000,29,9,1,2,1575420030,27.80,85.0,17.0,1,0,0,22.8
Status,1732146804000,29,10,1,21,1575420030,17.40,66.0,14.0,1,0,0,12.4
Status,1732146804000,29,11,1,8,1575420030,0.00,39.0,6.0,0,0,0,0.0
Status,1732146804000,29,12,1,5,1575420030,0.00,260.0,5.0,0,0,0,0.0
Status,1732146804000,29,13,3,9,1602000000,34.80,22.0,53.0,1,0,0,29.8
Status,1732146804000,29,14,3,8,1602000000,36.00,299.0,39.0,1,0,0,31.0
Status,1732146804000,29,15,3,20,1602000000,23.70,148.0,13.0,1,0,0,18.7
Status,1732146804000,29,16,3,16,1602000000,0.00,70.0,12.0,0,0,0,0.0
Status,1732146804000,29,17,3,11,1602000000,0.00,274.0,3.0,0,0,0,0.0
Status,1732146804000,29,18,3,17,1602000000,35.10,0.0,0.0,0,0,0,30.099998
Status,1732146804000,29,19,6,21,1575420030,41.20,273.0,58.0,1,0,0,36.2
Status,1732146804000,29,20,6,29,1575420030,36.50,202.0,58.0,1,0,0,31.5
Status,1732146804000,29,21,6,27,1575420030,0.00,38.0,57.0,0,0,0,0.0
Status,1732146804000,29,22,6,19,1575420030,33.10,294.0,52.0,1,0,0,28.099998
Status,1732146804000,29,23,6,7,1575420030,0.00,161.0,14.0,0,0,0,0.0
Status,1732146804000,29,24,6,15,1575420030,0.00,93.0,12.0,0,0,0,0.0
Status,1732146804000,29,25,6,30,1575420030,0.00,60.0,9.0,0,0,0,0.0
Status,1732146804000,29,26,6,34,1575420030,0.00,45.0,6.0,0,0,0,0.0
Status,1732146804000,29,27,6,13,1575420030,0.00,141.0,3.0,0,0,0,0.0
Status,1732146804000,29,28,6,4,1575420030,0.00,326.0,2.0,0,0,0,0.0
Fix,GPS,37.4243933333,-122.1712116667,12.500000000000004,0.3963361,1.8,117.25,1732146805000,1.7,138.7,25689044000000,40.9,0,,,
Fix,FLP,37.4243953000,-122.1712099000,-1.0666620047451136,0.2441651,1.816,103.4174,1732146805197,1.7,138.7,25689044000000,0.89797,0,,,
Raw,1732146805000,21495000000,,116.42564443982647,-1416182001505999872,0.0,116.42564443982647,2078.7920570433735,0.0,0,30,0.0,16431,345222931848948,31,41.305999755859375,736.9496004783012,0.14999,17,15875.449208779784,0.00022499999613501132,1575420030,,,,0,31.35320418772585,1,6.0,41.305999755859375,0.0,0.0,0.0,66.7128,C,25689044000000,
Raw,1732146805000,21495000000,,116.42564443982647,-1416182001505999872,0.0,116.42564443982647,2078.7920570433735,0.0,0,14,0.0,16431,345222932866100,51,38.00699996948242,632.4767945258477,0.14999,17,13635.081728540652,0.00022499999613501132,1575420030,,,,0,25.660005202058507,1,6.0,38.00699996948242,0.0,0.0,0.0,66.7128,C,25689044000000,
Raw,1732146805000,21495000000,,116.42564443982647,-1416182001505999872,0.0,116.42564443982647,2078.7920570433735,0.0,0,21,0.0,16431,345222920404785,1797,12.399999618530273,619.9393869520233,0.14999,16,0.0,0.0,1575420030,,,,0,0.0,1,6.0,12.399999618530273,0.0,0.0,0.0,66.7128,C,25689044000000,
Raw,1732146805000,21495000000,,116.42564443982647,-1416182001505999872,0.0,116.42564443982647,2078.7920570433735,0.0,0,2,0.0,16431,345222920448503,487,22.812999725341797,434.80835919663826,0.14999,16,0.0,0.0,1575420030,,,,0,6.784463686835309,1,6.0,22.812999725341797,0.0,0.0,0.0,66.7128,C,25689044000000,
Raw,1732146805000,21495000000,,116.42564443982647,-1416182001505999872,0.0,116.42564443982647,2078.7920570433735,0.0,0,15,0.0,16431,345222922866188,58,34.09700012207031,173.236744037163,0.14999,16,0.0,0.0,1575420030,,,,0,21.339934930559778,1,6.0,34.09700012207031,0.0,0.0,0.0,66.7128,C,25689044000000,
Raw,1732146805000,21495000000,,116.42564443982647,-1416182001505999872,0.0,116.42564443982647,2078.7920570433735,0.0,0,7,0.0,16431,345222926302213,235,29.67799949645996,996.8076898726832,0.14999,16,0.0,0.0,1575420030,,,,0,16.13873941079193,1,6.0,29.67799949645996,0.0,0.0,0.0,66.7128,C,25689044000000,
Raw,1732146805000,21495000000,,116.42564443982647,-1416182001505999872,0.0,116.42564443982647,2078.7920570433735,0.0,0,21,0.0,16431,345222919986126,51,36.20000076293945,461.4119814465274,0.14999,16,0.0,0.0,1575420030,,,,0,23.686424487120444,6,6.0,36.20000076293945,0.0,0.0,1.4593898291079483,66.7128,C,25689044000000,
Raw,1732146805000,21495000000,,116.42564443982647,-1416182001505999872,0.0,116.42564443982647,2078.7920570433735,0.0,0,19,0.0,16431,345222921480492,74,30.30500030517578,-67.4263073651757,0.14999,16,0.0,0.0,1575420030,,,,0,16.90682979333701,1,6.0,30.30500030517578,0.0,0.0,0.0,66.7128,C,25689044000000,
Raw,1732146805000,21495000000,,116.42564443982647,-1416182001505999872,0.0,116.42564443982647,2078.7920570433735,0.0,0,19,0.0,16431,345222920384115,235,28.100000381469727,462.4822904391858,0.14999,16,0.0,0.0,1575420030,,,,0,14.817397081027,6,6.0,28.100000381469727,0.0,0.0,1.4593898291079483,66.7128,C,25689044000000,
Raw,1732146805000,21495000000,,116.42564443982647,-1416182001505999872,0.0,116.42564443982647,2078.7920570433735,0.0,0,29,0.0,16431,345222920625274,58,31.5,936.9180526188459,0.14999,16,0.0,0.0,1575420030,,,,0,18.669156763155428,6,6.0,31.5,0.0,0.0,1.4593898291079483,66.7128,C,25689044000000,
Raw,1732146805000,21495000000,,116.42564443982647,-1416182001505999872,0.0,116.42564443982647,2078.7920570433735,0.0,0,9,0.0,17,570012,74,5.0,767.316672662568,0.14999,16,0.0,0.0,1600875010,,,,0,16.715847572270185,3,6.0,30.0,0.0,0.0,39.140945365614485,66.7128,C,25689044000000,
Raw,1732146805000,21495000000,,116.42564443982647,-1416182001505999872,0.0,116.42564443982647,2078.7920570433735,0.0,0,8,0.0,17,539377,74,5.0,491.1158042923364,0.14999,16,0.0,0.0,1605374980,,,,0,18.14658159940352,3,6.0,31.0,0.0,0.0,39.140945365614485,66.7128,C,25689044000000,
Raw,1732146805000,21495000000,,116.42564443982647,-1416182001505999872,0.0,116.42564443982647,2078.7920570433735,0.0,0,20,0.0,17,973849,396,5.0,-157.90448251607395,0.14999,16,0.0,0.0,1603124990,,,,0,2.1218684863144004,3,6.0,21.0,0.0,0.0,39.140945365614485,66.7128,C,25689044000000,
Raw,1732146805000,21495000000,,116.42564443982647,-1416182001505999872,0.0,116.42564443982647,2078.7920570433735,0.0,0,17,0.0,16431,345222929836144,42,39.47999954223633,167.8456629616759,0.14999,17,12810.714012156168,0.00022499999613501132,1575420030,,,,0,27.243630123011005,1,6.0,39.47999954223633,0.0,0.0,0.0,66.7128,C,25689044000000,
Raw,1732146805000,21495000000,,116.42564443982647,-1416182001505999872,0.0,116.42564443982647,2078.7920570433735,0.0,0,22,0.0,16431,345222930828506,58,35.0620002746582,485.82132624037666,0.14999,16,0.0,0.0,1575420030,,,,0,22.419571179884684,1,6.0,35.0620002746582,0.0,0.0,0.0,66.7128,C,25689044000000,
Raw,1732146805000,21495000000,,116.42564443982647,-1416182001505999872,0.0,116.42564443982647,2078.7920570433735,0.0,0,13,0.0,16431,345222930357093,42,39.62099838256836,360.7324587192482,0.14999,16,0.0,0.0,1575420030,,,,0,27.39530162663354,1,6.0,39.62099838256836,0.0,0.0,0.0,66.7128,C,25689044000000,
Status,1732146805000,29,0,1,14,1575420030,47.30,331.0,74.0,1,0,0,42.3
Status,1732146805000,29,1,1,30,1575420030,46.20,82.0,68.0,1,0,0,41.2
Status,1732146805000,29,2,1,22,1575420030,37.40,276.0,62.0,1,0,0,32.4
Status,1732146805000,29,3,1,13,1575420030,38.90,299.0,50.0,1,0,0,33.9
Status,1732146805000,29,4,1,17,1575420030,38.80,175.0,48.0,1,0,0,33.8
Status,1732146805000,29,5,1,7,1575420030,40.60,106.0,35.0,1,0,0,35.6
Status,1732146805000,29,6,2,131,1575420030,37.00,3.0,23.0,0,0,0,32.0
Status,1732146805000,29,7,1,19,1575420030,34.20,193.0,21.0,1,0,0,29.2
Status,1732146805000,29,8,1,15,1575420030,37.30,314.0,19.0,1,0,0,32.3
Status,1732146805000,29,9,1,2,1575420030,28.70,85.0,17.0,1,0,0,23.7
Status,1732146805000,29,10,1,21,1575420030,0.00,66.0,14.0,0,0,0,0.0
Status,1732146805000,29,11,1,8,1575420030,0.00,39.0,6.0,0,0,0,0.0
Status,1732146805000,29,12,1,5,1575420030,0.00,260.0,5.0,0,0,0,0.0
Status,1732146805000,29,13,3,9,1602000000,37.30,22.0,53.0,1,0,0,32.3
Status,1732146805000,29,14,3,8,1602000000,39.10,299.0,39.0,1,0,0,34.1
Status,1732146805000,29,15,3,20,1602000000,28.30,148.0,13.0,1,0,0,23.3
Status,1732146805000,29,16,3,16,1602000000,0.00,70.0,12.0,0,0,0,0.0
Status,1732146805000,29,17,3,11,1602000000,0.00,274.0,3.0,0,0,0,0.0
Status,1732146805000,29,18,3,17,1602000000,32.60,0.0,0.0,0,0,0,27.599998
Status,1732146805000,29,19,6,21,1575420030,30.70,273.0,58.0,1,0,0,25.7
Status,1732146805000,29,20,6,29,1575420030,44.30,202.0,58.0,1,0,0,39.3
Status,1732146805000,29,21,6,27,1575420030,0.00,38.0,57.0,0,0,0,0.0
Status,1732146805000,29,22,6,19,1575420030,36.30,294.0,52.0,1,0,0,31.3
Status,1732146805000,29,23,6,7,1575420030,0.00,161.0,14.0,0,0,0,0.0
Status,1732146805000,29,24,6,15,1575420030,0.00,93.0,12.0,0,0,0,0.0
Status,1732146805000,29,25,6,30,1575420030,0.00,60.0,9.0,0,0,0,0.0
Status,1732146805000,29,26,6,34,1575420030,0.00,45.0,6.0,0,0,0,0.0
Status,1732146805000,29,27,6,13,1575420030,0.00,141.0,3.0,0,0,0,0.0
Status,1732146805000,29,28,6,4,1575420030,0.00,326.0,2.0,0,0,0,0.0
Fix,GPS,37.4243900000,-122.1712050000,12.400000000000002,0.41846916,1.9,117.44,1732146806000,1.7,131.1,25690044000000,37.6,0,,,
Fix,FLP,37.4243924000,-122.1712061000,-0.9213800641623129,0.253305,1.816,105.44336,1732146806196,1.7,131.1,25690044000000,0.90902996,0,,,
Raw,1732146806000,22495000000,,104.9166944649157,-1416182001505999872,0.0,104.9166944649157,2080.033696294488,0.0,0,30,0.0,16431,345223931846487,42,41.20399856567383,737.4190163156925,0.14999,16,0.0,0.0,1575420030,,,,0,27.029152815175543,1,6.0,41.20399856567383,0.0,0.0,0.0,66.7128,C,25690044000000,
Raw,1732146806000,22495000000,,104.9166944649157,-1416182001505999872,0.0,104.9166944649157,2080.033696294488,0.0,0,14,0.0,16431,345223932863991,31,42.25600051879883,632.8194718038167,0.14999,17,14267.54585443713,0.00022499999613501132,1575420030,,,,0,30.1855049511396,1,6.0,42.25600051879883,0.0,0.0,0.0,66.7128,C,25690044000000,
Raw,1732146806000,22495000000,,104.9166944649157,-1416182001505999872,0.0,104.9166944649157,2080.033696294488,0.0,0,21,0.0,17,402717,1797,14.0,620.2717969200097,0.14999,16,0.0,0.0,1575420030,,,,0,0.0,1,6.0,14.0,0.0,0.0,0.0,66.7128,C,25690044000000,
Raw,1732146806000,22495000000,,104.9166944649157,-1416182001505999872,0.0,104.9166944649157,2080.033696294488,0.0,0,2,0.0,16431,345223920447047,396,23.65399932861328,435.66626031038203,0.14999,16,0.0,0.0,1575420030,,,,0,8.052203264123166,1,6.0,23.65399932861328,0.0,0.0,0.0,66.7128,C,25690044000000,
Raw,1732146806000,22495000000,,104.9166944649157,-1416182001505999872,0.0,104.9166944649157,2080.033696294488,0.0,0,21,0.0,16431,345223919984588,316,25.700000762939453,462.4040544662873,0.14999,16,0.0,0.0,1575420030,,,,0,11.924313396786907,6,6.0,25.700000762939453,0.0,0.0,2.638661176348222,66.7128,C,25690044000000,
Raw,1732146806000,22495000000,,104.9166944649157,-1416182001505999872,0.0,104.9166944649157,2080.033696294488,0.0,0,19,0.0,16431,345223920382571,74,31.299999237060547,463.0275728702489,0.14999,16,0.0,0.0,1575420030,,,,0,18.396447153801994,6,6.0,31.299999237060547,0.0,0.0,2.638661176348222,66.7128,C,25690044000000,
Raw,1732146806000,22495000000,,104.9166944649157,-1416182001505999872,0.0,104.9166944649157,2080.033696294488,0.0,0,29,0.0,16431,345223920622148,42,39.29999923706055,937.4450768923382,0.14999,16,0.0,0.0,1575420030,,,,0,26.96254754908995,6,6.0,39.29999923706055,0.0,0.0,2.638661176348222,66.7128,C,25690044000000,
Raw,1732146806000,22495000000,,104.9166944649157,-1416182001505999872,0.0,104.9166944649157,2080.033696294488,0.0,0,9,0.0,17,567448,74,5.0,768.9166791379341,0.14999,16,0.0,0.0,1600875010,,,,0,19.48551739201578,3,6.0,32.0,0.0,0.0,39.59794874519814,66.7128,C,25690044000000,
Raw,1732146806000,22495000000,,104.9166944649157,-1416182001505999872,0.0,104.9166944649157,2080.033696294488,0.0,0,8,0.0,17,537732,58,5.0,492.2357148738412,0.14999,16,0.0,0.0,1605374980,,,,0,21.52149605401653,3,6.0,34.0,0.0,0.0,39.59794874519814,66.7128,C,25690044000000,
Raw,1732146806000,22495000000,,104.9166944649157,-1416182001505999872,0.0,104.9166944649157,2080.033696294488,0.0,0,20,0.0,17,974334,487,5.0,-157.19832846699288,0.14999,16,0.0,0.0,1603124990,,,,0,8.961711055236982,3,6.0,19.0,0.0,0.0,39.59794874519814,66.7128,C,25690044000000,
Raw,1732146806000,22495000000,,104.9166944649157,-1416182001505999872,0.0,104.9166944649157,2080.033696294488,0.0,0,19,0.0,16431,345223921480738,235,29.15399932861328,-67.23517744088555,0.14999,16,0.0,0.0,1575420030,,,,0,15.503170231504724,1,6.0,29.15399932861328,0.0,0.0,0.0,66.7128,C,25690044000000,
Raw,1732146806000,22495000000,,104.9166944649157,-1416182001505999872,0.0,104.9166944649157,2080.033696294488,0.0,0,7,0.0,16431,345223926298905,51,35.611000061035156,997.494345264275,0.14999,16,0.0,0.0,1575420030,,,,0,23.033180637709897,1,6.0,35.611000061035156,0.0,0.0,0.0,66.7128,C,25690044000000,
Raw,1732146806000,22495000000,,104.9166944649157,-1416182001505999872,0.0,104.9166944649157,2080.033696294488,0.0,0,15,0.0,16431,345223922865612,74,32.327999114990234,173.09801920635834,0.14999,16,0.0,0.0,1575420030,,,,0,19.308337107728946,1,6.0,32.327999114990234,0.0,0.0,0.0,66.7128,C,25690044000000,
Raw,1732146806000,22495000000,,104.9166944649157,-1416182001505999872,0.0,104.9166944649157,2080.033696294488,0.0,0,17,0.0,16431,345223929835580,58,33.78900146484375,168.4887403588622,0.14999,16,0.0,0.0,1575420030,,,,0,20.984391858116552,1,6.0,33.78900146484375,0.0,0.0,0.0,66.7128,C,25690044000000,
Raw,1732146806000,22495000000,,104.9166944649157,-1416182001505999872,0.0,104.9166944649157,2080.033696294488,0.0,0,22,0.0,16431,345223930826885,74,32.38600158691406,486.9479428334822,0.14999,16,0.0,0.0,1575420030,,,,0,19.38138959585793,1,6.0,32.38600158691406,0.0,0.0,0.0,66.7128,C,25690044000000,
Raw,1732146806000,22495000000,,104.9166944649157,-1416182001505999872,0.0,104.9166944649157,2080.033696294488,0.0,0,13,0.0,16431,345223930355885,74,33.944000244140625,360.8175008501216,0.14999,16,0.0,0.0,1575420030,,,,0,21.163982466093106,1,6.0,33.944000244140625,0.0,0.0,0.0,66.7128,C,25690044000000,
Status,1732146806000,29,0,1,14,1575420030,47.20,331.0,74.0,1,0,0,42.2
Status,1732146806000,29,1,1,30,1575420030,46.30,82.0,68.0,1,0,0,41.3
Status,1732146806000,29,2,1,22,1575420030,37.70,276.0,62.0,1,0,0,32.7
Status,1732146806000,29,3,1,13,1575420030,39.50,299.0,50.0,1,0,0,34.5
Status,1732146806000,29,4,1,17,1575420030,44.40,175.0,48.0,1,0,0,39.4
Status,1732146806000,29,5,1,7,1575420030,34.50,106.0,35.0,1,0,0,29.5
Status,1732146806000,29,6,2,131,1575420030,42.00,3.0,23.0,0,0,0,37.0
Status,1732146806000,29,7,1,19,1575420030,34.40,193.0,21.0,1,0,0,29.400002
Status,1732146806000,29,8,1,15,1575420030,34.50,314.0,19.0,1,0,0,29.5
Status,1732146806000,29,9,1,2,1575420030,29.30,85.0,17.0,1,0,0,24.3
Status,1732146806000,29,10,1,21,1575420030,0.00,66.0,14.0,0,0,0,0.0
Status,1732146806000,29,11,1,8,1575420030,0.00,39.0,6.0,0,0,0,0.0
Status,1732146806000,29,12,1,5,1575420030,0.00,260.0,5.0,0,0,0,0.0
Status,1732146806000,29,13,3,9,1602000000,45.00,22.0,53.0,1,0,0,40.0
Status,1732146806000,29,14,3,8,1602000000,35.20,299.0,39.0,1,0,0,30.2
Status,1732146806000,29,15,3,20,1602000000,24.30,148.0,13.0,1,0,0,19.3
Status,1732146806000,29,16,3,16,1602000000,0.00,70.0,12.0,0,0,0,0.0
Status,1732146806000,29,17,3,11,1602000000,0.00,274.0,3.0,0,0,0,0.0
Status,1732146806000,29,18,3,17,1602000000,41.40,0.0,0.0,0,0,0,36.4
Status,1732146806000,29,19,6,21,1575420030,39.00,273.0,58.0,1,0,0,34.0
Status,1732146806000,29,20,6,29,1575420030,28.50,202.0,58.0,1,0,0,23.5
Status,1732146806000,29,21,6,27,1575420030,0.00,38.0,57.0,0,0,0,0.0
Status,1732146806000,29,22,6,19,1575420030,35.20,294.0,52.0,1,0,0,30.2
Status,1732146806000,29,23,6,7,1575420030,0.00,161.0,14.0,0,0,0,0.0
Status,1732146806000,29,24,6,15,1575420030,0.00,93.0,12.0,0,0,0,0.0
Status,1732146806000,29,25,6,30,1575420030,0.00,60.0,9.0,0,0,0,0.0
Status,1732146806000,29,26,6,34,1575420030,0.00,45.0,6.0,0,0,0,0.0
Status,1732146806000,29,27,6,13,1575420030,0.00,141.0,3.0,0,0,0,0.0
Status,1732146806000,29,28,6,4,1575420030,0.00,326.0,2.0,0,0,0,0.0
Fix,GPS,37.4243916667,-122.1712033333,12.2,0.39015946,1.8,90.03,1732146807000,1.4,179.9,25691044000000,35.9,0,,,
Raw,1732146807000,23495000000,,98.92013979911096,-1416182001505999872,0.0,98.92013979911096,2083.7455800447674,0.0,0,30,0.0,16431,345224931844023,31,41.303001403808594,738.6619647829892,0.14999,17,17350.881374866876,0.00022499999613501132,1575420030,,,,0,31.160423649070058,1,6.0,41.303001403808594,0.0,0.0,0.0,66.7128,C,25691044000000,
Raw,1732146807000,23495000000,,98.92013979911096,-1416182001505999872,0.0,98.92013979911096,2083.7455800447674,0.0,0,14,0.0,16431,345224932861875,31,42.23400115966797,633.8980039361444,0.14999,17,14901.16960563143,0.00022499999613501132,1575420030,,,,0,29.737990171657284,1,6.0,42.23400115966797,0.0,0.0,0.0,66.7128,C,25691044000000,
Raw,1732146807000,23495000000,,98.92013979911096,-1416182001505999872,0.0,98.92013979911096,2083.7455800447674,0.0,0,2,0.0,16431,345224920445590,396,24.29199981689453,437.37792773882694,0.14999,16,0.0,0.0,1575420030,,,,0,9.015474470654238,1,6.0,24.29199981689453,0.0,0.0,0.0,66.7128,C,25691044000000,
Raw,1732146807000,23495000000,,98.92013979911096,-1416182001505999872,0.0,98.92013979911096,2083.7455800447674,0.0,0,21,0.0,16431,345224919983044,51,34.0,463.32788007263383,0.14999,16,0.0,0.0,1575420030,,,,0,21.374701713353915,6,6.0,34.0,0.0,0.0,3.3340964967895843,66.7128,C,25691044000000,
Raw,1732146807000,23495000000,,98.92013979911096,-1416182001505999872,0.0,98.92013979911096,2083.7455800447674,0.0,0,19,0.0,16431,345224920381023,74,30.200000762939453,464.18489847646964,0.14999,16,0.0,0.0,1575420030,,,,0,17.154742484393058,6,6.0,30.200000762939453,0.0,0.0,3.3340964967895843,66.7128,C,25691044000000,
Raw,1732146807000,23495000000,,98.92013979911096,-1416182001505999872,0.0,98.92013979911096,2083.7455800447674,0.0,0,29,0.0,16431,345224920619019,74,23.5,939.0945365014771,0.14999,16,0.0,0.0,1575420030,,,,0,9.158259433461277,6,6.0,23.5,0.0,0.0,3.3340964967895843,66.7128,C,25691044000000,
Raw,1732146807000,23495000000,,98.92013979911096,-1416182001505999872,0.0,98.92013979911096,2083.7455800447674,0.0,0,9,0.0,17,564886,42,5.0,769.2039817065478,0.14999,17,18060.801421864588,0.00022499999613501132,1600875010,,,,0,27.72694923816912,3,6.0,40.0,0.0,0.0,41.51584081258049,66.7128,C,25691044000000,
Raw,1732146807000,23495000000,,98.92013979911096,-1416182001505999872,0.0,98.92013979911096,2083.7455800447674,0.0,0,8,0.0,17,536087,74,5.0,493.1097958732146,0.14999,16,0.0,0.0,1605374980,,,,0,17.194936399885066,3,6.0,30.0,0.0,0.0,41.51584081258049,66.7128,C,25691044000000,
Raw,1732146807000,23495000000,,98.92013979911096,-1416182001505999872,0.0,98.92013979911096,2083.7455800447674,0.0,0,20,0.0,17,974853,487,5.0,-155.30750478155338,0.14999,16,0.0,0.0,1603124990,,,,0,3.0476878120586974,3,6.0,19.0,0.0,0.0,41.51584081258049,66.7128,C,25691044000000,
Raw,1732146807000,23495000000,,98.92013979911096,-1416182001505999872,0.0,98.92013979911096,2083.7455800447674,0.0,0,19,0.0,16431,345224921480936,74,29.386999130249023,-64.9240106096599,0.14999,16,0.0,0.0,1575420030,,,,0,15.793844885799754,1,6.0,29.386999130249023,0.0,0.0,0.0,66.7128,C,25691044000000,
Raw,1732146807000,23495000000,,98.92013979911096,-1416182001505999872,0.0,98.92013979911096,2083.7455800447674,0.0,0,7,0.0,16431,345224926295571,235,29.533000946044922,998.6743890360226,0.14999,16,0.0,0.0,1575420030,,,,0,15.968003896092737,1,6.0,29.533000946044922,0.0,0.0,0.0,66.7128,C,25691044000000,
Raw,1732146807000,23495000000,,98.92013979911096,-1416182001505999872,0.0,98.92013979911096,2083.7455800447674,0.0,0,15,0.0,16431,345224922865042,74,29.548999786376953,174.6051302282282,0.14999,16,0.0,0.0,1575420030,,,,0,15.989530275482647,1,6.0,29.548999786376953,0.0,0.0,0.0,66.7128,C,25691044000000,
Raw,1732146807000,23495000000,,98.92013979911096,-1416182001505999872,0.0,98.92013979911096,2083.7455800447674,0.0,0,17,0.0,16431,345224929835010,42,39.44900131225586,169.63036302040376,0.14999,17,13148.45047240492,0.00022499999613501132,1575420030,,,,0,27.214156427821152,1,6.0,39.44900131225586,0.0,0.0,0.0,66.7128,C,25691044000000,
Raw,1732146807000,23495000000,,98.92013979911096,-1416182001505999872,0.0,98.92013979911096,2083.7455800447674,0.0,0,22,0.0,16431,345224930825263,74,32.702999114990234,488.13569870232084,0.14999,16,0.0,0.0,1575420030,,,,0,19.737710667086922,1,6.0,32.702999114990234,0.0,0.0,0.0,66.7128,C,25691044000000,
Raw,1732146807000,23495000000,,98.92013979911096,-1416182001505999872,0.0,98.92013979911096,2083.7455800447674,0.0,0,13,0.0,16431,345224930354678,58,34.529998779296875,361.79280238162943,0.14999,16,0.0,0.0,1575420030,,,,0,21.82543264322408,1,6.0,34.529998779296875,0.0,0.0,0.0,66.7128,C,25691044000000,
Fix,FLP,37.4243918000,-122.1712032000,-0.4830472879246157,0.25948757,1.816,104.2574,1732146807197,1.4,179.9,25691044000000,0.9170731,0,,,
Status,1732146807000,29,0,1,14,1575420030,47.20,331.0,74.0,1,0,0,42.2
Status,1732146807000,29,1,1,30,1575420030,46.40,82.0,68.0,1,0,0,41.4
Status,1732146807000,29,2,1,22,1575420030,39.90,276.0,62.0,1,0,0,34.9
Status,1732146807000,29,3,1,13,1575420030,38.90,299.0,50.0,1,0,0,33.9
Status,1732146807000,29,4,1,17,1575420030,44.20,175.0,48.0,1,0,0,39.2
Status,1732146807000,29,5,1,7,1575420030,32.40,106.0,35.0,1,0,0,27.400002
Status,1732146807000,29,6,2,131,1575420030,39.00,3.0,23.0,0,0,0,34.0
Status,1732146807000,29,7,1,19,1575420030,34.10,193.0,21.0,1,0,0,29.099998
Status,1732146807000,29,8,1,15,1575420030,35.90,314.0,19.0,1,0,0,30.900002
Status,1732146807000,29,9,1,2,1575420030,33.80,85.0,17.0,1,0,0,28.8
Status,1732146807000,29,10,1,21,1575420030,0.00,66.0,14.0,0,0,0,0.0
Status,1732146807000,29,11,1,8,1575420030,0.00,39.0,6.0,0,0,0,0.0
Status,1732146807000,29,12,1,5,1575420030,0.00,260.0,5.0,0,0,0,0.0
Status,1732146807000,29,13,3,9,1602000000,47.30,22.0,53.0,1,0,0,42.3
Status,1732146807000,29,14,3,8,1602000000,34.10,299.0,39.0,1,0,0,29.099998
Status,1732146807000,29,15,3,20,1602000000,24.40,148.0,13.0,1,0,0,19.4
Status,1732146807000,29,16,3,16,1602000000,0.00,70.0,12.0,0,0,0,0.0
Status,1732146807000,29,17,3,11,1602000000,0.00,274.0,3.0,0,0,0,0.0
Status,1732146807000,29,18,3,17,1602000000,39.10,0.0,0.0,0,0,0,34.1
Status,1732146807000,29,19,6,21,1575420030,41.90,273.0,58.0,1,0,0,36.9
Status,1732146807000,29,20,6,29,1575420030,28.30,202.0,58.0,1,0,0,23.3
Status,1732146807000,29,21,6,27,1575420030,0.00,38.0,57.0,0,0,0,0.0
Status,1732146807000,29,22,6,19,1575420030,33.20,294.0,52.0,1,0,0,28.2
Status,1732146807000,29,23,6,7,1575420030,0.00,161.0,14.0,0,0,0,0.0
Status,1732146807000,29,24,6,15,1575420030,0.00,93.0,12.0,0,0,0,0.0
Status,1732146807000,29,25,6,30,1575420030,0.00,60.0,9.0,0,0,0,0.0
Status,1732146807000,29,26,6,34,1575420030,0.00,45.0,6.0,0,0,0,0.0
Status,1732146807000,29,27,6,13,1575420030,0.00,141.0,3.0,0,0,0,0.0
Status,1732146807000,29,28,6,4,1575420030,0.00,326.0,2.0,0,0,0,0.0
Fix,GPS,37.4243900000,-122.1712033333,12.099999999999998,0.3958214,1.8,88.58,1732146808000,0.9,95.7,25692044000000,35.9,0,,,
