# 
# Header Description:
# 
# Version: v3.1.0.3 Platform: 13 Manufacturer: samsung Model: SM-S135DL GNSS Hardware Model Name: MediaTek,MT6631,MTK_MNLD_default,MNL_VER_default
# 
# Raw,utcTimeMillis,TimeNanos,LeapSecond,TimeUncertaintyNanos,FullBiasNanos,BiasNanos,BiasUncertaintyNanos,DriftNanosPerSecond,DriftUncertaintyNanosPerSecond,HardwareClockDiscontinuityCount,Svid,TimeOffsetNanos,State,ReceivedSvTimeNanos,ReceivedSvTimeUncertaintyNanos,Cn0DbHz,PseudorangeRateMetersPerSecond,PseudorangeRateUncertaintyMetersPerSecond,AccumulatedDeltaRangeState,AccumulatedDeltaRangeMeters,AccumulatedDeltaRangeUncertaintyMeters,CarrierFrequencyHz,CarrierCycles,CarrierPhase,CarrierPhaseUncertainty,MultipathIndicator,SnrInDb,ConstellationType,AgcDb,BasebandCn0DbHz,FullInterSignalBiasNanos,FullInterSignalBiasUncertaintyNanos,SatelliteInterSignalBiasNanos,SatelliteInterSignalBiasUncertaintyNanos,CodeType,ChipsetElapsedRealtimeNanos,IsFullTracking
# 
# UncalAccel,utcTimeMillis,elapsedRealtimeNanos,UncalAccelXMps2,UncalAccelYMps2,UncalAccelZMps2,BiasXMps2,BiasYMps2,BiasZMps2
# 
# Accel,utcTimeMillis,elapsedRealtimeNanos,AccelXMps2,AccelYMps2,AccelZMps2
# 
# UncalGyro,utcTimeMillis,elapsedRealtimeNanos,UncalGyroXRadPerSec,UncalGyroYRadPerSec,UncalGyroZRadPerSec,DriftXRadPerSec,DriftYRadPerSec,DriftZRadPerSec
# 
# Gyro,utcTimeMillis,elapsedRealtimeNanos,GyroXRadPerSec,GyroYRadPerSec,GyroZRadPerSec
# 
# UncalMag,utcTimeMillis,elapsedRealtimeNanos,UncalMagXMicroT,UncalMagYMicroT,UncalMagZMicroT,BiasXMicroT,BiasYMicroT,BiasZMicroT
# 
# Mag,utcTimeMillis,elapsedRealtimeNanos,MagXMicroT,MagYMicroT,MagZMicroT
# 
# Pressure,utcTimeMillis,elapsedRealtimeNanos,PressureHpa
# 
# OrientationDeg,utcTimeMillis,elapsedRealtimeNanos,yawDeg,rollDeg,pitchDeg
# 
# Fix,Provider,LatitudeDegrees,LongitudeDegrees,AltitudeMeters,SpeedMps,AccuracyMeters,BearingDegrees,UnixTimeMillis,SpeedAccuracyMps,BearingAccuracyDegrees,elapsedRealtimeNanos,VerticalAccuracyMeters,MockLocation,NumberOfUsedSignals,VerticalSpeedAccuracyMps,SolutionType
# 
# Nav,Svid,Type,Status,MessageId,Sub-messageId,Data(Bytes)
# 
# Status,UnixTimeMillis,SignalCount,SignalIndex,ConstellationType,Svid,CarrierFrequencyHz,Cn0DbHz,AzimuthDegrees,ElevationDegrees,UsedInFix,HasAlmanacData,HasEphemerisData,BasebandCn0DbHz
# 
# Agc,utcTimeMillis,TimeNanos,LeapSecond,TimeUncertaintyNanos,FullBiasNanos,BiasNanos,BiasUncertaintyNanos,DriftNanosPerSecond,DriftUncertaintyNanosPerSecond,HardwareClockDiscontinuityCount,AgcDb,CarrierFrequencyHz,ConstellationType
# 
Fix,FLP,37.4243572000,-122.1712712000,2.0,0.48935157,1.616,200.82158,1732146017195,1.0,72.3,24901043000000,1.0048926,0,,,
Status,,27,0,1,14,1575420030,44.60,309.0,73.0,1,0,0,39.6
Status,,27,1,1,30,1575420030,47.80,65.0,71.0,1,0,0,42.8
Status,,27,2,1,22,1575420030,37.50,266.0,58.0,1,0,0,32.5
Status,,27,3,1,13,1575420030,35.30,306.0,45.0,1,0,0,30.3
Status,,27,4,1,17,1575420030,35.50,176.0,41.0,1,0,0,30.5
Status,,27,5,1,7,1575420030,44.20,100.0,40.0,1,0,0,39.2
Status,,27,6,2,131,1575420030,40.00,3.0,23.0,0,0,0,35.0
Status,,27,7,1,2,1575420030,25.60,90.0,15.0,1,0,0,20.6
Status,,27,8,1,19,1575420030,33.00,193.0,15.0,1,0,0,28.0
Status,,27,9,1,15,1575420030,36.50,317.0,15.0,1,0,0,31.5
Status,,27,10,1,21,1575420030,0.00,71.0,13.0,0,0,0,0.0
Status,,27,11,1,8,1575420030,0.00,40.0,11.0,0,0,0,0.0
Status,,27,12,1,5,1575420030,0.00,265.0,8.0,0,0,0,0.0
Status,,27,13,1,9,1575420030,25.10,159.0,3.0,0,0,0,20.1
Status,,27,14,3,9,1602000000,35.10,11.0,55.0,1,0,0,30.099998
Status,,27,15,3,8,1602000000,35.60,307.0,37.0,1,0,0,30.599998
Status,,27,16,3,19,1602000000,30.60,90.0,30.0,1,0,0,25.6
Status,,27,17,3,16,1602000000,0.00,64.0,16.0,0,0,0,0.0
Status,,27,18,3,20,1602000000,17.50,151.0,7.0,1,0,0,12.5
Status,,27,19,6,29,1575420030,40.70,207.0,64.0,1,0,0,35.7
Status,,27,20,6,27,1575420030,41.70,34.0,61.0,1,0,0,36.7
Status,,27,21,6,21,1575420030,34.10,264.0,55.0,1,0,0,29.099998
Status,,27,22,6,19,1575420030,31.50,301.0,49.0,1,0,0,26.5
Status,,27,23,6,7,1575420030,0.00,160.0,19.0,0,0,0,0.0
Status,,27,24,6,30,1575420030,0.00,57.0,12.0,0,0,0,0.0
Status,,27,25,6,15,1575420030,0.00,97.0,9.0,0,0,0,0.0
Status,,27,26,6,34,1575420030,0.00,49.0,6.0,0,0,0,0.0
Fix,GPS,37.4243533333,-122.1712650000,14.000000000000004,0.63774085,1.7,177.21,1732146018000,0.9,75.7,24902043000000,33.0,0,,,
Fix,FLP,37.4243529000,-122.1712690000,2.0,0.5703337,1.65,183.67828,1732146018195,0.9,75.7,24902043000000,1.0148853,0,,,
Raw,1732146018001,26385000000,,89.36482713011424,-1416181209616000000,0.0,89.36482713011424,1859.8958072993812,0.0,0,7,0.0,16431,344435927199545,42,39.207000732421875,884.059989575306,0.14999,17,22939.44458027956,0.00022499999613501132,1575420030,,,,0,26.950382435563487,1,6.0,39.207000732421875,0.0,0.0,0.0,66.7128,C,24902043000000,
Raw,1732146018001,26385000000,,89.36482713011424,-1416181209616000000,0.0,89.36482713011424,1859.8958072993812,0.0,0,15,0.0,16431,344435921560522,74,31.535999298095703,31.885200838368014,0.14999,17,1161.414101553772,0.0006249999860301614,1575420030,,,,0,18.38013561917151,1,6.0,31.535999298095703,0.0,0.0,0.0,66.7128,C,24902043000000,
Raw,1732146018001,26385000000,,89.36482713011424,-1416181209616000000,0.0,89.36482713011424,1859.8958072993812,0.0,0,13,0.0,16431,344435929526521,74,30.26099967956543,207.16869363089438,0.14999,16,0.0,0.0,1575420030,,,,0,16.848600147513388,1,6.0,30.26099967956543,0.0,0.0,0.0,66.7128,C,24902043000000,
Raw,1732146018001,26385000000,,89.36482713011424,-1416181209616000000,0.0,89.36482713011424,1859.8958072993812,0.0,0,17,0.0,16431,344435928527402,74,30.535999298095703,34.992246797696396,0.14999,16,0.0,0.0,1575420030,,,,0,17.192262584368166,1,6.0,30.535999298095703,0.0,0.0,0.0,66.7128,C,24902043000000,
Raw,1732146018001,26385000000,,89.36482713011424,-1416181209616000000,0.0,89.36482713011424,1859.8958072993812,0.0,0,30,0.0,16431,344435932048868,31,42.75,613.8576086027341,0.14999,17,15091.697897891667,0.00022499999613501132,1575420030,,,,0,30.702456735019986,1,6.0,42.75,0.0,0.0,0.0,66.7128,C,24902043000000,
Raw,1732146018001,26385000000,,89.36482713011424,-1416181209616000000,0.0,89.36482713011424,1859.8958072993812,0.0,0,21,0.0,16431,344435919495063,74,29.100000381469727,362.68046011095606,0.14999,16,0.0,0.0,1575420030,,,,0,15.989530275482647,6,6.0,29.100000381469727,0.0,0.0,9.22087962058418,66.7128,C,24902043000000,
Raw,1732146018001,26385000000,,89.36482713011424,-1416181209616000000,0.0,89.36482713011424,1859.8958072993812,0.0,0,29,0.0,16431,344435921347541,51,35.70000076293945,810.8324197779203,0.14999,16,0.0,0.0,1575420030,,,,0,23.20349765616049,6,6.0,35.70000076293945,0.0,0.0,9.22087962058418,66.7128,C,24902043000000,
Raw,1732146018001,26385000000,,89.36482713011424,-1416181209616000000,0.0,89.36482713011424,1859.8958072993812,0.0,0,19,0.0,16431,344435919854703,235,26.5,333.54099812904707,0.14999,16,0.0,0.0,1575420030,,,,0,12.958800173440752,6,6.0,26.5,0.0,0.0,9.22087962058418,66.7128,C,24902043000000,
Raw,1732146018001,26385000000,,89.36482713011424,-1416181209616000000,0.0,89.36482713011424,1859.8958072993812,0.0,0,19,0.0,16431,344435919628740,316,28.016000747680664,-143.09610318591692,0.14999,16,0.0,0.0,1575420030,,,,0,14.07280317740279,1,6.0,28.016000747680664,0.0,0.0,0.0,66.7128,C,24902043000000,
Raw,1732146018001,26385000000,,89.36482713011424,-1416181209616000000,0.0,89.36482713011424,1859.8958072993812,0.0,0,27,0.0,16431,344435920422360,51,36.70000076293945,792.8344293379578,0.14999,16,0.0,0.0,1575420030,,,,0,24.202569759246156,6,6.0,36.70000076293945,0.0,0.0,9.22087962058418,66.7128,C,24902043000000,
Raw,1732146018001,26385000000,,89.36482713011424,-1416181209616000000,0.0,89.36482713011424,1859.8958072993812,0.0,0,9,0.0,32995,9617933883625,74,5.0,669.3671620678467,0.14999,17,17405.216292188303,0.0006249999860301614,1600875010,,,,0,17.06764091132515,3,6.0,30.0,0.0,0.0,35.391337219829076,66.7128,C,24902043000000,
Raw,1732146018001,26385000000,,89.36482713011424,-1416181209616000000,0.0,89.36482713011424,1859.8958072993812,0.0,0,19,0.0,17,974560,316,5.0,203.80589674333996,0.14999,16,0.0,0.0,1603687550,,,,0,11.87473469440075,3,6.0,25.0,0.0,0.0,35.391337219829076,66.7128,C,24902043000000,
Raw,1732146018001,26385000000,,89.36482713011424,-1416181209616000000,0.0,89.36482713011424,1859.8958072993812,0.0,0,8,0.0,32995,9617929999208,74,5.0,296.3360949870645,0.14999,16,0.0,0.0,1605374980,,,,0,17.611462966203458,3,6.0,31.0,0.0,0.0,35.391337219829076,66.7128,C,24902043000000,
Raw,1732146018001,26385000000,,89.36482713011424,-1416181209616000000,0.0,89.36482713011424,1859.8958072993812,0.0,0,20,0.0,17,898686,1797,5.0,-220.07014495390777,0.14999,16,0.0,0.0,1603124990,,,,0,0.0,3,6.0,14.0,0.0,0.0,35.391337219829076,66.7128,C,24902043000000,
Raw,1732146018001,26385000000,,89.36482713011424,-1416181209616000000,0.0,89.36482713011424,1859.8958072993812,0.0,0,14,0.0,16431,344435932800898,42,39.58599853515625,515.629464206804,0.14999,17,14270.949527325716,0.00022499999613501132,1575420030,,,,0,27.354726826479517,1,6.0,39.58599853515625,0.0,0.0,0.0,66.7128,C,24902043000000,
Raw,1732146018001,26385000000,,89.36482713011424,-1416181209616000000,0.0,89.36482713011424,1859.8958072993812,0.0,0,22,0.0,16431,344435930374829,74,32.465999603271484,366.6312605962921,0.14999,16,0.0,0.0,1575420030,,,,0,19.468249216073573,1,6.0,32.465999603271484,0.0,0.0,0.0,66.7128,C,24902043000000,
Raw,1732146018001,26385000000,,89.36482713011424,-1416181209616000000,0.0,89.36482713011424,1859.8958072993812,0.0,0,2,0.0,16431,344435919844866,797,20.55699920654297,303.98387498540535,0.14999,16,0.0,0.0,1575420030,,,,0,3.1376595201816526,1,6.0,20.55699920654297,0.0,0.0,0.0,66.7128,C,24902043000000,
Raw,1732146018001,26385000000,,89.36482713011424,-1416181209616000000,0.0,89.36482713011424,1859.8958072993812,0.0,0,9,0.0,16431,344435916204650,797,20.07900047302246,1286.4038114834307,0.14999,16,0.0,0.0,1575420030,,,,0,2.347488694508181,1,6.0,20.07900047302246,0.0,0.0,0.0,66.7128,C,24902043000000,
Status,1732146018000,27,0,1,14,1575420030,45.30,309.0,73.0,1,0,0,40.3
Status,1732146018000,27,1,1,30,1575420030,48.30,66.0,71.0,1,0,0,43.3
Status,1732146018000,27,2,1,22,1575420030,34.30,266.0,58.0,1,0,0,29.3
Status,1732146018000,27,3,1,13,1575420030,33.40,306.0,45.0,1,0,0,28.400002
Status,1732146018000,27,4,1,17,1575420030,43.70,176.0,41.0,1,0,0,38.7
Status,1732146018000,27,5,1,7,1575420030,44.40,100.0,40.0,1,0,0,39.4
Status,1732146018000,27,6,2,131,1575420030,38.00,3.0,23.0,0,0,0,33.0
Status,1732146018000,27,7,1,2,1575420030,25.60,90.0,15.0,1,0,0,20.6
Status,1732146018000,27,8,1,19,1575420030,39.20,193.0,15.0,1,0,0,34.2
Status,1732146018000,27,9,1,15,1575420030,41.30,317.0,15.0,1,0,0,36.3
Status,1732146018000,27,10,1,21,1575420030,0.00,71.0,13.0,0,0,0,0.0
Status,1732146018000,27,11,1,8,1575420030,0.00,40.0,11.0,0,0,0,0.0
Status,1732146018000,27,12,1,5,1575420030,0.00,265.0,8.0,0,0,0,0.0
Status,1732146018000,27,13,1,9,1575420030,18.50,159.0,3.0,0,0,0,13.5
Status,1732146018000,27,14,3,9,1602000000,35.60,11.0,55.0,1,0,0,30.599998
Status,1732146018000,27,15,3,8,1602000000,37.10,307.0,37.0,1,0,0,32.1
Status,1732146018000,27,16,3,19,1602000000,33.50,90.0,30.0,1,0,0,28.5
Status,1732146018000,27,17,3,16,1602000000,0.00,64.0,16.0,0,0,0,0.0
Status,1732146018000,27,18,3,20,1602000000,17.50,151.0,7.0,1,0,0,12.5
Status,1732146018000,27,19,6,29,1575420030,39.20,207.0,64.0,1,0,0,34.2
Status,1732146018000,27,20,6,27,1575420030,41.20,34.0,61.0,1,0,0,36.2
Status,1732146018000,27,21,6,21,1575420030,39.50,264.0,55.0,1,0,0,34.5
Status,1732146018000,27,22,6,19,1575420030,31.00,301.0,49.0,1,0,0,26.0
Status,1732146018000,27,23,6,7,1575420030,0.00,160.0,19.0,0,0,0,0.0
Status,1732146018000,27,24,6,30,1575420030,0.00,57.0,12.0,0,0,0,0.0
Status,1732146018000,27,25,6,15,1575420030,0.00,97.0,9.0,0,0,0,0.0
Status,1732146018000,27,26,6,34,1575420030,0.00,49.0,6.0,0,0,0,0.0
Fix,GPS,37.4243583333,-122.1712583333,13.900000000000002,0.64443225,1.7,142.46,1732146019000,0.8,127.2,24903043000000,31.3,0,,,
Fix,FLP,37.4243528000,-122.1712636000,2.0,0.5473154,1.666,161.73781,1732146019195,0.8,127.2,24903043000000,1.0248866,0,,,
Raw,1732146019001,27385000000,,83.76046578333253,-1416181209616000000,0.0,83.76046578333253,1861.721689020133,0.0,0,7,0.0,16431,344436927196595,42,39.41899871826172,884.6055042984501,0.14999,17,23823.79318115097,0.00022499999613501132,1575420030,,,,0,27.178655467073114,1,6.0,39.41899871826172,0.0,0.0,0.0,66.7128,C,24903043000000,
Raw,1732146019001,27385000000,,83.76046578333253,-1416181209616000000,0.0,83.76046578333253,1861.721689020133,0.0,0,15,0.0,16431,344436921560413,51,36.290000915527344,33.18622232592793,0.14999,16,0.0,0.0,1575420030,,,,0,23.783376062976053,1,6.0,36.290000915527344,0.0,0.0,0.0,66.7128,C,24903043000000,
Raw,1732146019001,27385000000,,83.76046578333253,-1416181209616000000,0.0,83.76046578333253,1861.721689020133,0.0,0,13,0.0,16431,344436929525837,235,28.357999801635742,206.30756365722394,0.14999,16,0.0,0.0,1575420030,,,,0,14.491481314115651,1,6.0,28.357999801635742,0.0,0.0,0.0,66.7128,C,24903043000000,
Raw,1732146019001,27385000000,,83.76046578333253,-1416181209616000000,0.0,83.76046578333253,1861.721689020133,0.0,0,17,0.0,16431,344436928527284,42,38.722999572753906,34.93840149330838,0.14999,16,0.0,0.0,1575420030,,,,0,26.42988834762668,1,6.0,38.722999572753906,0.0,0.0,0.0,66.7128,C,24903043000000,
Raw,1732146019001,27385000000,,83.76046578333253,-1416181209616000000,0.0,83.76046578333253,1861.721689020133,0.0,0,30,0.0,16431,344436932046817,31,43.334999084472656,614.0863233857386,0.14999,17,15705.762403243692,0.00022499999613501132,1575420030,,,,0,31.312778988451953,1,6.0,43.334999084472656,0.0,0.0,0.0,66.7128,C,24903043000000,
Raw,1732146019001,27385000000,,83.76046578333253,-1416181209616000000,0.0,83.76046578333253,1861.721689020133,0.0,0,21,0.0,16431,344436919493853,51,34.5,362.90569051274474,0.14999,16,0.0,0.0,1575420030,,,,0,21.891069401192794,6,6.0,34.5,0.0,0.0,8.99737232457978,66.7128,C,24903043000000,
Raw,1732146019001,27385000000,,83.76046578333253,-1416181209616000000,0.0,83.76046578333253,1861.721689020133,0.0,0,29,0.0,16431,344436921344833,58,34.20000076293945,811.1927512540492,0.14999,16,0.0,0.0,1575420030,,,,0,21.62549285163705,6,6.0,34.20000076293945,0.0,0.0,8.99737232457978,66.7128,C,24903043000000,
Raw,1732146019001,27385000000,,83.76046578333253,-1416181209616000000,0.0,83.76046578333253,1861.721689020133,0.0,0,19,0.0,16431,344436919853590,235,26.0,333.77145510265944,0.14999,16,0.0,0.0,1575420030,,,,0,12.29398151066717,6,6.0,26.0,0.0,0.0,8.99737232457978,66.7128,C,24903043000000,
Raw,1732146019001,27385000000,,83.76046578333253,-1416181209616000000,0.0,83.76046578333253,1861.721689020133,0.0,0,19,0.0,16431,344436919629218,58,34.18199920654297,-142.85637775827053,0.14999,16,0.0,0.0,1575420030,,,,0,21.43233888329468,1,6.0,34.18199920654297,0.0,0.0,0.0,66.7128,C,24903043000000,
Raw,1732146019001,27385000000,,83.76046578333253,-1416181209616000000,0.0,83.76046578333253,1861.721689020133,0.0,0,27,0.0,16431,344436920419714,51,36.20000076293945,793.0739689319392,0.14999,16,0.0,0.0,1575420030,,,,0,23.668680069022578,6,6.0,36.20000076293945,0.0,0.0,8.99737232457978,66.7128,C,24903043000000,
Raw,1732146019001,27385000000,,83.76046578333253,-1416181209616000000,0.0,83.76046578333253,1861.721689020133,0.0,0,9,0.0,32995,9618933881395,74,5.0,669.5493550557406,0.14999,16,0.0,0.0,1600875010,,,,0,17.7082213525549,3,6.0,31.0,0.0,0.0,35.381510593337396,66.7128,C,24903043000000,
Raw,1732146019001,27385000000,,83.76046578333253,-1416181209616000000,0.0,83.76046578333253,1861.721689020133,0.0,0,19,0.0,17,973873,235,5.0,204.26128781377395,0.14999,16,0.0,0.0,1603687550,,,,0,15.299804661345744,3,6.0,29.0,0.0,0.0,35.381510593337396,66.7128,C,24903043000000,
Raw,1732146019001,27385000000,,83.76046578333253,-1416181209616000000,0.0,83.76046578333253,1861.721689020133,0.0,0,8,0.0,32995,9618929998216,74,5.0,296.7083727045892,0.14999,16,0.0,0.0,1605374980,,,,0,19.343896488844358,3,6.0,32.0,0.0,0.0,35.381510593337396,66.7128,C,24903043000000,
Raw,1732146019001,27385000000,,83.76046578333253,-1416181209616000000,0.0,83.76046578333253,1861.721689020133,0.0,0,20,0.0,17,899423,797,5.0,-220.9532141733638,0.14999,16,0.0,0.0,1603124990,,,,0,0.0,3,6.0,16.0,0.0,0.0,35.381510593337396,66.7128,C,24903043000000,
Raw,1732146019001,27385000000,,83.76046578333253,-1416181209616000000,0.0,83.76046578333253,1861.721689020133,0.0,0,14,0.0,16431,344436932799174,42,40.347999572753906,515.972187943189,0.14999,17,14786.98148402136,0.00022499999613501132,1575420030,,,,0,28.169366028938988,1,6.0,40.347999572753906,0.0,0.0,0.0,66.7128,C,24903043000000,
Raw,1732146019001,27385000000,,83.76046578333253,-1416181209616000000,0.0,83.76046578333253,1861.721689020133,0.0,0,22,0.0,16431,344436930373604,316,29.33799934387207,366.2628685849507,0.14999,16,0.0,0.0,1575420030,,,,0,15.727624313679694,1,6.0,29.33799934387207,0.0,0.0,0.0,66.7128,C,24903043000000,
Raw,1732146019001,27385000000,,83.76046578333253,-1416181209616000000,0.0,83.76046578333253,1861.721689020133,0.0,0,2,0.0,16431,344436919843845,797,20.55699920654297,306.38558926982535,0.14999,16,0.0,0.0,1575420030,,,,0,3.1376595201816526,1,6.0,20.55699920654297,0.0,0.0,0.0,66.7128,C,24903043000000,
Raw,1732146019001,27385000000,,83.76046578333253,-1416181209616000000,0.0,83.76046578333253,1861.721689020133,0.0,0,9,0.0,16431,344436916200399,1797,13.5,1286.6833053153534,0.14999,16,0.0,0.0,1575420030,,,,0,0.0,1,6.0,13.5,0.0,0.0,0.0,66.7128,C,24903043000000,
Status,1732146019000,27,0,1,14,1575420030,43.70,309.0,73.0,1,0,0,38.7
Status,1732146019000,27,1,1,30,1575420030,44.80,66.0,71.0,1,0,0,39.8
Status,1732146019000,27,2,1,22,1575420030,38.50,266.0,58.0,1,0,0,33.5
Status,1732146019000,27,3,1,13,1575420030,33.70,306.0,45.0,1,0,0,28.7
Status,1732146019000,27,4,1,17,1575420030,37.20,176.0,41.0,1,0,0,32.2
Status,1732146019000,27,5,1,7,1575420030,40.60,100.0,40.0,1,0,0,35.6
Status,1732146019000,27,6,2,131,1575420030,43.00,3.0,23.0,0,0,0,38.0
Status,1732146019000,27,7,1,2,1575420030,30.80,90.0,15.0,1,0,0,25.8
Status,1732146019000,27,8,1,19,1575420030,41.90,193.0,15.0,1,0,0,36.9
Status,1732146019000,27,9,1,15,1575420030,42.30,317.0,15.0,1,0,0,37.3
Status,1732146019000,27,10,1,21,1575420030,0.00,71.0,13.0,0,0,0,0.0
Status,1732146019000,27,11,1,8,1575420030,0.00,40.0,11.0,0,0,0,0.0
Status,1732146019000,27,12,1,5,1575420030,0.00,265.0,8.0,0,0,0,0.0
Status,1732146019000,27,13,1,9,1575420030,18.50,159.0,3.0,0,0,0,13.5
Status,1732146019000,27,14,3,9,1602000000,32.90,11.0,55.0,1,0,0,27.900002
Status,1732146019000,27,15,3,8,1602000000,30.40,307.0,37.0,1,0,0,25.4
Status,1732146019000,27,16,3,19,1602000000,32.30,90.0,30.0,1,0,0,27.3
Status,1732146019000,27,17,3,16,1602000000,0.00,64.0,16.0,0,0,0,0.0
Status,1732146019000,27,18,3,20,1602000000,15.90,151.0,7.0,1,0,0,10.9
Status,1732146019000,27,19,6,29,1575420030,37.10,207.0,64.0,1,0,0,32.1
Status,1732146019000,27,20,6,27,1575420030,41.10,34.0,61.0,1,0,0,36.1
Status,1732146019000,27,21,6,21,1575420030,41.50,264.0,55.0,1,0,0,36.5
Status,1732146019000,27,22,6,19,1575420030,35.40,301.0,49.0,1,0,0,30.400002
Status,1732146019000,27,23,6,7,1575420030,0.00,160.0,19.0,0,0,0,0.0
Status,1732146019000,27,24,6,30,1575420030,0.00,57.0,12.0,0,0,0,0.0
Status,1732146019000,27,25,6,15,1575420030,0.00,97.0,9.0,0,0,0,0.0
Status,1732146019000,27,26,6,34,1575420030,0.00,49.0,6.0,0,0,0,0.0
Fix,GPS,37.4243666667,-122.1712500000,13.900000000000002,0.6202403,1.7,100.93,1732146020000,0.8,172.2,24904043000000,31.1,0,,,
Fix,FLP,37.4243573000,-122.1712552000,2.0,0.58984524,1.666,126.019516,1732146020195,0.8,172.2,24904043000000,1.0348883,0,,,
Raw,1732146020001,28385000000,,83.01422071539132,-1416181209616000000,0.0,83.01422071539132,1860.1162474223925,0.0,0,7,0.0,16431,344437927193652,51,35.643001556396484,884.0475387197615,0.14999,17,24708.066722643693,0.00022499999613501132,1575420030,,,,0,23.071318523956528,1,6.0,35.643001556396484,0.0,0.0,0.0,66.7128,C,24904043000000,
Raw,1732146020001,28385000000,,83.01422071539132,-1416181209616000000,0.0,83.01422071539132,1860.1162474223925,0.0,0,15,0.0,16431,344437921560308,51,37.279998779296875,32.64112572852968,0.14999,17,1227.2843510519492,0.00022499999613501132,1575420030,,,,0,24.869498098499704,1,6.0,37.279998779296875,0.0,0.0,0.0,66.7128,C,24904043000000,
Raw,1732146020001,28385000000,,83.01422071539132,-1416181209616000000,0.0,83.01422071539132,1860.1162474223925,0.0,0,13,0.0,16431,344437929525150,235,28.73900032043457,206.70420238562141,0.14999,16,0.0,0.0,1575420030,,,,0,14.987952988616293,1,6.0,28.73900032043457,0.0,0.0,0.0,66.7128,C,24904043000000,
Raw,1732146020001,28385000000,,83.01422071539132,-1416181209616000000,0.0,83.01422071539132,1860.1162474223925,0.0,0,17,0.0,16431,344437928527163,74,32.23500061035156,34.17773784469323,0.14999,17,1050.5434867794083,0.0006249999860301614,1575420030,,,,0,19.205020294914156,1,6.0,32.23500061035156,0.0,0.0,0.0,66.7128,C,24904043000000,
Raw,1732146020001,28385000000,,83.01422071539132,-1416181209616000000,0.0,83.01422071539132,1860.1162474223925,0.0,0,30,0.0,16431,344437932044769,42,39.77000045776367,613.7823924268893,0.14999,17,16319.624079861496,0.00022499999613501132,1575420030,,,,0,27.555731589622525,1,6.0,39.77000045776367,0.0,0.0,0.0,66.7128,C,24904043000000,
Raw,1732146020001,28385000000,,83.01422071539132,-1416181209616000000,0.0,83.01422071539132,1860.1162474223925,0.0,0,21,0.0,16431,344437919492639,51,36.5,362.1415192537057,0.14999,16,0.0,0.0,1575420030,,,,0,24.084850188786497,6,6.0,36.5,0.0,0.0,8.97652392865347,66.7128,C,24904043000000,
Raw,1732146020001,28385000000,,83.01422071539132,-1416181209616000000,0.0,83.01422071539132,1860.1162474223925,0.0,0,29,0.0,16431,344437921342122,58,32.099998474121094,810.6098839642718,0.14999,16,0.0,0.0,1575420030,,,,0,19.35224228784154,6,6.0,32.099998474121094,0.0,0.0,8.97652392865347,66.7128,C,24904043000000,
Raw,1732146020001,28385000000,,83.01422071539132,-1416181209616000000,0.0,83.01422071539132,1860.1162474223925,0.0,0,19,0.0,16431,344437919852474,74,30.399999618530273,333.130979376781,0.14999,16,0.0,0.0,1575420030,,,,0,17.39577516576788,6,6.0,30.399999618530273,0.0,0.0,8.97652392865347,66.7128,C,24904043000000,
Raw,1732146020001,28385000000,,83.01422071539132,-1416181209616000000,0.0,83.01422071539132,1860.1162474223925,0.0,0,19,0.0,16431,344437919629696,51,36.91899871826172,-143.79455901522613,0.14999,16,8299.526322164822,0.00022499999613501132,1575420030,,,,0,24.47389741258957,1,6.0,36.91899871826172,0.0,0.0,0.0,66.7128,C,24904043000000,
Raw,1732146020001,28385000000,,83.01422071539132,-1416181209616000000,0.0,83.01422071539132,1860.1162474223925,0.0,0,27,0.0,16431,344437920417072,51,36.11000061035156,792.6318706432799,0.14999,16,0.0,0.0,1575420030,,,,0,21.781397620451838,6,6.0,36.11000061035156,0.0,0.0,8.97652392865347,66.7128,C,24904043000000,
Raw,1732146020001,28385000000,,83.01422071539132,-1416181209616000000,0.0,83.01422071539132,1860.1162474223925,0.0,0,9,0.0,32995,9619933879177,235,5.0,669.2417529421773,0.14999,16,0.0,0.0,1600875010,,,,0,14.594592756543811,3,6.0,28.0,0.0,0.0,35.357281474626035,66.7128,C,24904043000000,
Raw,1732146020001,28385000000,,83.01422071539132,-1416181209616000000,0.0,83.01422071539132,1860.1162474223925,0.0,0,19,0.0,17,973190,235,5.0,204.04434038409786,0.14999,16,0.0,0.0,1603687550,,,,0,13.922455278212281,3,6.0,28.0,0.0,0.0,35.357281474626035,66.7128,C,24904043000000,
Raw,1732146020001,28385000000,,83.01422071539132,-1416181209616000000,0.0,83.01422071539132,1860.1162474223925,0.0,0,8,0.0,32995,9619929997229,396,5.0,295.9424576331843,0.14999,16,0.0,0.0,1605374980,,,,0,11.619864380828488,3,6.0,23.0,0.0,0.0,35.357281474626035,66.7128,C,24904043000000,
Raw,1732146020001,28385000000,,83.01422071539132,-1416181209616000000,0.0,83.01422071539132,1860.1162474223925,0.0,0,20,0.0,17,900153,1797,5.0,-228.3676718943677,0.14999,16,0.0,0.0,1603124990,,,,0,0.0,3,6.0,12.0,0.0,0.0,35.357281474626035,66.7128,C,24904043000000,
Raw,1732146020001,28385000000,,83.01422071539132,-1416181209616000000,0.0,83.01422071539132,1860.1162474223925,0.0,0,14,0.0,16431,344437932797456,42,38.66699981689453,515.4652801639158,0.14999,17,15302.660327717294,0.00022499999613501132,1575420030,,,,0,26.37152828728243,1,6.0,38.66699981689453,0.0,0.0,0.0,66.7128,C,24904043000000,
Raw,1732146020001,28385000000,,83.01422071539132,-1416181209616000000,0.0,83.01422071539132,1860.1162474223925,0.0,0,22,0.0,16431,344437930372381,58,33.48899841308594,365.5860159191794,0.14999,16,0.0,0.0,1575420030,,,,0,20.651463920754516,1,6.0,33.48899841308594,0.0,0.0,0.0,66.7128,C,24904043000000,
Raw,1732146020001,28385000000,,83.01422071539132,-1416181209616000000,0.0,83.01422071539132,1860.1162474223925,0.0,0,2,0.0,16431,344437919842762,316,25.816999435424805,303.78809921949414,0.14999,16,0.0,0.0,1575420030,,,,0,11.171662671088542,1,6.0,25.816999435424805,0.0,0.0,0.0,66.7128,C,24904043000000,
Raw,1732146020001,28385000000,,83.01422071539132,-1416181209616000000,0.0,83.01422071539132,1860.1162474223925,0.0,0,9,0.0,16431,344437916196104,797,13.5,1288.437760945128,0.14999,16,0.0,0.0,1575420030,,,,0,0.0,1,6.0,13.5,0.0,0.0,0.0,66.7128,C,24904043000000,
Fix,NLP,37.4243909000,-122.1711037000,2.200000047683716,,26.211,,1732146018897,,,24902745000000,1.0,0,,,
Status,1732146020000,27,0,1,14,1575420030,47.40,309.0,73.0,1,0,0,42.4
Status,1732146020000,27,1,1,30,1575420030,47.20,66.0,71.0,1,0,0,42.2
Status,1732146020000,27,2,1,22,1575420030,36.00,266.0,58.0,1,0,0,31.0
Status,1732146020000,27,3,1,13,1575420030,39.40,306.0,45.0,1,0,0,34.4
Status,1732146020000,27,4,1,17,1575420030,40.70,176.0,41.0,1,0,0,35.7
Status,1732146020000,27,5,1,7,1575420030,40.70,100.0,40.0,1,0,0,35.7
Status,1732146020000,27,6,2,131,1575420030,33.00,3.0,23.0,0,0,0,28.0
Status,1732146020000,27,7,1,2,1575420030,28.90,90.0,15.0,1,0,0,23.9
Status,1732146020000,27,8,1,19,1575420030,39.50,193.0,15.0,1,0,0,34.5
Status,1732146020000,27,9,1,15,1575420030,38.30,317.0,15.0,1,0,0,33.3
Status,1732146020000,27,10,1,21,1575420030,0.00,71.0,13.0,0,0,0,0.0
Status,1732146020000,27,11,1,8,1575420030,0.00,40.0,11.0,0,0,0,0.0
Status,1732146020000,27,12,1,5,1575420030,0.00,265.0,8.0,0,0,0,0.0
Status,1732146020000,27,13,1,9,1575420030,16.40,159.0,3.0,0,0,0,11.4
Status,1732146020000,27,14,3,9,1602000000,31.80,11.0,55.0,1,0,0,26.8
Status,1732146020000,27,15,3,8,1602000000,43.00,307.0,37.0,1,0,0,38.0
Status,1732146020000,27,16,3,19,1602000000,32.30,90.0,30.0,1,0,0,27.3
Status,1732146020000,27,17,3,16,1602000000,0.00,64.0,16.0,0,0,0,0.0
Status,1732146020000,27,18,3,20,1602000000,15.90,151.0,7.0,1,0,0,10.9
Status,1732146020000,27,19,6,29,1575420030,42.80,207.0,64.0,1,0,0,37.8
Status,1732146020000,27,20,6,27,1575420030,37.90,34.0,61.0,1,0,0,32.9
Status,1732146020000,27,21,6,21,1575420030,37.00,264.0,55.0,1,0,0,32.0
Status,1732146020000,27,22,6,19,1575420030,33.80,301.0,49.0,1,0,0,28.8
Status,1732146020000,27,23,6,7,1575420030,0.00,160.0,19.0,0,0,0,0.0
Status,1732146020000,27,24,6,30,1575420030,0.00,57.0,12.0,0,0,0,0.0
Status,1732146020000,27,25,6,15,1575420030,0.00,97.0,9.0,0,0,0,0.0
Status,1732146020000,27,26,6,34,1575420030,0.00,49.0,6.0,0,0,0,0.0
Fix,GPS,37.4243766667,-122.1712416667,14.000000000000004,0.59913665,1.6,60.29,1732146021000,0.8,91.7,24905043000000,30.1,0,,,
Fix,FLP,37.4243665000,-122.1712459000,2.200000047683716,0.52835804,1.65,75.479935,1732146021196,0.8,91.7,24905043000000,0.8504562,0,,,
Raw,1732146021001,29385000000,,80.72296530118975,-1416181209616000000,0.0,80.72296530118975,1854.1005412865165,0.0,0,7,0.0,16431,344438927190704,51,35.66999816894531,882.0444376464279,0.14999,17,25589.963538672608,0.00022499999613501132,1575420030,,,,0,23.686424487120444,1,6.0,35.66999816894531,0.0,0.0,0.0,66.7128,C,24905043000000,
Raw,1732146021001,29385000000,,80.72296530118975,-1416181209616000000,0.0,80.72296530118975,1854.1005412865165,0.0,0,15,0.0,16431,344438921560203,58,33.32600021362305,31.258569720520274,0.14999,17,1258.5570005762322,0.00039999998989515007,1575420030,,,,0,20.460836892103266,1,6.0,33.32600021362305,0.0,0.0,0.0,66.7128,C,24905043000000,
Raw,1732146021001,29385000000,,80.72296530118975,-1416181209616000000,0.0,80.72296530118975,1854.1005412865165,0.0,0,13,0.0,16431,344438929524460,58,34.358001708984375,205.49426262304226,0.14999,16,0.0,0.0,1575420030,,,,0,21.636722186928402,1,6.0,34.358001708984375,0.0,0.0,0.0,66.7128,C,24905043000000,
Raw,1732146021001,29385000000,,80.72296530118975,-1416181209616000000,0.0,80.72296530118975,1854.1005412865165,0.0,0,17,0.0,16431,344438928527049,51,35.729000091552734,33.53809837030654,0.14999,16,0.0,0.0,1575420030,,,,0,23.16593699378879,1,6.0,35.729000091552734,0.0,0.0,0.0,66.7128,C,24905043000000,
Raw,1732146021001,29385000000,,80.72296530118975,-1416181209616000000,0.0,80.72296530118975,1854.1005412865165,0.0,0,30,0.0,16431,344438932042728,31,42.19300079345703,611.7909988744408,0.14999,17,16931.344990407782,0.00022499999613501132,1575420030,,,,0,30.11813949751231,1,6.0,42.19300079345703,0.0,0.0,0.0,66.7128,C,24905043000000,
Raw,1732146021001,29385000000,,80.72296530118975,-1416181209616000000,0.0,80.72296530118975,1854.1005412865165,0.0,0,21,0.0,16431,344438919491432,58,32.0,360.89350681904205,0.14999,16,0.0,0.0,1575420030,,,,0,19.16036266626832,6,6.0,32.0,0.0,0.0,8.97107410533515,66.7128,C,24905043000000,
Raw,1732146021001,29385000000,,80.72296530118975,-1416181209616000000,0.0,80.72296530118975,1854.1005412865165,0.0,0,29,0.0,16431,344438921339423,42,37.79999923706055,808.6287112633896,0.14999,16,0.0,0.0,1575420030,,,,0,25.423785981398762,6,6.0,37.79999923706055,0.0,0.0,8.97107410533515,66.7128,C,24905043000000,
Raw,1732146021001,29385000000,,80.72296530118975,-1416181209616000000,0.0,80.72296530118975,1854.1005412865165,0.0,0,19,0.0,16431,344438919851365,74,28.799999237060547,331.51023106886015,0.14999,16,0.0,0.0,1575420030,,,,0,15.593649066705646,6,6.0,28.799999237060547,0.0,0.0,8.97107410533515,66.7128,C,24905043000000,
Raw,1732146021001,29385000000,,80.72296530118975,-1416181209616000000,0.0,80.72296530118975,1854.1005412865165,0.0,0,19,0.0,16431,344438919630183,58,34.520999908447266,-145.01850599029277,0.14999,17,8154.209117594804,0.00039999998989515007,1575420030,,,,0,21.814444799079375,1,6.0,34.520999908447266,0.0,0.0,0.0,66.7128,C,24905043000000,
Raw,1732146021001,29385000000,,80.72296530118975,-1416181209616000000,0.0,80.72296530118975,1854.1005412865165,0.0,0,27,0.0,16431,344438920414432,58,32.900001525878906,790.3397982211167,0.14999,16,0.0,0.0,1575420030,,,,0,20.160166598772026,6,6.0,32.900001525878906,0.0,0.0,8.97107410533515,66.7128,C,24905043000000,
Raw,1732146021001,29385000000,,80.72296530118975,-1416181209616000000,0.0,80.72296530118975,1854.1005412865165,0.0,0,9,0.0,32995,9620933876942,235,5.0,667.8008510083093,0.14999,16,0.0,0.0,1600875010,,,,0,13.246984082893384,3,6.0,27.0,0.0,0.0,35.32584216860636,66.7128,C,24905043000000,
Raw,1732146021001,29385000000,,80.72296530118975,-1416181209616000000,0.0,80.72296530118975,1854.1005412865165,0.0,0,19,0.0,17,972517,235,5.0,202.28671706143967,0.14999,16,0.0,0.0,1603687550,,,,0,13.922455278212281,3,6.0,28.0,0.0,0.0,35.32584216860636,66.7128,C,24905043000000,
Raw,1732146021001,29385000000,,80.72296530118975,-1416181209616000000,0.0,80.72296530118975,1854.1005412865165,0.0,0,8,0.0,32995,9620929996239,51,5.0,295.2235702349932,0.14999,16,0.0,0.0,1605374980,,,,0,25.566473208827887,3,6.0,38.0,0.0,0.0,35.32584216860636,66.7128,C,24905043000000,
Raw,1732146021001,29385000000,,80.72296530118975,-1416181209616000000,0.0,80.72296530118975,1854.1005412865165,0.0,0,20,0.0,17,900940,1797,5.0,-244.83826880639927,0.14999,16,0.0,0.0,1603124990,,,,0,0.0,3,6.0,12.0,0.0,0.0,35.32584216860636,66.7128,C,24905043000000,
Raw,1732146021001,29385000000,,80.72296530118975,-1416181209616000000,0.0,80.72296530118975,1854.1005412865165,0.0,0,14,0.0,16431,344438932795740,31,42.35100173950195,513.8417908094386,0.14999,17,15816.412250527876,0.00022499999613501132,1575420030,,,,0,30.28558351931683,1,6.0,42.35100173950195,0.0,0.0,0.0,66.7128,C,24905043000000,
Raw,1732146021001,29385000000,,80.72296530118975,-1416181209616000000,0.0,80.72296530118975,1854.1005412865165,0.0,0,22,0.0,16431,344438930371159,74,30.982999801635742,364.79998597531323,0.14999,16,0.0,0.0,1575420030,,,,0,17.718841358815148,1,6.0,30.982999801635742,0.0,0.0,0.0,66.7128,C,24905043000000,
Raw,1732146021001,29385000000,,80.72296530118975,-1416181209616000000,0.0,80.72296530118975,1854.1005412865165,0.0,0,2,0.0,16431,344438919841739,396,23.945999145507812,302.39316204356464,0.14999,16,0.0,0.0,1575420030,,,,0,8.521825181113625,1,6.0,23.945999145507812,0.0,0.0,0.0,66.7128,C,24905043000000,
Raw,1732146021001,29385000000,,80.72296530118975,-1416181209616000000,0.0,80.72296530118975,1854.1005412865165,0.0,0,9,0.0,16431,344438916191804,1797,11.399999618530273,1289.3582880039237,0.14999,16,0.0,0.0,1575420030,,,,0,0.0,1,6.0,11.399999618530273,0.0,0.0,0.0,66.7128,C,24905043000000,
Status,1732146021000,28,0,1,14,1575420030,47.30,309.0,73.0,1,0,0,42.3
Status,1732146021000,28,1,1,30,1575420030,47.30,66.0,71.0,1,0,0,42.3
Status,1732146021000,28,2,1,22,1575420030,39.00,266.0,58.0,1,0,0,34.0
Status,1732146021000,28,3,1,13,1575420030,44.30,306.0,45.0,1,0,0,39.3
Status,1732146021000,28,4,1,17,1575420030,35.30,176.0,41.0,1,0,0,30.3
Status,1732146021000,28,5,1,7,1575420030,43.50,100.0,40.0,1,0,0,38.5
Status,1732146021000,28,6,2,131,1575420030,38.00,3.0,23.0,0,0,0,33.0
Status,1732146021000,28,7,1,2,1575420030,25.30,90.0,15.0,1,0,0,20.3
Status,1732146021000,28,8,1,19,1575420030,35.70,193.0,15.0,1,0,0,30.7
Status,1732146021000,28,9,1,15,1575420030,42.90,317.0,15.0,1,0,0,37.9
Status,1732146021000,28,10,1,21,1575420030,0.00,71.0,13.0,0,0,0,0.0
Status,1732146021000,28,11,1,8,1575420030,0.00,40.0,11.0,0,0,0,0.0
Status,1732146021000,28,12,1,5,1575420030,0.00,265.0,8.0,0,0,0,0.0
Status,1732146021000,28,13,1,9,1575420030,16.40,159.0,3.0,0,0,0,11.4
Status,1732146021000,28,14,3,9,1602000000,33.80,11.0,55.0,1,0,0,28.8
Status,1732146021000,28,15,3,8,1602000000,44.00,307.0,37.0,1,0,0,39.0
Status,1732146021000,28,16,3,19,1602000000,29.10,90.0,30.0,1,0,0,24.1
Status,1732146021000,28,17,3,16,1602000000,22.30,64.0,16.0,1,0,0,17.3
Status,1732146021000,28,18,3,20,1602000000,0.00,151.0,7.0,0,0,0,0.0
Status,1732146021000,28,19,3,17,1602000000,40.20,0.0,0.0,0,0,0,35.2
Status,1732146021000,28,20,6,29,1575420030,41.20,207.0,64.0,1,0,0,36.2
Status,1732146021000,28,21,6,27,1575420030,44.00,34.0,61.0,1,0,0,39.0
Status,1732146021000,28,22,6,21,1575420030,32.10,264.0,55.0,1,0,0,27.099998
Status,1732146021000,28,23,6,19,1575420030,33.60,301.0,49.0,1,0,0,28.599998
Status,1732146021000,28,24,6,7,1575420030,0.00,160.0,19.0,0,0,0,0.0
Status,1732146021000,28,25,6,30,1575420030,0.00,57.0,12.0,0,0,0,0.0
Status,1732146021000,28,26,6,15,1575420030,0.00,97.0,9.0,0,0,0,0.0
Status,1732146021000,28,27,6,34,1575420030,0.00,49.0,6.0,0,0,0,0.0
Fix,GPS,37.4243850000,-122.1712350000,14.2,0.5579589,1.6,61.14,1732146022000,0.8,58.5,24906043000000,30.0,0,,,
Raw,1732146022001,30385000000,,80.64539699047776,-1416181209616000000,0.0,80.64539699047776,1850.333590968354,0.0,0,7,0.0,16431,344439927187761,42,38.50299835205078,881.0808900942213,0.14999,16,0.0,0.0,1575420030,,,,0,26.194057853035517,1,6.0,38.50299835205078,0.0,0.0,0.0,66.7128,C,24906043000000,
Raw,1732146022001,30385000000,,80.64539699047776,-1416181209616000000,0.0,80.64539699047776,1850.333590968354,0.0,0,15,0.0,16431,344439921560104,51,37.946998596191406,30.439136175398797,0.14999,17,1288.7530227632524,0.00022499999613501132,1575420030,,,,0,25.5962162521682,1,6.0,37.946998596191406,0.0,0.0,0.0,66.7128,C,24906043000000,
Raw,1732146022001,30385000000,,80.64539699047776,-1416181209616000000,0.0,80.64539699047776,1850.333590968354,0.0,0,13,0.0,16431,344439929523777,42,39.28499984741211,204.276355242083,0.14999,17,6061.538285206839,0.00022499999613501132,1575420030,,,,0,27.03518258955033,1,6.0,39.28499984741211,0.0,0.0,0.0,66.7128,C,24906043000000,
Raw,1732146022001,30385000000,,80.64539699047776,-1416181209616000000,0.0,80.64539699047776,1850.333590968354,0.0,0,17,0.0,16431,344439928526941,235,30.30500030517578,32.857110905492476,0.14999,16,0.0,0.0,1575420030,,,,0,16.90682979333701,1,6.0,30.30500030517578,0.0,0.0,0.0,66.7128,C,24906043000000,
Raw,1732146022001,30385000000,,80.64539699047776,-1416181209616000000,0.0,80.64539699047776,1850.333590968354,0.0,0,30,0.0,16431,344439932040693,31,42.290000915527344,610.9658974025416,0.14999,17,17541.837264582613,0.00022499999613501132,1575420030,,,,0,32.154685908010734,1,6.0,42.290000915527344,0.0,0.0,0.0,66.7128,C,24906043000000,
Raw,1732146022001,30385000000,,80.64539699047776,-1416181209616000000,0.0,80.64539699047776,1850.333590968354,0.0,0,21,0.0,16431,344439919490232,235,27.100000381469727,359.7419885148476,0.14999,16,0.0,0.0,1575420030,,,,0,13.632917303279434,6,6.0,27.100000381469727,0.0,0.0,8.833668768226774,66.7128,C,24906043000000,
Raw,1732146022001,30385000000,,80.64539699047776,-1416181209616000000,0.0,80.64539699047776,1850.333590968354,0.0,0,29,0.0,16431,344439921336731,51,36.20000076293945,807.7085558719237,0.14999,16,0.0,0.0,1575420030,,,,0,23.74824602666328,6,6.0,36.20000076293945,0.0,0.0,8.833668768226774,66.7128,C,24906043000000,
Raw,1732146022001,30385000000,,80.64539699047776,-1416181209616000000,0.0,80.64539699047776,1850.333590968354,0.0,0,19,0.0,16431,344439919850262,235,28.600000381469727,330.47904006265105,0.14999,16,0.0,0.0,1575420030,,,,0,15.411738970015055,6,6.0,28.600000381469727,0.0,0.0,8.833668768226774,66.7128,C,24906043000000,
Raw,1732146022001,30385000000,,80.64539699047776,-1416181209616000000,0.0,80.64539699047776,1850.333590968354,0.0,0,19,0.0,16431,344439919630674,74,30.679000854492188,-145.5807457432727,0.14999,16,0.0,0.0,1575420030,,,,0,17.35912578802678,1,6.0,30.679000854492188,0.0,0.0,0.0,66.7128,C,24906043000000,
Raw,1732146022001,30385000000,,80.64539699047776,-1416181209616000000,0.0,80.64539699047776,1850.333590968354,0.0,0,27,0.0,16431,344439920411797,42,39.0,789.38238317985,0.14999,16,0.0,0.0,1575420030,,,,0,26.665776544843173,6,6.0,39.0,0.0,0.0,8.833668768226774,66.7128,C,24906043000000,
Raw,1732146022001,30385000000,,80.64539699047776,-1416181209616000000,0.0,80.64539699047776,1850.333590968354,0.0,0,9,0.0,32995,9621933874717,235,5.0,666.4373982391822,0.14999,16,0.0,0.0,1600875010,,,,0,15.672052213442214,3,6.0,29.0,0.0,0.0,35.22942323327051,66.7128,C,24906043000000,
Raw,1732146022001,30385000000,,80.64539699047776,-1416181209616000000,0.0,80.64539699047776,1850.333590968354,0.0,0,19,0.0,17,971841,316,5.0,201.10809943281447,0.14999,16,0.0,0.0,1603687550,,,,0,10.00840004617788,3,6.0,24.0,0.0,0.0,35.22942323327051,66.7128,C,24906043000000,
Raw,1732146022001,30385000000,,80.64539699047776,-1416181209616000000,0.0,80.64539699047776,1850.333590968354,0.0,0,8,0.0,32995,9621929995259,42,5.0,294.62297008658686,0.14999,16,0.0,0.0,1605374980,,,,0,26.651545005560205,3,6.0,39.0,0.0,0.0,35.22942323327051,66.7128,C,24906043000000,
Raw,1732146022001,30385000000,,80.64539699047776,-1416181209616000000,0.0,80.64539699047776,1850.333590968354,0.0,0,20,0.0,17,901786,1797,5.0,-264.2087222246333,0.14999,16,0.0,0.0,1603124990,,,,0,0.0,3,6.0,12.0,0.0,0.0,35.22942323327051,66.7128,C,24906043000000,
Raw,1732146022001,30385000000,,80.64539699047776,-1416181209616000000,0.0,80.64539699047776,1850.333590968354,0.0,0,16,0.0,17,949877,487,5.0,1029.802025522258,0.14999,16,0.0,0.0,1601437440,,,,0,0.0,3,6.0,18.0,0.0,0.0,35.22942323327051,66.7128,C,24906043000000,
Raw,1732146022001,30385000000,,80.64539699047776,-1416181209616000000,0.0,80.64539699047776,1850.333590968354,0.0,0,14,0.0,16431,344439932794027,42,42.26100158691406,512.9412873280298,0.14999,17,16328.928957293807,0.00022499999613501132,1575420030,,,,0,28.39905437904502,1,6.0,42.26100158691406,0.0,0.0,0.0,66.7128,C,24906043000000,
Raw,1732146022001,30385000000,,80.64539699047776,-1416181209616000000,0.0,80.64539699047776,1850.333590968354,0.0,0,22,0.0,16431,344439930369947,58,34.04899978637695,362.91307740092225,0.14999,16,0.0,0.0,1575420030,,,,0,21.281679248482053,1,6.0,34.04899978637695,0.0,0.0,0.0,66.7128,C,24906043000000,
Raw,1732146022001,30385000000,,80.64539699047776,-1416181209616000000,0.0,80.64539699047776,1850.333590968354,0.0,0,2,0.0,16431,344439919840726,797,20.298999786376953,303.28207415012895,0.14999,16,0.0,0.0,1575420030,,,,0,2.75155641627392,1,6.0,20.298999786376953,0.0,0.0,0.0,66.7128,C,24906043000000,
Raw,1732146022001,30385000000,,80.64539699047776,-1416181209616000000,0.0,80.64539699047776,1850.333590968354,0.0,0,9,0.0,16431,344439916187511,1797,11.399999618530273,1286.4285273608548,0.14999,16,0.0,0.0,1575420030,,,,0,0.0,1,6.0,11.399999618530273,0.0,0.0,0.0,66.7128,C,24906043000000,
Fix,FLP,37.4243762000,-122.1712377000,2.200000047683716,0.56062484,1.65,62.948517,1732146022195,0.8,58.5,24906043000000,0.8604305,0,,,
Status,1732146022000,28,0,1,14,1575420030,47.20,309.0,73.0,1,0,0,42.2
Status,1732146022000,28,1,1,30,1575420030,47.40,66.0,71.0,1,0,0,42.4
Status,1732146022000,28,2,1,22,1575420030,41.50,266.0,58.0,1,0,0,36.5
Status,1732146022000,28,3,1,13,1575420030,40.10,306.0,45.0,1,0,0,35.1
Status,1732146022000,28,4,1,17,1575420030,36.80,176.0,41.0,1,0,0,31.8
Status,1732146022000,28,5,1,7,1575420030,44.00,100.0,40.0,1,0,0,39.0
Status,1732146022000,28,6,2,131,1575420030,39.00,3.0,23.0,0,0,0,34.0
Status,1732146022000,28,7,1,2,1575420030,25.30,90.0,15.0,1,0,0,20.3
Status,1732146022000,28,8,1,19,1575420030,32.80,193.0,15.0,1,0,0,27.8
Status,1732146022000,28,9,1,15,1575420030,33.80,317.0,15.0,1,0,0,28.8
Status,1732146022000,28,10,1,21,1575420030,0.00,71.0,13.0,0,0,0,0.0
Status,1732146022000,28,11,1,8,1575420030,0.00,40.0,11.0,0,0,0,0.0
Status,1732146022000,28,12,1,5,1575420030,29.20,265.0,8.0,1,0,0,24.2
Status,1732146022000,28,13,1,9,1575420030,16.40,159.0,3.0,0,0,0,11.4
Status,1732146022000,28,14,3,9,1602000000,41.80,11.0,55.0,1,0,0,36.8
Status,1732146022000,28,15,3,8,1602000000,33.50,307.0,37.0,1,0,0,28.5
Status,1732146022000,28,16,3,19,1602000000,32.50,90.0,30.0,1,0,0,27.5
Status,1732146022000,28,17,3,16,1602000000,22.30,64.0,16.0,1,0,0,17.3
Status,1732146022000,28,18,3,20,1602000000,0.00,151.0,7.0,0,0,0,0.0
Status,1732146022000,28,19,3,17,1602000000,44.40,0.0,0.0,0,0,0,39.4
Status,1732146022000,28,20,6,29,1575420030,42.40,207.0,64.0,1,0,0,37.4
Status,1732146022000,28,21,6,27,1575420030,43.90,34.0,61.0,1,0,0,38.9
Status,1732146022000,28,22,6,21,1575420030,39.20,264.0,55.0,1,0,0,34.2
Status,1732146022000,28,23,6,19,1575420030,30.20,301.0,49.0,1,0,0,25.2
Status,1732146022000,28,24,6,7,1575420030,0.00,160.0,19.0,0,0,0,0.0
Status,1732146022000,28,25,6,30,1575420030,0.00,57.0,12.0,0,0,0,0.0
Status,1732146022000,28,26,6,15,1575420030,0.00,97.0,9.0,0,0,0,0.0
Status,1732146022000,28,27,6,34,1575420030,0.00,49.0,6.0,0,0,0,0.0
Fix,GPS,37.4243883333,-122.1712266667,14.400000000000002,0.49413332,1.6,76.27,1732146023000,1.3,179.9,24907043000000,32.2,0,,,
Raw,1732146023001,31385000000,,88.50876360653001,-1416181209616000000,0.0,88.50876360653001,1848.7585388991622,0.0,0,7,0.0,16431,344440927184820,42,38.957000732421875,880.5839708744335,0.14999,16,0.0,0.0,1575420030,,,,0,26.68462477568533,1,6.0,38.957000732421875,0.0,0.0,0.0,66.7128,C,24907043000000,
Raw,1732146023001,31385000000,,88.50876360653001,-1416181209616000000,0.0,88.50876360653001,1848.7585388991622,0.0,0,15,0.0,16431,344440921559996,235,28.756999969482422,30.13357917198209,0.14999,16,0.0,0.0,1575420030,,,,0,15.012047011383707,1,6.0,28.756999969482422,0.0,0.0,0.0,66.7128,C,24907043000000,
Raw,1732146023001,31385000000,,88.50876360653001,-1416181209616000000,0.0,88.50876360653001,1848.7585388991622,0.0,0,13,0.0,16431,344440929523096,58,35.09600067138672,204.00631569785924,0.14999,17,6265.047844289367,0.00039999998989515007,1575420030,,,,0,22.460494174962307,1,6.0,35.09600067138672,0.0,0.0,0.0,66.7128,C,24907043000000,
Raw,1732146023001,31385000000,,88.50876360653001,-1416181209616000000,0.0,88.50876360653001,1848.7585388991622,0.0,0,17,0.0,16431,344440928526836,74,31.763999938964844,31.78224898804546,0.14999,16,0.0,0.0,1575420030,,,,0,18.653349862272385,1,6.0,31.763999938964844,0.0,0.0,0.0,66.7128,C,24907043000000,
Raw,1732146023001,31385000000,,88.50876360653001,-1416181209616000000,0.0,88.50876360653001,1848.7585388991622,0.0,0,30,0.0,16431,344440932038655,31,42.3650016784668,610.7247317639927,0.14999,17,18152.14165511499,0.00022499999613501132,1575420030,,,,0,31.789377524000678,1,6.0,42.3650016784668,0.0,0.0,0.0,66.7128,C,24907043000000,
Raw,1732146023001,31385000000,,88.50876360653001,-1416181209616000000,0.0,88.50876360653001,1848.7585388991622,0.0,0,21,0.0,16431,344440919489037,58,34.20000076293945,359.23082979049116,0.14999,16,0.0,0.0,1575420030,,,,0,21.58042976929917,6,6.0,34.20000076293945,0.0,0.0,8.429121511421942,66.7128,C,24907043000000,
Raw,1732146023001,31385000000,,88.50876360653001,-1416181209616000000,0.0,88.50876360653001,1848.7585388991622,0.0,0,5,0.0,16431,344440917268384,316,24.229999542236328,972.4030838372875,0.14999,16,0.0,0.0,1575420030,,,,0,8.918963592868412,1,6.0,24.229999542236328,0.0,0.0,0.0,66.7128,C,24907043000000,
Raw,1732146023001,31385000000,,88.50876360653001,-1416181209616000000,0.0,88.50876360653001,1848.7585388991622,0.0,0,29,0.0,16431,344440921334037,42,37.400001525878906,807.5716893777675,0.14999,16,0.0,0.0,1575420030,,,,0,25.038012706788685,6,6.0,37.400001525878906,0.0,0.0,8.429121511421942,66.7128,C,24907043000000,
Raw,1732146023001,31385000000,,88.50876360653001,-1416181209616000000,0.0,88.50876360653001,1848.7585388991622,0.0,0,19,0.0,16431,344440919849158,58,25.200000762939453,330.40510149325195,0.14999,16,0.0,0.0,1575420030,,,,0,11.356869893472625,6,6.0,25.200000762939453,0.0,0.0,8.429121511421942,66.7128,C,24907043000000,
Raw,1732146023001,31385000000,,88.50876360653001,-1416181209616000000,0.0,88.50876360653001,1848.7585388991622,0.0,0,19,0.0,16431,344440919631159,235,27.783000946044922,-146.76919848835448,0.14999,16,0.0,0.0,1575420030,,,,0,13.772789724199518,1,6.0,27.783000946044922,0.0,0.0,0.0,66.7128,C,24907043000000,
Raw,1732146023001,31385000000,,88.50876360653001,-1416181209616000000,0.0,88.50876360653001,1848.7585388991622,0.0,0,27,0.0,16431,344440920409163,42,38.935001373291016,789.1996157704776,0.14999,16,0.0,0.0,1575420030,,,,0,25.277432230139244,6,6.0,38.935001373291016,0.0,0.0,8.429121511421942,66.7128,C,24907043000000,
Raw,1732146023001,31385000000,,88.50876360653001,-1416181209616000000,0.0,88.50876360653001,1848.7585388991622,0.0,0,9,0.0,32995,9622933872490,51,5.0,665.9438084029708,0.14999,16,0.0,0.0,1600875010,,,,0,24.311648703926135,3,6.0,37.0,0.0,0.0,35.43241116528918,66.7128,C,24907043000000,
Raw,1732146023001,31385000000,,88.50876360653001,-1416181209616000000,0.0,88.50876360653001,1848.7585388991622,0.0,0,19,0.0,17,971176,316,5.0,201.09064231871935,0.14999,16,0.0,0.0,1603687550,,,,0,14.059751500058862,3,6.0,24.0,0.0,0.0,35.43241116528918,66.7128,C,24907043000000,
Raw,1732146023001,31385000000,,88.50876360653001,-1416181209616000000,0.0,88.50876360653001,1848.7585388991622,0.0,0,8,0.0,32995,9622929994274,235,5.0,294.39223130410045,0.14999,16,0.0,0.0,1605374980,,,,0,15.247345092041733,3,6.0,29.0,0.0,0.0,35.43241116528918,66.7128,C,24907043000000,
Raw,1732146023001,31385000000,,88.50876360653001,-1416181209616000000,0.0,88.50876360653001,1848.7585388991622,0.0,0,16,0.0,17,946441,487,5.0,1030.6724055839566,0.14999,16,0.0,0.0,1601437440,,,,0,0.0,3,6.0,19.0,0.0,0.0,35.43241116528918,66.7128,C,24907043000000,
Raw,1732146023001,31385000000,,88.50876360653001,-1416181209616000000,0.0,88.50876360653001,1848.7585388991622,0.0,0,14,0.0,16431,344440932792317,42,42.19900131225586,512.5856016935219,0.14999,17,16841.1980726415,0.00022499999613501132,1575420030,,,,0,28.88492983677764,1,6.0,42.19900131225586,0.0,0.0,0.0,66.7128,C,24907043000000,
Raw,1732146023001,31385000000,,88.50876360653001,-1416181209616000000,0.0,88.50876360653001,1848.7585388991622,0.0,0,22,0.0,16431,344440930368734,51,36.54199981689453,363.1918511273936,0.14999,17,15296.850612756984,0.00022499999613501132,1575420030,,,,0,24.059415647513752,1,6.0,36.54199981689453,0.0,0.0,0.0,66.7128,C,24907043000000,
Raw,1732146023001,31385000000,,88.50876360653001,-1416181209616000000,0.0,88.50876360653001,1848.7585388991622,0.0,0,2,0.0,16431,344440919839719,487,20.27400016784668,301.5748202712241,0.14999,16,0.0,0.0,1575420030,,,,0,1.8144447990793773,1,6.0,20.27400016784668,0.0,0.0,0.0,66.7128,C,24907043000000,
Raw,1732146023001,31385000000,,88.50876360653001,-1416181209616000000,0.0,88.50876360653001,1848.7585388991622,0.0,0,9,0.0,16431,344440916183223,797,11.399999618530273,1285.0557740786658,0.14999,16,0.0,0.0,1575420030,,,,0,0.0,1,6.0,11.399999618530273,0.0,0.0,0.0,66.7128,C,24907043000000,
Fix,FLP,37.4243830000,-122.1712296000,2.200000047683716,0.54708517,1.65,65.525696,1732146023195,1.3,179.9,24907043000000,0.87041146,0,,,
Status,1732146023000,28,0,1,14,1575420030,47.30,309.0,73.0,1,0,0,42.3
Status,1732146023000,28,1,1,30,1575420030,43.90,66.0,71.0,1,0,0,38.9
Status,1732146023000,28,2,1,22,1575420030,39.20,266.0,58.0,1,0,0,34.2
Status,1732146023000,28,3,1,13,1575420030,45.30,306.0,45.0,1,0,0,40.3
Status,1732146023000,28,4,1,17,1575420030,44.30,176.0,41.0,1,0,0,39.3
Status,1732146023000,28,5,1,7,1575420030,38.30,100.0,40.0,1,0,0,33.3
Status,1732146023000,28,6,2,131,1575420030,44.00,3.0,23.0,0,0,0,39.0
Status,1732146023000,28,7,1,2,1575420030,28.90,90.0,15.0,1,0,0,23.9
Status,1732146023000,28,8,1,19,1575420030,34.60,193.0,15.0,1,0,0,29.599998
Status,1732146023000,28,9,1,15,1575420030,39.80,317.0,15.0,1,0,0,34.8
Status,1732146023000,28,10,1,21,1575420030,0.00,71.0,13.0,0,0,0,0.0
Status,1732146023000,28,11,1,8,1575420030,0.00,40.0,11.0,0,0,0,0.0
Status,1732146023000,28,12,1,5,1575420030,0.00,265.0,8.0,0,0,0,0.0
Status,1732146023000,28,13,1,9,1575420030,19.10,159.0,3.0,0,0,0,14.1
Status,1732146023000,28,14,3,9,1602000000,46.20,11.0,55.0,1,0,0,41.2
Status,1732146023000,28,15,3,8,1602000000,40.90,307.0,37.0,1,0,0,35.9
Status,1732146023000,28,16,3,19,1602000000,36.70,90.0,30.0,1,0,0,31.7
Status,1732146023000,28,17,3,16,1602000000,22.30,64.0,16.0,1,0,0,17.3
Status,1732146023000,28,18,3,20,1602000000,0.00,151.0,7.0,0,0,0,0.0
Status,1732146023000,28,19,3,17,1602000000,43.50,0.0,0.0,0,0,0,38.5
Status,1732146023000,28,20,6,29,1575420030,41.90,207.0,64.0,1,0,0,36.9
Status,1732146023000,28,21,6,27,1575420030,44.00,34.0,61.0,1,0,0,39.0
Status,1732146023000,28,22,6,21,1575420030,37.00,264.0,55.0,1,0,0,32.0
Status,1732146023000,28,23,6,19,1575420030,32.80,301.0,49.0,1,0,0,27.8
Status,1732146023000,28,24,6,7,1575420030,0.00,160.0,19.0,0,0,0,0.0
Status,1732146023000,28,25,6,30,1575420030,0.00,57.0,12.0,0,0,0,0.0
Status,1732146023000,28,26,6,15,1575420030,0.00,97.0,9.0,0,0,0,0.0
Status,1732146023000,28,27,6,34,1575420030,0.00,49.0,6.0,0,0,0,0.0
Fix,GPS,37.4243900000,-122.1712233333,14.599999999999998,0.43905807,1.6,107.35,1732146024000,1.0,178.5,24908043000000,30.8,0,,,
Fix,FLP,37.4243869000,-122.1712238000,2.200000047683716,0.46060193,1.633,80.28788,1732146024195,1.0,178.5,24908043000000,0.87641764,0,,,
Raw,1732146024001,32385000000,,83.50698180733299,-1416181209616000000,0.0,83.50698180733299,1848.702519870946,0.0,0,7,0.0,16431,344441927181882,58,33.33599853515625,881.1509493858669,0.14999,16,0.0,0.0,1575420030,,,,0,20.473676346973434,1,6.0,33.33599853515625,0.0,0.0,0.0,66.7128,C,24908043000000,
Raw,1732146024001,32385000000,,83.50698180733299,-1416181209616000000,0.0,83.50698180733299,1848.702519870946,0.0,0,15,0.0,16431,344441921559896,58,34.75199890136719,30.44192368037143,0.14999,16,0.0,0.0,1575420030,,,,0,22.074391071054574,1,6.0,34.75199890136719,0.0,0.0,0.0,66.7128,C,24908043000000,
Raw,1732146024001,32385000000,,83.50698180733299,-1416181209616000000,0.0,83.50698180733299,1848.702519870946,0.0,0,13,0.0,16431,344441929522417,42,40.33000183105469,203.9584867583705,0.14999,16,0.0,0.0,1575420030,,,,0,28.148180921758545,1,6.0,40.33000183105469,0.0,0.0,0.0,66.7128,C,24908043000000,
Raw,1732146024001,32385000000,,83.50698180733299,-1416181209616000000,0.0,83.50698180733299,1848.702519870946,0.0,0,17,0.0,16431,344441928526728,42,39.305999755859375,31.894864188939806,0.14999,17,1177.306590763771,0.00022499999613501132,1575420030,,,,0,27.05925991512188,1,6.0,39.305999755859375,0.0,0.0,0.0,66.7128,C,24908043000000,
Raw,1732146024001,32385000000,,83.50698180733299,-1416181209616000000,0.0,83.50698180733299,1848.702519870946,0.0,0,30,0.0,16431,344441932036621,42,38.91899871826172,610.7500051424112,0.14999,17,18762.484710664256,0.00022499999613501132,1575420030,,,,0,26.64058177840902,1,6.0,38.91899871826172,0.0,0.0,0.0,66.7128,C,24908043000000,
Raw,1732146024001,32385000000,,83.50698180733299,-1416181209616000000,0.0,83.50698180733299,1848.702519870946,0.0,0,21,0.0,16431,344441919487839,58,32.0,359.43213410793146,0.14999,16,0.0,0.0,1575420030,,,,0,19.19015991551854,6,6.0,32.0,0.0,0.0,8.096608771857136,66.7128,C,24908043000000,
Raw,1732146024001,32385000000,,83.50698180733299,-1416181209616000000,0.0,83.50698180733299,1848.702519870946,0.0,0,29,0.0,16431,344441921331344,51,36.900001525878906,807.6566153626003,0.14999,16,0.0,0.0,1575420030,,,,0,24.49007225830303,6,6.0,36.900001525878906,0.0,0.0,8.096608771857136,66.7128,C,24908043000000,
Raw,1732146024001,32385000000,,83.50698180733299,-1416181209616000000,0.0,83.50698180733299,1848.702519870946,0.0,0,19,0.0,16431,344441919848055,235,27.799999237060547,330.6812503192074,0.14999,16,0.0,0.0,1575420030,,,,0,14.440236978823643,6,6.0,27.799999237060547,0.0,0.0,8.096608771857136,66.7128,C,24908043000000,
Raw,1732146024001,32385000000,,83.50698180733299,-1416181209616000000,0.0,83.50698180733299,1848.702519870946,0.0,0,19,0.0,16431,344441919631653,235,29.61400032043457,-146.56143645106096,0.14999,16,0.0,0.0,1575420030,,,,0,16.075106235068148,1,6.0,29.61400032043457,0.0,0.0,0.0,66.7128,C,24908043000000,
Raw,1732146024001,32385000000,,83.50698180733299,-1416181209616000000,0.0,83.50698180733299,1848.702519870946,0.0,0,27,0.0,16431,344441920406528,31,39.007999420166016,789.4910958737826,0.14999,16,0.0,0.0,1575420030,,,,0,28.148180921758545,6,6.0,39.007999420166016,0.0,0.0,8.096608771857136,66.7128,C,24908043000000,
Raw,1732146024001,32385000000,,83.50698180733299,-1416181209616000000,0.0,83.50698180733299,1848.702519870946,0.0,0,9,0.0,32995,9623933870273,42,5.0,666.1808193061682,0.14999,17,21409.769143152116,0.00022499999613501132,1600875010,,,,0,28.906129777998043,3,6.0,41.0,0.0,0.0,35.39327609510469,66.7128,C,24908043000000,
Raw,1732146024001,32385000000,,83.50698180733299,-1416181209616000000,0.0,83.50698180733299,1848.702519870946,0.0,0,19,0.0,17,970506,74,5.0,201.2333342591595,0.14999,16,0.0,0.0,1603687550,,,,0,18.884987313268688,3,6.0,32.0,0.0,0.0,35.39327609510469,66.7128,C,24908043000000,
Raw,1732146024001,32385000000,,83.50698180733299,-1416181209616000000,0.0,83.50698180733299,1848.702519870946,0.0,0,8,0.0,32995,9623929993291,51,5.0,294.39161581831434,0.14999,16,0.0,0.0,1605374980,,,,0,23.393686630000623,3,6.0,36.0,0.0,0.0,35.39327609510469,66.7128,C,24908043000000,
Raw,1732146024001,32385000000,,83.50698180733299,-1416181209616000000,0.0,83.50698180733299,1848.702519870946,0.0,0,16,0.0,17,943001,487,5.0,1033.253929812322,0.14999,16,0.0,0.0,1601437440,,,,0,0.0,3,6.0,19.0,0.0,0.0,35.39327609510469,66.7128,C,24908043000000,
Raw,1732146024001,32385000000,,83.50698180733299,-1416181209616000000,0.0,83.50698180733299,1848.702519870946,0.0,0,14,0.0,16431,344441932790607,31,42.26900100708008,512.5729650043127,0.14999,17,17353.534183929016,0.00022499999613501132,1575420030,,,,0,31.599013556965033,1,6.0,42.26900100708008,0.0,0.0,0.0,66.7128,C,24908043000000,
Raw,1732146024001,32385000000,,83.50698180733299,-1416181209616000000,0.0,83.50698180733299,1848.702519870946,0.0,0,22,0.0,16431,344441930367522,58,34.191001892089844,361.8772637823002,0.14999,16,0.0,0.0,1575420030,,,,0,21.443820563272006,1,6.0,34.191001892089844,0.0,0.0,0.0,66.7128,C,24908043000000,
Raw,1732146024001,32385000000,,83.50698180733299,-1416181209616000000,0.0,83.50698180733299,1848.702519870946,0.0,0,2,0.0,16431,344441919838718,396,23.915000915527344,301.1708643422735,0.14999,16,0.0,0.0,1575420030,,,,0,8.470881400836028,1,6.0,23.915000915527344,0.0,0.0,0.0,66.7128,C,24908043000000,
Raw,1732146024001,32385000000,,83.50698180733299,-1416181209616000000,0.0,83.50698180733299,1848.702519870946,0.0,0,9,0.0,16431,344441916178943,1797,14.100000381469727,1285.541264528066,0.14999,16,0.0,0.0,1575420030,,,,0,0.0,1,6.0,14.100000381469727,0.0,0.0,0.0,66.7128,C,24908043000000,
Status,1732146024000,28,0,1,14,1575420030,47.20,309.0,73.0,1,0,0,42.2
Status,1732146024000,28,1,1,30,1575420030,49.40,66.0,71.0,1,0,0,44.4
Status,1732146024000,28,2,1,22,1575420030,47.50,266.0,58.0,1,0,0,42.5
Status,1732146024000,28,3,1,13,1575420030,45.20,306.0,45.0,1,0,0,40.2
Status,1732146024000,28,4,1,17,1575420030,34.80,176.0,41.0,1,0,0,29.8
Status,1732146024000,28,5,1,7,1575420030,42.20,100.0,40.0,1,0,0,37.2
Status,1732146024000,28,6,2,131,1575420030,42.00,3.0,23.0,0,0,0,37.0
Status,1732146024000,28,7,1,2,1575420030,29.50,90.0,15.0,1,0,0,24.5
Status,1732146024000,28,8,1,19,1575420030,43.50,193.0,15.0,1,0,0,38.5
Status,1732146024000,28,9,1,15,1575420030,34.50,317.0,15.0,1,0,0,29.5
Status,1732146024000,28,10,1,21,1575420030,0.00,71.0,13.0,0,0,0,0.0
Status,1732146024000,28,11,1,8,1575420030,0.00,40.0,11.0,0,0,0,0.0
Status,1732146024000,28,12,1,5,1575420030,0.00,265.0,8.0,0,0,0,0.0
Status,1732146024000,28,13,1,9,1575420030,19.10,159.0,3.0,0,0,0,14.1
Status,1732146024000,28,14,3,9,1602000000,50.50,11.0,55.0,1,0,0,45.5
Status,1732146024000,28,15,3,8,1602000000,38.90,307.0,37.0,1,0,0,33.9
Status,1732146024000,28,16,3,19,1602000000,36.10,90.0,30.0,1,0,0,31.099998
Status,1732146024000,28,17,3,16,1602000000,22.40,64.0,16.0,1,0,0,17.4
Status,1732146024000,28,18,3,20,1602000000,0.00,151.0,7.0,0,0,0,0.0
Status,1732146024000,28,19,3,17,1602000000,39.30,0.0,0.0,0,0,0,34.3
Status,1732146024000,28,20,6,29,1575420030,36.80,207.0,64.0,1,0,0,31.8
Status,1732146024000,28,21,6,27,1575420030,44.00,34.0,61.0,1,0,0,39.0
Status,1732146024000,28,22,6,21,1575420030,39.50,264.0,55.0,1,0,0,34.5
Status,1732146024000,28,23,6,19,1575420030,34.80,301.0,49.0,1,0,0,29.8
Status,1732146024000,28,24,6,7,1575420030,0.00,160.0,19.0,0,0,0,0.0
Status,1732146024000,28,25,6,30,1575420030,0.00,57.0,12.0,0,0,0,0.0
Status,1732146024000,28,26,6,15,1575420030,0.00,97.0,9.0,0,0,0,0.0
Status,1732146024000,28,27,6,34,1575420030,0.00,49.0,6.0,0,0,0,0.0
Fix,GPS,37.4243933333,-122.1712183333,14.7,0.0,1.5,77.63,1732146025000,0.8,164.0,24909043000000,30.5,0,,,
Raw,1732146025001,33385000000,,82.56933540577472,-1416181209616000000,0.0,82.56933540577472,1849.3552010578205,0.0,0,7,0.0,16431,344442927178944,51,37.1879997253418,881.2018678100336,0.14999,17,29112.631596942596,0.00022499999613501132,1575420030,,,,0,24.768362549003697,1,6.0,37.1879997253418,0.0,0.0,0.0,66.7128,C,24909043000000,
Raw,1732146025001,33385000000,,82.56933540577472,-1416181209616000000,0.0,82.56933540577472,1849.3552010578205,0.0,0,15,0.0,16431,344442921559792,235,29.5,30.629476306613373,0.14999,16,0.0,0.0,1575420030,,,,0,15.924790425674193,1,6.0,29.5,0.0,0.0,0.0,66.7128,C,24909043000000,
Raw,1732146025001,33385000000,,82.56933540577472,-1416181209616000000,0.0,82.56933540577472,1849.3552010578205,0.0,0,13,0.0,16431,344442929521742,42,40.22800064086914,204.0405090921902,0.14999,16,0.0,0.0,1575420030,,,,0,28.04147331879562,1,6.0,40.22800064086914,0.0,0.0,0.0,66.7128,C,24909043000000,
Raw,1732146025001,33385000000,,82.56933540577472,-1416181209616000000,0.0,82.56933540577472,1849.3552010578205,0.0,0,17,0.0,16431,344442928526622,235,29.804000854492188,32.134450241337554,0.14999,16,0.0,0.0,1575420030,,,,0,16.306183432596455,1,6.0,29.804000854492188,0.0,0.0,0.0,66.7128,C,24909043000000,
