# 
# Header Description:
# 
# Version: v3.1.0.3 Platform: 13 Manufacturer: samsung Model: SM-S135DL GNSS Hardware Model Name: MediaTek,MT6631,MTK_MNLD_default,MNL_VER_default
# 
# Raw,utcTimeMillis,TimeNanos,LeapSecond,TimeUncertaintyNanos,FullBiasNanos,BiasNanos,BiasUncertaintyNanos,DriftNanosPerSecond,DriftUncertaintyNanosPerSecond,HardwareClockDiscontinuityCount,Svid,TimeOffsetNanos,State,ReceivedSvTimeNanos,ReceivedSvTimeUncertaintyNanos,Cn0DbHz,PseudorangeRateMetersPerSecond,PseudorangeRateUncertaintyMetersPerSecond,AccumulatedDeltaRangeState,AccumulatedDeltaRangeMeters,AccumulatedDeltaRangeUncertaintyMeters,CarrierFrequencyHz,CarrierCycles,CarrierPhase,CarrierPhaseUncertainty,MultipathIndicator,SnrInDb,ConstellationType,AgcDb,BasebandCn0DbHz,FullInterSignalBiasNanos,FullInterSignalBiasUncertaintyNanos,SatelliteInterSignalBiasNanos,SatelliteInterSignalBiasUncertaintyNanos,CodeType,ChipsetElapsedRealtimeNanos,IsFullTracking
# 
# UncalAccel,utcTimeMillis,elapsedRealtimeNanos,UncalAccelXMps2,UncalAccelYMps2,UncalAccelZMps2,BiasXMps2,BiasYMps2,BiasZMps2
# 
# Accel,utcTimeMillis,elapsedRealtimeNanos,AccelXMps2,AccelYMps2,AccelZMps2
# 
# UncalGyro,utcTimeMillis,elapsedRealtimeNanos,UncalGyroXRadPerSec,UncalGyroYRadPerSec,UncalGyroZRadPerSec,DriftXRadPerSec,DriftYRadPerSec,DriftZRadPerSec
# 
# Gyro,utcTimeMillis,elapsedRealtimeNanos,GyroXRadPerSec,GyroYRadPerSec,GyroZRadPerSec
# 
# UncalMag,utcTimeMillis,elapsedRealtimeNanos,UncalMagXMicroT,UncalMagYMicroT,UncalMagZMicroT,BiasXMicroT,BiasYMicroT,BiasZMicroT
# 
# Mag,utcTimeMillis,elapsedRealtimeNanos,MagXMicroT,MagYMicroT,MagZMicroT
# 
# Pressure,utcTimeMillis,elapsedRealtimeNanos,PressureHpa
# 
# OrientationDeg,utcTimeMillis,elapsedRealtimeNanos,yawDeg,rollDeg,pitchDeg
# 
# Fix,Provider,LatitudeDegrees,LongitudeDegrees,AltitudeMeters,SpeedMps,AccuracyMeters,BearingDegrees,UnixTimeMillis,SpeedAccuracyMps,BearingAccuracyDegrees,elapsedRealtimeNanos,VerticalAccuracyMeters,MockLocation,NumberOfUsedSignals,VerticalSpeedAccuracyMps,SolutionType
# 
# Nav,Svid,Type,Status,MessageId,Sub-messageId,Data(Bytes)
# 
# Status,UnixTimeMillis,SignalCount,SignalIndex,ConstellationType,Svid,CarrierFrequencyHz,Cn0DbHz,AzimuthDegrees,ElevationDegrees,UsedInFix,HasAlmanacData,HasEphemerisData,BasebandCn0DbHz
# 
# Agc,utcTimeMillis,TimeNanos,LeapSecond,TimeUncertaintyNanos,FullBiasNanos,BiasNanos,BiasUncertaintyNanos,DriftNanosPerSecond,DriftUncertaintyNanosPerSecond,HardwareClockDiscontinuityCount,AgcDb,CarrierFrequencyHz,ConstellationType
# 
Fix,FLP,37.4243689000,-122.1712149000,-0.9837998911151926,0.089431815,2.016,,1732146898197,2.0,,25782045000000,0.9894553,0,,,
Status,,29,0,1,14,1575420030,41.40,334.0,73.0,1,0,0,36.4
Status,,29,1,1,30,1575420030,42.20,84.0,68.0,1,0,0,37.2
Status,,29,2,1,22,1575420030,32.90,277.0,62.0,1,0,0,27.900002
Status,,29,3,1,13,1575420030,50.80,298.0,50.0,1,0,0,45.8
Status,,29,4,1,17,1575420030,33.00,174.0,49.0,1,0,0,28.0
Status,,29,5,1,7,1575420030,32.20,107.0,35.0,1,0,0,27.2
Status,,29,6,2,131,1575420030,40.00,3.0,23.0,0,0,0,35.0
Status,,29,7,1,19,1575420030,26.60,193.0,21.0,1,0,0,21.6
Status,,29,8,1,15,1575420030,37.10,313.0,20.0,1,0,0,32.1
Status,,29,9,1,2,1575420030,26.70,84.0,18.0,1,0,0,21.7
Status,,29,10,1,21,1575420030,0.00,65.0,14.0,0,0,0,0.0
Status,,29,11,1,8,1575420030,0.00,39.0,6.0,0,0,0,0.0
Status,,29,12,1,5,1575420030,0.00,259.0,5.0,0,0,0,0.0
Status,,29,13,3,9,1602000000,34.50,24.0,52.0,1,0,0,29.5
Status,,29,14,3,8,1602000000,32.50,298.0,40.0,1,0,0,27.5
Status,,29,15,3,20,1602000000,26.80,147.0,14.0,1,0,0,21.8
Status,,29,16,3,16,1602000000,0.00,71.0,12.0,0,0,0,0.0
Status,,29,17,3,11,1602000000,0.00,275.0,3.0,0,0,0,0.0
Status,,29,18,3,17,1602000000,44.70,0.0,0.0,0,0,0,39.7
Status,,29,19,6,21,1575420030,41.30,274.0,59.0,1,0,0,36.3
Status,,29,20,6,29,1575420030,35.90,202.0,58.0,1,0,0,30.900002
Status,,29,21,6,27,1575420030,0.00,39.0,56.0,0,0,0,0.0
Status,,29,22,6,19,1575420030,36.00,293.0,52.0,1,0,0,31.0
Status,,29,23,6,7,1575420030,24.20,161.0,14.0,1,0,0,19.2
Status,,29,24,6,15,1575420030,0.00,92.0,13.0,0,0,0,0.0
Status,,29,25,6,30,1575420030,0.00,60.0,8.0,0,0,0,0.0
Status,,29,26,6,34,1575420030,0.00,45.0,6.0,0,0,0,0.0
Status,,29,27,6,4,1575420030,0.00,325.0,3.0,0,0,0,0.0
Status,,29,28,6,13,1575420030,0.00,140.0,3.0,0,0,0,0.0
Fix,GPS,37.4243700000,-122.1712233333,10.2,0.41023362,2.0,22.65,1732146899000,1.9,170.5,25783045000000,34.2,0,,,
Fix,FLP,37.4243696000,-122.1712193000,-1.0440038100953943,0.08438383,2.016,,1732146899197,1.9,,25783045000000,1.0021482,0,,,
Raw,1732146898999,13603000000,,91.88382493688846,-1416182103396999936,0.0,91.88382493688846,2112.0727285524936,0.0,0,30,0.0,16431,345316931610386,51,37.21200180053711,753.5229900435838,0.14999,17,10166.534055963146,0.00022499999613501132,1575420030,,,,0,24.80174553448068,1,6.0,37.21200180053711,0.0,0.0,0.0,66.7128,C,25783045000000,
Raw,1732146898999,13603000000,,91.88382493688846,-1416182103396999936,0.0,91.88382493688846,2112.0727285524936,0.0,0,17,0.0,16431,345316929775786,235,28.01799964904785,186.71070682337574,0.14999,16,0.0,0.0,1575420030,,,,0,14.082050675536422,1,6.0,28.01799964904785,0.0,0.0,0.0,66.7128,C,25783045000000,
Raw,1732146898999,13603000000,,91.88382493688846,-1416182103396999936,0.0,91.88382493688846,2112.0727285524936,0.0,0,13,0.0,16431,345316930236054,28,45.77399826049805,380.66674303003356,0.14999,17,5138.1465244384935,0.00022499999613501132,1575420030,,,,0,33.847930248117905,1,6.0,45.77399826049805,0.0,0.0,0.0,66.7128,C,25783045000000,
Raw,1732146898999,13603000000,,91.88382493688846,-1416182103396999936,0.0,91.88382493688846,2112.0727285524936,0.0,0,21,0.0,16431,345316919834553,51,36.29999923706055,474.8006465805776,0.14999,16,0.0,0.0,1575420030,,,,0,23.837964603325428,6,6.0,36.29999923706055,0.0,0.0,7.060801656101506,66.7128,C,25783045000000,
Raw,1732146898999,13603000000,,91.88382493688846,-1416182103396999936,0.0,91.88382493688846,2112.0727285524936,0.0,0,7,0.0,16431,345316908736777,396,19.200000762939453,1226.1115655947128,0.14999,16,0.0,0.0,1575420030,,,,0,2.877296544288114,6,6.0,19.200000762939453,0.0,0.0,7.060801656101506,66.7128,C,25783045000000,
Raw,1732146898999,13603000000,,91.88382493688846,-1416182103396999936,0.0,91.88382493688846,2112.0727285524936,0.0,0,19,0.0,16431,345316920231593,74,31.0,479.94243179467895,0.14999,16,0.0,0.0,1575420030,,,,0,18.08131489718051,6,6.0,31.0,0.0,0.0,7.060801656101506,66.7128,C,25783045000000,
Raw,1732146898999,13603000000,,91.88382493688846,-1416182103396999936,0.0,91.88382493688846,2112.0727285524936,0.0,0,29,0.0,16431,345316920324029,74,30.899999618530273,953.7485430594376,0.14999,16,0.0,0.0,1575420030,,,,0,18.012854328872002,6,6.0,30.899999618530273,0.0,0.0,7.060801656101506,66.7128,C,25783045000000,
Raw,1732146898999,13603000000,,91.88382493688846,-1416182103396999936,0.0,91.88382493688846,2112.0727285524936,0.0,0,9,0.0,17,322417,74,5.0,780.5701724087681,0.14999,16,0.0,0.0,1600875010,,,,0,16.459670242730503,3,6.0,30.0,0.0,0.0,18.85335140059765,66.7128,C,25783045000000,
Raw,1732146898999,13603000000,,91.88382493688846,-1416182103396999936,0.0,91.88382493688846,2112.0727285524936,0.0,0,8,0.0,17,376643,235,5.0,516.1400886098878,0.14999,16,0.0,0.0,1605374980,,,,0,14.103333576632242,3,6.0,28.0,0.0,0.0,18.85335140059765,66.7128,C,25783045000000,
Raw,1732146898999,13603000000,,91.88382493688846,-1416182103396999936,0.0,91.88382493688846,2112.0727285524936,0.0,0,20,0.0,17,16653,396,5.0,-146.27218451122016,0.14999,16,0.0,0.0,1603124990,,,,0,7.498774732165998,3,6.0,23.0,0.0,0.0,18.85335140059765,66.7128,C,25783045000000,
Raw,1732146898999,13603000000,,91.88382493688846,-1416182103396999936,0.0,91.88382493688846,2112.0727285524936,0.0,0,15,0.0,16431,345316922804334,74,32.097999572753906,191.40152019132137,0.14999,16,0.0,0.0,1575420030,,,,0,19.04830569863399,1,6.0,32.097999572753906,0.0,0.0,0.0,66.7128,C,25783045000000,
Raw,1732146898999,13603000000,,91.88382493688846,-1416182103396999936,0.0,91.88382493688846,2112.0727285524936,0.0,0,7,0.0,16431,345316925982222,396,27.222999572753906,1012.1527189133592,0.14999,16,0.0,0.0,1575420030,,,,0,13.050553381968943,1,6.0,27.222999572753906,0.0,0.0,0.0,66.7128,C,25783045000000,
Raw,1732146898999,13603000000,,91.88382493688846,-1416182103396999936,0.0,91.88382493688846,2112.0727285524936,0.0,0,22,0.0,16431,345316930668830,235,27.94099998474121,501.9810500677206,0.14999,16,0.0,0.0,1575420030,,,,0,13.973305722891494,1,6.0,27.94099998474121,0.0,0.0,0.0,66.7128,C,25783045000000,
Raw,1732146898999,13603000000,,91.88382493688846,-1416182103396999936,0.0,91.88382493688846,2112.0727285524936,0.0,0,19,0.0,16431,345316921495077,396,21.606000900268555,-56.279957689527144,0.14999,16,0.0,0.0,1575420030,,,,0,4.961481579279231,1,6.0,21.606000900268555,0.0,0.0,0.0,66.7128,C,25783045000000,
Raw,1732146898999,13603000000,,91.88382493688846,-1416182103396999936,0.0,91.88382493688846,2112.0727285524936,0.0,0,2,0.0,16431,345316920304337,487,21.650999069213867,452.9369442445686,0.14999,16,0.0,0.0,1575420030,,,,0,5.038348360914435,1,6.0,21.650999069213867,0.0,0.0,0.0,66.7128,C,25783045000000,
Raw,1732146898999,13603000000,,91.88382493688846,-1416182103396999936,0.0,91.88382493688846,2112.0727285524936,0.0,0,14,0.0,16431,345316932660624,51,36.388999938964844,647.487369428224,0.14999,17,8717.363131020376,0.00022499999613501132,1575420030,,,,0,23.89925641760017,1,6.0,36.388999938964844,0.0,0.0,0.0,66.7128,C,25783045000000,
Status,1732146899000,29,0,1,14,1575420030,41.70,334.0,73.0,1,0,0,36.7
Status,1732146899000,29,1,1,30,1575420030,44.50,84.0,68.0,1,0,0,39.5
Status,1732146899000,29,2,1,22,1575420030,45.00,277.0,62.0,1,0,0,40.0
Status,1732146899000,29,3,1,13,1575420030,47.50,298.0,50.0,1,0,0,42.5
Status,1732146899000,29,4,1,17,1575420030,42.20,174.0,49.0,1,0,0,37.2
Status,1732146899000,29,5,1,7,1575420030,39.90,107.0,35.0,1,0,0,34.9
Status,1732146899000,29,6,2,131,1575420030,36.00,3.0,23.0,0,0,0,31.0
Status,1732146899000,29,7,1,19,1575420030,38.00,193.0,21.0,1,0,0,33.0
Status,1732146899000,29,8,1,15,1575420030,41.10,313.0,20.0,1,0,0,36.1
Status,1732146899000,29,9,1,2,1575420030,23.60,84.0,18.0,1,0,0,18.6
Status,1732146899000,29,10,1,21,1575420030,18.00,65.0,14.0,1,0,0,13.0
Status,1732146899000,29,11,1,8,1575420030,0.00,39.0,6.0,0,0,0,0.0
Status,1732146899000,29,12,1,5,1575420030,0.00,259.0,5.0,0,0,0,0.0
Status,1732146899000,29,13,3,9,1602000000,31.40,24.0,52.0,1,0,0,26.4
Status,1732146899000,29,14,3,8,1602000000,26.40,298.0,40.0,1,0,0,21.4
Status,1732146899000,29,15,3,20,1602000000,26.80,147.0,14.0,1,0,0,21.8
Status,1732146899000,29,16,3,16,1602000000,0.00,71.0,12.0,0,0,0,0.0
Status,1732146899000,29,17,3,11,1602000000,0.00,275.0,3.0,0,0,0,0.0
Status,1732146899000,29,18,3,17,1602000000,41.70,0.0,0.0,0,0,0,36.7
Status,1732146899000,29,19,6,21,1575420030,35.20,274.0,59.0,1,0,0,30.2
Status,1732146899000,29,20,6,29,1575420030,36.90,202.0,58.0,1,0,0,31.900002
Status,1732146899000,29,21,6,27,1575420030,0.00,39.0,56.0,0,0,0,0.0
Status,1732146899000,29,22,6,19,1575420030,38.70,293.0,52.0,1,0,0,33.7
Status,1732146899000,29,23,6,7,1575420030,27.20,161.0,14.0,1,0,0,22.2
Status,1732146899000,29,24,6,15,1575420030,0.00,92.0,13.0,0,0,0,0.0
Status,1732146899000,29,25,6,30,1575420030,0.00,60.0,8.0,0,0,0,0.0
Status,1732146899000,29,26,6,34,1575420030,0.00,45.0,6.0,0,0,0,0.0
Status,1732146899000,29,27,6,4,1575420030,0.00,325.0,3.0,0,0,0,0.0
Status,1732146899000,29,28,6,13,1575420030,0.00,140.0,3.0,0,0,0,0.0
Fix,GPS,37.4243716667,-122.1712250000,10.3,0.10294444,2.0,115.61,1732146900000,1.7,179.9,25784045000000,39.1,0,,,
Fix,FLP,37.4243707000,-122.1712225000,-1.2108913616675077,0.07656834,2.016,,1732146900197,1.7,,25784045000000,1.0066016,0,,,
Raw,1732146899999,14603000000,,106.05143639612834,-1416182103396999936,0.0,106.05143639612834,2109.348473730765,0.0,0,30,0.0,16431,345317931607871,42,39.500999450683594,753.0156176801486,0.14999,17,10919.816969237312,0.00022499999613501132,1575420030,,,,0,27.26999332872465,1,6.0,39.500999450683594,0.0,0.0,0.0,66.7128,C,25784045000000,
Raw,1732146899999,14603000000,,106.05143639612834,-1416182103396999936,0.0,106.05143639612834,2109.348473730765,0.0,0,17,0.0,16431,345317929775151,51,37.231998443603516,185.63672761583672,0.14999,16,0.0,0.0,1575420030,,,,0,24.81745949559714,1,6.0,37.231998443603516,0.0,0.0,0.0,66.7128,C,25784045000000,
Raw,1732146899999,14603000000,,106.05143639612834,-1416182103396999936,0.0,106.05143639612834,2109.348473730765,0.0,0,21,0.0,16431,345317920192009,797,13.0,665.3662404890227,0.14999,16,0.0,0.0,1575420030,,,,0,0.0,1,6.0,13.0,0.0,0.0,0.0,66.7128,C,25784045000000,
Raw,1732146899999,14603000000,,106.05143639612834,-1416182103396999936,0.0,106.05143639612834,2109.348473730765,0.0,0,13,0.0,16431,345317930234784,31,42.5,380.31221885593095,0.14999,17,5518.605859676657,0.00022499999613501132,1575420030,,,,0,30.44258491998999,1,6.0,42.5,0.0,0.0,0.0,66.7128,C,25784045000000,
Raw,1732146899999,14603000000,,106.05143639612834,-1416182103396999936,0.0,106.05143639612834,2109.348473730765,0.0,0,22,0.0,16431,345317930667208,42,40.01100158691406,501.0241925274484,0.14999,16,0.0,0.0,1575420030,,,,0,27.814831650653865,1,6.0,40.01100158691406,0.0,0.0,0.0,66.7128,C,25784045000000,
Raw,1732146899999,14603000000,,106.05143639612834,-1416182103396999936,0.0,106.05143639612834,2109.348473730765,0.0,0,15,0.0,16431,345317922803646,51,36.0989990234375,190.9097113973166,0.14999,16,0.0,0.0,1575420030,,,,0,23.57933071176141,1,6.0,36.0989990234375,0.0,0.0,0.0,66.7128,C,25784045000000,
Raw,1732146899999,14603000000,,106.05143639612834,-1416182103396999936,0.0,106.05143639612834,2109.348473730765,0.0,0,19,0.0,16431,345317921495228,58,32.96799850463867,-56.78166212618475,0.14999,16,0.0,0.0,1575420030,,,,0,20.05524210662506,1,6.0,32.96799850463867,0.0,0.0,0.0,66.7128,C,25784045000000,
Raw,1732146899999,14603000000,,106.05143639612834,-1416182103396999936,0.0,106.05143639612834,2109.348473730765,0.0,0,21,0.0,16431,345317919832984,74,30.200000762939453,473.9435817183256,0.14999,16,0.0,0.0,1575420030,,,,0,17.22186523757022,6,6.0,30.200000762939453,0.0,0.0,6.658822705975115,66.7128,C,25784045000000,
Raw,1732146899999,14603000000,,106.05143639612834,-1416182103396999936,0.0,106.05143639612834,2109.348473730765,0.0,0,7,0.0,16431,345317908732688,316,22.200000762939453,1225.1847201913126,0.14999,16,0.0,0.0,1575420030,,,,0,7.372960203396229,6,6.0,22.200000762939453,0.0,0.0,6.658822705975115,66.7128,C,25784045000000,
Raw,1732146899999,14603000000,,106.05143639612834,-1416182103396999936,0.0,106.05143639612834,2109.348473730765,0.0,0,7,0.0,16431,345317925978824,58,34.87300109863281,1011.9761769317591,0.14999,16,0.0,0.0,1575420030,,,,0,22.220002838113846,1,6.0,34.87300109863281,0.0,0.0,0.0,66.7128,C,25784045000000,
Raw,1732146899999,14603000000,,106.05143639612834,-1416182103396999936,0.0,106.05143639612834,2109.348473730765,0.0,0,19,0.0,16431,345317920229991,58,33.70000076293945,479.08513464034587,0.14999,16,0.0,0.0,1575420030,,,,0,21.103157838921863,6,6.0,33.70000076293945,0.0,0.0,6.658822705975115,66.7128,C,25784045000000,
Raw,1732146899999,14603000000,,106.05143639612834,-1416182103396999936,0.0,106.05143639612834,2109.348473730765,0.0,0,29,0.0,16431,345317920320850,58,31.899999618530273,952.851616876077,0.14999,16,0.0,0.0,1575420030,,,,0,19.109099575077337,6,6.0,31.899999618530273,0.0,0.0,6.658822705975115,66.7128,C,25784045000000,
Raw,1732146899999,14603000000,,106.05143639612834,-1416182103396999936,0.0,106.05143639612834,2109.348473730765,0.0,0,9,0.0,17,319820,487,5.0,780.1528430252059,0.14999,16,0.0,0.0,1600875010,,,,0,12.746938703492269,3,6.0,18.0,0.0,0.0,18.750891103406573,66.7128,C,25784045000000,
Raw,1732146899999,14603000000,,106.05143639612834,-1416182103396999936,0.0,106.05143639612834,2109.348473730765,0.0,0,8,0.0,17,374925,396,5.0,516.2746748351199,0.14999,16,0.0,0.0,1605374980,,,,0,6.303911996616996,3,6.0,22.0,0.0,0.0,18.750891103406573,66.7128,C,25784045000000,
Raw,1732146899999,14603000000,,106.05143639612834,-1416182103396999936,0.0,106.05143639612834,2109.348473730765,0.0,0,20,0.0,17,17142,797,5.0,-151.11870141340887,0.14999,16,0.0,0.0,1603124990,,,,0,7.581893927589154,3,6.0,17.0,0.0,0.0,18.750891103406573,66.7128,C,25784045000000,
Raw,1732146899999,14603000000,,106.05143639612834,-1416182103396999936,0.0,106.05143639612834,2109.348473730765,0.0,0,2,0.0,16431,345317920302788,797,18.63599967956543,454.72745160532276,0.14999,16,0.0,0.0,1575420030,,,,0,0.0,1,6.0,18.63599967956543,0.0,0.0,0.0,66.7128,C,25784045000000,
Raw,1732146899999,14603000000,,106.05143639612834,-1416182103396999936,0.0,106.05143639612834,2109.348473730765,0.0,0,14,0.0,16431,345317932658467,51,36.72600173950195,646.9168136187425,0.14999,17,9364.501638393975,0.00022499999613501132,1575420030,,,,0,24.266561147753965,1,6.0,36.72600173950195,0.0,0.0,0.0,66.7128,C,25784045000000,
Status,1732146900000,29,0,1,14,1575420030,40.80,334.0,73.0,1,0,0,35.8
Status,1732146900000,29,1,1,30,1575420030,47.40,84.0,68.0,1,0,0,42.4
Status,1732146900000,29,2,1,22,1575420030,46.30,277.0,62.0,1,0,0,41.3
Status,1732146900000,29,3,1,13,1575420030,44.90,298.0,50.0,1,0,0,39.9
Status,1732146900000,29,4,1,17,1575420030,43.00,174.0,49.0,1,0,0,38.0
Status,1732146900000,29,5,1,7,1575420030,41.10,107.0,35.0,1,0,0,36.1
Status,1732146900000,29,6,2,131,1575420030,38.00,3.0,23.0,0,0,0,33.0
Status,1732146900000,29,7,1,19,1575420030,42.40,193.0,21.0,1,0,0,37.4
Status,1732146900000,29,8,1,15,1575420030,35.00,313.0,20.0,1,0,0,30.0
Status,1732146900000,29,9,1,2,1575420030,26.20,84.0,18.0,1,0,0,21.2
Status,1732146900000,29,10,1,21,1575420030,18.00,65.0,14.0,1,0,0,13.0
Status,1732146900000,29,11,1,8,1575420030,0.00,39.0,6.0,0,0,0,0.0
Status,1732146900000,29,12,1,5,1575420030,0.00,259.0,5.0,0,0,0,0.0
Status,1732146900000,29,13,3,9,1602000000,25.50,24.0,52.0,1,0,0,20.5
Status,1732146900000,29,14,3,8,1602000000,33.80,298.0,40.0,1,0,0,28.8
Status,1732146900000,29,15,3,20,1602000000,26.80,147.0,14.0,1,0,0,21.8
Status,1732146900000,29,16,3,16,1602000000,0.00,71.0,12.0,0,0,0,0.0
Status,1732146900000,29,17,3,11,1602000000,0.00,275.0,3.0,0,0,0,0.0
Status,1732146900000,29,18,3,17,1602000000,35.10,0.0,0.0,0,0,0,30.099998
Status,1732146900000,29,19,6,21,1575420030,36.90,274.0,59.0,1,0,0,31.900002
Status,1732146900000,29,20,6,29,1575420030,32.20,202.0,58.0,1,0,0,27.2
Status,1732146900000,29,21,6,27,1575420030,0.00,39.0,56.0,0,0,0,0.0
Status,1732146900000,29,22,6,19,1575420030,33.00,293.0,52.0,1,0,0,28.0
Status,1732146900000,29,23,6,7,1575420030,25.20,161.0,14.0,1,0,0,20.2
Status,1732146900000,29,24,6,15,1575420030,0.00,92.0,13.0,0,0,0,0.0
Status,1732146900000,29,25,6,30,1575420030,0.00,60.0,8.0,0,0,0,0.0
Status,1732146900000,29,26,6,34,1575420030,0.00,45.0,6.0,0,0,0,0.0
Status,1732146900000,29,27,6,4,1575420030,0.00,325.0,3.0,0,0,0,0.0
Status,1732146900000,29,28,6,13,1575420030,0.00,140.0,3.0,0,0,0,0.0
Fix,GPS,37.4243750000,-122.1712283333,10.500000000000004,0.9661336,2.0,76.45,1732146901000,1.9,94.7,25785045000000,41.6,0,,,
Fix,FLP,37.4243730000,-122.1712254000,-1.2108913616675077,0.054976463,2.016,,1732146901197,1.9,,25785045000000,1.0182725,0,,,
Raw,1732146900999,15603000000,,117.74461110898005,-1416182103396999936,0.0,117.74461110898005,2108.251709828845,0.0,0,30,0.0,16431,345318931605358,31,42.40599822998047,752.5084311503781,0.14999,17,11672.818960083256,0.00022499999613501132,1575420030,,,,0,30.343434568060275,1,6.0,42.40599822998047,0.0,0.0,0.0,66.7128,C,25785045000000,
Raw,1732146900999,15603000000,,117.74461110898005,-1416182103396999936,0.0,117.74461110898005,2108.251709828845,0.0,0,17,0.0,16431,345318929774528,51,37.98699951171875,185.06682222418206,0.14999,16,0.0,0.0,1575420030,,,,0,25.64067339566835,1,6.0,37.98699951171875,0.0,0.0,0.0,66.7128,C,25785045000000,
Raw,1732146900999,15603000000,,117.74461110898005,-1416182103396999936,0.0,117.74461110898005,2108.251709828845,0.0,0,21,0.0,16431,345318920189790,1797,13.0,664.6179347791197,0.14999,16,0.0,0.0,1575420030,,,,0,0.0,1,6.0,13.0,0.0,0.0,0.0,66.7128,C,25785045000000,
Raw,1732146900999,15603000000,,117.74461110898005,-1416182103396999936,0.0,117.74461110898005,2108.251709828845,0.0,0,13,0.0,16431,345318930233517,42,39.88100051879883,380.85666503550226,0.14999,16,0.0,0.0,1575420030,,,,0,27.67473361928069,1,6.0,39.88100051879883,0.0,0.0,0.0,66.7128,C,25785045000000,
Raw,1732146900999,15603000000,,117.74461110898005,-1416182103396999936,0.0,117.74461110898005,2108.251709828845,0.0,0,22,0.0,16431,345318930665503,31,41.277000427246094,501.1004307884499,0.14999,17,9629.700552472106,0.00022499999613501132,1575420030,,,,0,29.15654648332761,1,6.0,41.277000427246094,0.0,0.0,0.0,66.7128,C,25785045000000,
Raw,1732146900999,15603000000,,117.74461110898005,-1416182103396999936,0.0,117.74461110898005,2108.251709828845,0.0,0,21,0.0,16431,345318919831404,58,31.899999618530273,473.43449039349053,0.14999,16,0.0,0.0,1575420030,,,,0,19.139337689647817,6,6.0,31.899999618530273,0.0,0.0,6.353321859132893,66.7128,C,25785045000000,
Raw,1732146900999,15603000000,,117.74461110898005,-1416182103396999936,0.0,117.74461110898005,2108.251709828845,0.0,0,7,0.0,16431,345318908728602,396,20.200000762939453,1224.7521923363925,0.14999,16,0.0,0.0,1575420030,,,,0,4.485423285826736,6,6.0,20.200000762939453,0.0,0.0,6.353321859132893,66.7128,C,25785045000000,
Raw,1732146900999,15603000000,,117.74461110898005,-1416182103396999936,0.0,117.74461110898005,2108.251709828845,0.0,0,19,0.0,16431,345318920228392,235,28.0,479.3397732195958,0.14999,16,0.0,0.0,1575420030,,,,0,14.656965958242992,6,6.0,28.0,0.0,0.0,6.353321859132893,66.7128,C,25785045000000,
Raw,1732146900999,15603000000,,117.74461110898005,-1416182103396999936,0.0,117.74461110898005,2108.251709828845,0.0,0,29,0.0,16431,345318920317670,74,27.200000762939453,952.7718013170272,0.14999,16,0.0,0.0,1575420030,,,,0,13.723534497716814,6,6.0,27.200000762939453,0.0,0.0,6.353321859132893,66.7128,C,25785045000000,
Raw,1732146900999,15603000000,,117.74461110898005,-1416182103396999936,0.0,117.74461110898005,2108.251709828845,0.0,0,9,0.0,17,317220,396,5.0,780.1444306011726,0.14999,16,0.0,0.0,1600875010,,,,0,4.947517123477024,3,6.0,22.0,0.0,0.0,18.66376972385155,66.7128,C,25785045000000,
Raw,1732146900999,15603000000,,117.74461110898005,-1416182103396999936,0.0,117.74461110898005,2108.251709828845,0.0,0,8,0.0,17,373204,235,5.0,514.9381588484397,0.14999,16,0.0,0.0,1605374980,,,,0,15.560943380630135,3,6.0,28.0,0.0,0.0,18.66376972385155,66.7128,C,25785045000000,
Raw,1732146900999,15603000000,,117.74461110898005,-1416182103396999936,0.0,117.74461110898005,2108.251709828845,0.0,0,20,0.0,17,17644,797,5.0,-146.86808046057078,0.14999,16,0.0,0.0,1603124990,,,,0,7.581893927589154,3,6.0,16.0,0.0,0.0,18.66376972385155,66.7128,C,25785045000000,
Raw,1732146900999,15603000000,,117.74461110898005,-1416182103396999936,0.0,117.74461110898005,2108.251709828845,0.0,0,15,0.0,16431,345318922803105,235,30.020999908447266,191.3518096859761,0.14999,16,0.0,0.0,1575420030,,,,0,16.577447655515947,1,6.0,30.020999908447266,0.0,0.0,0.0,66.7128,C,25785045000000,
Raw,1732146900999,15603000000,,117.74461110898005,-1416182103396999936,0.0,117.74461110898005,2108.251709828845,0.0,0,7,0.0,16431,345318925975457,58,36.07600021362305,1011.4191405213948,0.14999,16,0.0,0.0,1575420030,,,,0,23.5521306175979,1,6.0,36.07600021362305,0.0,0.0,0.0,66.7128,C,25785045000000,
Raw,1732146900999,15603000000,,117.74461110898005,-1416182103396999936,0.0,117.74461110898005,2108.251709828845,0.0,0,19,0.0,16431,345318921495367,51,37.435001373291016,-57.13618630028737,0.14999,16,0.0,0.0,1575420030,,,,0,25.042173901446688,1,6.0,37.435001373291016,0.0,0.0,0.0,66.7128,C,25785045000000,
Raw,1732146900999,15603000000,,117.74461110898005,-1416182103396999936,0.0,117.74461110898005,2108.251709828845,0.0,0,2,0.0,16431,345318920301273,487,21.243999481201172,451.7067718417298,0.14999,16,0.0,0.0,1575420030,,,,0,4.320756939273061,1,6.0,21.243999481201172,0.0,0.0,0.0,66.7128,C,25785045000000,
Raw,1732146900999,15603000000,,117.74461110898005,-1416182103396999936,0.0,117.74461110898005,2108.251709828845,0.0,0,14,0.0,16431,345318932656307,51,35.75199890136719,647.165180311804,0.14999,16,0.0,0.0,1575420030,,,,0,23.190552588814143,1,6.0,35.75199890136719,0.0,0.0,0.0,66.7128,C,25785045000000,
Status,1732146901000,29,0,1,14,1575420030,45.00,334.0,73.0,1,0,0,40.0
Status,1732146901000,29,1,1,30,1575420030,38.50,84.0,68.0,1,0,0,33.5
Status,1732146901000,29,2,1,22,1575420030,44.10,277.0,62.0,1,0,0,39.1
Status,1732146901000,29,3,1,13,1575420030,41.00,298.0,50.0,1,0,0,36.0
Status,1732146901000,29,4,1,17,1575420030,34.80,174.0,49.0,1,0,0,29.8
Status,1732146901000,29,5,1,7,1575420030,42.10,107.0,35.0,1,0,0,37.1
Status,1732146901000,29,6,2,131,1575420030,37.00,3.0,23.0,0,0,0,32.0
Status,1732146901000,29,7,1,19,1575420030,40.10,193.0,21.0,1,0,0,35.1
Status,1732146901000,29,8,1,15,1575420030,38.10,313.0,20.0,1,0,0,33.1
Status,1732146901000,29,9,1,2,1575420030,26.30,84.0,18.0,1,0,0,21.3
Status,1732146901000,29,10,1,21,1575420030,18.90,65.0,14.0,1,0,0,13.9
Status,1732146901000,29,11,1,8,1575420030,0.00,39.0,6.0,0,0,0,0.0
Status,1732146901000,29,12,1,5,1575420030,0.00,259.0,5.0,0,0,0,0.0
Status,1732146901000,29,13,3,9,1602000000,34.70,24.0,52.0,1,0,0,29.7
Status,1732146901000,29,14,3,8,1602000000,35.60,298.0,40.0,1,0,0,30.599998
Status,1732146901000,29,15,3,20,1602000000,22.70,147.0,14.0,1,0,0,17.7
Status,1732146901000,29,16,3,16,1602000000,0.00,71.0,12.0,0,0,0,0.0
Status,1732146901000,29,17,3,11,1602000000,0.00,275.0,3.0,0,0,0,0.0
Status,1732146901000,29,18,3,17,1602000000,34.90,0.0,0.0,0,0,0,29.900002
Status,1732146901000,29,19,6,21,1575420030,42.60,274.0,59.0,1,0,0,37.6
Status,1732146901000,29,20,6,29,1575420030,35.40,202.0,58.0,1,0,0,30.400002
Status,1732146901000,29,21,6,27,1575420030,0.00,39.0,56.0,0,0,0,0.0
Status,1732146901000,29,22,6,19,1575420030,28.20,293.0,52.0,1,0,0,23.2
Status,1732146901000,29,23,6,7,1575420030,23.60,161.0,14.0,1,0,0,18.6
Status,1732146901000,29,24,6,15,1575420030,0.00,92.0,13.0,0,0,0,0.0
Status,1732146901000,29,25,6,30,1575420030,0.00,60.0,8.0,0,0,0,0.0
Status,1732146901000,29,26,6,34,1575420030,0.00,45.0,6.0,0,0,0,0.0
Status,1732146901000,29,27,6,4,1575420030,0.00,325.0,3.0,0,0,0,0.0
Status,1732146901000,29,28,6,13,1575420030,0.00,140.0,3.0,0,0,0,0.0
Fix,GPS,37.4243783333,-122.1712266667,10.8,0.3381725,2.0,87.91,1732146902000,1.7,179.9,25786045000000,34.3,0,,,
Fix,FLP,37.4243757000,-122.1712261000,-1.2108913616675077,0.046446472,2.0,,1732146902197,1.7,,25786045000000,1.0230805,0,,,
Raw,1732146901999,16603000000,,93.92351140638348,-1416182103396999936,0.0,93.92351140638348,2108.059853504984,0.0,0,30,0.0,16431,345319931602851,58,33.48500061035156,753.0158035138134,0.14999,17,12425.288325512902,0.00039999998989515007,1575420030,,,,0,20.645900179731782,1,6.0,33.48500061035156,0.0,0.0,0.0,66.7128,C,25786045000000,
Raw,1732146901999,16603000000,,93.92351140638348,-1416182103396999936,0.0,93.92351140638348,2108.059853504984,0.0,0,17,0.0,16431,345319929773908,235,29.773000717163086,185.2539102662619,0.14999,16,0.0,0.0,1575420030,,,,0,16.267941408102914,1,6.0,29.773000717163086,0.0,0.0,0.0,66.7128,C,25786045000000,
Raw,1732146901999,16603000000,,93.92351140638348,-1416182103396999936,0.0,93.92351140638348,2108.059853504984,0.0,0,21,0.0,16431,345319920187574,797,13.899999618530273,664.0028253484921,0.14999,16,0.0,0.0,1575420030,,,,0,0.0,1,6.0,13.899999618530273,0.0,0.0,0.0,66.7128,C,25786045000000,
Raw,1732146901999,16603000000,,93.92351140638348,-1416182103396999936,0.0,93.92351140638348,2108.059853504984,0.0,0,13,0.0,16431,345319930232248,51,35.98400115966797,380.3746357381098,0.14999,17,6279.331478011723,0.00022499999613501132,1575420030,,,,0,23.451661793952777,1,6.0,35.98400115966797,0.0,0.0,0.0,66.7128,C,25786045000000,
Raw,1732146901999,16603000000,,93.92351140638348,-1416182103396999936,0.0,93.92351140638348,2108.059853504984,0.0,0,22,0.0,16431,345319930663827,42,39.071998596191406,501.08426325960863,0.14999,16,0.0,0.0,1575420030,,,,0,26.808095343732845,1,6.0,39.071998596191406,0.0,0.0,0.0,66.7128,C,25786045000000,
Raw,1732146901999,16603000000,,93.92351140638348,-1416182103396999936,0.0,93.92351140638348,2108.059853504984,0.0,0,21,0.0,16431,345319919829822,42,37.599998474121094,473.66636434879734,0.14999,16,0.0,0.0,1575420030,,,,0,25.20885112413142,6,6.0,37.599998474121094,0.0,0.0,6.175385859864707,66.7128,C,25786045000000,
Raw,1732146901999,16603000000,,93.92351140638348,-1416182103396999936,0.0,93.92351140638348,2108.059853504984,0.0,0,7,0.0,16431,345319908724518,235,18.600000381469727,1224.6820401279147,0.14999,16,0.0,0.0,1575420030,,,,0,1.9457737034610112,6,6.0,18.600000381469727,0.0,0.0,6.175385859864707,66.7128,C,25786045000000,
Raw,1732146901999,16603000000,,93.92351140638348,-1416182103396999936,0.0,93.92351140638348,2108.059853504984,0.0,0,15,0.0,16431,345319922802394,58,33.11899948120117,191.54916503803847,0.14999,16,0.0,0.0,1575420030,,,,0,20.230041450537975,1,6.0,33.11899948120117,0.0,0.0,0.0,66.7128,C,25786045000000,
Raw,1732146901999,16603000000,,93.92351140638348,-1416182103396999936,0.0,93.92351140638348,2108.059853504984,0.0,0,19,0.0,16431,345319920226790,235,23.200000762939453,479.3041396143624,0.14999,16,0.0,0.0,1575420030,,,,0,8.823973546368464,6,6.0,23.200000762939453,0.0,0.0,6.175385859864707,66.7128,C,25786045000000,
Raw,1732146901999,16603000000,,93.92351140638348,-1416182103396999936,0.0,93.92351140638348,2108.059853504984,0.0,0,29,0.0,16431,345319920314489,74,30.399999618530273,953.1055585790838,0.14999,16,0.0,0.0,1575420030,,,,0,17.44483079711745,6,6.0,30.399999618530273,0.0,0.0,6.175385859864707,66.7128,C,25786045000000,
Raw,1732146901999,16603000000,,93.92351140638348,-1416182103396999936,0.0,93.92351140638348,2108.059853504984,0.0,0,9,0.0,17,314622,74,5.0,779.7952235644013,0.14999,16,0.0,0.0,1600875010,,,,0,16.653312745038413,3,6.0,30.0,0.0,0.0,19.650093080173868,66.7128,C,25786045000000,
Raw,1732146901999,16603000000,,93.92351140638348,-1416182103396999936,0.0,93.92351140638348,2108.059853504984,0.0,0,8,0.0,17,371471,74,5.0,515.6010142443239,0.14999,16,0.0,0.0,1605374980,,,,0,17.675057317189953,3,6.0,31.0,0.0,0.0,19.650093080173868,66.7128,C,25786045000000,
Raw,1732146901999,16603000000,,93.92351140638348,-1416182103396999936,0.0,93.92351140638348,2108.059853504984,0.0,0,20,0.0,17,18129,487,5.0,-148.66718219058237,0.14999,16,0.0,0.0,1603124990,,,,0,0.4132645798218739,3,6.0,20.0,0.0,0.0,19.650093080173868,66.7128,C,25786045000000,
Raw,1732146901999,16603000000,,93.92351140638348,-1416182103396999936,0.0,93.92351140638348,2108.059853504984,0.0,0,7,0.0,16431,345319925972089,51,37.10499954223633,1011.6921301750479,0.14999,16,0.0,0.0,1575420030,,,,0,24.682975821977095,1,6.0,37.10499954223633,0.0,0.0,0.0,66.7128,C,25786045000000,
Raw,1732146901999,16603000000,,93.92351140638348,-1416182103396999936,0.0,93.92351140638348,2108.059853504984,0.0,0,19,0.0,16431,345319921495585,58,35.14799880981445,-56.97372121879911,0.14999,16,9632.693107471987,0.00039999998989515007,1575420030,,,,0,22.521698794432893,1,6.0,35.14799880981445,0.0,0.0,0.0,66.7128,C,25786045000000,
Raw,1732146901999,16603000000,,93.92351140638348,-1416182103396999936,0.0,93.92351140638348,2108.059853504984,0.0,0,2,0.0,16431,345319920299786,396,21.336999893188477,452.77768479379887,0.14999,16,0.0,0.0,1575420030,,,,0,7.314271536615241,1,6.0,21.336999893188477,0.0,0.0,0.0,66.7128,C,25786045000000,
Raw,1732146901999,16603000000,,93.92351140638348,-1416182103396999936,0.0,93.92351140638348,2108.059853504984,0.0,0,14,0.0,16431,345319932654150,42,39.97800064086914,647.0503815653477,0.14999,16,0.0,0.0,1575420030,,,,0,27.77583143922605,1,6.0,39.97800064086914,0.0,0.0,0.0,66.7128,C,25786045000000,
Status,1732146902000,29,0,1,14,1575420030,42.90,334.0,73.0,1,0,0,37.9
Status,1732146902000,29,1,1,30,1575420030,46.10,84.0,68.0,1,0,0,41.1
Status,1732146902000,29,2,1,22,1575420030,41.70,277.0,62.0,1,0,0,36.7
Status,1732146902000,29,3,1,13,1575420030,34.00,298.0,50.0,1,0,0,29.0
Status,1732146902000,29,4,1,17,1575420030,47.50,174.0,49.0,1,0,0,42.5
Status,1732146902000,29,5,1,7,1575420030,40.00,107.0,35.0,1,0,0,35.0
Status,1732146902000,29,6,2,131,1575420030,41.00,3.0,23.0,0,0,0,36.0
Status,1732146902000,29,7,1,19,1575420030,42.80,193.0,21.0,1,0,0,37.8
Status,1732146902000,29,8,1,15,1575420030,36.30,313.0,20.0,1,0,0,31.3
Status,1732146902000,29,9,1,2,1575420030,30.00,84.0,18.0,1,0,0,25.0
Status,1732146902000,29,10,1,21,1575420030,25.30,65.0,14.0,1,0,0,20.3
Status,1732146902000,29,11,1,8,1575420030,0.00,39.0,6.0,0,0,0,0.0
Status,1732146902000,29,12,1,5,1575420030,0.00,259.0,5.0,0,0,0,0.0
Status,1732146902000,29,13,3,9,1602000000,34.90,24.0,52.0,1,0,0,29.900002
Status,1732146902000,29,14,3,8,1602000000,35.20,298.0,40.0,1,0,0,30.2
Status,1732146902000,29,15,3,20,1602000000,22.80,147.0,14.0,1,0,0,17.8
Status,1732146902000,29,16,3,16,1602000000,0.00,71.0,12.0,0,0,0,0.0
Status,1732146902000,29,17,3,11,1602000000,0.00,275.0,3.0,0,0,0,0.0
Status,1732146902000,29,18,3,17,1602000000,46.80,0.0,0.0,0,0,0,41.8
Status,1732146902000,29,19,6,21,1575420030,30.40,274.0,59.0,1,0,0,25.4
Status,1732146902000,29,20,6,29,1575420030,33.60,202.0,58.0,1,0,0,28.599998
Status,1732146902000,29,21,6,27,1575420030,0.00,39.0,56.0,0,0,0,0.0
Status,1732146902000,29,22,6,19,1575420030,25.40,293.0,52.0,1,0,0,20.4
Status,1732146902000,29,23,6,7,1575420030,32.10,161.0,14.0,1,0,0,27.099998
Status,1732146902000,29,24,6,15,1575420030,0.00,92.0,13.0,0,0,0,0.0
Status,1732146902000,29,25,6,30,1575420030,0.00,60.0,8.0,0,0,0,0.0
Status,1732146902000,29,26,6,34,1575420030,0.00,45.0,6.0,0,0,0,0.0
Status,1732146902000,29,27,6,4,1575420030,0.00,325.0,3.0,0,0,0,0.0
Status,1732146902000,29,28,6,13,1575420030,0.00,140.0,3.0,0,0,0,0.0
Fix,GPS,37.4243850000,-122.1712250000,10.900000000000002,0.20485945,1.9,92.96,1732146903000,1.8,179.9,25787045000000,33.4,0,,,
Raw,1732146902999,17603000000,,90.87772730050817,-1416182103396999936,0.0,90.87772730050817,2109.6633671199065,0.0,0,30,0.0,16431,345320931600341,42,41.10900115966797,753.459713680705,0.14999,17,13178.423695568135,0.00022499999613501132,1575420030,,,,0,28.97849154110078,1,6.0,41.10900115966797,0.0,0.0,0.0,66.7128,C,25787045000000,
Raw,1732146902999,17603000000,,90.87772730050817,-1416182103396999936,0.0,90.87772730050817,2109.6633671199065,0.0,0,17,0.0,16431,345320929773292,31,42.474998474121094,186.13991872181307,0.14999,16,0.0,0.0,1575420030,,,,0,30.417903237349254,1,6.0,42.474998474121094,0.0,0.0,0.0,66.7128,C,25787045000000,
Raw,1732146902999,17603000000,,90.87772730050817,-1416182103396999936,0.0,90.87772730050817,2109.6633671199065,0.0,0,21,0.0,16431,345320920185352,487,20.292999267578125,665.1924395539792,0.14999,16,0.0,0.0,1575420030,,,,0,2.77859219077787,1,6.0,20.292999267578125,0.0,0.0,0.0,66.7128,C,25787045000000,
Raw,1732146902999,17603000000,,90.87772730050817,-1416182103396999936,0.0,90.87772730050817,2109.6633671199065,0.0,0,13,0.0,16431,345320930230980,235,29.045000076293945,381.31030824059,0.14999,16,0.0,0.0,1575420030,,,,0,15.384243253359957,1,6.0,29.045000076293945,0.0,0.0,0.0,66.7128,C,25787045000000,
Raw,1732146902999,17603000000,,90.87772730050817,-1416182103396999936,0.0,90.87772730050817,2109.6633671199065,0.0,0,21,0.0,16431,345320919828237,235,25.399999618530273,474.18892861433346,0.14999,16,0.0,0.0,1575420030,,,,0,11.596773832082224,6,6.0,25.399999618530273,0.0,0.0,6.053239983118291,66.7128,C,25787045000000,
Raw,1732146902999,17603000000,,90.87772730050817,-1416182103396999936,0.0,90.87772730050817,2109.6633671199065,0.0,0,7,0.0,16431,345320908720431,235,27.100000381469727,1225.142628866226,0.14999,16,0.0,0.0,1575420030,,,,0,13.610177069709488,6,6.0,27.100000381469727,0.0,0.0,6.053239983118291,66.7128,C,25787045000000,
Raw,1732146902999,17603000000,,90.87772730050817,-1416182103396999936,0.0,90.87772730050817,2109.6633671199065,0.0,0,15,0.0,16431,345320922801747,235,31.277000427246094,191.86131913655706,0.14999,17,10312.362471523238,0.0008999999845400453,1575420030,,,,0,18.08131489718051,1,6.0,31.277000427246094,0.0,0.0,0.0,66.7128,C,25787045000000,
Raw,1732146902999,17603000000,,90.87772730050817,-1416182103396999936,0.0,90.87772730050817,2109.6633671199065,0.0,0,19,0.0,16431,345320920225187,396,20.399999618530273,479.48281868310806,0.14999,16,0.0,0.0,1575420030,,,,0,4.883928478015195,6,6.0,20.399999618530273,0.0,0.0,6.053239983118291,66.7128,C,25787045000000,
Raw,1732146902999,17603000000,,90.87772730050817,-1416182103396999936,0.0,90.87772730050817,2109.6633671199065,0.0,0,29,0.0,16431,345320920311311,74,28.600000381469727,953.3277227254025,0.14999,16,0.0,0.0,1575420030,,,,0,15.337607492263487,6,6.0,28.600000381469727,0.0,0.0,6.053239983118291,66.7128,C,25787045000000,
Raw,1732146902999,17603000000,,90.87772730050817,-1416182103396999936,0.0,90.87772730050817,2109.6633671199065,0.0,0,9,0.0,17,312014,74,5.0,780.3972605191283,0.14999,16,0.0,0.0,1600875010,,,,0,16.842732175206283,3,6.0,30.0,0.0,0.0,20.723002619164397,66.7128,C,25787045000000,
Raw,1732146902999,17603000000,,90.87772730050817,-1416182103396999936,0.0,90.87772730050817,2109.6633671199065,0.0,0,8,0.0,17,369749,74,5.0,517.0030908651111,0.14999,16,0.0,0.0,1605374980,,,,0,17.207804386887595,3,6.0,30.0,0.0,0.0,20.723002619164397,66.7128,C,25787045000000,
Raw,1732146902999,17603000000,,90.87772730050817,-1416182103396999936,0.0,90.87772730050817,2109.6633671199065,0.0,0,20,0.0,17,18601,797,5.0,-145.25324444091618,0.14999,16,0.0,0.0,1603124990,,,,0,3.281707425868135,3,6.0,15.0,0.0,0.0,20.723002619164397,66.7128,C,25787045000000,
Raw,1732146902999,17603000000,,90.87772730050817,-1416182103396999936,0.0,90.87772730050817,2109.6633671199065,0.0,0,22,0.0,16431,345320930662151,51,36.66299819946289,501.5568847277184,0.14999,16,0.0,0.0,1575420030,,,,0,24.199391052636237,1,6.0,36.66299819946289,0.0,0.0,0.0,66.7128,C,25787045000000,
Raw,1732146902999,17603000000,,90.87772730050817,-1416182103396999936,0.0,90.87772730050817,2109.6633671199065,0.0,0,7,0.0,16431,345320925968714,58,35.02799987792969,1011.913922654037,0.14999,16,0.0,0.0,1575420030,,,,0,22.38775003629987,1,6.0,35.02799987792969,0.0,0.0,0.0,66.7128,C,25787045000000,
Raw,1732146902999,17603000000,,90.87772730050817,-1416182103396999936,0.0,90.87772730050817,2109.6633671199065,0.0,0,19,0.0,16431,345320921495781,51,37.84000015258789,-56.43503588283792,0.14999,16,0.0,0.0,1575420030,,,,0,25.48215421204954,1,6.0,37.84000015258789,0.0,0.0,0.0,66.7128,C,25787045000000,
Raw,1732146902999,17603000000,,90.87772730050817,-1416182103396999936,0.0,90.87772730050817,2109.6633671199065,0.0,0,2,0.0,16431,345320920298269,487,25.04599952697754,454.46031571211216,0.14999,16,0.0,0.0,1575420030,,,,0,10.109719401556383,1,6.0,25.04599952697754,0.0,0.0,0.0,66.7128,C,25787045000000,
Raw,1732146902999,17603000000,,90.87772730050817,-1416182103396999936,0.0,90.87772730050817,2109.6633671199065,0.0,0,14,0.0,16431,345320932651990,51,37.902000427246094,647.5323411751159,0.14999,17,11305.2811651224,0.00022499999613501132,1575420030,,,,0,25.54735302255258,1,6.0,37.902000427246094,0.0,0.0,0.0,66.7128,C,25787045000000,
Fix,FLP,37.4243803000,-122.1712256000,-1.127447997723766,0.03926241,1.983,,1732146903197,1.8,,25787045000000,1.0374813,0,,,
Status,1732146903000,29,0,1,14,1575420030,42.50,334.0,73.0,1,0,0,37.5
Status,1732146903000,29,1,1,30,1575420030,43.30,84.0,68.0,1,0,0,38.3
Status,1732146903000,29,2,1,22,1575420030,40.10,278.0,62.0,1,0,0,35.1
Status,1732146903000,29,3,1,13,1575420030,38.90,298.0,50.0,1,0,0,33.9
Status,1732146903000,29,4,1,17,1575420030,37.10,174.0,49.0,1,0,0,32.1
Status,1732146903000,29,5,1,7,1575420030,36.60,107.0,35.0,1,0,0,31.599998
Status,1732146903000,29,6,2,131,1575420030,39.00,3.0,23.0,0,0,0,34.0
Status,1732146903000,29,7,1,19,1575420030,40.40,193.0,21.0,1,0,0,35.4
Status,1732146903000,29,8,1,15,1575420030,43.80,313.0,20.0,1,0,0,38.8
Status,1732146903000,29,9,1,2,1575420030,30.00,84.0,18.0,1,0,0,25.0
Status,1732146903000,29,10,1,21,1575420030,21.50,65.0,14.0,1,0,0,16.5
Status,1732146903000,29,11,1,8,1575420030,0.00,39.0,6.0,0,0,0,0.0
Status,1732146903000,29,12,1,5,1575420030,0.00,259.0,5.0,0,0,0,0.0
Status,1732146903000,29,13,3,9,1602000000,37.80,24.0,52.0,1,0,0,32.8
Status,1732146903000,29,14,3,8,1602000000,35.60,298.0,40.0,1,0,0,30.599998
Status,1732146903000,29,15,3,20,1602000000,22.90,147.0,14.0,1,0,0,17.9
Status,1732146903000,29,16,3,16,1602000000,0.00,71.0,12.0,0,0,0,0.0
Status,1732146903000,29,17,3,11,1602000000,0.00,275.0,3.0,0,0,0,0.0
Status,1732146903000,29,18,3,17,1602000000,42.00,0.0,0.0,0,0,0,37.0
Status,1732146903000,29,19,6,21,1575420030,37.80,274.0,59.0,1,0,0,32.8
Status,1732146903000,29,20,6,29,1575420030,34.30,202.0,58.0,1,0,0,29.3
Status,1732146903000,29,21,6,27,1575420030,0.00,39.0,56.0,0,0,0,0.0
Status,1732146903000,29,22,6,19,1575420030,31.70,293.0,52.0,1,0,0,26.7
Status,1732146903000,29,23,6,7,1575420030,28.60,161.0,14.0,1,0,0,23.6
Status,1732146903000,29,24,6,15,1575420030,0.00,92.0,13.0,0,0,0,0.0
Status,1732146903000,29,25,6,30,1575420030,0.00,60.0,8.0,0,0,0,0.0
Status,1732146903000,29,26,6,34,1575420030,0.00,45.0,6.0,0,0,0,0.0
Status,1732146903000,29,27,6,4,1575420030,0.00,325.0,3.0,0,0,0,0.0
Status,1732146903000,29,28,6,13,1575420030,0.00,140.0,3.0,0,0,0,0.0
Fix,GPS,37.4243850000,-122.1712216667,11.000000000000004,0.47560334,1.9,62.62,1732146904000,1.8,152.4,25788045000000,37.0,0,,,
Fix,FLP,37.4243828000,-122.1712236000,-1.0440038100953943,0.04832977,1.966,,1732146904197,1.8,,25788045000000,1.0476483,0,,,
Raw,1732146903999,18603000000,,97.54234158721184,-1416182103396999936,0.0,97.54234158721184,2110.977982178341,0.0,0,30,0.0,16431,345321931597826,51,38.250999450683594,753.7387893868818,0.14999,17,13932.16169225829,0.00022499999613501132,1575420030,,,,0,25.928591004890905,1,6.0,38.250999450683594,0.0,0.0,0.0,66.7128,C,25788045000000,
Raw,1732146903999,18603000000,,97.54234158721184,-1416182103396999936,0.0,97.54234158721184,2110.977982178341,0.0,0,17,0.0,16431,345321929772675,74,32.08599853515625,187.3154560271883,0.14999,17,3457.5992341520987,0.0006249999860301614,1575420030,,,,0,19.03304051080668,1,6.0,32.08599853515625,0.0,0.0,0.0,66.7128,C,25788045000000,
Raw,1732146903999,18603000000,,97.54234158721184,-1416182103396999936,0.0,97.54234158721184,2110.977982178341,0.0,0,21,0.0,16431,345321920183131,487,16.527000427246094,666.0396552319945,0.14999,16,0.0,0.0,1575420030,,,,0,0.0,1,6.0,16.527000427246094,0.0,0.0,0.0,66.7128,C,25788045000000,
Raw,1732146903999,18603000000,,97.54234158721184,-1416182103396999936,0.0,97.54234158721184,2110.977982178341,0.0,0,13,0.0,16431,345321930229705,58,33.86600112915039,382.5373911587509,0.14999,16,0.0,0.0,1575420030,,,,0,21.079047095784084,1,6.0,33.86600112915039,0.0,0.0,0.0,66.7128,C,25788045000000,
Raw,1732146903999,18603000000,,97.54234158721184,-1416182103396999936,0.0,97.54234158721184,2110.977982178341,0.0,0,7,0.0,16431,345321925965374,74,31.576000213623047,1012.185797305701,0.14999,16,0.0,0.0,1575420030,,,,0,18.432138895078793,1,6.0,31.576000213623047,0.0,0.0,0.0,66.7128,C,25788045000000,
Raw,1732146903999,18603000000,,97.54234158721184,-1416182103396999936,0.0,97.54234158721184,2110.977982178341,0.0,0,22,0.0,16431,345321930660490,58,35.08000183105469,501.87145466387994,0.14999,16,0.0,0.0,1575420030,,,,0,22.449829321199132,1,6.0,35.08000183105469,0.0,0.0,0.0,66.7128,C,25788045000000,
Raw,1732146903999,18603000000,,97.54234158721184,-1416182103396999936,0.0,97.54234158721184,2110.977982178341,0.0,0,21,0.0,16431,345321919826651,58,32.79999923706055,475.3732465603725,0.14999,16,0.0,0.0,1575420030,,,,0,20.06881381194571,6,6.0,32.79999923706055,0.0,0.0,6.331426151663538,66.7128,C,25788045000000,
Raw,1732146903999,18603000000,,97.54234158721184,-1416182103396999936,0.0,97.54234158721184,2110.977982178341,0.0,0,7,0.0,16431,345321908716344,396,23.600000381469727,1225.8467526223128,0.14999,16,0.0,0.0,1575420030,,,,0,9.25835854023319,6,6.0,23.600000381469727,0.0,0.0,6.331426151663538,66.7128,C,25788045000000,
Raw,1732146903999,18603000000,,97.54234158721184,-1416182103396999936,0.0,97.54234158721184,2110.977982178341,0.0,0,15,0.0,16431,345321922801097,42,38.8380012512207,192.14462255860892,0.14999,16,0.0,0.0,1575420030,,,,0,26.561176605903746,1,6.0,38.8380012512207,0.0,0.0,0.0,66.7128,C,25788045000000,
Raw,1732146903999,18603000000,,97.54234158721184,-1416182103396999936,0.0,97.54234158721184,2110.977982178341,0.0,0,19,0.0,16431,345321920223587,235,26.700000762939453,480.5907125344808,0.14999,16,0.0,0.0,1575420030,,,,0,13.11118811084459,6,6.0,26.700000762939453,0.0,0.0,6.331426151663538,66.7128,C,25788045000000,
Raw,1732146903999,18603000000,,97.54234158721184,-1416182103396999936,0.0,97.54234158721184,2110.977982178341,0.0,0,29,0.0,16431,345321920308127,74,29.299999237060547,954.2275293305682,0.14999,16,0.0,0.0,1575420030,,,,0,16.18350925226035,6,6.0,29.299999237060547,0.0,0.0,6.331426151663538,66.7128,C,25788045000000,
Raw,1732146903999,18603000000,,97.54234158721184,-1416182103396999936,0.0,97.54234158721184,2110.977982178341,0.0,0,9,0.0,17,309421,58,5.0,780.7718877067826,0.14999,16,0.0,0.0,1600875010,,,,0,20.06963070774404,3,6.0,33.0,0.0,0.0,21.929921961409214,66.7128,C,25788045000000,
Raw,1732146903999,18603000000,,97.54234158721184,-1416182103396999936,0.0,97.54234158721184,2110.977982178341,0.0,0,8,0.0,17,368026,74,5.0,517.5348249927812,0.14999,16,0.0,0.0,1605374980,,,,0,17.618006933844022,3,6.0,31.0,0.0,0.0,21.929921961409214,66.7128,C,25788045000000,
Raw,1732146903999,18603000000,,97.54234158721184,-1416182103396999936,0.0,97.54234158721184,2110.977982178341,0.0,0,20,0.0,17,19087,797,5.0,-146.82352066540022,0.14999,16,0.0,0.0,1603124990,,,,0,3.281707425868135,3,6.0,16.0,0.0,0.0,21.929921961409214,66.7128,C,25788045000000,
Raw,1732146903999,18603000000,,97.54234158721184,-1416182103396999936,0.0,97.54234158721184,2110.977982178341,0.0,0,19,0.0,16431,345321921495985,58,35.41400146484375,-56.05849041945151,0.14999,16,0.0,0.0,1575420030,,,,0,22.823148006201208,1,6.0,35.41400146484375,0.0,0.0,0.0,66.7128,C,25788045000000,
Raw,1732146903999,18603000000,,97.54234158721184,-1416182103396999936,0.0,97.54234158721184,2110.977982178341,0.0,0,2,0.0,16431,345321920296751,396,25.000999450683594,454.3194537941618,0.14999,16,0.0,0.0,1575420030,,,,0,8.823973546368464,1,6.0,25.000999450683594,0.0,0.0,0.0,66.7128,C,25788045000000,
Raw,1732146903999,18603000000,,97.54234158721184,-1416182103396999936,0.0,97.54234158721184,2110.977982178341,0.0,0,14,0.0,16431,345321932649830,51,37.46699905395508,647.6468611710749,0.14999,17,11953.00338765187,0.00022499999613501132,1575420030,,,,0,25.08033692258495,1,6.0,37.46699905395508,0.0,0.0,0.0,66.7128,C,25788045000000,
Status,1732146904000,29,0,1,14,1575420030,41.10,334.0,73.0,1,0,0,36.1
Status,1732146904000,29,1,1,30,1575420030,43.40,84.0,68.0,1,0,0,38.4
Status,1732146904000,29,2,1,22,1575420030,39.80,278.0,62.0,1,0,0,34.8
Status,1732146904000,29,3,1,13,1575420030,41.00,298.0,50.0,1,0,0,36.0
Status,1732146904000,29,4,1,17,1575420030,37.30,174.0,49.0,1,0,0,32.3
Status,1732146904000,29,5,1,7,1575420030,33.60,107.0,35.0,1,0,0,28.599998
Status,1732146904000,29,6,2,131,1575420030,37.00,3.0,23.0,0,0,0,32.0
Status,1732146904000,29,7,1,19,1575420030,41.20,193.0,21.0,1,0,0,36.2
Status,1732146904000,29,8,1,15,1575420030,33.90,313.0,20.0,1,0,0,28.900002
Status,1732146904000,29,9,1,2,1575420030,29.90,84.0,18.0,1,0,0,24.9
Status,1732146904000,29,10,1,21,1575420030,21.90,65.0,14.0,1,0,0,16.9
Status,1732146904000,29,11,1,8,1575420030,0.00,39.0,6.0,0,0,0,0.0
Status,1732146904000,29,12,1,5,1575420030,0.00,259.0,5.0,0,0,0,0.0
Status,1732146904000,29,13,3,9,1602000000,38.50,24.0,52.0,1,0,0,33.5
Status,1732146904000,29,14,3,8,1602000000,32.80,298.0,40.0,1,0,0,27.8
Status,1732146904000,29,15,3,20,1602000000,20.10,147.0,14.0,1,0,0,15.1
Status,1732146904000,29,16,3,16,1602000000,0.00,71.0,12.0,0,0,0,0.0
Status,1732146904000,29,17,3,11,1602000000,0.00,275.0,3.0,0,0,0,0.0
Status,1732146904000,29,18,3,17,1602000000,41.80,0.0,0.0,0,0,0,36.8
Status,1732146904000,29,19,6,21,1575420030,33.20,274.0,59.0,1,0,0,28.2
Status,1732146904000,29,20,6,29,1575420030,31.80,202.0,58.0,1,0,0,26.8
Status,1732146904000,29,21,6,27,1575420030,0.00,39.0,56.0,0,0,0,0.0
Status,1732146904000,29,22,6,19,1575420030,31.40,293.0,52.0,1,0,0,26.4
Status,1732146904000,29,23,6,7,1575420030,28.40,161.0,14.0,1,0,0,23.4
Status,1732146904000,29,24,6,15,1575420030,0.00,92.0,13.0,0,0,0,0.0
Status,1732146904000,29,25,6,30,1575420030,0.00,60.0,8.0,0,0,0,0.0
Status,1732146904000,29,26,6,34,1575420030,0.00,45.0,6.0,0,0,0,0.0
Status,1732146904000,29,27,6,4,1575420030,0.00,325.0,3.0,0,0,0,0.0
Status,1732146904000,29,28,6,13,1575420030,0.00,140.0,3.0,0,0,0,0.0
Fix,GPS,37.4243816667,-122.1712133333,11.099999999999998,0.8817192,2.0,100.27,1732146905000,1.8,86.3,25789045000000,36.8,0,,,
Fix,FLP,37.4243824000,-122.1712181000,-0.9605587987660789,0.0635354,1.966,,1732146905197,1.8,,25789045000000,1.0522193,0,,,
Raw,1732146904999,19603000000,,101.39273786096865,-1416182103396999936,0.0,101.39273786096865,2112.756039607322,0.0,0,30,0.0,16431,345322931595312,42,38.36800003051758,754.1703416150615,0.14999,17,14686.31414447946,0.00022499999613501132,1575420030,,,,0,28.44720146644153,1,6.0,38.36800003051758,0.0,0.0,0.0,66.7128,C,25789045000000,
Raw,1732146904999,19603000000,,101.39273786096865,-1416182103396999936,0.0,101.39273786096865,2112.756039607322,0.0,0,17,0.0,16431,345322929772053,74,32.26599884033203,186.7943784309709,0.14999,16,0.0,0.0,1575420030,,,,0,19.24434972429274,1,6.0,32.26599884033203,0.0,0.0,0.0,66.7128,C,25789045000000,
Raw,1732146904999,19603000000,,101.39273786096865,-1416182103396999936,0.0,101.39273786096865,2112.756039607322,0.0,0,21,0.0,16431,345322920180900,487,16.926000595092773,663.9523715084874,0.14999,16,0.0,0.0,1575420030,,,,0,0.0,1,6.0,16.926000595092773,0.0,0.0,0.0,66.7128,C,25789045000000,
Raw,1732146904999,19603000000,,101.39273786096865,-1416182103396999936,0.0,101.39273786096865,2112.756039607322,0.0,0,13,0.0,16431,345322930228431,51,35.98400115966797,382.2959467697047,0.14999,16,0.0,0.0,1575420030,,,,0,23.451661793952777,1,6.0,35.98400115966797,0.0,0.0,0.0,66.7128,C,25789045000000,
Raw,1732146904999,19603000000,,101.39273786096865,-1416182103396999936,0.0,101.39273786096865,2112.756039607322,0.0,0,21,0.0,16431,345322919825066,235,28.200000762939453,475.22230316610444,0.14999,16,0.0,0.0,1575420030,,,,0,14.979621814089294,6,6.0,28.200000762939453,0.0,0.0,6.4587283759810985,66.7128,C,25789045000000,
Raw,1732146904999,19603000000,,101.39273786096865,-1416182103396999936,0.0,101.39273786096865,2112.756039607322,0.0,0,7,0.0,16431,345322908712256,316,23.399999618530273,1225.7361815917318,0.14999,16,0.0,0.0,1575420030,,,,0,9.019720188618365,6,6.0,23.399999618530273,0.0,0.0,6.4587283759810985,66.7128,C,25789045000000,
Raw,1732146904999,19603000000,,101.39273786096865,-1416182103396999936,0.0,101.39273786096865,2112.756039607322,0.0,0,19,0.0,16431,345322920221983,235,26.399999618530273,480.7092279542339,0.14999,16,0.0,0.0,1575420030,,,,0,12.83493512052656,6,6.0,26.399999618530273,0.0,0.0,6.4587283759810985,66.7128,C,25789045000000,
Raw,1732146904999,19603000000,,101.39273786096865,-1416182103396999936,0.0,101.39273786096865,2112.756039607322,0.0,0,29,0.0,16431,345322920304942,235,26.799999237060547,954.4989393980702,0.14999,16,0.0,0.0,1575420030,,,,0,13.320137112794015,6,6.0,26.799999237060547,0.0,0.0,6.4587283759810985,66.7128,C,25789045000000,
Raw,1732146904999,19603000000,,101.39273786096865,-1416182103396999936,0.0,101.39273786096865,2112.756039607322,0.0,0,9,0.0,17,306811,58,5.0,781.357648449793,0.14999,16,0.0,0.0,1600875010,,,,0,20.87984466959131,3,6.0,34.0,0.0,0.0,22.49967204185723,66.7128,C,25789045000000,
Raw,1732146904999,19603000000,,101.39273786096865,-1416182103396999936,0.0,101.39273786096865,2112.756039607322,0.0,0,8,0.0,17,366296,235,5.0,517.6990457188266,0.14999,16,0.0,0.0,1605374980,,,,0,14.481040459839717,3,6.0,28.0,0.0,0.0,22.49967204185723,66.7128,C,25789045000000,
Raw,1732146904999,19603000000,,101.39273786096865,-1416182103396999936,0.0,101.39273786096865,2112.756039607322,0.0,0,20,0.0,17,19601,797,5.0,-148.60901704811587,0.14999,16,0.0,0.0,1603124990,,,,0,0.0,3,6.0,17.0,0.0,0.0,22.49967204185723,66.7128,C,25789045000000,
Raw,1732146904999,19603000000,,101.39273786096865,-1416182103396999936,0.0,101.39273786096865,2112.756039607322,0.0,0,19,0.0,16431,345322921496177,51,36.249000549316406,-55.804177049115026,0.14999,16,11181.68487584982,0.00022499999613501132,1575420030,,,,0,23.740766451689694,1,6.0,36.249000549316406,0.0,0.0,0.0,66.7128,C,25789045000000,
Raw,1732146904999,19603000000,,101.39273786096865,-1416182103396999936,0.0,101.39273786096865,2112.756039607322,0.0,0,7,0.0,16431,345322925961965,235,28.60300064086914,1012.9359148938364,0.14999,16,0.0,0.0,1575420030,,,,0,14.832191576385155,1,6.0,28.60300064086914,0.0,0.0,0.0,66.7128,C,25789045000000,
Raw,1732146904999,19603000000,,101.39273786096865,-1416182103396999936,0.0,101.39273786096865,2112.756039607322,0.0,0,15,0.0,16431,345322922800410,235,28.923999786376953,192.63345801397622,0.14999,16,0.0,0.0,1575420030,,,,0,15.21991070987454,1,6.0,28.923999786376953,0.0,0.0,0.0,66.7128,C,25789045000000,
Raw,1732146904999,19603000000,,101.39273786096865,-1416182103396999936,0.0,101.39273786096865,2112.756039607322,0.0,0,22,0.0,16431,345322930658805,58,34.803001403808594,501.758700087737,0.14999,16,0.0,0.0,1575420030,,,,0,22.134898523349843,1,6.0,34.803001403808594,0.0,0.0,0.0,66.7128,C,25789045000000,
Raw,1732146904999,19603000000,,101.39273786096865,-1416182103396999936,0.0,101.39273786096865,2112.756039607322,0.0,0,2,0.0,16431,345322920295230,396,24.93199920654297,453.87298841437854,0.14999,16,0.0,0.0,1575420030,,,,0,8.101881663674039,1,6.0,24.93199920654297,0.0,0.0,0.0,66.7128,C,25789045000000,
Raw,1732146904999,19603000000,,101.39273786096865,-1416182103396999936,0.0,101.39273786096865,2112.756039607322,0.0,0,14,0.0,16431,345322932647663,51,36.08300018310547,648.5637180149898,0.14999,16,0.0,0.0,1575420030,,,,0,23.56120678314481,1,6.0,36.08300018310547,0.0,0.0,0.0,66.7128,C,25789045000000,
Fix,NLP,37.4242612000,-122.1712241000,2.4000000953674316,,25.43,,1732146905209,,,25789057000000,1.0,0,,,
Status,1732146905000,29,0,1,14,1575420030,41.20,334.0,73.0,1,0,0,36.2
Status,1732146905000,29,1,1,30,1575420030,43.40,84.0,68.0,1,0,0,38.4
Status,1732146905000,29,2,1,22,1575420030,41.40,278.0,62.0,1,0,0,36.4
Status,1732146905000,29,3,1,13,1575420030,38.60,298.0,50.0,1,0,0,33.6
Status,1732146905000,29,4,1,17,1575420030,36.40,174.0,49.0,1,0,0,31.400002
Status,1732146905000,29,5,1,7,1575420030,34.10,107.0,35.0,1,0,0,29.099998
Status,1732146905000,29,6,2,131,1575420030,34.00,3.0,23.0,0,0,0,29.0
Status,1732146905000,29,7,1,19,1575420030,34.10,193.0,21.0,1,0,0,29.099998
Status,1732146905000,29,8,1,15,1575420030,35.60,313.0,20.0,1,0,0,30.599998
Status,1732146905000,29,9,1,2,1575420030,30.70,84.0,18.0,1,0,0,25.7
Status,1732146905000,29,10,1,21,1575420030,25.10,65.0,14.0,1,0,0,20.1
Status,1732146905000,29,11,1,8,1575420030,0.00,39.0,6.0,0,0,0,0.0
Status,1732146905000,29,12,1,5,1575420030,0.00,259.0,5.0,0,0,0,0.0
Status,1732146905000,29,13,3,9,1602000000,42.40,24.0,52.0,1,0,0,37.4
Status,1732146905000,29,14,3,8,1602000000,34.10,298.0,40.0,1,0,0,29.099998
Status,1732146905000,29,15,3,20,1602000000,20.10,147.0,14.0,1,0,0,15.1
Status,1732146905000,29,16,3,16,1602000000,0.00,71.0,12.0,0,0,0,0.0
Status,1732146905000,29,17,3,11,1602000000,0.00,275.0,3.0,0,0,0,0.0
Status,1732146905000,29,18,3,17,1602000000,41.50,0.0,0.0,0,0,0,36.5
Status,1732146905000,29,19,6,21,1575420030,39.50,274.0,59.0,1,0,0,34.5
Status,1732146905000,29,20,6,29,1575420030,39.10,202.0,58.0,1,0,0,34.1
Status,1732146905000,29,21,6,27,1575420030,0.00,39.0,56.0,0,0,0,0.0
Status,1732146905000,29,22,6,19,1575420030,33.80,293.0,52.0,1,0,0,28.8
Status,1732146905000,29,23,6,7,1575420030,27.70,161.0,14.0,1,0,0,22.7
Status,1732146905000,29,24,6,15,1575420030,0.00,92.0,13.0,0,0,0,0.0
Status,1732146905000,29,25,6,30,1575420030,0.00,60.0,8.0,0,0,0,0.0
Status,1732146905000,29,26,6,34,1575420030,0.00,45.0,6.0,0,0,0,0.0
Status,1732146905000,29,27,6,4,1575420030,0.00,325.0,3.0,0,0,0,0.0
Status,1732146905000,29,28,6,13,1575420030,0.00,140.0,3.0,0,0,0,0.0
Fix,GPS,37.4243800000,-122.1712083333,11.2,0.53325224,1.9,86.46,1732146906000,1.7,147.5,25790045000000,34.4,0,,,
Fix,FLP,37.4243814000,-122.1712123000,-0.7936663049393511,0.09045922,1.959,,1732146906197,1.7,,25790045000000,0.83581525,0,,,
Raw,1732146905999,20603000000,,94.52157377051955,-1416182103396999936,0.0,94.52157377051955,2112.5404343666937,0.0,0,30,0.0,16431,345323931592794,51,38.35499954223633,754.2716209624004,0.14999,17,15440.412597502738,0.00022499999613501132,1575420030,,,,0,25.775286125093572,1,6.0,38.35499954223633,0.0,0.0,0.0,66.7128,C,25790045000000,
Raw,1732146905999,20603000000,,94.52157377051955,-1416182103396999936,0.0,94.52157377051955,2112.5404343666937,0.0,0,17,0.0,16431,345323929771431,74,31.382999420166016,188.06157819152955,0.14999,16,0.0,0.0,1575420030,,,,0,18.19983764744439,1,6.0,31.382999420166016,0.0,0.0,0.0,66.7128,C,25790045000000,
Raw,1732146905999,20603000000,,94.52157377051955,-1416182103396999936,0.0,94.52157377051955,2112.5404343666937,0.0,0,21,0.0,16431,345323920178683,396,20.12700080871582,665.4246851766156,0.14999,16,0.0,0.0,1575420030,,,,0,2.4755653093254533,1,6.0,20.12700080871582,0.0,0.0,0.0,66.7128,C,25790045000000,
Raw,1732146905999,20603000000,,94.52157377051955,-1416182103396999936,0.0,94.52157377051955,2112.5404343666937,0.0,0,13,0.0,16431,345323930227159,58,33.555999755859375,382.25745597187426,0.14999,16,0.0,0.0,1575420030,,,,0,20.73427481923819,1,6.0,33.555999755859375,0.0,0.0,0.0,66.7128,C,25790045000000,
Raw,1732146905999,20603000000,,94.52157377051955,-1416182103396999936,0.0,94.52157377051955,2112.5404343666937,0.0,0,19,0.0,16431,345323921496395,235,29.097000122070312,-54.4114001895393,0.14999,16,0.0,0.0,1575420030,,,,0,15.430629957135348,1,6.0,29.097000122070312,0.0,0.0,0.0,66.7128,C,25790045000000,
Raw,1732146905999,20603000000,,94.52157377051955,-1416182103396999936,0.0,94.52157377051955,2112.5404343666937,0.0,0,21,0.0,16431,345323919823484,51,34.5,475.10411295526484,0.14999,16,0.0,0.0,1575420030,,,,0,21.951234809983614,6,6.0,34.5,0.0,0.0,6.721357155815727,66.7128,C,25790045000000,
Raw,1732146905999,20603000000,,94.52157377051955,-1416182103396999936,0.0,94.52157377051955,2112.5404343666937,0.0,0,7,0.0,16431,345323908708164,396,22.700000762939453,1226.1935182409084,0.14999,16,0.0,0.0,1575420030,,,,0,8.155498436629468,6,6.0,22.700000762939453,0.0,0.0,6.721357155815727,66.7128,C,25790045000000,
Raw,1732146905999,20603000000,,94.52157377051955,-1416182103396999936,0.0,94.52157377051955,2112.5404343666937,0.0,0,19,0.0,16431,345323920220377,74,28.799999237060547,480.59187399488604,0.14999,16,0.0,0.0,1575420030,,,,0,15.591059920124335,6,6.0,28.799999237060547,0.0,0.0,6.721357155815727,66.7128,C,25790045000000,
Raw,1732146905999,20603000000,,94.52157377051955,-1416182103396999936,0.0,94.52157377051955,2112.5404343666937,0.0,0,29,0.0,16431,345323920301757,58,34.099998474121094,954.608581260327,0.14999,16,0.0,0.0,1575420030,,,,0,21.526083873818457,6,6.0,34.099998474121094,0.0,0.0,6.721357155815727,66.7128,C,25790045000000,
Raw,1732146905999,20603000000,,94.52157377051955,-1416182103396999936,0.0,94.52157377051955,2112.5404343666937,0.0,0,9,0.0,17,304211,51,5.0,781.3968759488176,0.14999,16,0.0,0.0,1600875010,,,,0,24.989400987534037,3,6.0,38.0,0.0,0.0,23.564630496612303,66.7128,C,25790045000000,
Raw,1732146905999,20603000000,,94.52157377051955,-1416182103396999936,0.0,94.52157377051955,2112.5404343666937,0.0,0,8,0.0,17,364569,235,5.0,518.0004513878678,0.14999,16,0.0,0.0,1605374980,,,,0,15.916741341782446,3,6.0,29.0,0.0,0.0,23.564630496612303,66.7128,C,25790045000000,
Raw,1732146905999,20603000000,,94.52157377051955,-1416182103396999936,0.0,94.52157377051955,2112.5404343666937,0.0,0,20,0.0,17,20096,797,5.0,-148.28157560245677,0.14999,16,0.0,0.0,1603124990,,,,0,0.0,3,6.0,17.0,0.0,0.0,23.564630496612303,66.7128,C,25790045000000,
