# 
# Header Description:
# 
# Version: v3.1.0.3 Platform: 13 Manufacturer: samsung Model: SM-S135DL GNSS Hardware Model Name: MediaTek,MT6631,MTK_MNLD_default,MNL_VER_default
# 
# Raw,utcTimeMillis,TimeNanos,LeapSecond,TimeUncertaintyNanos,FullBiasNanos,BiasNanos,BiasUncertaintyNanos,DriftNanosPerSecond,DriftUncertaintyNanosPerSecond,HardwareClockDiscontinuityCount,Svid,TimeOffsetNanos,State,ReceivedSvTimeNanos,ReceivedSvTimeUncertaintyNanos,Cn0DbHz,PseudorangeRateMetersPerSecond,PseudorangeRateUncertaintyMetersPerSecond,AccumulatedDeltaRangeState,AccumulatedDeltaRangeMeters,AccumulatedDeltaRangeUncertaintyMeters,CarrierFrequencyHz,CarrierCycles,CarrierPhase,CarrierPhaseUncertainty,MultipathIndicator,SnrInDb,ConstellationType,AgcDb,BasebandCn0DbHz,FullInterSignalBiasNanos,FullInterSignalBiasUncertaintyNanos,SatelliteInterSignalBiasNanos,SatelliteInterSignalBiasUncertaintyNanos,CodeType,ChipsetElapsedRealtimeNanos,IsFullTracking
# 
# UncalAccel,utcTimeMillis,elapsedRealtimeNanos,UncalAccelXMps2,UncalAccelYMps2,UncalAccelZMps2,BiasXMps2,BiasYMps2,BiasZMps2
# 
# Accel,utcTimeMillis,elapsedRealtimeNanos,AccelXMps2,AccelYMps2,AccelZMps2
# 
# UncalGyro,utcTimeMillis,elapsedRealtimeNanos,UncalGyroXRadPerSec,UncalGyroYRadPerSec,UncalGyroZRadPerSec,DriftXRadPerSec,DriftYRadPerSec,DriftZRadPerSec
# 
# Gyro,utcTimeMillis,elapsedRealtimeNanos,GyroXRadPerSec,GyroYRadPerSec,GyroZRadPerSec
# 
# UncalMag,utcTimeMillis,elapsedRealtimeNanos,UncalMagXMicroT,UncalMagYMicroT,UncalMagZMicroT,BiasXMicroT,BiasYMicroT,BiasZMicroT
# 
# Mag,utcTimeMillis,elapsedRealtimeNanos,MagXMicroT,MagYMicroT,MagZMicroT
# 
# Pressure,utcTimeMillis,elapsedRealtimeNanos,PressureHpa
# 
# OrientationDeg,utcTimeMillis,elapsedRealtimeNanos,yawDeg,rollDeg,pitchDeg
# 
# Fix,Provider,LatitudeDegrees,LongitudeDegrees,AltitudeMeters,SpeedMps,AccuracyMeters,BearingDegrees,UnixTimeMillis,SpeedAccuracyMps,BearingAccuracyDegrees,elapsedRealtimeNanos,VerticalAccuracyMeters,MockLocation,NumberOfUsedSignals,VerticalSpeedAccuracyMps,SolutionType
# 
# Nav,Svid,Type,Status,MessageId,Sub-messageId,Data(Bytes)
# 
# Status,UnixTimeMillis,SignalCount,SignalIndex,ConstellationType,Svid,CarrierFrequencyHz,Cn0DbHz,AzimuthDegrees,ElevationDegrees,UsedInFix,HasAlmanacData,HasEphemerisData,BasebandCn0DbHz
# 
# Agc,utcTimeMillis,TimeNanos,LeapSecond,TimeUncertaintyNanos,FullBiasNanos,BiasNanos,BiasUncertaintyNanos,DriftNanosPerSecond,DriftUncertaintyNanosPerSecond,HardwareClockDiscontinuityCount,AgcDb,CarrierFrequencyHz,ConstellationType
# 
Fix,FLP,37.4243882000,-122.1712305000,-1.1073659744690865,0.17861222,2.273,264.69595,1732146697131,1.7,174.8,25580979000000,0.8681816,0,,,
Status,,31,0,1,14,1575420030,43.40,328.0,74.0,1,0,0,38.4
Status,,31,1,1,30,1575420030,44.40,80.0,69.0,1,0,0,39.4
Status,,31,2,1,22,1575420030,46.80,275.0,61.0,1,0,0,41.8
Status,,31,3,1,13,1575420030,50.30,300.0,49.0,1,0,0,45.3
Status,,31,4,1,17,1575420030,41.90,175.0,47.0,1,0,0,36.9
Status,,31,5,1,7,1575420030,36.10,105.0,36.0,1,0,0,31.099998
Status,,31,6,2,131,1575420030,45.00,3.0,23.0,0,0,0,40.0
Status,,31,7,1,19,1575420030,33.20,193.0,20.0,1,0,0,28.2
Status,,31,8,1,15,1575420030,41.50,314.0,19.0,1,0,0,36.5
Status,,31,9,1,2,1575420030,0.00,85.0,17.0,0,0,0,0.0
Status,,31,10,1,21,1575420030,22.30,66.0,14.0,1,0,0,17.3
Status,,31,11,1,8,1575420030,0.00,39.0,7.0,0,0,0,0.0
Status,,31,12,1,5,1575420030,0.00,261.0,5.0,0,0,0,0.0
Status,,31,13,3,9,1602000000,31.90,21.0,53.0,1,0,0,26.9
Status,,31,14,3,8,1602000000,45.30,300.0,39.0,1,0,0,40.3
Status,,31,15,3,19,1602000000,0.00,83.0,33.0,0,0,0,0.0
Status,,31,16,3,18,1602000000,0.00,38.0,20.0,0,0,0,0.0
Status,,31,17,3,16,1602000000,0.00,69.0,13.0,0,0,0,0.0
Status,,31,18,3,20,1602000000,0.00,148.0,12.0,0,0,0,0.0
Status,,31,19,3,11,1602000000,0.00,273.0,3.0,0,0,0,0.0
Status,,31,20,3,17,1602000000,49.30,0.0,0.0,0,0,0,44.3
Status,,31,21,6,29,1575420030,34.20,203.0,59.0,1,0,0,29.2
Status,,31,22,6,21,1575420030,42.60,272.0,58.0,1,0,0,37.6
Status,,31,23,6,27,1575420030,33.00,38.0,57.0,1,0,0,28.0
Status,,31,24,6,19,1575420030,38.40,295.0,51.0,1,0,0,33.4
Status,,31,25,6,7,1575420030,0.00,161.0,15.0,0,0,0,0.0
Status,,31,26,6,15,1575420030,0.00,93.0,12.0,0,0,0,0.0
Status,,31,27,6,30,1575420030,0.00,59.0,9.0,0,0,0,0.0
Status,,31,28,6,34,1575420030,0.00,46.0,6.0,0,0,0,0.0
Status,,31,29,6,4,1575420030,0.00,326.0,2.0,0,0,0,0.0
Status,,31,30,6,13,1575420030,0.00,141.0,2.0,0,0,0,0.0
Fix,GPS,37.4243850000,-122.1712550000,13.500000000000004,0.33714306,2.1,99.09,1732146697932,1.6,179.9,25581979000000,36.5,0,,,
Fix,FLP,37.4243865000,-122.1712430000,-1.1908084996773418,0.17501463,2.254,261.38806,1732146698131,1.6,179.9,25581979000000,0.8769941,0,,,
Raw,1732146697933,5514000000,,4461580.300996098,-1416181910419000320,0.0,99.98716851420586,2154.164814895227,0.0,0,14,0.0,16431,345115864987992,42,38.39500045776367,648.6652761128261,0.14999,16,0.0,0.0,1575420030,,,,0,26.080427818598952,1,6.0,38.39500045776367,0.0,0.0,0.0,66.7128,C,25581979000000,
Raw,1732146697933,5514000000,,4461580.300996098,-1416181910419000320,0.0,99.98716851420586,2154.164814895227,0.0,0,13,0.0,16431,345115862380836,28,45.27399826049805,370.90754874559923,0.14999,16,0.0,0.0,1575420030,,,,0,33.32872225698925,1,6.0,45.27399826049805,0.0,0.0,0.0,66.7128,C,25581979000000,
Raw,1732146697933,5514000000,,4461580.300996098,-1416181910419000320,0.0,99.98716851420586,2154.164814895227,0.0,0,22,0.0,16431,345115862898082,31,41.768001556396484,501.8861355234025,0.14999,16,0.0,0.0,1575420030,,,,0,29.67149923988401,1,6.0,41.768001556396484,0.0,0.0,0.0,66.7128,C,25581979000000,
Raw,1732146697933,5514000000,,4461580.300996098,-1416181910419000320,0.0,99.98716851420586,2154.164814895227,0.0,0,17,0.0,16431,345115861791688,51,36.87099838256836,181.28989236151392,0.14999,16,0.0,0.0,1575420030,,,,0,24.425191361759946,1,6.0,36.87099838256836,0.0,0.0,0.0,66.7128,C,25581979000000,
Raw,1732146697933,5514000000,,4461580.300996098,-1416181910419000320,0.0,99.98716851420586,2154.164814895227,0.0,0,27,0.0,16431,345115852010206,74,28.0,899.6142673225942,0.14999,16,0.0,0.0,1575420030,,,,0,14.693487852202168,6,6.0,28.0,0.0,0.0,15.643910465728988,66.7128,C,25581979000000,
Raw,1732146697933,5514000000,,4461580.300996098,-1416181910419000320,0.0,99.98716851420586,2154.164814895227,0.0,0,21,0.0,16431,345115852047402,42,37.599998474121094,479.9805741543878,0.14999,16,0.0,0.0,1575420030,,,,0,25.247863215581134,6,6.0,37.599998474121094,0.0,0.0,15.643910465728988,66.7128,C,25581979000000,
Raw,1732146697933,5514000000,,4461580.300996098,-1416181910419000320,0.0,99.98716851420586,2154.164814895227,0.0,0,19,0.0,16431,345115852444959,74,33.400001525878906,475.60214717704184,0.14999,16,0.0,0.0,1575420030,,,,0,20.776263332603722,6,6.0,33.400001525878906,0.0,0.0,15.643910465728988,66.7128,C,25581979000000,
Raw,1732146697933,5514000000,,4461580.300996098,-1416181910419000320,0.0,99.98716851420586,2154.164814895227,0.0,0,29,0.0,16431,345115852855814,74,29.200000762939453,952.0665625589512,0.14999,16,0.0,0.0,1575420030,,,,0,16.075106235068148,6,6.0,29.200000762939453,0.0,0.0,15.643910465728988,66.7128,C,25581979000000,
Raw,1732146697933,5514000000,,4461580.300996098,-1416181910419000320,0.0,99.98716851420586,2154.164814895227,0.0,0,8,0.0,17,608901,42,5.0,496.20372894120334,0.14999,17,2888.4260125793894,0.00022499999613501132,1605374980,,,,0,28.00292744377429,3,6.0,40.0,0.0,0.0,15.996813403786618,66.7128,C,25581979000000,
Raw,1732146697933,5514000000,,4461580.300996098,-1416181910419000320,0.0,99.98716851420586,2154.164814895227,0.0,0,9,0.0,17,740620,316,5.0,784.953593966438,0.14999,16,0.0,0.0,1600875010,,,,0,13.377478310153613,3,6.0,26.0,0.0,0.0,15.996813403786618,66.7128,C,25581979000000,
Raw,1732146697933,5514000000,,4461580.300996098,-1416181910419000320,0.0,99.98716851420586,2154.164814895227,0.0,0,7,0.0,16431,345115858554625,74,31.145999908447266,1014.0970965486026,0.14999,16,0.0,0.0,1575420030,,,,0,17.910513702181056,1,6.0,31.145999908447266,0.0,0.0,0.0,66.7128,C,25581979000000,
Raw,1732146697933,5514000000,,4461580.300996098,-1416181910419000320,0.0,99.98716851420586,2154.164814895227,0.0,0,15,0.0,16431,345115854823172,51,36.4640007019043,184.99225646616412,0.14999,16,0.0,0.0,1575420030,,,,0,23.974091880476156,1,6.0,36.4640007019043,0.0,0.0,0.0,66.7128,C,25581979000000,
Raw,1732146697933,5514000000,,4461580.300996098,-1416181910419000320,0.0,99.98716851420586,2154.164814895227,0.0,0,19,0.0,16431,345115853353323,316,28.152000427246094,-45.967304292776696,0.14999,16,0.0,0.0,1575420030,,,,0,14.232181770828298,1,6.0,28.152000427246094,0.0,0.0,0.0,66.7128,C,25581979000000,
Raw,1732146697933,5514000000,,4461580.300996098,-1416181910419000320,0.0,99.98716851420586,2154.164814895227,0.0,0,21,0.0,16431,345115852529935,487,17.253000259399414,653.8159813428398,0.14999,16,0.0,0.0,1575420030,,,,0,0.0,1,6.0,17.253000259399414,0.0,0.0,0.0,66.7128,C,25581979000000,
Raw,1732146697933,5514000000,,4461580.300996098,-1416181910419000320,0.0,99.98716851420586,2154.164814895227,0.0,0,30,0.0,16431,345115864008059,42,39.43899917602539,752.0777151736902,0.14999,16,0.0,0.0,1575420030,,,,0,27.20233888907568,1,6.0,39.43899917602539,0.0,0.0,0.0,66.7128,C,25581979000000,
Status,1732146697932,31,0,1,14,1575420030,43.20,328.0,74.0,1,0,0,38.2
Status,1732146697932,31,1,1,30,1575420030,44.80,80.0,69.0,1,0,0,39.8
Status,1732146697932,31,2,1,22,1575420030,46.60,275.0,61.0,1,0,0,41.6
Status,1732146697932,31,3,1,13,1575420030,48.50,300.0,49.0,1,0,0,43.5
Status,1732146697932,31,4,1,17,1575420030,43.50,175.0,47.0,1,0,0,38.5
Status,1732146697932,31,5,1,7,1575420030,28.10,105.0,36.0,1,0,0,23.1
Status,1732146697932,31,6,2,131,1575420030,41.00,3.0,23.0,0,0,0,36.0
Status,1732146697932,31,7,1,19,1575420030,37.90,193.0,20.0,1,0,0,32.9
Status,1732146697932,31,8,1,15,1575420030,34.30,314.0,19.0,1,0,0,29.3
Status,1732146697932,31,9,1,2,1575420030,0.00,85.0,17.0,0,0,0,0.0
Status,1732146697932,31,10,1,21,1575420030,22.50,66.0,14.0,1,0,0,17.5
Status,1732146697932,31,11,1,8,1575420030,0.00,39.0,7.0,0,0,0,0.0
Status,1732146697932,31,12,1,5,1575420030,0.00,261.0,5.0,0,0,0,0.0
Status,1732146697932,31,13,3,9,1602000000,28.10,21.0,53.0,1,0,0,23.1
Status,1732146697932,31,14,3,8,1602000000,42.10,300.0,39.0,1,0,0,37.1
Status,1732146697932,31,15,3,19,1602000000,0.00,83.0,33.0,0,0,0,0.0
Status,1732146697932,31,16,3,18,1602000000,0.00,38.0,20.0,0,0,0,0.0
Status,1732146697932,31,17,3,16,1602000000,0.00,69.0,13.0,0,0,0,0.0
Status,1732146697932,31,18,3,20,1602000000,0.00,148.0,12.0,0,0,0,0.0
Status,1732146697932,31,19,3,11,1602000000,0.00,273.0,3.0,0,0,0,0.0
Status,1732146697932,31,20,3,17,1602000000,38.00,0.0,0.0,0,0,0,33.0
Status,1732146697932,31,21,6,29,1575420030,34.80,203.0,59.0,1,0,0,29.8
Status,1732146697932,31,22,6,21,1575420030,41.60,272.0,58.0,1,0,0,36.6
Status,1732146697932,31,23,6,27,1575420030,28.10,38.0,57.0,1,0,0,23.1
Status,1732146697932,31,24,6,19,1575420030,36.00,295.0,51.0,1,0,0,31.0
Status,1732146697932,31,25,6,7,1575420030,0.00,161.0,15.0,0,0,0,0.0
Status,1732146697932,31,26,6,15,1575420030,0.00,93.0,12.0,0,0,0,0.0
Status,1732146697932,31,27,6,30,1575420030,0.00,59.0,9.0,0,0,0,0.0
Status,1732146697932,31,28,6,34,1575420030,0.00,46.0,6.0,0,0,0,0.0
Status,1732146697932,31,29,6,4,1575420030,0.00,326.0,2.0,0,0,0,0.0
Status,1732146697932,31,30,6,13,1575420030,0.00,141.0,2.0,0,0,0,0.0
Fix,GPS,37.4243833333,-122.1712616667,13.7,0.16625528,2.1,111.23,1732146698932,1.1,179.9,25582979000000,44.3,0,,,
Raw,1732146698933,6514000000,,4188355.0319334585,-1416181910419000320,0.0,121.78150979909272,2153.254424293522,0.0,0,14,0.0,16431,345116864985824,51,38.18600082397461,647.5651872753767,0.14999,16,0.0,0.0,1575420030,,,,0,25.85551579545555,1,6.0,38.18600082397461,0.0,0.0,0.0,66.7128,C,25582979000000,
Raw,1732146698933,6514000000,,4188355.0319334585,-1416181910419000320,0.0,121.78150979909272,2153.254424293522,0.0,0,13,0.0,16431,345116862379601,31,43.49599838256836,370.2460738155936,0.14999,16,0.0,0.0,1575420030,,,,0,31.480592239884583,1,6.0,43.49599838256836,0.0,0.0,0.0,66.7128,C,25582979000000,
Raw,1732146698933,6514000000,,4188355.0319334585,-1416181910419000320,0.0,121.78150979909272,2153.254424293522,0.0,0,22,0.0,16431,345116862896406,31,41.582000732421875,500.9814043261185,0.14999,16,0.0,0.0,1575420030,,,,0,29.473470380632072,1,6.0,41.582000732421875,0.0,0.0,0.0,66.7128,C,25582979000000,
Raw,1732146698933,6514000000,,4188355.0319334585,-1416181910419000320,0.0,121.78150979909272,2153.254424293522,0.0,0,17,0.0,16431,345116861791088,42,38.5369987487793,180.2378879848425,0.14999,16,0.0,0.0,1575420030,,,,0,26.23381027774579,1,6.0,38.5369987487793,0.0,0.0,0.0,66.7128,C,25582979000000,
Raw,1732146698933,6514000000,,4188355.0319334585,-1416181910419000320,0.0,121.78150979909272,2153.254424293522,0.0,0,27,0.0,16431,345116852007208,316,23.100000381469727,899.2339587274947,0.14999,16,0.0,0.0,1575420030,,,,0,8.622825035846457,6,6.0,23.100000381469727,0.0,0.0,14.417455861187472,66.7128,C,25582979000000,
Raw,1732146698933,6514000000,,4188355.0319334585,-1416181910419000320,0.0,121.78150979909272,2153.254424293522,0.0,0,21,0.0,16431,345116852045802,51,36.599998474121094,479.41731231625124,0.14999,16,0.0,0.0,1575420030,,,,0,24.16070996912928,6,6.0,36.599998474121094,0.0,0.0,14.417455861187472,66.7128,C,25582979000000,
Raw,1732146698933,6514000000,,4188355.0319334585,-1416181910419000320,0.0,121.78150979909272,2153.254424293522,0.0,0,19,0.0,16431,345116852443370,74,31.0,476.0102379050352,0.14999,16,0.0,0.0,1575420030,,,,0,18.047302192787164,6,6.0,31.0,0.0,0.0,14.417455861187472,66.7128,C,25582979000000,
Raw,1732146698933,6514000000,,4188355.0319334585,-1416181910419000320,0.0,121.78150979909272,2153.254424293522,0.0,0,29,0.0,16431,345116852852639,74,29.799999237060547,951.5697362559957,0.14999,16,0.0,0.0,1575420030,,,,0,16.770348360252385,6,6.0,29.799999237060547,0.0,0.0,14.417455861187472,66.7128,C,25582979000000,
Raw,1732146698933,6514000000,,4188355.0319334585,-1416181910419000320,0.0,121.78150979909272,2153.254424293522,0.0,0,8,0.0,17,607236,51,5.0,495.56553856830385,0.14999,16,0.0,0.0,1605374980,,,,0,24.69304616317691,3,6.0,37.0,0.0,0.0,15.56044929227535,66.7128,C,25582979000000,
Raw,1732146698933,6514000000,,4188355.0319334585,-1416181910419000320,0.0,121.78150979909272,2153.254424293522,0.0,0,9,0.0,17,738043,316,5.0,785.2013032784604,0.14999,16,0.0,0.0,1600875010,,,,0,8.663638774340697,3,6.0,25.0,0.0,0.0,15.56044929227535,66.7128,C,25582979000000,
Raw,1732146698933,6514000000,,4188355.0319334585,-1416181910419000320,0.0,121.78150979909272,2153.254424293522,0.0,0,19,0.0,16431,345116853353449,58,32.92300033569336,-47.261449934737456,0.14999,16,0.0,0.0,1575420030,,,,0,19.9990635636469,1,6.0,32.92300033569336,0.0,0.0,0.0,66.7128,C,25582979000000,
Raw,1732146698933,6514000000,,4188355.0319334585,-1416181910419000320,0.0,121.78150979909272,2153.254424293522,0.0,0,7,0.0,16431,345116858551180,396,23.06599998474121,1012.7052953157673,0.14999,16,0.0,0.0,1575420030,,,,0,7.20824966823407,1,6.0,23.06599998474121,0.0,0.0,0.0,66.7128,C,25582979000000,
Raw,1732146698933,6514000000,,4188355.0319334585,-1416181910419000320,0.0,121.78150979909272,2153.254424293522,0.0,0,15,0.0,16431,345116854822498,235,29.32200050354004,184.2020917232553,0.14999,16,0.0,0.0,1575420030,,,,0,15.705438121187886,1,6.0,29.32200050354004,0.0,0.0,0.0,66.7128,C,25582979000000,
Raw,1732146698933,6514000000,,4188355.0319334585,-1416181910419000320,0.0,121.78150979909272,2153.254424293522,0.0,0,21,0.0,16431,345116852527736,487,17.507999420166016,654.1400752543245,0.14999,16,0.0,0.0,1575420030,,,,0,0.0,1,6.0,17.507999420166016,0.0,0.0,0.0,66.7128,C,25582979000000,
Raw,1732146698933,6514000000,,4188355.0319334585,-1416181910419000320,0.0,121.78150979909272,2153.254424293522,0.0,0,30,0.0,16431,345116864005551,42,39.81399917602539,751.5110154127541,0.14999,16,0.0,0.0,1575420030,,,,0,27.601029682578794,1,6.0,39.81399917602539,0.0,0.0,0.0,66.7128,C,25582979000000,
Fix,FLP,37.4243848000,-122.1712527000,-1.0037005894680373,0.15392192,2.225,255.16058,1732146699131,1.1,179.9,25582979000000,0.8857126,0,,,
Status,1732146698932,31,0,1,14,1575420030,45.90,328.0,74.0,1,0,0,40.9
Status,1732146698932,31,1,1,30,1575420030,44.80,80.0,69.0,1,0,0,39.8
Status,1732146698932,31,2,1,22,1575420030,47.60,275.0,61.0,1,0,0,42.6
Status,1732146698932,31,3,1,13,1575420030,45.10,300.0,49.0,1,0,0,40.1
Status,1732146698932,31,4,1,17,1575420030,38.70,175.0,47.0,1,0,0,33.7
Status,1732146698932,31,5,1,7,1575420030,25.90,105.0,36.0,1,0,0,20.9
Status,1732146698932,31,6,2,131,1575420030,42.00,3.0,23.0,0,0,0,37.0
Status,1732146698932,31,7,1,19,1575420030,30.30,193.0,20.0,1,0,0,25.3
Status,1732146698932,31,8,1,15,1575420030,35.70,314.0,19.0,1,0,0,30.7
Status,1732146698932,31,9,1,2,1575420030,0.00,85.0,17.0,0,0,0,0.0
Status,1732146698932,31,10,1,21,1575420030,18.20,66.0,14.0,0,0,0,13.200001
Status,1732146698932,31,11,1,8,1575420030,0.00,39.0,7.0,0,0,0,0.0
Status,1732146698932,31,12,1,5,1575420030,0.00,261.0,5.0,0,0,0,0.0
Status,1732146698932,31,13,3,9,1602000000,30.20,21.0,53.0,1,0,0,25.2
Status,1732146698932,31,14,3,8,1602000000,31.00,300.0,39.0,1,0,0,26.0
Status,1732146698932,31,15,3,19,1602000000,0.00,83.0,33.0,0,0,0,0.0
Status,1732146698932,31,16,3,18,1602000000,0.00,38.0,20.0,0,0,0,0.0
Status,1732146698932,31,17,3,16,1602000000,0.00,69.0,13.0,0,0,0,0.0
Status,1732146698932,31,18,3,20,1602000000,0.00,148.0,12.0,0,0,0,0.0
Status,1732146698932,31,19,3,11,1602000000,0.00,273.0,3.0,0,0,0,0.0
Status,1732146698932,31,20,3,17,1602000000,34.50,0.0,0.0,0,0,0,29.5
Status,1732146698932,31,21,6,29,1575420030,34.80,203.0,59.0,1,0,0,29.8
Status,1732146698932,31,22,6,21,1575420030,42.80,272.0,58.0,1,0,0,37.8
Status,1732146698932,31,23,6,27,1575420030,33.10,38.0,57.0,1,0,0,28.099998
Status,1732146698932,31,24,6,19,1575420030,33.60,295.0,51.0,1,0,0,28.599998
Status,1732146698932,31,25,6,7,1575420030,0.00,161.0,15.0,0,0,0,0.0
Status,1732146698932,31,26,6,15,1575420030,0.00,93.0,12.0,0,0,0,0.0
Status,1732146698932,31,27,6,30,1575420030,0.00,59.0,9.0,0,0,0,0.0
Status,1732146698932,31,28,6,34,1575420030,0.00,46.0,6.0,0,0,0,0.0
Status,1732146698932,31,29,6,4,1575420030,0.00,326.0,2.0,0,0,0,0.0
Status,1732146698932,31,30,6,13,1575420030,0.00,141.0,2.0,0,0,0,0.0
Fix,GPS,37.4243733333,-122.1712700000,13.7,0.13846028,2.1,149.4,1732146699932,0.9,179.9,25583979000000,36.7,0,,,
Raw,1732146699934,7514000000,,3977197.7018848155,-1416181910420000256,0.0,100.54872440140088,2150.403656290029,0.0,0,14,0.0,16431,345117865983664,42,40.85200119018555,646.9346536505673,0.14999,16,0.0,0.0,1575420030,,,,0,28.702787760661565,1,6.0,40.85200119018555,0.0,0.0,0.0,66.7128,C,25583979000000,
Raw,1732146699934,7514000000,,3977197.7018848155,-1416181910420000256,0.0,100.54872440140088,2150.403656290029,0.0,0,13,0.0,16431,345117863378365,42,40.05400085449219,369.35003034214094,0.14999,16,0.0,0.0,1575420030,,,,0,27.857006518340043,1,6.0,40.05400085449219,0.0,0.0,0.0,66.7128,C,25583979000000,
Raw,1732146699934,7514000000,,3977197.7018848155,-1416181910420000256,0.0,100.54872440140088,2150.403656290029,0.0,0,22,0.0,16431,345117863894734,31,42.60599899291992,500.31672376539433,0.14999,16,0.0,0.0,1575420030,,,,0,30.550977996289163,1,6.0,42.60599899291992,0.0,0.0,0.0,66.7128,C,25583979000000,
Raw,1732146699934,7514000000,,3977197.7018848155,-1416181910420000256,0.0,100.54872440140088,2150.403656290029,0.0,0,17,0.0,16431,345117862790487,58,33.68000030517578,179.73214166597458,0.14999,16,0.0,0.0,1575420030,,,,0,20.862568127065927,1,6.0,33.68000030517578,0.0,0.0,0.0,66.7128,C,25583979000000,
Raw,1732146699934,7514000000,,3977197.7018848155,-1416181910420000256,0.0,100.54872440140088,2150.403656290029,0.0,0,27,0.0,16431,345117853004205,235,28.100000381469727,898.3221658509467,0.14999,16,0.0,0.0,1575420030,,,,0,14.76804530258703,6,6.0,28.100000381469727,0.0,0.0,13.426355770301706,66.7128,C,25583979000000,
Raw,1732146699934,7514000000,,3977197.7018848155,-1416181910420000256,0.0,100.54872440140088,2150.403656290029,0.0,0,21,0.0,16431,345117853044207,42,37.79999923706055,478.63458091993607,0.14999,16,0.0,0.0,1575420030,,,,0,25.380138202926098,6,6.0,37.79999923706055,0.0,0.0,13.426355770301706,66.7128,C,25583979000000,
Raw,1732146699934,7514000000,,3977197.7018848155,-1416181910420000256,0.0,100.54872440140088,2150.403656290029,0.0,0,19,0.0,16431,345117853441782,235,28.600000381469727,475.157540133907,0.14999,16,0.0,0.0,1575420030,,,,0,15.434687172631996,6,6.0,28.600000381469727,0.0,0.0,13.426355770301706,66.7128,C,25583979000000,
Raw,1732146699934,7514000000,,3977197.7018848155,-1416181910420000256,0.0,100.54872440140088,2150.403656290029,0.0,0,29,0.0,16431,345117853849469,74,29.799999237060547,950.9077038249956,0.14999,16,0.0,0.0,1575420030,,,,0,16.809562375562948,6,6.0,29.799999237060547,0.0,0.0,13.426355770301706,66.7128,C,25583979000000,
Raw,1732146699934,7514000000,,3977197.7018848155,-1416181910420000256,0.0,100.54872440140088,2150.403656290029,0.0,0,8,0.0,17,605576,316,5.0,495.0012520812788,0.14999,16,0.0,0.0,1605374980,,,,0,12.307679494326297,3,6.0,25.0,0.0,0.0,15.585239430967183,66.7128,C,25583979000000,
Raw,1732146699934,7514000000,,3977197.7018848155,-1416181910420000256,0.0,100.54872440140088,2150.403656290029,0.0,0,9,0.0,17,735415,316,5.0,784.6864080639908,0.14999,16,0.0,0.0,1600875010,,,,0,11.383645160168744,3,6.0,25.0,0.0,0.0,15.585239430967183,66.7128,C,25583979000000,
Raw,1732146699934,7514000000,,3977197.7018848155,-1416181910420000256,0.0,100.54872440140088,2150.403656290029,0.0,0,19,0.0,16431,345117854353694,316,25.32200050354004,-48.329900590747414,0.14999,16,0.0,0.0,1575420030,,,,0,10.470178440254365,1,6.0,25.32200050354004,0.0,0.0,0.0,66.7128,C,25583979000000,
Raw,1732146699934,7514000000,,3977197.7018848155,-1416181910420000256,0.0,100.54872440140088,2150.403656290029,0.0,0,7,0.0,16431,345117859547846,487,20.861000061035156,1012.6221347507504,0.14999,16,0.0,0.0,1575420030,,,,0,3.6864244871204455,1,6.0,20.861000061035156,0.0,0.0,0.0,66.7128,C,25583979000000,
Raw,1732146699934,7514000000,,3977197.7018848155,-1416181910420000256,0.0,100.54872440140088,2150.403656290029,0.0,0,15,0.0,16431,345117855821925,74,30.736000061035156,183.43032451316583,0.14999,16,0.0,0.0,1575420030,,,,0,17.432270554072826,1,6.0,30.736000061035156,0.0,0.0,0.0,66.7128,C,25583979000000,
Raw,1732146699934,7514000000,,3977197.7018848155,-1416181910420000256,0.0,100.54872440140088,2150.403656290029,0.0,0,21,0.0,17,525539,797,13.199999809265137,653.1213351036598,0.14999,16,0.0,0.0,1575420030,,,,0,0.0,1,6.0,13.199999809265137,0.0,0.0,0.0,66.7128,C,25583979000000,
Raw,1732146699934,7514000000,,3977197.7018848155,-1416181910420000256,0.0,100.54872440140088,2150.403656290029,0.0,0,30,0.0,16431,345117865003045,42,39.76599884033203,750.5126240483896,0.14999,16,0.0,0.0,1575420030,,,,0,26.5836249209525,1,6.0,39.76599884033203,0.0,0.0,0.0,66.7128,C,25583979000000,
Fix,FLP,37.4243789000,-122.1712613000,-1.0841198461390285,0.11538221,2.142,236.84941,1732146700131,0.9,179.9,25583979000000,0.891068,0,,,
Status,1732146699932,31,0,1,14,1575420030,46.20,328.0,74.0,1,0,0,41.2
Status,1732146699932,31,1,1,30,1575420030,50.10,80.0,69.0,1,0,0,45.1
Status,1732146699932,31,2,1,22,1575420030,47.80,275.0,61.0,1,0,0,42.8
Status,1732146699932,31,3,1,13,1575420030,35.10,300.0,49.0,1,0,0,30.099998
Status,1732146699932,31,4,1,17,1575420030,37.00,175.0,47.0,1,0,0,32.0
Status,1732146699932,31,5,1,7,1575420030,43.00,105.0,36.0,1,0,0,38.0
Status,1732146699932,31,6,2,131,1575420030,40.00,3.0,23.0,0,0,0,35.0
Status,1732146699932,31,7,1,19,1575420030,39.80,193.0,20.0,1,0,0,34.8
Status,1732146699932,31,8,1,15,1575420030,42.10,314.0,19.0,1,0,0,37.1
Status,1732146699932,31,9,1,2,1575420030,25.00,85.0,17.0,1,0,0,20.0
Status,1732146699932,31,10,1,21,1575420030,18.20,66.0,14.0,1,0,0,13.200001
Status,1732146699932,31,11,1,8,1575420030,0.00,39.0,7.0,0,0,0,0.0
Status,1732146699932,31,12,1,5,1575420030,0.00,261.0,5.0,0,0,0,0.0
Status,1732146699932,31,13,3,9,1602000000,27.00,21.0,53.0,1,0,0,22.0
Status,1732146699932,31,14,3,8,1602000000,32.20,300.0,39.0,1,0,0,27.2
Status,1732146699932,31,15,3,19,1602000000,0.00,83.0,33.0,0,0,0,0.0
Status,1732146699932,31,16,3,18,1602000000,0.00,38.0,20.0,0,0,0,0.0
Status,1732146699932,31,17,3,16,1602000000,0.00,69.0,13.0,0,0,0,0.0
Status,1732146699932,31,18,3,20,1602000000,0.00,148.0,12.0,0,0,0,0.0
Status,1732146699932,31,19,3,11,1602000000,0.00,273.0,3.0,0,0,0,0.0
Status,1732146699932,31,20,3,17,1602000000,39.30,0.0,0.0,0,0,0,34.3
Status,1732146699932,31,21,6,29,1575420030,39.30,203.0,59.0,1,0,0,34.3
Status,1732146699932,31,22,6,21,1575420030,43.00,272.0,58.0,1,0,0,38.0
Status,1732146699932,31,23,6,27,1575420030,33.10,38.0,57.0,1,0,0,28.099998
Status,1732146699932,31,24,6,19,1575420030,29.30,295.0,51.0,1,0,0,24.3
Status,1732146699932,31,25,6,7,1575420030,0.00,161.0,15.0,0,0,0,0.0
Status,1732146699932,31,26,6,15,1575420030,0.00,93.0,12.0,0,0,0,0.0
Status,1732146699932,31,27,6,30,1575420030,0.00,59.0,9.0,0,0,0,0.0
Status,1732146699932,31,28,6,34,1575420030,0.00,46.0,6.0,0,0,0,0.0
Status,1732146699932,31,29,6,4,1575420030,0.00,326.0,2.0,0,0,0,0.0
Status,1732146699932,31,30,6,13,1575420030,0.00,141.0,2.0,0,0,0,0.0
Fix,GPS,37.4243716667,-122.1712750000,14.2,0.13073945,1.9,148.68,1732146700935,0.8,179.9,25584979000000,34.0,0,,,
Raw,1732146700936,8514000000,,965002.9079450691,-1416181910422000128,0.0,92.05588509066918,2146.6749229265115,0.0,0,14,0.0,16431,345118867981511,42,41.242000579833984,646.0294114107049,0.14999,16,0.0,0.0,1575420030,,,,0,29.115669859304482,1,6.0,41.242000579833984,0.0,0.0,0.0,66.7128,C,25584979000000,
Raw,1732146700936,8514000000,,965002.9079450691,-1416181910422000128,0.0,92.05588509066918,2146.6749229265115,0.0,0,13,0.0,16431,345118865377130,74,30.125999450683594,368.1132376149921,0.14999,16,0.0,0.0,1575420030,,,,0,16.691385183352537,1,6.0,30.125999450683594,0.0,0.0,0.0,66.7128,C,25584979000000,
Raw,1732146700936,8514000000,,965002.9079450691,-1416181910422000128,0.0,92.05588509066918,2146.6749229265115,0.0,0,22,0.0,16431,345118865893066,31,42.76100158691406,499.2455320628279,0.14999,16,0.0,0.0,1575420030,,,,0,30.714303824337506,1,6.0,42.76100158691406,0.0,0.0,0.0,66.7128,C,25584979000000,
Raw,1732146700936,8514000000,,965002.9079450691,-1416181910422000128,0.0,92.05588509066918,2146.6749229265115,0.0,0,17,0.0,16431,345118864789878,74,32.00699996948242,178.89217350088805,0.14999,16,0.0,0.0,1575420030,,,,0,18.933564151128678,1,6.0,32.00699996948242,0.0,0.0,0.0,66.7128,C,25584979000000,
Raw,1732146700936,8514000000,,965002.9079450691,-1416181910422000128,0.0,92.05588509066918,2146.6749229265115,0.0,0,27,0.0,16431,345118855001201,235,28.06999969482422,896.9246966913337,0.14999,16,0.0,0.0,1575420030,,,,0,14.099570192848036,6,6.0,28.06999969482422,0.0,0.0,11.259251496492533,66.7128,C,25584979000000,
Raw,1732146700936,8514000000,,965002.9079450691,-1416181910422000128,0.0,92.05588509066918,2146.6749229265115,0.0,0,21,0.0,16431,345118855042611,42,38.0,477.35813593455157,0.14999,16,0.0,0.0,1575420030,,,,0,25.567714537871847,6,6.0,38.0,0.0,0.0,11.259251496492533,66.7128,C,25584979000000,
Raw,1732146700936,8514000000,,965002.9079450691,-1416181910422000128,0.0,92.05588509066918,2146.6749229265115,0.0,0,19,0.0,16431,345118855440195,316,24.299999237060547,474.74740523560035,0.14999,16,0.0,0.0,1575420030,,,,0,10.223169672525778,6,6.0,24.299999237060547,0.0,0.0,11.259251496492533,66.7128,C,25584979000000,
Raw,1732146700936,8514000000,,965002.9079450691,-1416181910422000128,0.0,92.05588509066918,2146.6749229265115,0.0,0,29,0.0,16431,345118855846301,58,34.29999923706055,949.5115355010365,0.14999,16,0.0,0.0,1575420030,,,,0,21.703795027080158,6,6.0,34.29999923706055,0.0,0.0,11.259251496492533,66.7128,C,25584979000000,
Raw,1732146700936,8514000000,,965002.9079450691,-1416181910422000128,0.0,92.05588509066918,2146.6749229265115,0.0,0,8,0.0,17,603928,235,5.0,494.0381308048463,0.14999,16,0.0,0.0,1605374980,,,,0,13.698471498504151,3,6.0,27.0,0.0,0.0,14.98688717433611,66.7128,C,25584979000000,
Raw,1732146700936,8514000000,,965002.9079450691,-1416181910422000128,0.0,92.05588509066918,2146.6749229265115,0.0,0,9,0.0,17,732799,396,5.0,783.7257458151511,0.14999,16,0.0,0.0,1600875010,,,,0,7.147508933724428,3,6.0,23.0,0.0,0.0,14.98688717433611,66.7128,C,25584979000000,
Raw,1732146700936,8514000000,,965002.9079450691,-1416181910422000128,0.0,92.05588509066918,2146.6749229265115,0.0,0,19,0.0,16431,345118856353803,58,34.847999572753906,-49.57257030754689,0.14999,16,0.0,0.0,1575420030,,,,0,22.180447207212865,1,6.0,34.847999572753906,0.0,0.0,0.0,66.7128,C,25584979000000,
Raw,1732146700936,8514000000,,965002.9079450691,-1416181910422000128,0.0,92.05588509066918,2146.6749229265115,0.0,0,2,0.0,16431,345118855495154,487,20.02199935913086,445.2405500982984,0.14999,16,0.0,0.0,1575420030,,,,0,2.2434648207920267,1,6.0,20.02199935913086,0.0,0.0,0.0,66.7128,C,25584979000000,
Raw,1732146700936,8514000000,,965002.9079450691,-1416181910422000128,0.0,92.05588509066918,2146.6749229265115,0.0,0,7,0.0,16431,345118861544437,51,38.00699996948242,1011.4916156506832,0.14999,16,0.0,0.0,1575420030,,,,0,25.660005202058507,1,6.0,38.00699996948242,0.0,0.0,0.0,66.7128,C,25584979000000,
Raw,1732146700936,8514000000,,965002.9079450691,-1416181910422000128,0.0,92.05588509066918,2146.6749229265115,0.0,0,15,0.0,16431,345118857821317,51,37.108001708984375,182.71440031936143,0.14999,16,0.0,0.0,1575420030,,,,0,24.68185682174036,1,6.0,37.108001708984375,0.0,0.0,0.0,66.7128,C,25584979000000,
Raw,1732146700936,8514000000,,965002.9079450691,-1416181910422000128,0.0,92.05588509066918,2146.6749229265115,0.0,0,21,0.0,16431,345118855523362,487,13.199999809265137,651.8253775834669,0.14999,16,0.0,0.0,1575420030,,,,0,0.0,1,6.0,13.199999809265137,0.0,0.0,0.0,66.7128,C,25584979000000,
Raw,1732146700936,8514000000,,965002.9079450691,-1416181910422000128,0.0,92.05588509066918,2146.6749229265115,0.0,0,30,0.0,16431,345118867000541,28,45.13999938964844,749.5061024611882,0.14999,16,0.0,0.0,1575420030,,,,0,33.19035742194639,1,6.0,45.13999938964844,0.0,0.0,0.0,66.7128,C,25584979000000,
Fix,FLP,37.4243750000,-122.1712680000,-1.1908084996773418,0.097487144,2.066,,1732146701131,0.8,,25584979000000,0.90421546,0,,,
Status,1732146700935,31,0,1,14,1575420030,47.40,328.0,74.0,1,0,0,42.4
Status,1732146700935,31,1,1,30,1575420030,46.10,80.0,69.0,1,0,0,41.1
Status,1732146700935,31,2,1,22,1575420030,44.30,275.0,61.0,1,0,0,39.3
Status,1732146700935,31,3,1,13,1575420030,43.80,300.0,49.0,1,0,0,38.8
Status,1732146700935,31,4,1,17,1575420030,39.70,175.0,47.0,1,0,0,34.7
Status,1732146700935,31,5,1,7,1575420030,36.40,105.0,36.0,1,0,0,31.400002
Status,1732146700935,31,6,2,131,1575420030,39.00,3.0,23.0,0,0,0,34.0
Status,1732146700935,31,7,1,19,1575420030,0.00,193.0,20.0,0,0,0,0.0
Status,1732146700935,31,8,1,15,1575420030,41.30,314.0,19.0,1,0,0,36.3
Status,1732146700935,31,9,1,2,1575420030,25.90,85.0,17.0,1,0,0,20.9
Status,1732146700935,31,10,1,21,1575420030,23.30,66.0,14.0,0,0,0,18.3
Status,1732146700935,31,11,1,8,1575420030,0.00,39.0,7.0,0,0,0,0.0
Status,1732146700935,31,12,1,5,1575420030,0.00,261.0,5.0,0,0,0,0.0
Status,1732146700935,31,13,3,9,1602000000,32.30,21.0,53.0,1,0,0,27.3
Status,1732146700935,31,14,3,8,1602000000,39.80,300.0,39.0,1,0,0,34.8
Status,1732146700935,31,15,3,19,1602000000,0.00,83.0,33.0,0,0,0,0.0
Status,1732146700935,31,16,3,18,1602000000,0.00,38.0,20.0,0,0,0,0.0
Status,1732146700935,31,17,3,16,1602000000,0.00,69.0,13.0,0,0,0,0.0
Status,1732146700935,31,18,3,20,1602000000,0.00,148.0,12.0,0,0,0,0.0
Status,1732146700935,31,19,3,11,1602000000,0.00,273.0,3.0,0,0,0,0.0
Status,1732146700935,31,20,3,17,1602000000,39.60,0.0,0.0,0,0,0,34.6
Status,1732146700935,31,21,6,29,1575420030,39.30,203.0,59.0,1,0,0,34.3
Status,1732146700935,31,22,6,21,1575420030,39.10,272.0,58.0,1,0,0,34.1
Status,1732146700935,31,23,6,27,1575420030,36.60,38.0,57.0,1,0,0,31.599998
Status,1732146700935,31,24,6,19,1575420030,29.40,295.0,51.0,1,0,0,24.4
Status,1732146700935,31,25,6,7,1575420030,0.00,161.0,15.0,0,0,0,0.0
Status,1732146700935,31,26,6,15,1575420030,0.00,93.0,12.0,0,0,0,0.0
Status,1732146700935,31,27,6,30,1575420030,0.00,59.0,9.0,0,0,0,0.0
Status,1732146700935,31,28,6,34,1575420030,0.00,46.0,6.0,0,0,0,0.0
Status,1732146700935,31,29,6,4,1575420030,0.00,326.0,2.0,0,0,0,0.0
Status,1732146700935,31,30,6,13,1575420030,0.00,141.0,2.0,0,0,0,0.0
Fix,GPS,37.4243683333,-122.1712766667,14.3,0.3494964,1.8,114.76,1732146702000,0.7,87.3,25586044000000,33.3,0,,,
Raw,1732146702000,9579000000,,692719.6968544152,-1416181910421999872,0.0,90.33424014710761,2143.774524821756,0.0,0,14,0.0,16431,345119932979216,31,42.369998931884766,645.256203989713,0.14999,16,0.0,0.0,1575420030,,,,0,30.302151744918557,1,6.0,42.369998931884766,0.0,0.0,0.0,66.7128,C,25586044000000,
Raw,1732146702000,9579000000,,692719.6968544152,-1416181910421999872,0.0,90.33424014710761,2143.774524821756,0.0,0,13,0.0,16431,345119930375817,42,38.76100158691406,368.37438037251155,0.14999,16,0.0,0.0,1575420030,,,,0,26.47500995371116,1,6.0,38.76100158691406,0.0,0.0,0.0,66.7128,C,25586044000000,
Raw,1732146702000,9579000000,,692719.6968544152,-1416181910421999872,0.0,90.33424014710761,2143.774524821756,0.0,0,22,0.0,16431,345119930891291,42,39.27000045776367,498.7514003480126,0.14999,16,0.0,0.0,1575420030,,,,0,27.017080694207824,1,6.0,39.27000045776367,0.0,0.0,0.0,66.7128,C,25586044000000,
Raw,1732146702000,9579000000,,692719.6968544152,-1416181910421999872,0.0,90.33424014710761,2143.774524821756,0.0,0,17,0.0,16431,345119929789238,58,34.654998779296875,177.63273229583655,0.14999,16,0.0,0.0,1575420030,,,,0,21.96702394823957,1,6.0,34.654998779296875,0.0,0.0,0.0,66.7128,C,25586044000000,
Raw,1732146702000,9579000000,,692719.6968544152,-1416181910421999872,0.0,90.33424014710761,2143.774524821756,0.0,0,27,0.0,16431,345119919998024,58,31.600000381469727,895.8425872609578,0.14999,16,0.0,0.0,1575420030,,,,0,18.763398804911695,6,6.0,31.600000381469727,0.0,0.0,10.657356185122973,66.7128,C,25586044000000,
Raw,1732146702000,9579000000,,692719.6968544152,-1416181910421999872,0.0,90.33424014710761,2143.774524821756,0.0,0,21,0.0,16431,345119920040915,58,34.099998474121094,476.59765811960125,0.14999,16,0.0,0.0,1575420030,,,,0,21.443820563272006,6,6.0,34.099998474121094,0.0,0.0,10.657356185122973,66.7128,C,25586044000000,
Raw,1732146702000,9579000000,,692719.6968544152,-1416181910421999872,0.0,90.33424014710761,2143.774524821756,0.0,0,19,0.0,16431,345119920438511,316,24.395000457763672,472.61765851967687,0.14999,16,0.0,0.0,1575420030,,,,0,12.521288790758664,6,6.0,24.395000457763672,0.0,0.0,10.657356185122973,66.7128,C,25586044000000,
Raw,1732146702000,9579000000,,692719.6968544152,-1416181910421999872,0.0,90.33424014710761,2143.774524821756,0.0,0,29,0.0,16431,345119920842929,51,34.34000015258789,948.7116144907235,0.14999,16,0.0,0.0,1575420030,,,,0,22.572048289764805,6,6.0,34.34000015258789,0.0,0.0,10.657356185122973,66.7128,C,25586044000000,
Raw,1732146702000,9579000000,,692719.6968544152,-1416181910421999872,0.0,90.33424014710761,2143.774524821756,0.0,0,8,0.0,17,602169,58,5.0,493.59789889737965,0.14999,16,0.0,0.0,1605374980,,,,0,22.239975811049163,3,6.0,35.0,0.0,0.0,15.456764256024107,66.7128,C,25586044000000,
Raw,1732146702000,9579000000,,692719.6968544152,-1416181910421999872,0.0,90.33424014710761,2143.774524821756,0.0,0,9,0.0,17,730014,316,5.0,781.9439578291534,0.14999,16,0.0,0.0,1600875010,,,,0,13.882419892334742,3,6.0,26.0,0.0,0.0,15.456764256024107,66.7128,C,25586044000000,
Raw,1732146702000,9579000000,,692719.6968544152,-1416181910421999872,0.0,90.33424014710761,2143.774524821756,0.0,0,2,0.0,16431,345119920493546,487,20.861000061035156,444.05163276905455,0.14999,16,0.0,0.0,1575420030,,,,0,3.6864244871204455,1,6.0,20.861000061035156,0.0,0.0,0.0,66.7128,C,25586044000000,
Raw,1732146702000,9579000000,,692719.6968544152,-1416181910421999872,0.0,90.33424014710761,2143.774524821756,0.0,0,7,0.0,16431,345119926540852,74,31.44700050354004,1010.5114359854732,0.14999,16,0.0,0.0,1575420030,,,,0,18.281617856345328,1,6.0,31.44700050354004,0.0,0.0,0.0,66.7128,C,25586044000000,
Raw,1732146702000,9579000000,,692719.6968544152,-1416181910421999872,0.0,90.33424014710761,2143.774524821756,0.0,0,15,0.0,16431,345119922820673,51,36.275001525878906,181.97204128673326,0.14999,16,0.0,0.0,1575420030,,,,0,23.765828805214134,1,6.0,36.275001525878906,0.0,0.0,0.0,66.7128,C,25586044000000,
Raw,1732146702000,9579000000,,692719.6968544152,-1416181910421999872,0.0,90.33424014710761,2143.774524821756,0.0,0,21,0.0,17,521048,487,18.30500030517578,650.1226301709344,0.14999,16,0.0,0.0,1575420030,,,,0,0.0,1,6.0,18.30500030517578,0.0,0.0,0.0,66.7128,C,25586044000000,
Raw,1732146702000,9579000000,,692719.6968544152,-1416181910421999872,0.0,90.33424014710761,2143.774524821756,0.0,0,30,0.0,16431,345119931997881,42,41.08300018310547,748.615215871935,0.14999,16,0.0,0.0,1575420030,,,,0,28.94802961989626,1,6.0,41.08300018310547,0.0,0.0,0.0,66.7128,C,25586044000000,
Fix,FLP,37.4243712000,-122.1712720000,-1.274250201233012,0.09718243,2.0,,1732146702196,0.7,,25586044000000,0.91542155,0,,,
Status,1732146702000,31,0,1,14,1575420030,40.00,329.0,74.0,1,0,0,35.0
Status,1732146702000,31,1,1,30,1575420030,46.00,80.0,69.0,1,0,0,41.0
Status,1732146702000,31,2,1,22,1575420030,44.20,275.0,61.0,1,0,0,39.2
Status,1732146702000,31,3,1,13,1575420030,45.30,300.0,49.0,1,0,0,40.3
Status,1732146702000,31,4,1,17,1575420030,40.70,175.0,47.0,1,0,0,35.7
Status,1732146702000,31,5,1,7,1575420030,34.70,105.0,36.0,1,0,0,29.7
Status,1732146702000,31,6,2,131,1575420030,37.00,3.0,23.0,0,0,0,32.0
Status,1732146702000,31,7,1,19,1575420030,40.30,193.0,20.0,1,0,0,35.3
Status,1732146702000,31,8,1,15,1575420030,36.80,314.0,19.0,1,0,0,31.8
Status,1732146702000,31,9,1,2,1575420030,0.00,85.0,17.0,0,0,0,0.0
Status,1732146702000,31,10,1,21,1575420030,23.30,66.0,14.0,1,0,0,18.3
Status,1732146702000,31,11,1,8,1575420030,0.00,39.0,7.0,0,0,0,0.0
Status,1732146702000,31,12,1,5,1575420030,0.00,261.0,5.0,0,0,0,0.0
Status,1732146702000,31,13,3,9,1602000000,33.00,21.0,53.0,1,0,0,28.0
Status,1732146702000,31,14,3,8,1602000000,34.50,300.0,39.0,1,0,0,29.5
Status,1732146702000,31,15,3,19,1602000000,0.00,83.0,33.0,0,0,0,0.0
Status,1732146702000,31,16,3,18,1602000000,0.00,38.0,20.0,0,0,0,0.0
Status,1732146702000,31,17,3,16,1602000000,0.00,69.0,13.0,0,0,0,0.0
Status,1732146702000,31,18,3,20,1602000000,0.00,148.0,12.0,0,0,0,0.0
Status,1732146702000,31,19,3,11,1602000000,0.00,273.0,3.0,0,0,0,0.0
Status,1732146702000,31,20,3,17,1602000000,38.60,0.0,0.0,0,0,0,33.6
Status,1732146702000,31,21,6,29,1575420030,37.90,203.0,59.0,1,0,0,32.9
Status,1732146702000,31,22,6,21,1575420030,43.20,272.0,58.0,1,0,0,38.2
Status,1732146702000,31,23,6,27,1575420030,41.80,38.0,57.0,1,0,0,36.8
Status,1732146702000,31,24,6,19,1575420030,37.40,295.0,51.0,1,0,0,32.4
Status,1732146702000,31,25,6,7,1575420030,0.00,161.0,15.0,0,0,0,0.0
Status,1732146702000,31,26,6,15,1575420030,0.00,93.0,12.0,0,0,0,0.0
Status,1732146702000,31,27,6,30,1575420030,0.00,59.0,9.0,0,0,0,0.0
Status,1732146702000,31,28,6,34,1575420030,0.00,46.0,6.0,0,0,0,0.0
Status,1732146702000,31,29,6,4,1575420030,0.00,326.0,2.0,0,0,0,0.0
Status,1732146702000,31,30,6,13,1575420030,0.00,141.0,2.0,0,0,0,0.0
Fix,GPS,37.4243700000,-122.1712733333,14.500000000000004,0.38810056,1.7,109.2,1732146703000,0.7,83.4,25587044000000,35.9,0,,,
Raw,1732146703000,10579000000,,99.10794647265975,-1416181910421999872,0.0,99.10794647265975,2141.358716278335,0.0,0,14,0.0,16431,345120932977067,58,34.99399948120117,644.6784006673025,0.14999,16,0.0,0.0,1575420030,,,,0,22.347488694508183,1,6.0,34.99399948120117,0.0,0.0,0.0,66.7128,C,25587044000000,
Raw,1732146703000,10579000000,,99.10794647265975,-1416181910421999872,0.0,99.10794647265975,2141.358716278335,0.0,0,13,0.0,16431,345120930374589,42,40.28799819946289,367.676087147659,0.14999,16,0.0,0.0,1575420030,,,,0,28.105655061349704,1,6.0,40.28799819946289,0.0,0.0,0.0,66.7128,C,25587044000000,
Raw,1732146703000,10579000000,,99.10794647265975,-1416181910421999872,0.0,99.10794647265975,2141.358716278335,0.0,0,22,0.0,16431,345120930889626,51,39.19499969482422,497.9140338542339,0.14999,16,0.0,0.0,1575420030,,,,0,25.423785981398762,1,6.0,39.19499969482422,0.0,0.0,0.0,66.7128,C,25587044000000,
Raw,1732146703000,10579000000,,99.10794647265975,-1416181910421999872,0.0,99.10794647265975,2141.358716278335,0.0,0,17,0.0,16431,345120929788646,51,35.689998626708984,177.0351376881204,0.14999,16,0.0,0.0,1575420030,,,,0,23.118756597295395,1,6.0,35.689998626708984,0.0,0.0,0.0,66.7128,C,25587044000000,
Raw,1732146703000,10579000000,,99.10794647265975,-1416181910421999872,0.0,99.10794647265975,2141.358716278335,0.0,0,19,0.0,16431,345120921354128,58,35.32099914550781,-51.20874280964963,0.14999,16,0.0,0.0,1575420030,,,,0,22.711985096632162,1,6.0,35.32099914550781,0.0,0.0,0.0,66.7128,C,25587044000000,
Raw,1732146703000,10579000000,,99.10794647265975,-1416181910421999872,0.0,99.10794647265975,2141.358716278335,0.0,0,27,0.0,16431,345120919995042,51,36.79999923706055,895.4020685584495,0.14999,16,0.0,0.0,1575420030,,,,0,24.318715190801104,6,6.0,36.79999923706055,0.0,0.0,9.418157885593297,66.7128,C,25587044000000,
Raw,1732146703000,10579000000,,99.10794647265975,-1416181910421999872,0.0,99.10794647265975,2141.358716278335,0.0,0,21,0.0,16431,345120920039325,42,38.20000076293945,476.3402320353787,0.14999,16,0.0,0.0,1575420030,,,,0,25.786194680198655,6,6.0,38.20000076293945,0.0,0.0,9.418157885593297,66.7128,C,25587044000000,
Raw,1732146703000,10579000000,,99.10794647265975,-1416181910421999872,0.0,99.10794647265975,2141.358716278335,0.0,0,19,0.0,16431,345120920436932,58,32.400001525878906,472.4217898369332,0.14999,16,0.0,0.0,1575420030,,,,0,19.611112463638847,6,6.0,32.400001525878906,0.0,0.0,9.418157885593297,66.7128,C,25587044000000,
Raw,1732146703000,10579000000,,99.10794647265975,-1416181910421999872,0.0,99.10794647265975,2141.358716278335,0.0,0,29,0.0,16431,345120920839766,51,32.900001525878906,948.1321851237456,0.14999,16,0.0,0.0,1575420030,,,,0,20.18672897310621,6,6.0,32.900001525878906,0.0,0.0,9.418157885593297,66.7128,C,25587044000000,
Raw,1732146703000,10579000000,,99.10794647265975,-1416181910421999872,0.0,99.10794647265975,2141.358716278335,0.0,0,8,0.0,17,600517,74,5.0,493.2842291041557,0.14999,16,0.0,0.0,1605374980,,,,0,16.383575298666138,3,6.0,30.0,0.0,0.0,16.324195438462702,66.7128,C,25587044000000,
Raw,1732146703000,10579000000,,99.10794647265975,-1416181910421999872,0.0,99.10794647265975,2141.358716278335,0.0,0,9,0.0,17,727400,235,5.0,781.8971408606207,0.14999,16,0.0,0.0,1600875010,,,,0,14.663665801572126,3,6.0,29.0,0.0,0.0,16.324195438462702,66.7128,C,25587044000000,
Raw,1732146703000,10579000000,,99.10794647265975,-1416181910421999872,0.0,99.10794647265975,2141.358716278335,0.0,0,15,0.0,16431,345120922820059,74,31.775999069213867,180.6897889993224,0.14999,16,0.0,0.0,1575420030,,,,0,18.669156763155428,1,6.0,31.775999069213867,0.0,0.0,0.0,66.7128,C,25587044000000,
Raw,1732146703000,10579000000,,99.10794647265975,-1416181910421999872,0.0,99.10794647265975,2141.358716278335,0.0,0,7,0.0,16431,345120926537458,74,29.740999221801758,1009.1035601406292,0.14999,16,0.0,0.0,1575420030,,,,0,16.222864907512403,1,6.0,29.740999221801758,0.0,0.0,0.0,66.7128,C,25587044000000,
Raw,1732146703000,10579000000,,99.10794647265975,-1416181910421999872,0.0,99.10794647265975,2141.358716278335,0.0,0,21,0.0,16431,345120920518875,487,18.30500030517578,651.4668579855702,0.14999,16,0.0,0.0,1575420030,,,,0,0.0,1,6.0,18.30500030517578,0.0,0.0,0.0,66.7128,C,25587044000000,
Raw,1732146703000,10579000000,,99.10794647265975,-1416181910421999872,0.0,99.10794647265975,2141.358716278335,0.0,0,30,0.0,16431,345120931995387,42,41.02899932861328,747.7492774521868,0.14999,16,0.0,0.0,1575420030,,,,0,27.818536839848605,1,6.0,41.02899932861328,0.0,0.0,0.0,66.7128,C,25587044000000,
Fix,FLP,37.4243702000,-122.1712724000,-1.274250201233012,0.26495236,1.92,116.50966,1732146703196,0.7,83.4,25587044000000,0.9254259,0,,,
Status,1732146703000,31,0,1,14,1575420030,38.60,329.0,74.0,1,0,0,33.6
Status,1732146703000,31,1,1,30,1575420030,43.70,80.0,69.0,1,0,0,38.7
Status,1732146703000,31,2,1,22,1575420030,39.40,275.0,61.0,1,0,0,34.4
Status,1732146703000,31,3,1,13,1575420030,45.00,300.0,49.0,1,0,0,40.0
Status,1732146703000,31,4,1,17,1575420030,35.00,175.0,47.0,1,0,0,30.0
Status,1732146703000,31,5,1,7,1575420030,31.70,105.0,36.0,1,0,0,26.7
Status,1732146703000,31,6,2,131,1575420030,35.00,3.0,23.0,0,0,0,30.0
Status,1732146703000,31,7,1,19,1575420030,44.40,193.0,20.0,1,0,0,39.4
Status,1732146703000,31,8,1,15,1575420030,41.40,314.0,19.0,1,0,0,36.4
Status,1732146703000,31,9,1,2,1575420030,0.00,85.0,17.0,0,0,0,0.0
Status,1732146703000,31,10,1,21,1575420030,23.30,66.0,14.0,1,0,0,18.3
Status,1732146703000,31,11,1,8,1575420030,0.00,39.0,7.0,0,0,0,0.0
Status,1732146703000,31,12,1,5,1575420030,0.00,261.0,5.0,0,0,0,0.0
Status,1732146703000,31,13,3,9,1602000000,35.90,21.0,53.0,1,0,0,30.900002
Status,1732146703000,31,14,3,8,1602000000,33.40,300.0,39.0,1,0,0,28.400002
Status,1732146703000,31,15,3,19,1602000000,0.00,83.0,33.0,0,0,0,0.0
Status,1732146703000,31,16,3,18,1602000000,0.00,38.0,20.0,0,0,0,0.0
Status,1732146703000,31,17,3,16,1602000000,0.00,69.0,13.0,0,0,0,0.0
Status,1732146703000,31,18,3,20,1602000000,0.00,148.0,12.0,0,0,0,0.0
Status,1732146703000,31,19,3,11,1602000000,0.00,273.0,3.0,0,0,0,0.0
Status,1732146703000,31,20,3,17,1602000000,42.90,0.0,0.0,0,0,0,37.9
Status,1732146703000,31,21,6,29,1575420030,33.70,203.0,59.0,1,0,0,28.7
Status,1732146703000,31,22,6,21,1575420030,32.10,272.0,58.0,1,0,0,27.099998
Status,1732146703000,31,23,6,27,1575420030,41.80,38.0,57.0,1,0,0,36.8
Status,1732146703000,31,24,6,19,1575420030,34.80,295.0,51.0,1,0,0,29.8
Status,1732146703000,31,25,6,7,1575420030,0.00,161.0,15.0,0,0,0,0.0
Status,1732146703000,31,26,6,15,1575420030,0.00,93.0,12.0,0,0,0,0.0
Status,1732146703000,31,27,6,30,1575420030,0.00,59.0,9.0,0,0,0,0.0
Status,1732146703000,31,28,6,34,1575420030,0.00,46.0,6.0,0,0,0,0.0
Status,1732146703000,31,29,6,4,1575420030,0.00,326.0,2.0,0,0,0,0.0
Status,1732146703000,31,30,6,13,1575420030,0.00,141.0,2.0,0,0,0,0.0
Fix,GPS,37.4243716667,-122.1712666667,14.599999999999998,0.398395,1.8,108.97,1732146704000,0.8,89.2,25588044000000,34.8,0,,,
Raw,1732146704000,11579000000,,97.87529618075594,-1416181910421999872,0.0,97.87529618075594,2135.7257318649395,0.0,0,14,0.0,16431,345121932974919,58,33.58000183105469,642.9740736686189,0.14999,16,0.0,0.0,1575420030,,,,0,20.75144648818418,1,6.0,33.58000183105469,0.0,0.0,0.0,66.7128,C,25588044000000,
Raw,1732146704000,11579000000,,97.87529618075594,-1416181910421999872,0.0,97.87529618075594,2135.7257318649395,0.0,0,13,0.0,16431,345121930373367,42,40.00199890136719,365.92901840606174,0.14999,16,0.0,0.0,1575420030,,,,0,27.801997533731463,1,6.0,40.00199890136719,0.0,0.0,0.0,66.7128,C,25588044000000,
Raw,1732146704000,11579000000,,97.87529618075594,-1416181910421999872,0.0,97.87529618075594,2135.7257318649395,0.0,0,22,0.0,16431,345121930887969,58,34.40299987792969,496.26476007875976,0.14999,16,0.0,0.0,1575420030,,,,0,21.681494913064327,1,6.0,34.40299987792969,0.0,0.0,0.0,66.7128,C,25588044000000,
Raw,1732146704000,11579000000,,97.87529618075594,-1416181910421999872,0.0,97.87529618075594,2135.7257318649395,0.0,0,17,0.0,16431,345121929788054,235,29.95800018310547,176.1253425234694,0.14999,16,0.0,0.0,1575420030,,,,0,16.49077835353399,1,6.0,29.95800018310547,0.0,0.0,0.0,66.7128,C,25588044000000,
Raw,1732146704000,11579000000,,97.87529618075594,-1416181910421999872,0.0,97.87529618075594,2135.7257318649395,0.0,0,27,0.0,16431,345121919992061,51,36.81999969482422,893.713862630191,0.14999,16,0.0,0.0,1575420030,,,,0,24.768362549003697,6,6.0,36.81999969482422,0.0,0.0,8.858603704825379,66.7128,C,25588044000000,
Raw,1732146704000,11579000000,,97.87529618075594,-1416181910421999872,0.0,97.87529618075594,2135.7257318649395,0.0,0,21,0.0,16431,345121920037741,235,27.100000381469727,474.7568362940911,0.14999,16,0.0,0.0,1575420030,,,,0,13.632917303279434,6,6.0,27.100000381469727,0.0,0.0,8.858603704825379,66.7128,C,25588044000000,
Raw,1732146704000,11579000000,,97.87529618075594,-1416181910421999872,0.0,97.87529618075594,2135.7257318649395,0.0,0,19,0.0,16431,345121920435356,74,29.799999237060547,471.11575084042255,0.14999,16,0.0,0.0,1575420030,,,,0,16.770348360252385,6,6.0,29.799999237060547,0.0,0.0,8.858603704825379,66.7128,C,25588044000000,
Raw,1732146704000,11579000000,,97.87529618075594,-1416181910421999872,0.0,97.87529618075594,2135.7257318649395,0.0,0,29,0.0,16431,345121920836604,74,28.700000762939453,947.1535850446868,0.14999,16,0.0,0.0,1575420030,,,,0,15.525878452643003,6,6.0,28.700000762939453,0.0,0.0,8.858603704825379,66.7128,C,25588044000000,
Raw,1732146704000,11579000000,,97.87529618075594,-1416181910421999872,0.0,97.87529618075594,2135.7257318649395,0.0,0,8,0.0,17,598872,235,5.0,491.3664665776773,0.14999,16,0.0,0.0,1605374980,,,,0,15.125589669217518,3,6.0,29.0,0.0,0.0,17.403791073574432,66.7128,C,25588044000000,
Raw,1732146704000,11579000000,,97.87529618075594,-1416181910421999872,0.0,97.87529618075594,2135.7257318649395,0.0,0,9,0.0,17,724793,74,5.0,780.3391050660289,0.14999,16,0.0,0.0,1600875010,,,,0,18.017614514410404,3,6.0,31.0,0.0,0.0,17.403791073574432,66.7128,C,25588044000000,
Raw,1732146704000,11579000000,,97.87529618075594,-1416181910421999872,0.0,97.87529618075594,2135.7257318649395,0.0,0,15,0.0,16431,345121922819463,51,36.391998291015625,179.72131685499753,0.14999,16,0.0,0.0,1575420030,,,,0,23.89657722945056,1,6.0,36.391998291015625,0.0,0.0,0.0,66.7128,C,25588044000000,
Raw,1732146704000,11579000000,,97.87529618075594,-1416181910421999872,0.0,97.87529618075594,2135.7257318649395,0.0,0,7,0.0,16431,345121926534116,316,26.655000686645508,1007.8370107978974,0.14999,16,0.0,0.0,1575420030,,,,0,12.29398151066717,1,6.0,26.655000686645508,0.0,0.0,0.0,66.7128,C,25588044000000,
Raw,1732146704000,11579000000,,97.87529618075594,-1416181910421999872,0.0,97.87529618075594,2135.7257318649395,0.0,0,19,0.0,16431,345121921354279,42,39.35200119018555,-51.81507159961336,0.14999,16,0.0,0.0,1575420030,,,,0,27.10721525923098,1,6.0,39.35200119018555,0.0,0.0,0.0,66.7128,C,25588044000000,
Raw,1732146704000,11579000000,,97.87529618075594,-1416181910421999872,0.0,97.87529618075594,2135.7257318649395,0.0,0,21,0.0,16431,345121920516697,797,18.30500030517578,655.052843757613,0.14999,16,0.0,0.0,1575420030,,,,0,0.0,1,6.0,18.30500030517578,0.0,0.0,0.0,66.7128,C,25588044000000,
Raw,1732146704000,11579000000,,97.87529618075594,-1416181910421999872,0.0,97.87529618075594,2135.7257318649395,0.0,0,30,0.0,16431,345121931992894,42,38.73899841308594,747.2151450410142,0.14999,16,0.0,0.0,1575420030,,,,0,26.449254887730262,1,6.0,38.73899841308594,0.0,0.0,0.0,66.7128,C,25588044000000,
Fix,FLP,37.4243703000,-122.1712681000,-1.3255859481088272,0.35074213,1.86,110.12296,1732146704197,0.8,89.2,25588044000000,0.93735945,0,,,
Status,1732146704000,31,0,1,14,1575420030,40.10,329.0,74.0,1,0,0,35.1
Status,1732146704000,31,1,1,30,1575420030,40.00,80.0,69.0,1,0,0,35.0
Status,1732146704000,31,2,1,22,1575420030,42.20,275.0,61.0,1,0,0,37.2
Status,1732146704000,31,3,1,13,1575420030,45.40,300.0,49.0,1,0,0,40.4
Status,1732146704000,31,4,1,17,1575420030,35.10,175.0,47.0,1,0,0,30.099998
Status,1732146704000,31,5,1,7,1575420030,30.50,105.0,36.0,1,0,0,25.5
Status,1732146704000,31,6,2,131,1575420030,35.00,3.0,23.0,0,0,0,30.0
Status,1732146704000,31,7,1,19,1575420030,36.40,193.0,20.0,1,0,0,31.400002
Status,1732146704000,31,8,1,15,1575420030,37.00,314.0,19.0,1,0,0,32.0
Status,1732146704000,31,9,1,2,1575420030,0.00,85.0,17.0,0,0,0,0.0
Status,1732146704000,31,10,1,21,1575420030,19.30,66.0,14.0,1,0,0,14.299999
Status,1732146704000,31,11,1,8,1575420030,0.00,39.0,7.0,0,0,0,0.0
Status,1732146704000,31,12,1,5,1575420030,0.00,261.0,5.0,0,0,0,0.0
Status,1732146704000,31,13,3,9,1602000000,34.70,21.0,53.0,1,0,0,29.7
Status,1732146704000,31,14,3,8,1602000000,37.40,300.0,39.0,1,0,0,32.4
Status,1732146704000,31,15,3,19,1602000000,21.50,83.0,33.0,1,0,0,16.5
Status,1732146704000,31,16,3,18,1602000000,0.00,38.0,20.0,0,0,0,0.0
Status,1732146704000,31,17,3,16,1602000000,0.00,69.0,13.0,0,0,0,0.0
Status,1732146704000,31,18,3,20,1602000000,0.00,148.0,12.0,0,0,0,0.0
Status,1732146704000,31,19,3,11,1602000000,0.00,273.0,3.0,0,0,0,0.0
Status,1732146704000,31,20,3,17,1602000000,43.60,0.0,0.0,0,0,0,38.6
Status,1732146704000,31,21,6,29,1575420030,37.90,203.0,59.0,1,0,0,32.9
Status,1732146704000,31,22,6,21,1575420030,43.90,272.0,58.0,1,0,0,38.9
Status,1732146704000,31,23,6,27,1575420030,41.90,38.0,57.0,1,0,0,36.9
Status,1732146704000,31,24,6,19,1575420030,37.40,295.0,51.0,1,0,0,32.4
Status,1732146704000,31,25,6,7,1575420030,0.00,161.0,15.0,0,0,0,0.0
Status,1732146704000,31,26,6,15,1575420030,0.00,93.0,12.0,0,0,0,0.0
Status,1732146704000,31,27,6,30,1575420030,0.00,59.0,9.0,0,0,0,0.0
Status,1732146704000,31,28,6,34,1575420030,0.00,46.0,6.0,0,0,0,0.0
Status,1732146704000,31,29,6,4,1575420030,0.00,326.0,2.0,0,0,0,0.0
Status,1732146704000,31,30,6,13,1575420030,0.00,141.0,2.0,0,0,0,0.0
Fix,GPS,37.4243733333,-122.1712583333,14.900000000000002,0.676345,1.8,104.97,1732146705000,0.8,53.2,25589044000000,33.5,0,,,
Raw,1732146705000,12579000000,,92.72544619789753,-1416181910421999872,0.0,92.72544619789753,2134.773174416942,0.0,0,14,0.0,16431,345122932972773,58,35.112998962402344,642.9455017426494,0.14999,16,0.0,0.0,1575420030,,,,0,22.48088359662101,1,6.0,35.112998962402344,0.0,0.0,0.0,66.7128,C,25589044000000,
Raw,1732146705000,12579000000,,92.72544619789753,-1416181910421999872,0.0,92.72544619789753,2134.773174416942,0.0,0,13,0.0,16431,345122930372149,42,40.36199951171875,365.8821650933134,0.14999,16,0.0,0.0,1575420030,,,,0,28.18522101899041,1,6.0,40.36199951171875,0.0,0.0,0.0,66.7128,C,25589044000000,
Raw,1732146705000,12579000000,,92.72544619789753,-1416181910421999872,0.0,92.72544619789753,2134.773174416942,0.0,0,22,0.0,16431,345122930886316,51,37.1609992980957,496.3476883516956,0.14999,16,0.0,0.0,1575420030,,,,0,24.73700551264414,1,6.0,37.1609992980957,0.0,0.0,0.0,66.7128,C,25589044000000,
Raw,1732146705000,12579000000,,92.72544619789753,-1416181910421999872,0.0,92.72544619789753,2134.773174416942,0.0,0,17,0.0,16431,345122929787474,235,30.141000747680664,174.9472964636188,0.14999,16,0.0,0.0,1575420030,,,,0,16.711193378112977,1,6.0,30.141000747680664,0.0,0.0,0.0,66.7128,C,25589044000000,
Raw,1732146705000,12579000000,,92.72544619789753,-1416181910421999872,0.0,92.72544619789753,2134.773174416942,0.0,0,27,0.0,16431,345122919989086,42,36.88399887084961,893.3364344568965,0.14999,16,0.0,0.0,1575420030,,,,0,25.688206167215007,6,6.0,36.88399887084961,0.0,0.0,7.933916045049665,66.7128,C,25589044000000,
Raw,1732146705000,12579000000,,92.72544619789753,-1416181910421999872,0.0,92.72544619789753,2134.773174416942,0.0,0,21,0.0,16431,345122920036160,42,38.900001525878906,474.02042393873785,0.14999,16,0.0,0.0,1575420030,,,,0,26.50709676389144,6,6.0,38.900001525878906,0.0,0.0,7.933916045049665,66.7128,C,25589044000000,
Raw,1732146705000,12579000000,,92.72544619789753,-1416181910421999872,0.0,92.72544619789753,2134.773174416942,0.0,0,19,0.0,16431,345122920433785,58,32.400001525878906,472.4327540231589,0.14999,16,0.0,0.0,1575420030,,,,0,19.63940528877888,6,6.0,32.400001525878906,0.0,0.0,7.933916045049665,66.7128,C,25589044000000,
Raw,1732146705000,12579000000,,92.72544619789753,-1416181910421999872,0.0,92.72544619789753,2134.773174416942,0.0,0,29,0.0,16431,345122920833440,58,32.900001525878906,946.2530351048617,0.14999,16,0.0,0.0,1575420030,,,,0,20.18672897310621,6,6.0,32.900001525878906,0.0,0.0,7.933916045049665,66.7128,C,25589044000000,
Raw,1732146705000,12579000000,,92.72544619789753,-1416181910421999872,0.0,92.72544619789753,2134.773174416942,0.0,0,8,0.0,17,597233,74,5.0,491.2047989778558,0.14999,16,0.0,0.0,1605374980,,,,0,19.60756937175286,3,6.0,32.0,0.0,0.0,18.740942574209946,66.7128,C,25589044000000,
Raw,1732146705000,12579000000,,92.72544619789753,-1416181910421999872,0.0,92.72544619789753,2134.773174416942,0.0,0,9,0.0,17,722184,74,5.0,779.9032134859585,0.14999,16,0.0,0.0,1600875010,,,,0,16.689934028117676,3,6.0,30.0,0.0,0.0,18.740942574209946,66.7128,C,25589044000000,
Raw,1732146705000,12579000000,,92.72544619789753,-1416181910421999872,0.0,92.72544619789753,2134.773174416942,0.0,0,19,0.0,17,799416,487,19.0,387.60242649110876,0.14999,16,0.0,0.0,1603687550,,,,0,0.0,3,6.0,19.0,0.0,0.0,18.740942574209946,66.7128,C,25589044000000,
Raw,1732146705000,12579000000,,92.72544619789753,-1416181910421999872,0.0,92.72544619789753,2134.773174416942,0.0,0,15,0.0,16431,345122922818861,74,32.00699996948242,179.51504148702273,0.14999,16,0.0,0.0,1575420030,,,,0,18.933564151128678,1,6.0,32.00699996948242,0.0,0.0,0.0,66.7128,C,25589044000000,
Raw,1732146705000,12579000000,,92.72544619789753,-1416181910421999872,0.0,92.72544619789753,2134.773174416942,0.0,0,7,0.0,16431,345122926530753,316,25.479999542236328,1007.5719190750001,0.14999,16,0.0,0.0,1575420030,,,,0,10.710356589714673,1,6.0,25.479999542236328,0.0,0.0,0.0,66.7128,C,25589044000000,
Raw,1732146705000,12579000000,,92.72544619789753,-1416181910421999872,0.0,92.72544619789753,2134.773174416942,0.0,0,19,0.0,16431,345122921354458,74,31.43400001525879,-52.365696748540664,0.14999,16,0.0,0.0,1575420030,,,,0,18.265089041389686,1,6.0,31.43400001525879,0.0,0.0,0.0,66.7128,C,25589044000000,
Raw,1732146705000,12579000000,,92.72544619789753,-1416181910421999872,0.0,92.72544619789753,2134.773174416942,0.0,0,21,0.0,16431,345122920514553,487,14.300000190734863,650.6169941778307,0.14999,16,0.0,0.0,1575420030,,,,0,0.0,1,6.0,14.300000190734863,0.0,0.0,0.0,66.7128,C,25589044000000,
Raw,1732146705000,12579000000,,92.72544619789753,-1416181910421999872,0.0,92.72544619789753,2134.773174416942,0.0,0,30,0.0,16431,345122931990406,58,34.95100021362305,745.9814882569596,0.14999,16,0.0,0.0,1575420030,,,,0,22.29563248294259,1,6.0,34.95100021362305,0.0,0.0,0.0,66.7128,C,25589044000000,
Fix,FLP,37.4243710000,-122.1712611000,-1.000677320930773,0.5670184,1.8,105.31702,1732146705196,0.8,53.2,25589044000000,0.9427138,0,,,
Status,1732146705000,31,0,1,14,1575420030,39.30,329.0,74.0,1,0,0,34.3
Status,1732146705000,31,1,1,30,1575420030,43.70,80.0,69.0,1,0,0,38.7
Status,1732146705000,31,2,1,22,1575420030,46.10,275.0,61.0,1,0,0,41.1
Status,1732146705000,31,3,1,13,1575420030,43.50,300.0,49.0,1,0,0,38.5
Status,1732146705000,31,4,1,17,1575420030,38.20,175.0,47.0,1,0,0,33.2
Status,1732146705000,31,5,1,7,1575420030,33.20,105.0,36.0,1,0,0,28.2
Status,1732146705000,31,6,2,131,1575420030,39.00,3.0,23.0,0,0,0,34.0
Status,1732146705000,31,7,1,19,1575420030,36.20,193.0,20.0,1,0,0,31.2
Status,1732146705000,31,8,1,15,1575420030,41.10,314.0,19.0,1,0,0,36.1
Status,1732146705000,31,9,1,2,1575420030,0.00,85.0,17.0,0,0,0,0.0
Status,1732146705000,31,10,1,21,1575420030,23.70,66.0,14.0,1,0,0,18.7
Status,1732146705000,31,11,1,8,1575420030,0.00,39.0,7.0,0,0,0,0.0
Status,1732146705000,31,12,1,5,1575420030,0.00,261.0,5.0,0,0,0,0.0
Status,1732146705000,31,13,3,9,1602000000,29.70,21.0,53.0,1,0,0,24.7
Status,1732146705000,31,14,3,8,1602000000,40.00,300.0,39.0,1,0,0,35.0
Status,1732146705000,31,15,3,19,1602000000,18.60,83.0,33.0,1,0,0,13.6
Status,1732146705000,31,16,3,18,1602000000,22.50,38.0,20.0,1,0,0,17.5
Status,1732146705000,31,17,3,16,1602000000,0.00,69.0,13.0,0,0,0,0.0
Status,1732146705000,31,18,3,20,1602000000,0.00,148.0,12.0,0,0,0,0.0
Status,1732146705000,31,19,3,11,1602000000,0.00,273.0,3.0,0,0,0,0.0
Status,1732146705000,31,20,3,17,1602000000,40.30,0.0,0.0,0,0,0,35.3
Status,1732146705000,31,21,6,29,1575420030,26.70,203.0,59.0,1,0,0,21.7
Status,1732146705000,31,22,6,21,1575420030,30.60,272.0,58.0,1,0,0,25.6
Status,1732146705000,31,23,6,27,1575420030,41.80,38.0,57.0,1,0,0,36.8
Status,1732146705000,31,24,6,19,1575420030,33.40,295.0,51.0,1,0,0,28.400002
Status,1732146705000,31,25,6,7,1575420030,0.00,161.0,15.0,0,0,0,0.0
Status,1732146705000,31,26,6,15,1575420030,0.00,93.0,12.0,0,0,0,0.0
Status,1732146705000,31,27,6,30,1575420030,0.00,59.0,9.0,0,0,0,0.0
Status,1732146705000,31,28,6,34,1575420030,0.00,46.0,6.0,0,0,0,0.0
