# 
# Header Description:
# 
# Version: v3.1.0.3 Platform: 13 Manufacturer: samsung Model: SM-S135DL GNSS Hardware Model Name: MediaTek,MT6631,MTK_MNLD_default,MNL_VER_default
# 
# Raw,utcTimeMillis,TimeNanos,LeapSecond,TimeUncertaintyNanos,FullBiasNanos,BiasNanos,BiasUncertaintyNanos,DriftNanosPerSecond,DriftUncertaintyNanosPerSecond,HardwareClockDiscontinuityCount,Svid,TimeOffsetNanos,State,ReceivedSvTimeNanos,ReceivedSvTimeUncertaintyNanos,Cn0DbHz,PseudorangeRateMetersPerSecond,PseudorangeRateUncertaintyMetersPerSecond,AccumulatedDeltaRangeState,AccumulatedDeltaRangeMeters,AccumulatedDeltaRangeUncertaintyMeters,CarrierFrequencyHz,CarrierCycles,CarrierPhase,CarrierPhaseUncertainty,MultipathIndicator,SnrInDb,ConstellationType,AgcDb,BasebandCn0DbHz,FullInterSignalBiasNanos,FullInterSignalBiasUncertaintyNanos,SatelliteInterSignalBiasNanos,SatelliteInterSignalBiasUncertaintyNanos,CodeType,ChipsetElapsedRealtimeNanos,IsFullTracking
# 
# UncalAccel,utcTimeMillis,elapsedRealtimeNanos,UncalAccelXMps2,UncalAccelYMps2,UncalAccelZMps2,BiasXMps2,BiasYMps2,BiasZMps2
# 
# Accel,utcTimeMillis,elapsedRealtimeNanos,AccelXMps2,AccelYMps2,AccelZMps2
# 
# UncalGyro,utcTimeMillis,elapsedRealtimeNanos,UncalGyroXRadPerSec,UncalGyroYRadPerSec,UncalGyroZRadPerSec,DriftXRadPerSec,DriftYRadPerSec,DriftZRadPerSec
# 
# Gyro,utcTimeMillis,elapsedRealtimeNanos,GyroXRadPerSec,GyroYRadPerSec,GyroZRadPerSec
# 
# UncalMag,utcTimeMillis,elapsedRealtimeNanos,UncalMagXMicroT,UncalMagYMicroT,UncalMagZMicroT,BiasXMicroT,BiasYMicroT,BiasZMicroT
# 
# Mag,utcTimeMillis,elapsedRealtimeNanos,MagXMicroT,MagYMicroT,MagZMicroT
# 
# Pressure,utcTimeMillis,elapsedRealtimeNanos,PressureHpa
# 
# OrientationDeg,utcTimeMillis,elapsedRealtimeNanos,yawDeg,rollDeg,pitchDeg
# 
# Fix,Provider,LatitudeDegrees,LongitudeDegrees,AltitudeMeters,SpeedMps,AccuracyMeters,BearingDegrees,UnixTimeMillis,SpeedAccuracyMps,BearingAccuracyDegrees,elapsedRealtimeNanos,VerticalAccuracyMeters,MockLocation,NumberOfUsedSignals,VerticalSpeedAccuracyMps,SolutionType
# 
# Nav,Svid,Type,Status,MessageId,Sub-messageId,Data(Bytes)
# 
# Status,UnixTimeMillis,SignalCount,SignalIndex,ConstellationType,Svid,CarrierFrequencyHz,Cn0DbHz,AzimuthDegrees,ElevationDegrees,UsedInFix,HasAlmanacData,HasEphemerisData,BasebandCn0DbHz
# 
# Agc,utcTimeMillis,TimeNanos,LeapSecond,TimeUncertaintyNanos,FullBiasNanos,BiasNanos,BiasUncertaintyNanos,DriftNanosPerSecond,DriftUncertaintyNanosPerSecond,HardwareClockDiscontinuityCount,AgcDb,CarrierFrequencyHz,ConstellationType
# 
Fix,FLP,37.4243717000,-122.1712473000,-0.30135996999486636,0.21114193,1.883,315.07996,1732146457196,1.7,65.1,25341044000000,1.007785,0,,,
Status,,28,0,1,14,1575420030,35.40,322.0,74.0,1,0,0,30.400002
Status,,28,1,1,30,1575420030,45.30,75.0,70.0,1,0,0,40.3
Status,,28,2,1,22,1575420030,46.30,271.0,60.0,1,0,0,41.3
Status,,28,3,1,13,1575420030,42.00,302.0,48.0,1,0,0,37.0
Status,,28,4,1,17,1575420030,38.50,175.0,45.0,1,0,0,33.5
Status,,28,5,1,7,1575420030,42.90,104.0,37.0,1,0,0,37.9
Status,,28,6,2,131,1575420030,44.00,3.0,23.0,0,0,0,39.0
Status,,28,7,1,19,1575420030,37.70,193.0,18.0,1,0,0,32.7
Status,,28,8,1,15,1575420030,41.10,315.0,17.0,1,0,0,36.1
Status,,28,9,1,2,1575420030,0.00,87.0,16.0,0,0,0,0.0
Status,,28,10,1,21,1575420030,0.00,68.0,14.0,0,0,0,0.0
Status,,28,11,1,8,1575420030,22.60,39.0,9.0,1,0,0,17.6
Status,,28,12,1,5,1575420030,0.00,262.0,6.0,0,0,0,0.0
Status,,28,13,3,9,1602000000,33.30,18.0,54.0,1,0,0,28.3
Status,,28,14,3,8,1602000000,40.30,303.0,39.0,1,0,0,35.3
Status,,28,15,3,16,1602000000,24.10,67.0,14.0,1,0,0,19.1
Status,,28,16,3,20,1602000000,0.00,149.0,11.0,0,0,0,0.0
Status,,28,17,3,11,1602000000,0.00,272.0,1.0,0,0,0,0.0
Status,,28,18,3,17,1602000000,39.50,0.0,0.0,0,0,0,34.5
Status,,28,19,6,29,1575420030,41.20,204.0,61.0,1,0,0,36.2
Status,,28,20,6,27,1575420030,39.50,37.0,58.0,1,0,0,34.5
Status,,28,21,6,21,1575420030,27.80,269.0,57.0,1,0,0,22.8
Status,,28,22,6,19,1575420030,34.70,297.0,51.0,1,0,0,29.7
Status,,28,23,6,7,1575420030,0.00,161.0,16.0,0,0,0,0.0
Status,,28,24,6,15,1575420030,0.00,95.0,11.0,0,0,0,0.0
Status,,28,25,6,30,1575420030,0.00,58.0,10.0,0,0,0,0.0
Status,,28,26,6,34,1575420030,0.00,47.0,6.0,0,0,0,0.0
Status,,28,27,6,13,1575420030,0.00,142.0,1.0,0,0,0,0.0
Fix,GPS,37.4243683333,-122.1712583333,16.099999999999998,0.5981072,1.8,264.54,1732146458000,1.5,89.8,25342044000000,40.3,0,,,
Raw,1732146458000,11678000000,,688086.3873333331,-1416181664322999808,0.0,105.20455993296638,2169.7988717945873,0.0,0,30,0.0,16431,344875931969027,42,40.34400177001953,737.8170255673682,0.14999,16,0.0,0.0,1575420030,,,,0,28.167793236420987,1,6.0,40.34400177001953,0.0,0.0,0.0,66.7128,C,25342044000000,
Raw,1732146458000,11678000000,,688086.3873333331,-1416181664322999808,0.0,105.20455993296638,2169.7988717945873,0.0,0,14,0.0,16431,344875932867075,74,30.393999099731445,637.0180117935954,0.14999,16,0.0,0.0,1575420030,,,,0,17.031412907621757,1,6.0,30.393999099731445,0.0,0.0,0.0,66.7128,C,25342044000000,
Raw,1732146458000,11678000000,,688086.3873333331,-1416181664322999808,0.0,105.20455993296638,2169.7988717945873,0.0,0,22,0.0,16431,344875930659276,31,41.31100082397461,489.09404291191186,0.14999,16,0.0,0.0,1575420030,,,,0,29.19174926735745,1,6.0,41.31100082397461,0.0,0.0,0.0,66.7128,C,25342044000000,
Raw,1732146458000,11678000000,,688086.3873333331,-1416181664322999808,0.0,105.20455993296638,2169.7988717945873,0.0,0,15,0.0,16431,344875922327809,51,36.08700180053711,164.8794324618817,0.14999,16,0.0,0.0,1575420030,,,,0,23.56994691132052,1,6.0,36.08700180053711,0.0,0.0,0.0,66.7128,C,25342044000000,
Raw,1732146458000,11678000000,,688086.3873333331,-1416181664322999808,0.0,105.20455993296638,2169.7988717945873,0.0,0,21,0.0,16431,344875919793659,396,22.799999237060547,473.8307806837664,0.14999,16,0.0,0.0,1575420030,,,,0,8.256990957609286,6,6.0,22.799999237060547,0.0,0.0,-8.460939395934728,66.7128,C,25342044000000,
Raw,1732146458000,11678000000,,688086.3873333331,-1416181664322999808,0.0,105.20455993296638,2169.7988717945873,0.0,0,29,0.0,16431,344875920976658,51,36.20000076293945,937.5325116316465,0.14999,16,0.0,0.0,1575420030,,,,0,23.770574804096288,6,6.0,36.20000076293945,0.0,0.0,-8.460939395934728,66.7128,C,25342044000000,
Raw,1732146458000,11678000000,,688086.3873333331,-1416181664322999808,0.0,105.20455993296638,2169.7988717945873,0.0,0,19,0.0,16431,344875920184548,74,29.700000762939453,460.6724099188719,0.14999,16,0.0,0.0,1575420030,,,,0,16.671531712678984,6,6.0,29.700000762939453,0.0,0.0,-8.460939395934728,66.7128,C,25342044000000,
Raw,1732146458000,11678000000,,688086.3873333331,-1416181664322999808,0.0,105.20455993296638,2169.7988717945873,0.0,0,27,0.0,16431,344875920094014,51,34.5,897.2014959351161,0.14999,17,10037.615709278942,0.00022499999613501132,1575420030,,,,0,21.8963696255584,6,6.0,34.5,0.0,0.0,-8.460939395934728,66.7128,C,25342044000000,
Raw,1732146458000,11678000000,,688086.3873333331,-1416181664322999808,0.0,105.20455993296638,2169.7988717945873,0.0,0,7,0.0,16431,344875926726543,51,37.85300064086914,1002.9156707687151,0.14999,16,0.0,0.0,1575420030,,,,0,25.497993093486016,1,6.0,37.85300064086914,0.0,0.0,0.0,66.7128,C,25342044000000,
Raw,1732146458000,11678000000,,688086.3873333331,-1416181664322999808,0.0,105.20455993296638,2169.7988717945873,0.0,0,9,0.0,17,732095,316,5.0,780.0331488615155,0.14999,16,0.0,0.0,1600875010,,,,0,15.077110159338144,3,6.0,26.0,0.0,0.0,22.6643640685835,66.7128,C,25342044000000,
Raw,1732146458000,11678000000,,688086.3873333331,-1416181664322999808,0.0,105.20455993296638,2169.7988717945873,0.0,0,8,0.0,17,356235,58,5.0,459.9983474667909,0.14999,16,0.0,0.0,1605374980,,,,0,22.723545365943224,3,6.0,35.0,0.0,0.0,22.6643640685835,66.7128,C,25342044000000,
Raw,1732146458000,11678000000,,688086.3873333331,-1416181664322999808,0.0,105.20455993296638,2169.7988717945873,0.0,0,16,0.0,17,275145,797,5.0,1141.3432139667914,0.14999,16,0.0,0.0,1601437440,,,,0,0.0,3,6.0,15.0,0.0,0.0,22.6643640685835,66.7128,C,25342044000000,
Raw,1732146458000,11678000000,,688086.3873333331,-1416181664322999808,0.0,105.20455993296638,2169.7988717945873,0.0,0,17,0.0,16431,344875929294338,58,33.465999603271484,163.89809133626648,0.14999,16,0.0,0.0,1575420030,,,,0,20.621516068019204,1,6.0,33.465999603271484,0.0,0.0,0.0,66.7128,C,25342044000000,
Raw,1732146458000,11678000000,,688086.3873333331,-1416181664322999808,0.0,105.20455993296638,2169.7988717945873,0.0,0,13,0.0,16431,344875930032751,51,36.972999572753906,346.98750399127937,0.14999,16,0.0,0.0,1575420030,,,,0,24.537982514420968,1,6.0,36.972999572753906,0.0,0.0,0.0,66.7128,C,25342044000000,
Raw,1732146458000,11678000000,,688086.3873333331,-1416181664322999808,0.0,105.20455993296638,2169.7988717945873,0.0,0,8,0.0,16431,344875918251084,797,17.643999099731445,1330.3423231987094,0.14999,16,0.0,0.0,1575420030,,,,0,0.0,1,6.0,17.643999099731445,0.0,0.0,0.0,66.7128,C,25342044000000,
Raw,1732146458000,11678000000,,688086.3873333331,-1416181664322999808,0.0,105.20455993296638,2169.7988717945873,0.0,0,19,0.0,16431,344875920680649,58,32.74800109863281,-46.71114999472363,0.14999,16,0.0,0.0,1575420030,,,,0,19.80725378988488,1,6.0,32.74800109863281,0.0,0.0,0.0,66.7128,C,25342044000000,
Fix,FLP,37.4243705000,-122.1712538000,-0.3873627000994091,0.21500191,1.883,303.59177,1732146458196,1.5,89.8,25342044000000,1.0185103,0,,,
Status,1732146458000,28,0,1,14,1575420030,42.60,322.0,74.0,1,0,0,37.6
Status,1732146458000,28,1,1,30,1575420030,41.00,75.0,70.0,1,0,0,36.0
Status,1732146458000,28,2,1,22,1575420030,45.90,271.0,60.0,1,0,0,40.9
Status,1732146458000,28,3,1,13,1575420030,42.90,302.0,48.0,1,0,0,37.9
Status,1732146458000,28,4,1,17,1575420030,44.60,175.0,45.0,1,0,0,39.6
Status,1732146458000,28,5,1,7,1575420030,39.70,104.0,37.0,1,0,0,34.7
Status,1732146458000,28,6,2,131,1575420030,36.00,3.0,23.0,0,0,0,31.0
Status,1732146458000,28,7,1,19,1575420030,38.20,193.0,18.0,1,0,0,33.2
Status,1732146458000,28,8,1,15,1575420030,40.40,315.0,17.0,1,0,0,35.4
Status,1732146458000,28,9,1,2,1575420030,0.00,87.0,16.0,0,0,0,0.0
Status,1732146458000,28,10,1,21,1575420030,0.00,68.0,14.0,0,0,0,0.0
Status,1732146458000,28,11,1,8,1575420030,19.00,39.0,9.0,1,0,0,14.0
Status,1732146458000,28,12,1,5,1575420030,0.00,262.0,6.0,0,0,0,0.0
Status,1732146458000,28,13,3,9,1602000000,29.50,18.0,54.0,1,0,0,24.5
Status,1732146458000,28,14,3,8,1602000000,35.20,303.0,39.0,1,0,0,30.2
Status,1732146458000,28,15,3,16,1602000000,24.20,67.0,14.0,1,0,0,19.2
Status,1732146458000,28,16,3,20,1602000000,22.70,149.0,11.0,1,0,0,17.7
Status,1732146458000,28,17,3,11,1602000000,0.00,272.0,1.0,0,0,0,0.0
Status,1732146458000,28,18,3,17,1602000000,39.80,0.0,0.0,0,0,0,34.8
Status,1732146458000,28,19,6,29,1575420030,43.40,204.0,61.0,1,0,0,38.4
Status,1732146458000,28,20,6,27,1575420030,38.70,37.0,58.0,1,0,0,33.7
Status,1732146458000,28,21,6,21,1575420030,39.30,269.0,57.0,1,0,0,34.3
Status,1732146458000,28,22,6,19,1575420030,39.30,297.0,51.0,1,0,0,34.3
Status,1732146458000,28,23,6,7,1575420030,0.00,161.0,16.0,0,0,0,0.0
Status,1732146458000,28,24,6,15,1575420030,0.00,95.0,11.0,0,0,0,0.0
Status,1732146458000,28,25,6,30,1575420030,0.00,58.0,10.0,0,0,0,0.0
Status,1732146458000,28,26,6,34,1575420030,0.00,47.0,6.0,0,0,0,0.0
Status,1732146458000,28,27,6,13,1575420030,0.00,142.0,1.0,0,0,0,0.0
Fix,GPS,37.4243683333,-122.1712533333,16.000000000000004,0.3289075,1.7,232.38,1732146459000,1.0,118.1,25343044000000,38.3,0,,,
Raw,1732146459000,12678000000,,686192.2123471164,-1416181664322999808,0.0,99.77961347808737,2168.6767619353236,0.0,0,30,0.0,16431,344876931966570,51,36.016998291015625,737.5628051138641,0.14999,16,0.0,0.0,1575420030,,,,0,23.486517233881354,1,6.0,36.016998291015625,0.0,0.0,0.0,66.7128,C,25343044000000,
Raw,1732146459000,12678000000,,686192.2123471164,-1416181664322999808,0.0,99.77961347808737,2168.6767619353236,0.0,0,14,0.0,16431,344876932864951,51,37.63600158691406,636.7487388132391,0.14999,16,0.0,0.0,1575420030,,,,0,25.258263803122198,1,6.0,37.63600158691406,0.0,0.0,0.0,66.7128,C,25343044000000,
Raw,1732146459000,12678000000,,686192.2123471164,-1416181664322999808,0.0,99.77961347808737,2168.6767619353236,0.0,0,22,0.0,16431,344876930657644,42,40.882999420166016,488.90630445200503,0.14999,16,0.0,0.0,1575420030,,,,0,28.74075467133825,1,6.0,40.882999420166016,0.0,0.0,0.0,66.7128,C,25343044000000,
Raw,1732146459000,12678000000,,686192.2123471164,-1416181664322999808,0.0,99.77961347808737,2168.6767619353236,0.0,0,15,0.0,16431,344876922327267,58,35.35499954223633,165.31270365146116,0.14999,16,0.0,0.0,1575420030,,,,0,22.758222998563014,1,6.0,35.35499954223633,0.0,0.0,0.0,66.7128,C,25343044000000,
Raw,1732146459000,12678000000,,686192.2123471164,-1416181664322999808,0.0,99.77961347808737,2168.6767619353236,0.0,0,21,0.0,16431,344876919792073,58,34.29999923706055,473.7098029679542,0.14999,16,0.0,0.0,1575420030,,,,0,21.72693857770808,6,6.0,34.29999923706055,0.0,0.0,-6.349492156662248,66.7128,C,25343044000000,
Raw,1732146459000,12678000000,,686192.2123471164,-1416181664322999808,0.0,99.77961347808737,2168.6767619353236,0.0,0,29,0.0,16431,344876920973525,42,38.400001525878906,937.5650325229939,0.14999,17,11450.30580459926,0.00022499999613501132,1575420030,,,,0,26.06295373727944,6,6.0,38.400001525878906,0.0,0.0,-6.349492156662248,66.7128,C,25343044000000,
Raw,1732146459000,12678000000,,686192.2123471164,-1416181664322999808,0.0,99.77961347808737,2168.6767619353236,0.0,0,19,0.0,16431,344876920183015,51,34.29999923706055,460.61015564114973,0.14999,16,0.0,0.0,1575420030,,,,0,21.74972125211565,6,6.0,34.29999923706055,0.0,0.0,-6.349492156662248,66.7128,C,25343044000000,
Raw,1732146459000,12678000000,,686192.2123471164,-1416181664322999808,0.0,99.77961347808737,2168.6767619353236,0.0,0,27,0.0,16431,344876920091029,58,33.70000076293945,897.2744356485666,0.14999,16,0.0,0.0,1575420030,,,,0,21.00170321670272,6,6.0,33.70000076293945,0.0,0.0,-6.349492156662248,66.7128,C,25343044000000,
Raw,1732146459000,12678000000,,686192.2123471164,-1416181664322999808,0.0,99.77961347808737,2168.6767619353236,0.0,0,7,0.0,16431,344876926723197,58,34.65599822998047,1003.2204379790562,0.14999,16,0.0,0.0,1575420030,,,,0,21.97432044035903,1,6.0,34.65599822998047,0.0,0.0,0.0,66.7128,C,25343044000000,
Raw,1732146459000,12678000000,,686192.2123471164,-1416181664322999808,0.0,99.77961347808737,2168.6767619353236,0.0,0,9,0.0,17,729479,316,5.0,779.8985500769836,0.14999,16,0.0,0.0,1600875010,,,,0,10.432407326947041,3,6.0,25.0,0.0,0.0,24.174031237636374,66.7128,C,25343044000000,
Raw,1732146459000,12678000000,,686192.2123471164,-1416181664322999808,0.0,99.77961347808737,2168.6767619353236,0.0,0,8,0.0,17,354698,74,5.0,459.8891101376391,0.14999,16,0.0,0.0,1605374980,,,,0,17.161007100342996,3,6.0,30.0,0.0,0.0,24.174031237636374,66.7128,C,25343044000000,
Raw,1732146459000,12678000000,,686192.2123471164,-1416181664322999808,0.0,99.77961347808737,2168.6767619353236,0.0,0,20,0.0,17,72612,797,5.0,-131.64570567964913,0.14999,16,0.0,0.0,1603124990,,,,0,0.38015741887547794,3,6.0,16.0,0.0,0.0,24.174031237636374,66.7128,C,25343044000000,
Raw,1732146459000,12678000000,,686192.2123471164,-1416181664322999808,0.0,99.77961347808737,2168.6767619353236,0.0,0,16,0.0,17,271324,487,5.0,1137.8710172619303,0.14999,16,0.0,0.0,1601437440,,,,0,6.574899767393031,3,6.0,20.0,0.0,0.0,24.174031237636374,66.7128,C,25343044000000,
Raw,1732146459000,12678000000,,686192.2123471164,-1416181664322999808,0.0,99.77961347808737,2168.6767619353236,0.0,0,17,0.0,16431,344876929293788,42,39.64099884033203,163.57580930301398,0.14999,16,0.0,0.0,1575420030,,,,0,27.419181770598268,1,6.0,39.64099884033203,0.0,0.0,0.0,66.7128,C,25343044000000,
Raw,1732146459000,12678000000,,686192.2123471164,-1416181664322999808,0.0,99.77961347808737,2168.6767619353236,0.0,0,13,0.0,16431,344876930031596,51,37.915000915527344,347.0963328312526,0.14999,16,0.0,0.0,1575420030,,,,0,25.56424172544253,1,6.0,37.915000915527344,0.0,0.0,0.0,66.7128,C,25343044000000,
Raw,1732146459000,12678000000,,686192.2123471164,-1416181664322999808,0.0,99.77961347808737,2168.6767619353236,0.0,0,8,0.0,16431,344876918246652,797,14.0,1330.0100526059716,0.14999,16,0.0,0.0,1575420030,,,,0,0.0,1,6.0,14.0,0.0,0.0,0.0,66.7128,C,25343044000000,
Raw,1732146459000,12678000000,,686192.2123471164,-1416181664322999808,0.0,99.77961347808737,2168.6767619353236,0.0,0,19,0.0,16431,344876920680815,58,33.23400115966797,-47.06720729656119,0.14999,16,0.0,0.0,1575420030,,,,0,20.358486442218954,1,6.0,33.23400115966797,0.0,0.0,0.0,66.7128,C,25343044000000,
Fix,FLP,37.4243696000,-122.1712547000,-0.3039044420258703,0.19961917,1.85,289.90707,1732146459196,1.0,118.1,25343044000000,1.0288402,0,,,
Status,1732146459000,28,0,1,14,1575420030,36.20,322.0,74.0,1,0,0,31.2
Status,1732146459000,28,1,1,30,1575420030,36.10,75.0,70.0,1,0,0,31.099998
Status,1732146459000,28,2,1,22,1575420030,45.00,271.0,60.0,1,0,0,40.0
Status,1732146459000,28,3,1,13,1575420030,36.90,302.0,48.0,1,0,0,31.900002
Status,1732146459000,28,4,1,17,1575420030,43.80,175.0,45.0,1,0,0,38.8
Status,1732146459000,28,5,1,7,1575420030,39.80,104.0,37.0,1,0,0,34.8
Status,1732146459000,28,6,2,131,1575420030,37.00,3.0,23.0,0,0,0,32.0
Status,1732146459000,28,7,1,19,1575420030,33.00,193.0,18.0,1,0,0,28.0
Status,1732146459000,28,8,1,15,1575420030,41.80,315.0,17.0,1,0,0,36.8
Status,1732146459000,28,9,1,2,1575420030,0.00,87.0,16.0,0,0,0,0.0
Status,1732146459000,28,10,1,21,1575420030,0.00,68.0,14.0,0,0,0,0.0
Status,1732146459000,28,11,1,8,1575420030,19.00,39.0,9.0,1,0,0,14.0
Status,1732146459000,28,12,1,5,1575420030,19.90,262.0,6.0,1,0,0,14.9
Status,1732146459000,28,13,3,9,1602000000,29.10,18.0,54.0,1,0,0,24.1
Status,1732146459000,28,14,3,8,1602000000,38.60,303.0,39.0,1,0,0,33.6
Status,1732146459000,28,15,3,16,1602000000,24.30,67.0,14.0,1,0,0,19.3
Status,1732146459000,28,16,3,20,1602000000,20.80,149.0,11.0,1,0,0,15.799999
Status,1732146459000,28,17,3,11,1602000000,0.00,272.0,1.0,0,0,0,0.0
Status,1732146459000,28,18,3,17,1602000000,34.30,0.0,0.0,0,0,0,29.3
Status,1732146459000,28,19,6,29,1575420030,32.30,204.0,61.0,1,0,0,27.3
Status,1732146459000,28,20,6,27,1575420030,37.50,37.0,58.0,1,0,0,32.5
Status,1732146459000,28,21,6,21,1575420030,44.20,269.0,57.0,1,0,0,39.2
Status,1732146459000,28,22,6,19,1575420030,35.60,297.0,51.0,1,0,0,30.599998
Status,1732146459000,28,23,6,7,1575420030,0.00,161.0,16.0,0,0,0,0.0
Status,1732146459000,28,24,6,15,1575420030,0.00,95.0,11.0,0,0,0,0.0
Status,1732146459000,28,25,6,30,1575420030,0.00,58.0,10.0,0,0,0,0.0
Status,1732146459000,28,26,6,34,1575420030,0.00,47.0,6.0,0,0,0,0.0
Status,1732146459000,28,27,6,13,1575420030,0.00,142.0,1.0,0,0,0,0.0
Fix,GPS,37.4243683333,-122.1712483333,15.8,0.21515389,1.7,210.7,1732146460000,0.9,160.0,25344044000000,37.1,0,,,
Fix,FLP,37.4243690000,-122.1712525000,-0.22044535997398018,0.16976926,1.816,281.005,1732146460196,0.9,160.0,25344044000000,1.0376685,0,,,
Raw,1732146460000,13678000000,,684881.0969754283,-1416181664322999808,0.0,97.08378384487544,2165.859072863047,0.0,0,30,0.0,16431,344877931964112,74,31.111000061035156,737.7425527261827,0.14999,16,0.0,0.0,1575420030,,,,0,17.888594347049985,1,6.0,31.111000061035156,0.0,0.0,0.0,66.7128,C,25344044000000,
Raw,1732146460000,13678000000,,684881.0969754283,-1416181664322999808,0.0,97.08378384487544,2165.859072863047,0.0,0,14,0.0,16431,344877932862821,74,31.235000610351562,636.3596960358922,0.14999,16,0.0,0.0,1575420030,,,,0,18.029402125901736,1,6.0,31.235000610351562,0.0,0.0,0.0,66.7128,C,25344044000000,
Raw,1732146460000,13678000000,,684881.0969754283,-1416181664322999808,0.0,97.08378384487544,2165.859072863047,0.0,0,22,0.0,16431,344877930656012,42,39.981998443603516,488.3101035967752,0.14999,16,0.0,0.0,1575420030,,,,0,27.7845300506808,1,6.0,39.981998443603516,0.0,0.0,0.0,66.7128,C,25344044000000,
Raw,1732146460000,13678000000,,684881.0969754283,-1416181664322999808,0.0,97.08378384487544,2165.859072863047,0.0,0,15,0.0,16431,344877922326725,51,36.82600021362305,164.42437227509947,0.14999,16,0.0,0.0,1575420030,,,,0,24.379750043532994,1,6.0,36.82600021362305,0.0,0.0,0.0,66.7128,C,25344044000000,
Raw,1732146460000,13678000000,,684881.0969754283,-1416181664322999808,0.0,97.08378384487544,2165.859072863047,0.0,0,21,0.0,16431,344877919790487,42,39.20000076293945,472.4637882451876,0.14999,16,0.0,0.0,1575420030,,,,0,26.831121221777195,6,6.0,39.20000076293945,0.0,0.0,-5.450875142528841,66.7128,C,25344044000000,
Raw,1732146460000,13678000000,,684881.0969754283,-1416181664322999808,0.0,97.08378384487544,2165.859072863047,0.0,0,29,0.0,16431,344877920970398,235,27.299999237060547,936.5420181980378,0.14999,16,0.0,0.0,1575420030,,,,0,13.906753491389587,6,6.0,27.299999237060547,0.0,0.0,-5.450875142528841,66.7128,C,25344044000000,
Raw,1732146460000,13678000000,,684881.0969754283,-1416181664322999808,0.0,97.08378384487544,2165.859072863047,0.0,0,19,0.0,16431,344877920181486,74,30.600000381469727,459.4306229119804,0.14999,16,0.0,0.0,1575420030,,,,0,17.691179266524095,6,6.0,30.600000381469727,0.0,0.0,-5.450875142528841,66.7128,C,25344044000000,
Raw,1732146460000,13678000000,,684881.0969754283,-1416181664322999808,0.0,97.08378384487544,2165.859072863047,0.0,0,27,0.0,16431,344877920088041,58,32.5,896.1151123304488,0.14999,16,0.0,0.0,1575420030,,,,0,19.778752075588528,6,6.0,32.5,0.0,0.0,-5.450875142528841,66.7128,C,25344044000000,
Raw,1732146460000,13678000000,,684881.0969754283,-1416181664322999808,0.0,97.08378384487544,2165.859072863047,0.0,0,7,0.0,16431,344877926719856,58,34.76499938964844,1002.3044638450492,0.14999,16,0.0,0.0,1575420030,,,,0,22.09541845513482,1,6.0,34.76499938964844,0.0,0.0,0.0,66.7128,C,25344044000000,
Raw,1732146460000,13678000000,,684881.0969754283,-1416181664322999808,0.0,97.08378384487544,2165.859072863047,0.0,0,9,0.0,17,726881,396,5.0,780.1095007535564,0.14999,16,0.0,0.0,1600875010,,,,0,9.994278558762158,3,6.0,23.0,0.0,0.0,25.74369030702559,66.7128,C,25344044000000,
Raw,1732146460000,13678000000,,684881.0969754283,-1416181664322999808,0.0,97.08378384487544,2165.859072863047,0.0,0,8,0.0,17,353164,58,5.0,459.48950029205656,0.14999,16,0.0,0.0,1605374980,,,,0,20.9127055089734,3,6.0,34.0,0.0,0.0,25.74369030702559,66.7128,C,25344044000000,
Raw,1732146460000,13678000000,,684881.0969754283,-1416181664322999808,0.0,97.08378384487544,2165.859072863047,0.0,0,20,0.0,17,73056,797,5.0,-133.48909327166425,0.14999,16,0.0,0.0,1603124990,,,,0,0.0,3,6.0,16.0,0.0,0.0,25.74369030702559,66.7128,C,25344044000000,
Raw,1732146460000,13678000000,,684881.0969754283,-1416181664322999808,0.0,97.08378384487544,2165.859072863047,0.0,0,16,0.0,17,267524,487,5.0,1137.3484418772703,0.14999,16,0.0,0.0,1601437440,,,,0,4.625780725607928,3,6.0,20.0,0.0,0.0,25.74369030702559,66.7128,C,25344044000000,
Raw,1732146460000,13678000000,,684881.0969754283,-1416181664322999808,0.0,97.08378384487544,2165.859072863047,0.0,0,5,0.0,16431,344877916676280,797,14.899999618530273,1086.0896158094472,0.14999,16,0.0,0.0,1575420030,,,,0,0.0,1,6.0,14.899999618530273,0.0,0.0,0.0,66.7128,C,25344044000000,
Raw,1732146460000,13678000000,,684881.0969754283,-1416181664322999808,0.0,97.08378384487544,2165.859072863047,0.0,0,17,0.0,16431,344877929293239,42,38.816001892089844,162.68780313556576,0.14999,17,7206.379269766859,0.00022499999613501132,1575420030,,,,0,26.53457967693185,1,6.0,38.816001892089844,0.0,0.0,0.0,66.7128,C,25344044000000,
Raw,1732146460000,13678000000,,684881.0969754283,-1416181664322999808,0.0,97.08378384487544,2165.859072863047,0.0,0,13,0.0,16431,344877930030446,74,31.924999237060547,347.1158918244772,0.14999,17,6493.544891656679,0.0006249999860301614,1575420030,,,,0,18.845343749981282,1,6.0,31.924999237060547,0.0,0.0,0.0,66.7128,C,25344044000000,
Raw,1732146460000,13678000000,,684881.0969754283,-1416181664322999808,0.0,97.08378384487544,2165.859072863047,0.0,0,8,0.0,16431,344877918242216,797,14.0,1328.762272463389,0.14999,16,0.0,0.0,1575420030,,,,0,0.0,1,6.0,14.0,0.0,0.0,0.0,66.7128,C,25344044000000,
Raw,1732146460000,13678000000,,684881.0969754283,-1416181664322999808,0.0,97.08378384487544,2165.859072863047,0.0,0,19,0.0,16431,344877920680967,235,28.042999267578125,-47.67906463805398,0.14999,16,0.0,0.0,1575420030,,,,0,14.10101471133433,1,6.0,28.042999267578125,0.0,0.0,0.0,66.7128,C,25344044000000,
Status,1732146460000,28,0,1,14,1575420030,43.00,322.0,74.0,1,0,0,38.0
Status,1732146460000,28,1,1,30,1575420030,47.30,75.0,70.0,1,0,0,42.3
Status,1732146460000,28,2,1,22,1575420030,45.70,271.0,60.0,1,0,0,40.7
Status,1732146460000,28,3,1,13,1575420030,39.80,302.0,48.0,1,0,0,34.8
Status,1732146460000,28,4,1,17,1575420030,41.40,175.0,45.0,1,0,0,36.4
Status,1732146460000,28,5,1,7,1575420030,33.20,104.0,37.0,1,0,0,28.2
Status,1732146460000,28,6,2,131,1575420030,43.00,3.0,23.0,0,0,0,38.0
Status,1732146460000,28,7,1,19,1575420030,33.10,193.0,18.0,1,0,0,28.099998
Status,1732146460000,28,8,1,15,1575420030,40.30,315.0,17.0,1,0,0,35.3
Status,1732146460000,28,9,1,2,1575420030,0.00,87.0,16.0,0,0,0,0.0
Status,1732146460000,28,10,1,21,1575420030,0.00,68.0,14.0,0,0,0,0.0
Status,1732146460000,28,11,1,8,1575420030,19.00,39.0,9.0,1,0,0,14.0
Status,1732146460000,28,12,1,5,1575420030,0.00,262.0,6.0,0,0,0,0.0
Status,1732146460000,28,13,3,9,1602000000,34.20,18.0,54.0,1,0,0,29.2
Status,1732146460000,28,14,3,8,1602000000,40.30,303.0,39.0,1,0,0,35.3
Status,1732146460000,28,15,3,16,1602000000,23.80,67.0,14.0,1,0,0,18.8
Status,1732146460000,28,16,3,20,1602000000,20.80,149.0,11.0,1,0,0,15.799999
Status,1732146460000,28,17,3,11,1602000000,0.00,272.0,1.0,0,0,0,0.0
Status,1732146460000,28,18,3,17,1602000000,45.20,0.0,0.0,0,0,0,40.2
Status,1732146460000,28,19,6,29,1575420030,39.90,204.0,61.0,1,0,0,34.9
Status,1732146460000,28,20,6,27,1575420030,37.60,37.0,58.0,1,0,0,32.6
Status,1732146460000,28,21,6,21,1575420030,41.60,269.0,57.0,1,0,0,36.6
Status,1732146460000,28,22,6,19,1575420030,39.10,297.0,51.0,1,0,0,34.1
Status,1732146460000,28,23,6,7,1575420030,0.00,161.0,16.0,0,0,0,0.0
Status,1732146460000,28,24,6,15,1575420030,0.00,95.0,11.0,0,0,0,0.0
Status,1732146460000,28,25,6,30,1575420030,0.00,58.0,10.0,0,0,0,0.0
Status,1732146460000,28,26,6,34,1575420030,0.00,47.0,6.0,0,0,0,0.0
Status,1732146460000,28,27,6,13,1575420030,0.00,142.0,1.0,0,0,0,0.0
Fix,GPS,37.4243733333,-122.1712400000,15.7,0.22647777,1.7,87.05,1732146461000,0.8,136.9,25345044000000,36.0,0,,,
Raw,1732146461000,14678000000,,95.51978224144028,-1416181664322999808,0.0,95.51978224144028,2164.1786411803537,0.0,0,30,0.0,16431,344878931961652,31,42.34400177001953,736.8422815368549,0.14999,17,10774.760324766588,0.00022499999613501132,1575420030,,,,0,30.27975474003036,1,6.0,42.34400177001953,0.0,0.0,0.0,66.7128,C,25345044000000,
Raw,1732146461000,14678000000,,95.51978224144028,-1416181664322999808,0.0,95.51978224144028,2164.1786411803537,0.0,0,14,0.0,16431,344878932860703,51,38.007999420166016,635.5734802583612,0.14999,17,9301.220198005227,0.00022499999613501132,1575420030,,,,0,25.666301191660303,1,6.0,38.007999420166016,0.0,0.0,0.0,66.7128,C,25345044000000,
Raw,1732146461000,14678000000,,95.51978224144028,-1416181664322999808,0.0,95.51978224144028,2164.1786411803537,0.0,0,22,0.0,16431,344878930654382,42,40.680999755859375,488.247617026972,0.14999,17,7151.541996890522,0.00022499999613501132,1575420030,,,,0,28.524433164810766,1,6.0,40.680999755859375,0.0,0.0,0.0,66.7128,C,25345044000000,
Raw,1732146461000,14678000000,,95.51978224144028,-1416181664322999808,0.0,95.51978224144028,2164.1786411803537,0.0,0,15,0.0,16431,344878922326176,58,35.29600143432617,164.65299414127153,0.14999,16,0.0,0.0,1575420030,,,,0,22.687026783238608,1,6.0,35.29600143432617,0.0,0.0,0.0,66.7128,C,25345044000000,
Raw,1732146461000,14678000000,,95.51978224144028,-1416181664322999808,0.0,95.51978224144028,2164.1786411803537,0.0,0,21,0.0,16431,344878919788912,51,36.599998474121094,472.78648840418595,0.14999,16,0.0,0.0,1575420030,,,,0,24.192858166403322,6,6.0,36.599998474121094,0.0,0.0,-4.325449500960585,66.7128,C,25345044000000,
Raw,1732146461000,14678000000,,95.51978224144028,-1416181664322999808,0.0,95.51978224144028,2164.1786411803537,0.0,0,29,0.0,16431,344878920967275,51,34.900001525878906,936.2772052256377,0.14999,16,0.0,0.0,1575420030,,,,0,22.343295650913323,6,6.0,34.900001525878906,0.0,0.0,-4.325449500960585,66.7128,C,25345044000000,
Raw,1732146461000,14678000000,,95.51978224144028,-1416181664322999808,0.0,95.51978224144028,2164.1786411803537,0.0,0,19,0.0,16431,344878920179948,58,34.099998474121094,459.6801975238634,0.14999,16,0.0,0.0,1575420030,,,,0,21.472303990925077,6,6.0,34.099998474121094,0.0,0.0,-4.325449500960585,66.7128,C,25345044000000,
Raw,1732146461000,14678000000,,95.51978224144028,-1416181664322999808,0.0,95.51978224144028,2164.1786411803537,0.0,0,27,0.0,16431,344878920085049,51,32.59000015258789,895.6993095053645,0.14999,16,0.0,0.0,1575420030,,,,0,21.74972125211565,6,6.0,32.59000015258789,0.0,0.0,-4.325449500960585,66.7128,C,25345044000000,
Raw,1732146461000,14678000000,,95.51978224144028,-1416181664322999808,0.0,95.51978224144028,2164.1786411803537,0.0,0,7,0.0,16431,344878926716506,235,28.18199920654297,1001.4329039569395,0.14999,16,0.0,0.0,1575420030,,,,0,14.291026124361236,1,6.0,28.18199920654297,0.0,0.0,0.0,66.7128,C,25345044000000,
Raw,1732146461000,14678000000,,95.51978224144028,-1416181664322999808,0.0,95.51978224144028,2164.1786411803537,0.0,0,17,0.0,16431,344878929292689,51,36.426998138427734,162.53532661356277,0.14999,16,0.0,0.0,1575420030,,,,0,23.940191605216135,1,6.0,36.426998138427734,0.0,0.0,0.0,66.7128,C,25345044000000,
Raw,1732146461000,14678000000,,95.51978224144028,-1416181664322999808,0.0,95.51978224144028,2164.1786411803537,0.0,0,9,0.0,17,724282,74,5.0,778.5600602617812,0.14999,16,0.0,0.0,1600875010,,,,0,16.08817755376989,3,6.0,30.0,0.0,0.0,27.77411502427316,66.7128,C,25345044000000,
Raw,1732146461000,14678000000,,95.51978224144028,-1416181664322999808,0.0,95.51978224144028,2164.1786411803537,0.0,0,8,0.0,17,351633,58,5.0,459.7453600129247,0.14999,16,0.0,0.0,1605374980,,,,0,22.80574336114268,3,6.0,35.0,0.0,0.0,27.77411502427316,66.7128,C,25345044000000,
Raw,1732146461000,14678000000,,95.51978224144028,-1416181664322999808,0.0,95.51978224144028,2164.1786411803537,0.0,0,20,0.0,17,73504,487,5.0,-133.5639683373197,0.14999,16,0.0,0.0,1603124990,,,,0,0.0,3,6.0,18.0,0.0,0.0,27.77411502427316,66.7128,C,25345044000000,
Raw,1732146461000,14678000000,,95.51978224144028,-1416181664322999808,0.0,95.51978224144028,2164.1786411803537,0.0,0,16,0.0,17,263730,487,5.0,1136.6191032391382,0.14999,16,0.0,0.0,1601437440,,,,0,2.253545645527899,3,6.0,18.0,0.0,0.0,27.77411502427316,66.7128,C,25345044000000,
Raw,1732146461000,14678000000,,95.51978224144028,-1416181664322999808,0.0,95.51978224144028,2164.1786411803537,0.0,0,13,0.0,16431,344878930029286,58,34.82699966430664,346.5578100997481,0.14999,17,6840.036751130966,0.00039999998989515007,1575420030,,,,0,22.16076714937322,1,6.0,34.82699966430664,0.0,0.0,0.0,66.7128,C,25345044000000,
Raw,1732146461000,14678000000,,95.51978224144028,-1416181664322999808,0.0,95.51978224144028,2164.1786411803537,0.0,0,8,0.0,16431,344878918237784,797,14.0,1328.1335042583955,0.14999,16,0.0,0.0,1575420030,,,,0,0.0,1,6.0,14.0,0.0,0.0,0.0,66.7128,C,25345044000000,
Raw,1732146461000,14678000000,,95.51978224144028,-1416181664322999808,0.0,95.51978224144028,2164.1786411803537,0.0,0,19,0.0,16431,344878920681134,235,28.111000061035156,-47.79390984292643,0.14999,16,0.0,0.0,1575420030,,,,0,15.836530389353726,1,6.0,28.111000061035156,0.0,0.0,0.0,66.7128,C,25345044000000,
Fix,FLP,37.4243712000,-122.1712469000,-0.22044535997398018,0.108982116,1.783,285.91113,1732146461196,0.8,136.9,25345044000000,1.0477107,0,,,
Fix,NLP,37.4242683000,-122.1711192000,2.299999952316284,,26.083,,1732146460759,,,25344607000000,1.0,0,,,
Status,1732146461000,28,0,1,14,1575420030,43.00,322.0,74.0,1,0,0,38.0
Status,1732146461000,28,1,1,30,1575420030,44.70,75.0,70.0,1,0,0,39.7
Status,1732146461000,28,2,1,22,1575420030,40.60,271.0,60.0,1,0,0,35.6
Status,1732146461000,28,3,1,13,1575420030,47.30,302.0,48.0,1,0,0,42.3
Status,1732146461000,28,4,1,17,1575420030,38.00,175.0,45.0,1,0,0,33.0
Status,1732146461000,28,5,1,7,1575420030,34.60,104.0,37.0,1,0,0,29.599998
Status,1732146461000,28,6,2,131,1575420030,39.00,3.0,23.0,0,0,0,34.0
Status,1732146461000,28,7,1,19,1575420030,38.10,193.0,18.0,1,0,0,33.1
Status,1732146461000,28,8,1,15,1575420030,35.50,315.0,17.0,1,0,0,30.5
Status,1732146461000,28,9,1,2,1575420030,0.00,87.0,16.0,0,0,0,0.0
Status,1732146461000,28,10,1,21,1575420030,0.00,68.0,14.0,0,0,0,0.0
Status,1732146461000,28,11,1,8,1575420030,19.00,39.0,9.0,1,0,0,14.0
Status,1732146461000,28,12,1,5,1575420030,0.00,262.0,6.0,0,0,0,0.0
Status,1732146461000,28,13,3,9,1602000000,34.40,18.0,54.0,1,0,0,29.400002
Status,1732146461000,28,14,3,8,1602000000,38.30,303.0,39.0,1,0,0,33.3
Status,1732146461000,28,15,3,16,1602000000,23.10,67.0,14.0,1,0,0,18.1
Status,1732146461000,28,16,3,20,1602000000,22.10,149.0,11.0,1,0,0,17.1
Status,1732146461000,28,17,3,11,1602000000,0.00,272.0,1.0,0,0,0,0.0
Status,1732146461000,28,18,3,17,1602000000,38.60,0.0,0.0,0,0,0,33.6
Status,1732146461000,28,19,6,29,1575420030,32.90,204.0,61.0,1,0,0,27.900002
Status,1732146461000,28,20,6,27,1575420030,42.00,37.0,58.0,1,0,0,37.0
Status,1732146461000,28,21,6,21,1575420030,36.00,269.0,57.0,1,0,0,31.0
Status,1732146461000,28,22,6,19,1575420030,37.60,297.0,51.0,1,0,0,32.6
Status,1732146461000,28,23,6,7,1575420030,0.00,161.0,16.0,0,0,0,0.0
Status,1732146461000,28,24,6,15,1575420030,0.00,95.0,11.0,0,0,0,0.0
Status,1732146461000,28,25,6,30,1575420030,0.00,58.0,10.0,0,0,0,0.0
Status,1732146461000,28,26,6,34,1575420030,0.00,47.0,6.0,0,0,0,0.0
Status,1732146461000,28,27,6,13,1575420030,0.00,142.0,1.0,0,0,0,0.0
Fix,GPS,37.4243783333,-122.1712350000,15.599999999999998,0.4400875,1.7,65.48,1732146462000,0.8,68.2,25346044000000,36.0,0,,,
Raw,1732146462000,15678000000,,95.8773395792038,-1416181664322999808,0.0,95.8773395792038,2161.846290791253,0.0,0,30,0.0,16431,344879931959195,42,39.68199920654297,736.0811533040776,0.14999,17,11510.672958876816,0.00022499999613501132,1575420030,,,,0,27.46054322798573,1,6.0,39.68199920654297,0.0,0.0,0.0,66.7128,C,25346044000000,
Raw,1732146462000,15678000000,,95.8773395792038,-1416181664322999808,0.0,95.8773395792038,2161.846290791253,0.0,0,14,0.0,16431,344879932858587,51,37.9630012512207,635.497102622111,0.14999,17,9936.28509507768,0.00022499999613501132,1575420030,,,,0,24.693383931823803,1,6.0,37.9630012512207,0.0,0.0,0.0,66.7128,C,25346044000000,
Raw,1732146462000,15678000000,,95.8773395792038,-1416181664322999808,0.0,95.8773395792038,2161.846290791253,0.0,0,22,0.0,16431,344879930652755,51,35.64400100708008,488.40692293615797,0.14999,16,0.0,0.0,1575420030,,,,0,23.07645947266573,1,6.0,35.64400100708008,0.0,0.0,0.0,66.7128,C,25346044000000,
Raw,1732146462000,15678000000,,95.8773395792038,-1416181664322999808,0.0,95.8773395792038,2161.846290791253,0.0,0,15,0.0,16431,344879922325628,235,30.452999114990234,164.03644449974146,0.14999,17,2766.1064248283706,0.0008999999845400453,1575420030,,,,0,17.089969688758156,1,6.0,30.452999114990234,0.0,0.0,0.0,66.7128,C,25346044000000,
Raw,1732146462000,15678000000,,95.8773395792038,-1416181664322999808,0.0,95.8773395792038,2161.846290791253,0.0,0,21,0.0,16431,344879919787338,74,31.0,472.06433878260935,0.14999,16,0.0,0.0,1575420030,,,,0,18.0816220605736,6,6.0,31.0,0.0,0.0,-3.61624963545992,66.7128,C,25346044000000,
Raw,1732146462000,15678000000,,95.8773395792038,-1416181664322999808,0.0,95.8773395792038,2161.846290791253,0.0,0,29,0.0,16431,344879920964151,235,27.899999618530273,935.7347567579635,0.14999,16,0.0,0.0,1575420030,,,,0,14.555457189318208,6,6.0,27.899999618530273,0.0,0.0,-3.61624963545992,66.7128,C,25346044000000,
Raw,1732146462000,15678000000,,95.8773395792038,-1416181664322999808,0.0,95.8773395792038,2161.846290791253,0.0,0,19,0.0,16431,344879920178413,58,32.599998474121094,458.9425307912725,0.14999,16,0.0,0.0,1575420030,,,,0,19.80725378988488,6,6.0,32.599998474121094,0.0,0.0,-3.61624963545992,66.7128,C,25346044000000,
Raw,1732146462000,15678000000,,95.8773395792038,-1416181664322999808,0.0,95.8773395792038,2161.846290791253,0.0,0,27,0.0,16431,344879920082061,51,37.0,894.9768811332906,0.14999,16,0.0,0.0,1575420030,,,,0,24.554472105776956,6,6.0,37.0,0.0,0.0,-3.61624963545992,66.7128,C,25346044000000,
Raw,1732146462000,15678000000,,95.8773395792038,-1416181664322999808,0.0,95.8773395792038,2161.846290791253,0.0,0,17,0.0,16431,344879929292144,58,32.959999084472656,161.9360130444468,0.14999,16,0.0,0.0,1575420030,,,,0,20.045815027328366,1,6.0,32.959999084472656,0.0,0.0,0.0,66.7128,C,25346044000000,
Raw,1732146462000,15678000000,,95.8773395792038,-1416181664322999808,0.0,95.8773395792038,2161.846290791253,0.0,0,9,0.0,17,721683,235,5.0,777.9376323227128,0.14999,16,0.0,0.0,1600875010,,,,0,16.28542860877125,3,6.0,29.0,0.0,0.0,28.14328377539741,66.7128,C,25346044000000,
Raw,1732146462000,15678000000,,95.8773395792038,-1416181664322999808,0.0,95.8773395792038,2161.846290791253,0.0,0,8,0.0,17,350107,58,5.0,459.82970436139334,0.14999,16,0.0,0.0,1605374980,,,,0,20.634096388963716,3,6.0,33.0,0.0,0.0,28.14328377539741,66.7128,C,25346044000000,
Raw,1732146462000,15678000000,,95.8773395792038,-1416181664322999808,0.0,95.8773395792038,2161.846290791253,0.0,0,20,0.0,17,73940,487,5.0,-133.99468258694992,0.14999,16,0.0,0.0,1603124990,,,,0,0.0,3,6.0,18.0,0.0,0.0,28.14328377539741,66.7128,C,25346044000000,
Raw,1732146462000,15678000000,,95.8773395792038,-1416181664322999808,0.0,95.8773395792038,2161.846290791253,0.0,0,16,0.0,17,259934,487,5.0,1138.2503574484508,0.14999,16,0.0,0.0,1601437440,,,,0,1.0216242205976593,3,6.0,19.0,0.0,0.0,28.14328377539741,66.7128,C,25346044000000,
Raw,1732146462000,15678000000,,95.8773395792038,-1416181664322999808,0.0,95.8773395792038,2161.846290791253,0.0,0,7,0.0,16431,344879926713140,235,29.57699966430664,1001.5963446651682,0.14999,16,0.0,0.0,1575420030,,,,0,16.03647018094076,1,6.0,29.57699966430664,0.0,0.0,0.0,66.7128,C,25346044000000,
Raw,1732146462000,15678000000,,95.8773395792038,-1416181664322999808,0.0,95.8773395792038,2161.846290791253,0.0,0,13,0.0,16431,344879930028131,31,42.32899856567383,346.0016563992918,0.14999,16,0.0,0.0,1575420030,,,,0,30.262694308052932,1,6.0,42.32899856567383,0.0,0.0,0.0,66.7128,C,25346044000000,
Raw,1732146462000,15678000000,,95.8773395792038,-1416181664322999808,0.0,95.8773395792038,2161.846290791253,0.0,0,8,0.0,16431,344879918233374,797,13.979999542236328,1324.7479865523012,0.14999,16,0.0,0.0,1575420030,,,,0,0.0,1,6.0,13.979999542236328,0.0,0.0,0.0,66.7128,C,25346044000000,
Raw,1732146462000,15678000000,,95.8773395792038,-1416181664322999808,0.0,95.8773395792038,2161.846290791253,0.0,0,19,0.0,16431,344879920681285,74,33.060001373291016,-48.013193567440176,0.14999,16,0.0,0.0,1575420030,,,,0,20.155851522067394,1,6.0,33.060001373291016,0.0,0.0,0.0,66.7128,C,25346044000000,
Fix,FLP,37.4243750000,-122.1712410000,0.2565472557169075,0.07005142,1.75,,1732146462196,0.8,,25346044000000,0.81908303,0,,,
Status,1732146462000,28,0,1,14,1575420030,43.00,322.0,74.0,1,0,0,38.0
Status,1732146462000,28,1,1,30,1575420030,44.70,75.0,70.0,1,0,0,39.7
Status,1732146462000,28,2,1,22,1575420030,40.60,271.0,60.0,1,0,0,35.6
Status,1732146462000,28,3,1,13,1575420030,44.70,302.0,48.0,1,0,0,39.7
Status,1732146462000,28,4,1,17,1575420030,42.00,175.0,45.0,1,0,0,37.0
Status,1732146462000,28,5,1,7,1575420030,34.30,104.0,37.0,1,0,0,29.3
Status,1732146462000,28,6,2,131,1575420030,42.00,3.0,23.0,0,0,0,37.0
Status,1732146462000,28,7,1,19,1575420030,31.30,193.0,18.0,1,0,0,26.3
Status,1732146462000,28,8,1,15,1575420030,40.00,315.0,17.0,1,0,0,35.0
Status,1732146462000,28,9,1,2,1575420030,29.30,87.0,16.0,1,0,0,24.3
Status,1732146462000,28,10,1,21,1575420030,0.00,68.0,14.0,0,0,0,0.0
Status,1732146462000,28,11,1,8,1575420030,19.00,39.0,9.0,1,0,0,14.0
Status,1732146462000,28,12,1,5,1575420030,0.00,262.0,6.0,0,0,0,0.0
Status,1732146462000,28,13,3,9,1602000000,37.00,18.0,54.0,1,0,0,32.0
Status,1732146462000,28,14,3,8,1602000000,33.50,303.0,39.0,1,0,0,28.5
Status,1732146462000,28,15,3,16,1602000000,23.10,67.0,14.0,1,0,0,18.1
Status,1732146462000,28,16,3,20,1602000000,23.40,149.0,11.0,1,0,0,18.4
Status,1732146462000,28,17,3,11,1602000000,0.00,272.0,1.0,0,0,0,0.0
Status,1732146462000,28,18,3,17,1602000000,41.30,0.0,0.0,0,0,0,36.3
Status,1732146462000,28,19,6,29,1575420030,39.00,204.0,61.0,1,0,0,34.0
Status,1732146462000,28,20,6,27,1575420030,42.00,37.0,58.0,1,0,0,37.0
Status,1732146462000,28,21,6,21,1575420030,34.20,269.0,57.0,1,0,0,29.2
Status,1732146462000,28,22,6,19,1575420030,34.90,297.0,51.0,1,0,0,29.900002
Status,1732146462000,28,23,6,7,1575420030,0.00,161.0,16.0,0,0,0,0.0
Status,1732146462000,28,24,6,15,1575420030,0.00,95.0,11.0,0,0,0,0.0
Status,1732146462000,28,25,6,30,1575420030,0.00,58.0,10.0,0,0,0,0.0
Status,1732146462000,28,26,6,34,1575420030,0.00,47.0,6.0,0,0,0,0.0
Status,1732146462000,28,27,6,13,1575420030,0.00,142.0,1.0,0,0,0,0.0
Fix,GPS,37.4243850000,-122.1712333333,15.599999999999998,0.61251944,1.7,77.66,1732146463000,1.4,106.1,25347044000000,35.7,0,,,
Raw,1732146463000,16678000000,,94.49496692378419,-1416181664322999808,0.0,94.49496692378419,2161.3961594687817,0.0,0,30,0.0,16431,344880931956739,42,39.698001861572266,735.9546005783201,0.14999,17,12246.554590705175,0.00022499999613501132,1575420030,,,,0,27.807216030636937,1,6.0,39.698001861572266,0.0,0.0,0.0,66.7128,C,25347044000000,
Raw,1732146463000,16678000000,,94.49496692378419,-1416181664322999808,0.0,94.49496692378419,2161.3961594687817,0.0,0,14,0.0,16431,344880932856471,42,38.0369987487793,635.20557606039,0.14999,17,10571.291065456473,0.00022499999613501132,1575420030,,,,0,27.2093674714192,1,6.0,38.0369987487793,0.0,0.0,0.0,66.7128,C,25347044000000,
Raw,1732146463000,16678000000,,94.49496692378419,-1416181664322999808,0.0,94.49496692378419,2161.3961594687817,0.0,0,22,0.0,16431,344880930651128,58,35.58100128173828,487.53211095891356,0.14999,17,8126.724197052664,0.00039999998989515007,1575420030,,,,0,21.669719071450963,1,6.0,35.58100128173828,0.0,0.0,0.0,66.7128,C,25347044000000,
Raw,1732146463000,16678000000,,94.49496692378419,-1416181664322999808,0.0,94.49496692378419,2161.3961594687817,0.0,0,15,0.0,16431,344880922325080,58,34.994998931884766,164.07830353274716,0.14999,16,0.0,0.0,1575420030,,,,0,22.353914099226056,1,6.0,34.994998931884766,0.0,0.0,0.0,66.7128,C,25347044000000,
Raw,1732146463000,16678000000,,94.49496692378419,-1416181664322999808,0.0,94.49496692378419,2161.3961594687817,0.0,0,21,0.0,16431,344880919785762,235,29.200000762939453,471.8842659613773,0.14999,16,0.0,0.0,1575420030,,,,0,16.123876097267058,6,6.0,29.200000762939453,0.0,0.0,-2.688295144434247,66.7128,C,25347044000000,
Raw,1732146463000,16678000000,,94.49496692378419,-1416181664322999808,0.0,94.49496692378419,2161.3961594687817,0.0,0,29,0.0,16431,344880920961028,58,34.0,935.6578216207188,0.14999,16,0.0,0.0,1575420030,,,,0,21.377827033493443,6,6.0,34.0,0.0,0.0,-2.688295144434247,66.7128,C,25347044000000,
Raw,1732146463000,16678000000,,94.49496692378419,-1416181664322999808,0.0,94.49496692378419,2161.3961594687817,0.0,0,19,0.0,16431,344880920176880,74,29.899999618530273,458.9946106758445,0.14999,16,0.0,0.0,1575420030,,,,0,16.833322460511432,6,6.0,29.899999618530273,0.0,0.0,-2.688295144434247,66.7128,C,25347044000000,
Raw,1732146463000,16678000000,,94.49496692378419,-1416181664322999808,0.0,94.49496692378419,2161.3961594687817,0.0,0,27,0.0,16431,344880920079072,51,36.95000076293945,895.067660878566,0.14999,16,0.0,0.0,1575420030,,,,0,23.486517233881354,6,6.0,36.95000076293945,0.0,0.0,-2.688295144434247,66.7128,C,25347044000000,
Raw,1732146463000,16678000000,,94.49496692378419,-1416181664322999808,0.0,94.49496692378419,2161.3961594687817,0.0,0,17,0.0,16431,344880929291600,51,37.007999420166016,161.75751980936593,0.14999,16,0.0,0.0,1575420030,,,,0,24.57914794520845,1,6.0,37.007999420166016,0.0,0.0,0.0,66.7128,C,25347044000000,
Raw,1732146463000,16678000000,,94.49496692378419,-1416181664322999808,0.0,94.49496692378419,2161.3961594687817,0.0,0,9,0.0,17,719095,74,5.0,777.7474383880483,0.14999,16,0.0,0.0,1600875010,,,,0,19.203959681976997,3,6.0,32.0,0.0,0.0,29.60738472698441,66.7128,C,25347044000000,
Raw,1732146463000,16678000000,,94.49496692378419,-1416181664322999808,0.0,94.49496692378419,2161.3961594687817,0.0,0,8,0.0,17,348570,74,5.0,459.04534751217466,0.14999,16,0.0,0.0,1605374980,,,,0,15.228251620131834,3,6.0,30.0,0.0,0.0,29.60738472698441,66.7128,C,25347044000000,
Raw,1732146463000,16678000000,,94.49496692378419,-1416181664322999808,0.0,94.49496692378419,2161.3961594687817,0.0,0,20,0.0,17,74387,487,5.0,-134.38750274847405,0.14999,16,0.0,0.0,1603124990,,,,0,1.5860754566204989,3,6.0,20.0,0.0,0.0,29.60738472698441,66.7128,C,25347044000000,
Raw,1732146463000,16678000000,,94.49496692378419,-1416181664322999808,0.0,94.49496692378419,2161.3961594687817,0.0,0,16,0.0,17,256144,487,5.0,1136.0347365373486,0.14999,16,0.0,0.0,1601437440,,,,0,1.0216242205976593,3,6.0,20.0,0.0,0.0,29.60738472698441,66.7128,C,25347044000000,
Raw,1732146463000,16678000000,,94.49496692378419,-1416181664322999808,0.0,94.49496692378419,2161.3961594687817,0.0,0,2,0.0,16431,344880920209653,396,24.268999099731445,430.5036617258184,0.14999,16,0.0,0.0,1575420030,,,,0,8.97908284030371,1,6.0,24.268999099731445,0.0,0.0,0.0,66.7128,C,25347044000000,
Raw,1732146463000,16678000000,,94.49496692378419,-1416181664322999808,0.0,94.49496692378419,2161.3961594687817,0.0,0,7,0.0,16431,344880926709802,235,29.292999267578125,1000.7947511518717,0.14999,16,0.0,0.0,1575420030,,,,0,15.677776028896835,1,6.0,29.292999267578125,0.0,0.0,0.0,66.7128,C,25347044000000,
Raw,1732146463000,16678000000,,94.49496692378419,-1416181664322999808,0.0,94.49496692378419,2161.3961594687817,0.0,0,13,0.0,16431,344880930026979,42,39.672000885009766,346.01431631770913,0.14999,17,7531.192650803265,0.00022499999613501132,1575420030,,,,0,27.454646493449637,1,6.0,39.672000885009766,0.0,0.0,0.0,66.7128,C,25347044000000,
Raw,1732146463000,16678000000,,94.49496692378419,-1416181664322999808,0.0,94.49496692378419,2161.3961594687817,0.0,0,8,0.0,16431,344880918228951,1797,13.961000442504883,1326.899382890179,0.14999,16,0.0,0.0,1575420030,,,,0,0.0,1,6.0,13.961000442504883,0.0,0.0,0.0,66.7128,C,25347044000000,
Raw,1732146463000,16678000000,,94.49496692378419,-1416181664322999808,0.0,94.49496692378419,2161.3961594687817,0.0,0,19,0.0,16431,344880920681447,316,26.288999557495117,-48.27317486455435,0.14999,16,0.0,0.0,1575420030,,,,0,11.823519735279913,1,6.0,26.288999557495117,0.0,0.0,0.0,66.7128,C,25347044000000,
Fix,FLP,37.4243802000,-122.1712372000,0.42296062544939694,0.075287156,1.716,,1732146463196,1.4,,25347044000000,0.84629405,0,,,
Status,1732146463000,28,0,1,14,1575420030,48.10,322.0,74.0,1,0,0,43.1
Status,1732146463000,28,1,1,30,1575420030,48.80,75.0,70.0,1,0,0,43.8
Status,1732146463000,28,2,1,22,1575420030,43.90,271.0,60.0,1,0,0,38.9
Status,1732146463000,28,3,1,13,1575420030,38.10,302.0,48.0,1,0,0,33.1
Status,1732146463000,28,4,1,17,1575420030,0.00,175.0,45.0,0,0,0,0.0
Status,1732146463000,28,5,1,7,1575420030,34.40,104.0,37.0,1,0,0,29.400002
Status,1732146463000,28,6,2,131,1575420030,42.00,3.0,23.0,0,0,0,37.0
Status,1732146463000,28,7,1,19,1575420030,35.60,193.0,18.0,1,0,0,30.599998
Status,1732146463000,28,8,1,15,1575420030,33.40,315.0,17.0,1,0,0,28.400002
Status,1732146463000,28,9,1,2,1575420030,28.60,87.0,16.0,1,0,0,23.6
Status,1732146463000,28,10,1,21,1575420030,0.00,68.0,14.0,0,0,0,0.0
Status,1732146463000,28,11,1,8,1575420030,21.70,39.0,9.0,1,0,0,16.7
Status,1732146463000,28,12,1,5,1575420030,0.00,262.0,6.0,0,0,0,0.0
Status,1732146463000,28,13,3,9,1602000000,41.40,18.0,54.0,1,0,0,36.4
Status,1732146463000,28,14,3,8,1602000000,35.30,303.0,39.0,1,0,0,30.3
Status,1732146463000,28,15,3,16,1602000000,23.90,67.0,14.0,1,0,0,18.9
Status,1732146463000,28,16,3,20,1602000000,24.90,149.0,11.0,1,0,0,19.9
Status,1732146463000,28,17,3,11,1602000000,0.00,272.0,1.0,0,0,0,0.0
Status,1732146463000,28,18,3,17,1602000000,40.10,0.0,0.0,0,0,0,35.1
Status,1732146463000,28,19,6,29,1575420030,34.30,204.0,61.0,1,0,0,29.3
Status,1732146463000,28,20,6,27,1575420030,42.00,37.0,58.0,1,0,0,37.0
Status,1732146463000,28,21,6,21,1575420030,39.40,269.0,57.0,1,0,0,34.4
Status,1732146463000,28,22,6,19,1575420030,28.90,297.0,51.0,1,0,0,23.9
Status,1732146463000,28,23,6,7,1575420030,0.00,161.0,16.0,0,0,0,0.0
Status,1732146463000,28,24,6,15,1575420030,0.00,95.0,11.0,0,0,0,0.0
Status,1732146463000,28,25,6,30,1575420030,0.00,58.0,10.0,0,0,0,0.0
Status,1732146463000,28,26,6,34,1575420030,0.00,47.0,6.0,0,0,0,0.0
Status,1732146463000,28,27,6,13,1575420030,0.00,142.0,1.0,0,0,0,0.0
Fix,GPS,37.4243850000,-122.1712266667,15.599999999999998,0.5111192,1.7,79.14,1732146464000,1.0,94.9,25348044000000,35.5,0,,,
Fix,FLP,37.4243829000,-122.1712316000,2.299999952316284,0.09785257,1.7,,1732146464196,1.0,,25348044000000,0.85065633,0,,,
Raw,1732146464000,17678000000,,93.25024748117332,-1416181664322999808,0.0,93.25024748117332,2160.9164196348565,0.0,0,30,0.0,16431,344881931954284,31,43.8489990234375,735.9800133319873,0.14999,17,12982.395754349365,0.00022499999613501132,1575420030,,,,0,31.850231872083064,1,6.0,43.8489990234375,0.0,0.0,0.0,66.7128,C,25348044000000,
Raw,1732146464000,17678000000,,93.25024748117332,-1416181664322999808,0.0,93.25024748117332,2160.9164196348565,0.0,0,14,0.0,16431,344881932854352,31,43.11000061035156,635.1041108793861,0.14999,17,11206.23769682316,0.00022499999613501132,1575420030,,,,0,31.081033908347862,1,6.0,43.11000061035156,0.0,0.0,0.0,66.7128,C,25348044000000,
Raw,1732146464000,17678000000,,93.25024748117332,-1416181664322999808,0.0,93.25024748117332,2160.9164196348565,0.0,0,22,0.0,16431,344881930649502,42,38.91600036621094,487.46483917224066,0.14999,16,0.0,0.0,1575420030,,,,0,26.645353964426008,1,6.0,38.91600036621094,0.0,0.0,0.0,66.7128,C,25348044000000,
Raw,1732146464000,17678000000,,93.25024748117332,-1416181664322999808,0.0,93.25024748117332,2160.9164196348565,0.0,0,15,0.0,16431,344881922324531,316,28.430999755859375,164.45155044858262,0.14999,16,0.0,0.0,1575420030,,,,0,14.60739091436707,1,6.0,28.430999755859375,0.0,0.0,0.0,66.7128,C,25348044000000,
Raw,1732146464000,17678000000,,93.25024748117332,-1416181664322999808,0.0,93.25024748117332,2160.9164196348565,0.0,0,21,0.0,16431,344881919784186,51,34.400001525878906,472.0467775012818,0.14999,16,0.0,0.0,1575420030,,,,0,21.80641786098213,6,6.0,34.400001525878906,0.0,0.0,-1.834967236099769,66.7128,C,25348044000000,
Raw,1732146464000,17678000000,,93.25024748117332,-1416181664322999808,0.0,93.25024748117332,2160.9164196348565,0.0,0,29,0.0,16431,344881920957907,74,29.299999237060547,935.6153586283024,0.14999,16,0.0,0.0,1575420030,,,,0,16.14559083267198,6,6.0,29.299999237060547,0.0,0.0,-1.834967236099769,66.7128,C,25348044000000,
Raw,1732146464000,17678000000,,93.25024748117332,-1416181664322999808,0.0,93.25024748117332,2160.9164196348565,0.0,0,19,0.0,16431,344881920175349,235,23.899999618530273,459.0651810100683,0.14999,16,0.0,0.0,1575420030,,,,0,9.645724710348674,6,6.0,23.899999618530273,0.0,0.0,-1.834967236099769,66.7128,C,25348044000000,
Raw,1732146464000,17678000000,,93.25024748117332,-1416181664322999808,0.0,93.25024748117332,2160.9164196348565,0.0,0,27,0.0,16431,344881920076086,51,36.96699905395508,895.0009465928877,0.14999,16,0.0,0.0,1575420030,,,,0,24.854015225170013,6,6.0,36.96699905395508,0.0,0.0,-1.834967236099769,66.7128,C,25348044000000,
Raw,1732146464000,17678000000,,93.25024748117332,-1416181664322999808,0.0,93.25024748117332,2160.9164196348565,0.0,0,9,0.0,17,716506,51,5.0,778.1219741363109,0.14999,17,13714.694161648531,0.00022499999613501132,1600875010,,,,0,23.980826315070342,3,6.0,37.0,0.0,0.0,30.926338562023293,66.7128,C,25348044000000,
Raw,1732146464000,17678000000,,93.25024748117332,-1416181664322999808,0.0,93.25024748117332,2160.9164196348565,0.0,0,8,0.0,17,347038,235,5.0,460.0725704934433,0.14999,16,0.0,0.0,1605374980,,,,0,17.3565390080809,3,6.0,27.0,0.0,0.0,30.926338562023293,66.7128,C,25348044000000,
Raw,1732146464000,17678000000,,93.25024748117332,-1416181664322999808,0.0,93.25024748117332,2160.9164196348565,0.0,0,20,0.0,17,74850,487,5.0,-134.70590439962112,0.14999,16,0.0,0.0,1603124990,,,,0,4.1335790102127845,3,6.0,20.0,0.0,0.0,30.926338562023293,66.7128,C,25348044000000,
Raw,1732146464000,17678000000,,93.25024748117332,-1416181664322999808,0.0,93.25024748117332,2160.9164196348565,0.0,0,16,0.0,17,252355,396,5.0,1135.5517405022704,0.14999,16,0.0,0.0,1601437440,,,,0,2.395940467986857,3,6.0,22.0,0.0,0.0,30.926338562023293,66.7128,C,25348044000000,
Raw,1732146464000,17678000000,,93.25024748117332,-1416181664322999808,0.0,93.25024748117332,2160.9164196348565,0.0,0,2,0.0,16431,344881920208216,396,23.611000061035156,432.11075125937333,0.14999,16,0.0,0.0,1575420030,,,,0,8.039151586779237,1,6.0,23.611000061035156,0.0,0.0,0.0,66.7128,C,25348044000000,
Raw,1732146464000,17678000000,,93.25024748117332,-1416181664322999808,0.0,93.25024748117332,2160.9164196348565,0.0,0,7,0.0,16431,344881926706461,235,29.444000244140625,1000.9420243312591,0.14999,16,0.0,0.0,1575420030,,,,0,15.858974561113433,1,6.0,29.444000244140625,0.0,0.0,0.0,66.7128,C,25348044000000,
Raw,1732146464000,17678000000,,93.25024748117332,-1416181664322999808,0.0,93.25024748117332,2160.9164196348565,0.0,0,13,0.0,16431,344881930025823,58,33.104000091552734,345.13183870178995,0.14999,16,0.0,0.0,1575420030,,,,0,20.210351400560306,1,6.0,33.104000091552734,0.0,0.0,0.0,66.7128,C,25348044000000,
Raw,1732146464000,17678000000,,93.25024748117332,-1416181664322999808,0.0,93.25024748117332,2160.9164196348565,0.0,0,8,0.0,16431,344881918224503,797,16.719999313354492,1332.594813050261,0.14999,16,0.0,0.0,1575420030,,,,0,0.0,1,6.0,16.719999313354492,0.0,0.0,0.0,66.7128,C,25348044000000,
Raw,1732146464000,17678000000,,93.25024748117332,-1416181664322999808,0.0,93.25024748117332,2160.9164196348565,0.0,0,19,0.0,16431,344881920681610,74,30.55699920654297,-49.040621441936224,0.14999,16,0.0,0.0,1575420030,,,,0,17.225086252189133,1,6.0,30.55699920654297,0.0,0.0,0.0,66.7128,C,25348044000000,
Status,1732146464000,28,0,1,14,1575420030,48.00,322.0,74.0,1,0,0,43.0
Status,1732146464000,28,1,1,30,1575420030,48.80,75.0,70.0,1,0,0,43.8
Status,1732146464000,28,2,1,22,1575420030,40.00,272.0,60.0,1,0,0,35.0
Status,1732146464000,28,3,1,13,1575420030,43.70,302.0,48.0,1,0,0,38.7
Status,1732146464000,28,4,1,17,1575420030,37.90,175.0,45.0,1,0,0,32.9
Status,1732146464000,28,5,1,7,1575420030,38.50,104.0,37.0,1,0,0,33.5
Status,1732146464000,28,6,2,131,1575420030,44.00,3.0,23.0,0,0,0,39.0
Status,1732146464000,28,7,1,19,1575420030,37.50,193.0,18.0,1,0,0,32.5
Status,1732146464000,28,8,1,15,1575420030,35.30,315.0,17.0,1,0,0,30.3
Status,1732146464000,28,9,1,2,1575420030,30.70,87.0,16.0,1,0,0,25.7
Status,1732146464000,28,10,1,21,1575420030,0.00,68.0,14.0,0,0,0,0.0
Status,1732146464000,28,11,1,8,1575420030,21.70,39.0,9.0,1,0,0,16.7
Status,1732146464000,28,12,1,5,1575420030,0.00,262.0,6.0,0,0,0,0.0
Status,1732146464000,28,13,3,9,1602000000,43.50,18.0,54.0,1,0,0,38.5
Status,1732146464000,28,14,3,8,1602000000,34.70,303.0,39.0,1,0,0,29.7
Status,1732146464000,28,15,3,16,1602000000,25.90,67.0,14.0,1,0,0,20.9
Status,1732146464000,28,16,3,20,1602000000,25.50,149.0,11.0,1,0,0,20.5
Status,1732146464000,28,17,3,11,1602000000,0.00,272.0,1.0,0,0,0,0.0
Status,1732146464000,28,18,3,17,1602000000,44.00,0.0,0.0,0,0,0,39.0
Status,1732146464000,28,19,6,29,1575420030,37.70,204.0,61.0,1,0,0,32.7
Status,1732146464000,28,20,6,27,1575420030,42.10,37.0,58.0,1,0,0,37.1
Status,1732146464000,28,21,6,21,1575420030,42.00,269.0,57.0,1,0,0,37.0
Status,1732146464000,28,22,6,19,1575420030,28.00,297.0,51.0,1,0,0,23.0
Status,1732146464000,28,23,6,7,1575420030,0.00,161.0,16.0,0,0,0,0.0
Status,1732146464000,28,24,6,15,1575420030,0.00,95.0,11.0,0,0,0,0.0
Status,1732146464000,28,25,6,30,1575420030,0.00,58.0,10.0,0,0,0,0.0
Status,1732146464000,28,26,6,34,1575420030,0.00,47.0,6.0,0,0,0,0.0
Status,1732146464000,28,27,6,13,1575420030,0.00,142.0,1.0,0,0,0,0.0
Fix,GPS,37.4243866667,-122.1712250000,15.7,0.37626195,1.7,81.62,1732146465000,0.9,108.6,25349044000000,35.7,0,,,
Raw,1732146465000,18678000000,,93.68023880986989,-1416181664322999808,0.0,93.68023880986989,2162.571778858186,0.0,0,30,0.0,16431,344882931951828,31,43.8390007019043,736.6775864513885,0.14999,17,13718.79436672236,0.00022499999613501132,1575420030,,,,0,31.656045336654305,1,6.0,43.8390007019043,0.0,0.0,0.0,66.7128,C,25349044000000,
Raw,1732146465000,18678000000,,93.68023880986989,-1416181664322999808,0.0,93.68023880986989,2162.571778858186,0.0,0,14,0.0,16431,344882932852234,42,43.007999420166016,635.9665649179185,0.14999,16,0.0,0.0,1575420030,,,,0,28.956782726287877,1,6.0,43.007999420166016,0.0,0.0,0.0,66.7128,C,25349044000000,
Raw,1732146465000,18678000000,,93.68023880986989,-1416181664322999808,0.0,93.68023880986989,2162.571778858186,0.0,0,22,0.0,16431,344882930647874,58,35.020999908447266,487.8091889531932,0.14999,16,0.0,0.0,1575420030,,,,0,22.38569177968846,1,6.0,35.020999908447266,0.0,0.0,0.0,66.7128,C,25349044000000,
Raw,1732146465000,18678000000,,93.68023880986989,-1416181664322999808,0.0,93.68023880986989,2162.571778858186,0.0,0,15,0.0,16431,344882922323975,74,30.304000854492188,164.22325379132405,0.14999,16,0.0,0.0,1575420030,,,,0,16.913101571433494,1,6.0,30.304000854492188,0.0,0.0,0.0,66.7128,C,25349044000000,
Raw,1732146465000,18678000000,,93.68023880986989,-1416181664322999808,0.0,93.68023880986989,2162.571778858186,0.0,0,21,0.0,16431,344882919782617,51,37.0,472.4865993275469,0.14999,16,0.0,0.0,1575420030,,,,0,24.521461559106278,6,6.0,37.0,0.0,0.0,-1.022274045578084,66.7128,C,25349044000000,
Raw,1732146465000,18678000000,,93.68023880986989,-1416181664322999808,0.0,93.68023880986989,2162.571778858186,0.0,0,29,0.0,16431,344882920954784,58,32.70000076293945,936.3660337174323,0.14999,16,0.0,0.0,1575420030,,,,0,19.990269580558078,6,6.0,32.70000076293945,0.0,0.0,-1.022274045578084,66.7128,C,25349044000000,
Raw,1732146465000,18678000000,,93.68023880986989,-1416181664322999808,0.0,93.68023880986989,2162.571778858186,0.0,0,19,0.0,16431,344882920173817,74,23.0,459.7679110136689,0.14999,16,0.0,0.0,1575420030,,,,0,8.469500386501602,6,6.0,23.0,0.0,0.0,-1.022274045578084,66.7128,C,25349044000000,
Raw,1732146465000,18678000000,,93.68023880986989,-1416181664322999808,0.0,93.68023880986989,2162.571778858186,0.0,0,27,0.0,16431,344882920073099,42,37.0880012512207,895.6279493780651,0.14999,16,0.0,0.0,1575420030,,,,0,27.11787200139597,6,6.0,37.0880012512207,0.0,0.0,-1.022274045578084,66.7128,C,25349044000000,
Raw,1732146465000,18678000000,,93.68023880986989,-1416181664322999808,0.0,93.68023880986989,2162.571778858186,0.0,0,9,0.0,17,713908,42,5.0,778.7832638168372,0.14999,17,14493.074646375006,0.00022499999613501132,1600875010,,,,0,26.150786422175642,3,6.0,39.0,0.0,0.0,32.303084612519825,66.7128,C,25349044000000,
Raw,1732146465000,18678000000,,93.68023880986989,-1416181664322999808,0.0,93.68023880986989,2162.571778858186,0.0,0,8,0.0,17,345508,235,5.0,459.43415216284524,0.14999,16,0.0,0.0,1605374980,,,,0,16.628264427006368,3,6.0,27.0,0.0,0.0,32.303084612519825,66.7128,C,25349044000000,
Raw,1732146465000,18678000000,,93.68023880986989,-1416181664322999808,0.0,93.68023880986989,2162.571778858186,0.0,0,20,0.0,17,75300,487,5.0,-135.81752519143762,0.14999,16,0.0,0.0,1603124990,,,,0,4.944851309096222,3,6.0,20.0,0.0,0.0,32.303084612519825,66.7128,C,25349044000000,
Raw,1732146465000,18678000000,,93.68023880986989,-1416181664322999808,0.0,93.68023880986989,2162.571778858186,0.0,0,16,0.0,17,248571,487,5.0,1135.0181962447473,0.14999,16,0.0,0.0,1601437440,,,,0,5.55730356643503,3,6.0,19.0,0.0,0.0,32.303084612519825,66.7128,C,25349044000000,
Raw,1732146465000,18678000000,,93.68023880986989,-1416181664322999808,0.0,93.68023880986989,2162.571778858186,0.0,0,2,0.0,16431,344882920206773,316,25.679000854492188,431.52086874874817,0.14999,16,0.0,0.0,1575420030,,,,0,11.001015035448619,1,6.0,25.679000854492188,0.0,0.0,0.0,66.7128,C,25349044000000,
