# 
# Header Description:
# 
# Version: v3.1.0.3 Platform: 13 Manufacturer: samsung Model: SM-S135DL GNSS Hardware Model Name: MediaTek,MT6631,MTK_MNLD_default,MNL_VER_default
# 
# Raw,utcTimeMillis,TimeNanos,LeapSecond,TimeUncertaintyNanos,FullBiasNanos,BiasNanos,BiasUncertaintyNanos,DriftNanosPerSecond,DriftUncertaintyNanosPerSecond,HardwareClockDiscontinuityCount,Svid,TimeOffsetNanos,State,ReceivedSvTimeNanos,ReceivedSvTimeUncertaintyNanos,Cn0DbHz,PseudorangeRateMetersPerSecond,PseudorangeRateUncertaintyMetersPerSecond,AccumulatedDeltaRangeState,AccumulatedDeltaRangeMeters,AccumulatedDeltaRangeUncertaintyMeters,CarrierFrequencyHz,CarrierCycles,CarrierPhase,CarrierPhaseUncertainty,MultipathIndicator,SnrInDb,ConstellationType,AgcDb,BasebandCn0DbHz,FullInterSignalBiasNanos,FullInterSignalBiasUncertaintyNanos,SatelliteInterSignalBiasNanos,SatelliteInterSignalBiasUncertaintyNanos,CodeType,ChipsetElapsedRealtimeNanos,IsFullTracking
# 
# UncalAccel,utcTimeMillis,elapsedRealtimeNanos,UncalAccelXMps2,UncalAccelYMps2,UncalAccelZMps2,BiasXMps2,BiasYMps2,BiasZMps2
# 
# Accel,utcTimeMillis,elapsedRealtimeNanos,AccelXMps2,AccelYMps2,AccelZMps2
# 
# UncalGyro,utcTimeMillis,elapsedRealtimeNanos,UncalGyroXRadPerSec,UncalGyroYRadPerSec,UncalGyroZRadPerSec,DriftXRadPerSec,DriftYRadPerSec,DriftZRadPerSec
# 
# Gyro,utcTimeMillis,elapsedRealtimeNanos,GyroXRadPerSec,GyroYRadPerSec,GyroZRadPerSec
# 
# UncalMag,utcTimeMillis,elapsedRealtimeNanos,UncalMagXMicroT,UncalMagYMicroT,UncalMagZMicroT,BiasXMicroT,BiasYMicroT,BiasZMicroT
# 
# Mag,utcTimeMillis,elapsedRealtimeNanos,MagXMicroT,MagYMicroT,MagZMicroT
# 
# Pressure,utcTimeMillis,elapsedRealtimeNanos,PressureHpa
# 
# OrientationDeg,utcTimeMillis,elapsedRealtimeNanos,yawDeg,rollDeg,pitchDeg
# 
# Fix,Provider,LatitudeDegrees,LongitudeDegrees,AltitudeMeters,SpeedMps,AccuracyMeters,BearingDegrees,UnixTimeMillis,SpeedAccuracyMps,BearingAccuracyDegrees,elapsedRealtimeNanos,VerticalAccuracyMeters,MockLocation,NumberOfUsedSignals,VerticalSpeedAccuracyMps,SolutionType
# 
# Nav,Svid,Type,Status,MessageId,Sub-messageId,Data(Bytes)
# 
# Status,UnixTimeMillis,SignalCount,SignalIndex,ConstellationType,Svid,CarrierFrequencyHz,Cn0DbHz,AzimuthDegrees,ElevationDegrees,UsedInFix,HasAlmanacData,HasEphemerisData,BasebandCn0DbHz
# 
# Agc,utcTimeMillis,TimeNanos,LeapSecond,TimeUncertaintyNanos,FullBiasNanos,BiasNanos,BiasUncertaintyNanos,DriftNanosPerSecond,DriftUncertaintyNanosPerSecond,HardwareClockDiscontinuityCount,AgcDb,CarrierFrequencyHz,ConstellationType
# 
Fix,FLP,37.4243931000,-122.1712017000,-0.5904895846672371,0.15224399,1.933,252.5139,1732146964197,2.3,68.7,25848045000000,0.9955821,0,,,
Status,,29,0,1,14,1575420030,43.20,336.0,73.0,1,0,0,38.2
Status,,29,1,1,30,1575420030,47.30,85.0,68.0,1,0,0,42.3
Status,,29,2,1,22,1575420030,44.80,278.0,62.0,1,0,0,39.8
Status,,29,3,1,13,1575420030,45.80,298.0,51.0,1,0,0,40.8
Status,,29,4,1,17,1575420030,43.30,174.0,49.0,1,0,0,38.3
Status,,29,5,1,7,1575420030,33.30,107.0,34.0,1,0,0,28.3
Status,,29,6,2,131,1575420030,35.00,3.0,23.0,0,0,0,30.0
Status,,29,7,1,19,1575420030,36.50,193.0,22.0,1,0,0,31.5
Status,,29,8,1,15,1575420030,46.90,313.0,20.0,1,0,0,41.9
Status,,29,9,1,2,1575420030,30.60,83.0,18.0,1,0,0,25.6
Status,,29,10,1,21,1575420030,24.80,64.0,14.0,1,0,0,19.8
Status,,29,11,1,8,1575420030,0.00,38.0,5.0,0,0,0,0.0
Status,,29,12,1,5,1575420030,0.00,259.0,4.0,0,0,0,0.0
Status,,29,13,3,9,1602000000,32.00,25.0,52.0,1,0,0,27.0
Status,,29,14,3,8,1602000000,44.20,297.0,40.0,1,0,0,39.2
Status,,29,15,3,20,1602000000,24.00,147.0,14.0,1,0,0,19.0
Status,,29,16,3,16,1602000000,22.60,71.0,12.0,1,0,0,17.6
Status,,29,17,3,11,1602000000,0.00,275.0,4.0,0,0,0,0.0
Status,,29,18,3,17,1602000000,45.40,0.0,0.0,0,0,0,40.4
Status,,29,19,6,21,1575420030,42.10,274.0,59.0,1,0,0,37.1
Status,,29,20,6,29,1575420030,32.60,201.0,57.0,1,0,0,27.599998
Status,,29,21,6,27,1575420030,36.20,39.0,56.0,1,0,0,31.2
Status,,29,22,6,19,1575420030,37.30,293.0,52.0,1,0,0,32.3
Status,,29,23,6,7,1575420030,0.00,161.0,13.0,0,0,0,0.0
Status,,29,24,6,15,1575420030,0.00,92.0,13.0,0,0,0,0.0
Status,,29,25,6,30,1575420030,0.00,60.0,8.0,0,0,0,0.0
Status,,29,26,6,34,1575420030,0.00,44.0,6.0,0,0,0,0.0
Status,,29,27,6,13,1575420030,0.00,140.0,4.0,0,0,0,0.0
Status,,29,28,6,4,1575420030,0.00,325.0,3.0,0,0,0,0.0
Fix,GPS,37.4243750000,-122.1712450000,12.500000000000004,1.0556953,1.9,251.97,1732146965000,2.0,73.9,25849045000000,36.5,0,,,
Raw,1732146965000,13944000000,,96.51382345157393,-1416182169056999936,0.0,96.51382345157393,2147.2045299316674,0.0,0,30,0.0,16431,345382931938308,31,42.29199981689453,768.6355876279584,0.14999,16,0.0,0.0,1575420030,,,,0,30.22100687924532,1,6.0,42.29199981689453,0.0,0.0,0.0,66.7128,C,25849045000000,
Raw,1732146965000,13944000000,,96.51382345157393,-1416182169056999936,0.0,96.51382345157393,2147.2045299316674,0.0,0,15,0.0,16431,345382923255789,31,41.922000885009766,208.46499958920893,0.14999,16,0.0,0.0,1575420030,,,,0,29.834130734251453,1,6.0,41.922000885009766,0.0,0.0,0.0,66.7128,C,25849045000000,
Raw,1732146965000,13944000000,,96.51382345157393,-1416182169056999936,0.0,96.51382345157393,2147.2045299316674,0.0,0,13,0.0,16431,345382930645761,42,40.821998596191406,398.93953500188144,0.14999,17,5568.910070502712,0.00022499999613501132,1575420030,,,,0,28.670480801011102,1,6.0,40.821998596191406,0.0,0.0,0.0,66.7128,C,25849045000000,
Raw,1732146965000,13944000000,,96.51382345157393,-1416182169056999936,0.0,96.51382345157393,2147.2045299316674,0.0,0,14,0.0,16431,345382933012021,51,38.150001525878906,661.9462970965164,0.14999,17,9201.235903037123,0.00022499999613501132,1575420030,,,,0,25.813741775384326,1,6.0,38.150001525878906,0.0,0.0,0.0,66.7128,C,25849045000000,
Raw,1732146965000,13944000000,,96.51382345157393,-1416182169056999936,0.0,96.51382345157393,2147.2045299316674,0.0,0,21,0.0,16431,345382920224192,51,37.099998474121094,487.76719054493884,0.14999,16,0.0,0.0,1575420030,,,,0,24.708208679102775,6,6.0,37.099998474121094,0.0,0.0,1.0208347353919895,66.7128,C,25849045000000,
Raw,1732146965000,13944000000,,96.51382345157393,-1416182169056999936,0.0,96.51382345157393,2147.2045299316674,0.0,0,27,0.0,16431,345382919815122,74,31.200000762939453,902.2926879339641,0.14999,16,0.0,0.0,1575420030,,,,0,18.268633579140594,6,6.0,31.200000762939453,0.0,0.0,1.0208347353919895,66.7128,C,25849045000000,
Raw,1732146965000,13944000000,,96.51382345157393,-1416182169056999936,0.0,96.51382345157393,2147.2045299316674,0.0,0,19,0.0,16431,345382920619772,58,32.29999923706055,495.79069839974744,0.14999,16,0.0,0.0,1575420030,,,,0,19.520564741401095,6,6.0,32.29999923706055,0.0,0.0,1.0208347353919895,66.7128,C,25849045000000,
Raw,1732146965000,13944000000,,96.51382345157393,-1416182169056999936,0.0,96.51382345157393,2147.2045299316674,0.0,0,29,0.0,16431,345382920607968,316,27.600000381469727,968.4383225978801,0.14999,16,0.0,0.0,1575420030,,,,0,14.279991547955147,6,6.0,27.600000381469727,0.0,0.0,1.0208347353919895,66.7128,C,25849045000000,
Raw,1732146965000,13944000000,,96.51382345157393,-1416182169056999936,0.0,96.51382345157393,2147.2045299316674,0.0,0,9,0.0,17,644642,235,5.0,793.2344367150746,0.14999,16,0.0,0.0,1600875010,,,,0,13.56503845881753,3,6.0,27.0,0.0,0.0,36.882689556267046,66.7128,C,25849045000000,
Raw,1732146965000,13944000000,,96.51382345157393,-1416182169056999936,0.0,96.51382345157393,2147.2045299316674,0.0,0,8,0.0,17,756185,42,5.0,537.3942717339702,0.14999,16,0.0,0.0,1605374980,,,,0,26.82321714070192,3,6.0,39.0,0.0,0.0,36.882689556267046,66.7128,C,25849045000000,
Raw,1732146965000,13944000000,,96.51382345157393,-1416182169056999936,0.0,96.51382345157393,2147.2045299316674,0.0,0,20,0.0,17,543237,487,5.0,-134.94404363282774,0.14999,16,0.0,0.0,1603124990,,,,0,2.5751481790332758,3,6.0,20.0,0.0,0.0,36.882689556267046,66.7128,C,25849045000000,
Raw,1732146965000,13944000000,,96.51382345157393,-1416182169056999936,0.0,96.51382345157393,2147.2045299316674,0.0,0,16,0.0,17,601023,487,5.0,1129.639975065349,0.14999,16,0.0,0.0,1601437440,,,,0,0.16568011104001457,3,6.0,19.0,0.0,0.0,36.882689556267046,66.7128,C,25849045000000,
Raw,1732146965000,13944000000,,96.51382345157393,-1416182169056999936,0.0,96.51382345157393,2147.2045299316674,0.0,0,21,0.0,16431,345382920541426,487,19.834999084472656,682.6928603563268,0.14999,16,0.0,0.0,1575420030,,,,0,1.9681813724051969,1,6.0,19.834999084472656,0.0,0.0,0.0,66.7128,C,25849045000000,
Raw,1732146965000,13944000000,,96.51382345157393,-1416182169056999936,0.0,96.51382345157393,2147.2045299316674,0.0,0,2,0.0,16431,345382920698220,316,25.5939998626709,470.18988106376275,0.14999,16,0.0,0.0,1575420030,,,,0,10.864093163040494,1,6.0,25.5939998626709,0.0,0.0,0.0,66.7128,C,25849045000000,
Raw,1732146965000,13944000000,,96.51382345157393,-1416182169056999936,0.0,96.51382345157393,2147.2045299316674,0.0,0,17,0.0,16431,345382930228521,51,38.29899978637695,202.64106544988826,0.14999,17,7352.507357419555,0.00022499999613501132,1575420030,,,,0,25.974660966479366,1,6.0,38.29899978637695,0.0,0.0,0.0,66.7128,C,25849045000000,
Raw,1732146965000,13944000000,,96.51382345157393,-1416182169056999936,0.0,96.51382345157393,2147.2045299316674,0.0,0,19,0.0,16431,345382922001689,74,31.474000930786133,-43.87542118606479,0.14999,16,0.0,0.0,1575420030,,,,0,18.302234741501028,1,6.0,31.474000930786133,0.0,0.0,0.0,66.7128,C,25849045000000,
Raw,1732146965000,13944000000,,96.51382345157393,-1416182169056999936,0.0,96.51382345157393,2147.2045299316674,0.0,0,22,0.0,16431,345382931052333,42,39.76100158691406,516.1628532833171,0.14999,17,8504.793857333301,0.00022499999613501132,1575420030,,,,0,27.543253391461775,1,6.0,39.76100158691406,0.0,0.0,0.0,66.7128,C,25849045000000,
Raw,1732146965000,13944000000,,96.51382345157393,-1416182169056999936,0.0,96.51382345157393,2147.2045299316674,0.0,0,7,0.0,16431,345382926253228,316,28.312000274658203,1026.7234719894702,0.14999,16,0.0,0.0,1575420030,,,,0,14.438401220677093,1,6.0,28.312000274658203,0.0,0.0,0.0,66.7128,C,25849045000000,
Fix,FLP,37.4243840000,-122.1712238000,-0.840840486124268,0.2107022,1.95,249.00711,1732146965197,2.0,73.9,25849045000000,1.0055826,0,,,
Status,1732146965000,29,0,1,14,1575420030,43.50,336.0,73.0,1,0,0,38.5
Status,1732146965000,29,1,1,30,1575420030,38.70,85.0,68.0,1,0,0,33.7
Status,1732146965000,29,2,1,22,1575420030,46.70,278.0,62.0,1,0,0,41.7
Status,1732146965000,29,3,1,13,1575420030,46.30,298.0,51.0,1,0,0,41.3
Status,1732146965000,29,4,1,17,1575420030,44.00,174.0,49.0,1,0,0,39.0
Status,1732146965000,29,5,1,7,1575420030,39.80,107.0,34.0,1,0,0,34.8
Status,1732146965000,29,6,2,131,1575420030,34.00,3.0,23.0,0,0,0,29.0
Status,1732146965000,29,7,1,19,1575420030,0.00,193.0,22.0,0,0,0,0.0
Status,1732146965000,29,8,1,15,1575420030,42.40,313.0,20.0,1,0,0,37.4
Status,1732146965000,29,9,1,2,1575420030,0.00,83.0,18.0,0,0,0,0.0
Status,1732146965000,29,10,1,21,1575420030,0.00,64.0,14.0,0,0,0,0.0
Status,1732146965000,29,11,1,8,1575420030,0.00,38.0,5.0,0,0,0,0.0
Status,1732146965000,29,12,1,5,1575420030,0.00,259.0,4.0,0,0,0,0.0
Status,1732146965000,29,13,3,9,1602000000,32.60,25.0,52.0,1,0,0,27.599998
Status,1732146965000,29,14,3,8,1602000000,37.80,297.0,40.0,1,0,0,32.8
Status,1732146965000,29,15,3,20,1602000000,24.10,147.0,14.0,1,0,0,19.1
Status,1732146965000,29,16,3,16,1602000000,22.60,71.0,12.0,1,0,0,17.6
Status,1732146965000,29,17,3,11,1602000000,0.00,275.0,4.0,0,0,0,0.0
Status,1732146965000,29,18,3,17,1602000000,44.70,0.0,0.0,0,0,0,39.7
Status,1732146965000,29,19,6,21,1575420030,40.60,274.0,59.0,1,0,0,35.6
Status,1732146965000,29,20,6,29,1575420030,36.80,201.0,57.0,1,0,0,31.8
Status,1732146965000,29,21,6,27,1575420030,37.90,39.0,56.0,1,0,0,32.9
Status,1732146965000,29,22,6,19,1575420030,33.10,293.0,52.0,1,0,0,28.099998
Status,1732146965000,29,23,6,7,1575420030,0.00,161.0,13.0,0,0,0,0.0
Status,1732146965000,29,24,6,15,1575420030,0.00,92.0,13.0,0,0,0,0.0
Status,1732146965000,29,25,6,30,1575420030,0.00,60.0,8.0,0,0,0,0.0
Status,1732146965000,29,26,6,34,1575420030,0.00,44.0,6.0,0,0,0,0.0
Status,1732146965000,29,27,6,13,1575420030,0.00,140.0,4.0,0,0,0,0.0
Status,1732146965000,29,28,6,4,1575420030,0.00,325.0,3.0,0,0,0,0.0
Fix,GPS,37.4243733333,-122.1712550000,12.500000000000004,0.27846473,1.9,321.52,1732146966000,1.8,179.9,25850045000000,39.0,0,,,
Raw,1732146966000,14944000000,,105.06058266332957,-1416182169056999936,0.0,105.06058266332957,2144.4612267914604,0.0,0,30,0.0,16431,345383931935743,58,33.70600128173828,768.0520699203541,0.14999,17,11456.780087667697,0.00039999998989515007,1575420030,,,,0,20.892747999059587,1,6.0,33.70600128173828,0.0,0.0,0.0,66.7128,C,25850045000000,
Raw,1732146966000,14944000000,,105.06058266332957,-1416182169056999936,0.0,105.06058266332957,2144.4612267914604,0.0,0,15,0.0,16431,345383923255092,51,37.402000427246094,207.6845446552881,0.14999,16,0.0,0.0,1575420030,,,,0,25.0,1,6.0,37.402000427246094,0.0,0.0,0.0,66.7128,C,25850045000000,
Raw,1732146966000,14944000000,,105.06058266332957,-1416182169056999936,0.0,105.06058266332957,2144.4612267914604,0.0,0,13,0.0,16431,345383930644435,31,41.28300094604492,398.52131633915417,0.14999,17,5967.698165586002,0.00022499999613501132,1575420030,,,,0,29.159608069383257,1,6.0,41.28300094604492,0.0,0.0,0.0,66.7128,C,25850045000000,
Raw,1732146966000,14944000000,,105.06058266332957,-1416182169056999936,0.0,105.06058266332957,2144.4612267914604,0.0,0,14,0.0,16431,345383933009809,42,38.50899887084961,661.2871450873213,0.14999,17,9862.769541962602,0.00022499999613501132,1575420030,,,,0,26.200458918360432,1,6.0,38.50899887084961,0.0,0.0,0.0,66.7128,C,25850045000000,
Raw,1732146966000,14944000000,,105.06058266332957,-1416182169056999936,0.0,105.06058266332957,2144.4612267914604,0.0,0,22,0.0,16431,345383931050617,31,41.66899871826172,515.7376193997421,0.14999,16,0.0,0.0,1575420030,,,,0,29.567823832678194,1,6.0,41.66899871826172,0.0,0.0,0.0,66.7128,C,25850045000000,
Raw,1732146966000,14944000000,,105.06058266332957,-1416182169056999936,0.0,105.06058266332957,2144.4612267914604,0.0,0,21,0.0,16431,345383920222566,51,35.599998474121094,487.1956591087168,0.14999,16,0.0,0.0,1575420030,,,,0,23.090833381260943,6,6.0,35.599998474121094,0.0,0.0,1.7206266820042833,66.7128,C,25850045000000,
Raw,1732146966000,14944000000,,105.06058266332957,-1416182169056999936,0.0,105.06058266332957,2144.4612267914604,0.0,0,17,0.0,16431,345383930227847,42,39.025001525878906,201.90377038462702,0.14999,16,0.0,0.0,1575420030,,,,0,26.75638864238662,1,6.0,39.025001525878906,0.0,0.0,0.0,66.7128,C,25850045000000,
Raw,1732146966000,14944000000,,105.06058266332957,-1416182169056999936,0.0,105.06058266332957,2144.4612267914604,0.0,0,27,0.0,16431,345383919812112,58,32.900001525878906,901.8496604769804,0.14999,16,0.0,0.0,1575420030,,,,0,20.152800136972715,6,6.0,32.900001525878906,0.0,0.0,1.7206266820042833,66.7128,C,25850045000000,
Raw,1732146966000,14944000000,,105.06058266332957,-1416182169056999936,0.0,105.06058266332957,2144.4612267914604,0.0,0,19,0.0,16431,345383920618121,235,28.100000381469727,495.2384472062528,0.14999,16,0.0,0.0,1575420030,,,,0,14.847224425527987,6,6.0,28.100000381469727,0.0,0.0,1.7206266820042833,66.7128,C,25850045000000,
Raw,1732146966000,14944000000,,105.06058266332957,-1416182169056999936,0.0,105.06058266332957,2144.4612267914604,0.0,0,29,0.0,16431,345383920604733,58,31.799999237060547,968.3534895298797,0.14999,16,0.0,0.0,1575420030,,,,0,19.01036585797759,6,6.0,31.799999237060547,0.0,0.0,1.7206266820042833,66.7128,C,25850045000000,
Raw,1732146966000,14944000000,,105.06058266332957,-1416182169056999936,0.0,105.06058266332957,2144.4612267914604,0.0,0,9,0.0,17,641999,235,5.0,793.0536610377516,0.14999,16,0.0,0.0,1600875010,,,,0,14.240739766675533,3,6.0,28.0,0.0,0.0,36.34086430493476,66.7128,C,25850045000000,
Raw,1732146966000,14944000000,,105.06058266332957,-1416182169056999936,0.0,105.06058266332957,2144.4612267914604,0.0,0,8,0.0,17,754392,58,5.0,537.1385487877211,0.14999,17,8012.647295139763,0.00039999998989515007,1605374980,,,,0,20.04202185530976,3,6.0,33.0,0.0,0.0,36.34086430493476,66.7128,C,25850045000000,
Raw,1732146966000,14944000000,,105.06058266332957,-1416182169056999936,0.0,105.06058266332957,2144.4612267914604,0.0,0,20,0.0,17,543687,487,5.0,-135.35074307481483,0.14999,16,0.0,0.0,1603124990,,,,0,5.53966979371187,3,6.0,18.0,0.0,0.0,36.34086430493476,66.7128,C,25850045000000,
Raw,1732146966000,14944000000,,105.06058266332957,-1416182169056999936,0.0,105.06058266332957,2144.4612267914604,0.0,0,16,0.0,17,597245,487,5.0,1130.1306493114316,0.14999,16,0.0,0.0,1601437440,,,,0,1.687483492449675,3,6.0,19.0,0.0,0.0,36.34086430493476,66.7128,C,25850045000000,
Raw,1732146966000,14944000000,,105.06058266332957,-1416182169056999936,0.0,105.06058266332957,2144.4612267914604,0.0,0,7,0.0,16431,345383926249806,58,34.84600067138672,1026.3471588181649,0.14999,16,0.0,0.0,1575420030,,,,0,22.185339924169362,1,6.0,34.84600067138672,0.0,0.0,0.0,66.7128,C,25850045000000,
Fix,FLP,37.4243785000,-122.1712401000,-0.9242891390104857,0.22792652,1.95,251.72449,1732146966197,1.8,179.9,25850045000000,1.0155854,0,,,
Status,1732146966000,29,0,1,14,1575420030,48.10,336.0,73.0,1,0,0,43.1
Status,1732146966000,29,1,1,30,1575420030,42.80,85.0,68.0,1,0,0,37.8
Status,1732146966000,29,2,1,22,1575420030,45.10,278.0,62.0,1,0,0,40.1
Status,1732146966000,29,3,1,13,1575420030,37.60,298.0,51.0,1,0,0,32.6
Status,1732146966000,29,4,1,17,1575420030,42.50,174.0,49.0,1,0,0,37.5
Status,1732146966000,29,5,1,7,1575420030,40.10,107.0,34.0,1,0,0,35.1
Status,1732146966000,29,6,2,131,1575420030,38.00,3.0,23.0,0,0,0,33.0
Status,1732146966000,29,7,1,19,1575420030,37.90,193.0,22.0,1,0,0,32.9
Status,1732146966000,29,8,1,15,1575420030,33.60,313.0,20.0,1,0,0,28.599998
Status,1732146966000,29,9,1,2,1575420030,0.00,83.0,18.0,0,0,0,0.0
Status,1732146966000,29,10,1,21,1575420030,0.00,64.0,14.0,0,0,0,0.0
Status,1732146966000,29,11,1,8,1575420030,0.00,38.0,5.0,0,0,0,0.0
Status,1732146966000,29,12,1,5,1575420030,0.00,259.0,4.0,0,0,0,0.0
Status,1732146966000,29,13,3,9,1602000000,30.60,25.0,52.0,1,0,0,25.6
Status,1732146966000,29,14,3,8,1602000000,34.30,297.0,40.0,1,0,0,29.3
Status,1732146966000,29,15,3,20,1602000000,24.10,147.0,14.0,1,0,0,19.1
Status,1732146966000,29,16,3,16,1602000000,22.70,71.0,12.0,1,0,0,17.7
Status,1732146966000,29,17,3,11,1602000000,0.00,275.0,4.0,0,0,0,0.0
Status,1732146966000,29,18,3,17,1602000000,38.20,0.0,0.0,0,0,0,33.2
Status,1732146966000,29,19,6,21,1575420030,37.20,274.0,59.0,1,0,0,32.2
Status,1732146966000,29,20,6,29,1575420030,40.60,201.0,57.0,1,0,0,35.6
Status,1732146966000,29,21,6,27,1575420030,37.60,39.0,56.0,1,0,0,32.6
Status,1732146966000,29,22,6,19,1575420030,31.10,293.0,52.0,1,0,0,26.1
Status,1732146966000,29,23,6,7,1575420030,0.00,161.0,13.0,0,0,0,0.0
Status,1732146966000,29,24,6,15,1575420030,0.00,92.0,13.0,0,0,0,0.0
Status,1732146966000,29,25,6,30,1575420030,0.00,60.0,8.0,0,0,0,0.0
Status,1732146966000,29,26,6,34,1575420030,0.00,44.0,6.0,0,0,0,0.0
Status,1732146966000,29,27,6,13,1575420030,0.00,140.0,4.0,0,0,0,0.0
Status,1732146966000,29,28,6,4,1575420030,0.00,325.0,3.0,0,0,0,0.0
Fix,GPS,37.4243750000,-122.1712533333,12.599999999999998,0.03448639,1.9,86.37,1732146967000,1.9,179.9,25851045000000,41.2,0,,,
Fix,FLP,37.4243770000,-122.1712477000,-0.9242891390104857,0.21767028,1.95,266.40656,1732146967198,1.9,179.9,25851045000000,1.0255859,0,,,
Raw,1732146967000,15944000000,,110.94960927636666,-1416182169056999936,0.0,110.94960927636666,2140.0582089392155,0.0,0,30,0.0,16431,345384931933188,51,37.805999755859375,767.7980817589311,0.14999,17,12223.949328630359,0.00022499999613501132,1575420030,,,,0,25.438545355618025,1,6.0,37.805999755859375,0.0,0.0,0.0,66.7128,C,25851045000000,
Raw,1732146967000,15944000000,,110.94960927636666,-1416182169056999936,0.0,110.94960927636666,2140.0582089392155,0.0,0,15,0.0,16431,345384923254395,235,28.591999053955078,207.7834081649841,0.14999,16,0.0,0.0,1575420030,,,,0,14.797161522451901,1,6.0,28.591999053955078,0.0,0.0,0.0,66.7128,C,25851045000000,
Raw,1732146967000,15944000000,,110.94960927636666,-1416182169056999936,0.0,110.94960927636666,2140.0582089392155,0.0,0,13,0.0,16431,345384930643106,74,32.564998626708984,398.30296178296464,0.14999,16,0.0,0.0,1575420030,,,,0,19.57866455426924,1,6.0,32.564998626708984,0.0,0.0,0.0,66.7128,C,25851045000000,
Raw,1732146967000,15944000000,,110.94960927636666,-1416182169056999936,0.0,110.94960927636666,2140.0582089392155,0.0,0,14,0.0,16431,345384933007605,31,43.11399841308594,660.7039525886304,0.14999,16,0.0,0.0,1575420030,,,,0,31.08242145282246,1,6.0,43.11399841308594,0.0,0.0,0.0,66.7128,C,25851045000000,
Raw,1732146967000,15944000000,,110.94960927636666,-1416182169056999936,0.0,110.94960927636666,2140.0582089392155,0.0,0,22,0.0,16431,345384931048901,42,40.05500030517578,515.0302900129366,0.14999,16,0.0,0.0,1575420030,,,,0,27.85583139966977,1,6.0,40.05500030517578,0.0,0.0,0.0,66.7128,C,25851045000000,
Raw,1732146967000,15944000000,,110.94960927636666,-1416182169056999936,0.0,110.94960927636666,2140.0582089392155,0.0,0,21,0.0,16431,345384920220944,58,32.20000076293945,485.902163884583,0.14999,16,0.0,0.0,1575420030,,,,0,19.40318606811914,6,6.0,32.20000076293945,0.0,0.0,2.1390397084526884,66.7128,C,25851045000000,
Raw,1732146967000,15944000000,,110.94960927636666,-1416182169056999936,0.0,110.94960927636666,2140.0582089392155,0.0,0,27,0.0,16431,345384919809103,58,32.599998474121094,900.8911304337246,0.14999,16,0.0,0.0,1575420030,,,,0,19.84945252699873,6,6.0,32.599998474121094,0.0,0.0,2.1390397084526884,66.7128,C,25851045000000,
Raw,1732146967000,15944000000,,110.94960927636666,-1416182169056999936,0.0,110.94960927636666,2140.0582089392155,0.0,0,19,0.0,16431,345384920616469,235,26.100000381469727,494.0575207245971,0.14999,16,0.0,0.0,1575420030,,,,0,12.381665372991277,6,6.0,26.100000381469727,0.0,0.0,2.1390397084526884,66.7128,C,25851045000000,
Raw,1732146967000,15944000000,,110.94960927636666,-1416182169056999936,0.0,110.94960927636666,2140.0582089392155,0.0,0,29,0.0,16431,345384920601502,51,35.599998474121094,967.5478076759565,0.14999,16,0.0,0.0,1575420030,,,,0,23.052100252914606,6,6.0,35.599998474121094,0.0,0.0,2.1390397084526884,66.7128,C,25851045000000,
Raw,1732146967000,15944000000,,110.94960927636666,-1416182169056999936,0.0,110.94960927636666,2140.0582089392155,0.0,0,9,0.0,17,639352,396,5.0,792.7616036207713,0.14999,16,0.0,0.0,1600875010,,,,0,11.843695528328393,3,6.0,23.0,0.0,0.0,36.010285684901156,66.7128,C,25851045000000,
Raw,1732146967000,15944000000,,110.94960927636666,-1416182169056999936,0.0,110.94960927636666,2140.0582089392155,0.0,0,8,0.0,17,752599,235,5.0,536.1781174121317,0.14999,16,0.0,0.0,1605374980,,,,0,16.182056325014972,3,6.0,29.0,0.0,0.0,36.010285684901156,66.7128,C,25851045000000,
Raw,1732146967000,15944000000,,110.94960927636666,-1416182169056999936,0.0,110.94960927636666,2140.0582089392155,0.0,0,20,0.0,17,544146,487,5.0,-137.04903739935855,0.14999,16,0.0,0.0,1603124990,,,,0,1.9653617360752698,3,6.0,18.0,0.0,0.0,36.010285684901156,66.7128,C,25851045000000,
Raw,1732146967000,15944000000,,110.94960927636666,-1416182169056999936,0.0,110.94960927636666,2140.0582089392155,0.0,0,16,0.0,17,593479,797,5.0,1128.4684994435543,0.14999,16,0.0,0.0,1601437440,,,,0,1.687483492449675,3,6.0,17.0,0.0,0.0,36.010285684901156,66.7128,C,25851045000000,
Raw,1732146967000,15944000000,,110.94960927636666,-1416182169056999936,0.0,110.94960927636666,2140.0582089392155,0.0,0,19,0.0,16431,345384922001968,58,32.9370002746582,-46.28819257354289,0.14999,16,0.0,0.0,1575420030,,,,0,20.016226731479055,1,6.0,32.9370002746582,0.0,0.0,0.0,66.7128,C,25851045000000,
Raw,1732146967000,15944000000,,110.94960927636666,-1416182169056999936,0.0,110.94960927636666,2140.0582089392155,0.0,0,17,0.0,16431,345384930227173,51,37.47999954223633,200.9425922116472,0.14999,16,0.0,0.0,1575420030,,,,0,25.084891645105472,1,6.0,37.47999954223633,0.0,0.0,0.0,66.7128,C,25851045000000,
Raw,1732146967000,15944000000,,110.94960927636666,-1416182169056999936,0.0,110.94960927636666,2140.0582089392155,0.0,0,7,0.0,16431,345384926246389,58,35.14099884033203,1025.2561293718766,0.14999,17,15776.736816580944,0.00039999998989515007,1575420030,,,,0,22.51155946255461,1,6.0,35.14099884033203,0.0,0.0,0.0,66.7128,C,25851045000000,
Status,1732146967000,29,0,1,14,1575420030,40.30,336.0,73.0,1,0,0,35.3
Status,1732146967000,29,1,1,30,1575420030,38.70,85.0,68.0,1,0,0,33.7
Status,1732146967000,29,2,1,22,1575420030,43.10,278.0,62.0,1,0,0,38.1
Status,1732146967000,29,3,1,13,1575420030,40.90,298.0,51.0,1,0,0,35.9
Status,1732146967000,29,4,1,17,1575420030,43.10,174.0,49.0,1,0,0,38.1
Status,1732146967000,29,5,1,7,1575420030,38.30,107.0,34.0,1,0,0,33.3
Status,1732146967000,29,6,2,131,1575420030,39.00,3.0,23.0,0,0,0,34.0
Status,1732146967000,29,7,1,19,1575420030,42.80,193.0,22.0,1,0,0,37.8
Status,1732146967000,29,8,1,15,1575420030,38.90,313.0,20.0,1,0,0,33.9
Status,1732146967000,29,9,1,2,1575420030,0.00,83.0,18.0,0,0,0,0.0
Status,1732146967000,29,10,1,21,1575420030,0.00,64.0,14.0,0,0,0,0.0
Status,1732146967000,29,11,1,8,1575420030,0.00,38.0,5.0,0,0,0,0.0
Status,1732146967000,29,12,1,5,1575420030,0.00,259.0,4.0,0,0,0,0.0
Status,1732146967000,29,13,3,9,1602000000,33.40,25.0,52.0,1,0,0,28.400002
Status,1732146967000,29,14,3,8,1602000000,31.40,297.0,40.0,1,0,0,26.4
Status,1732146967000,29,15,3,20,1602000000,24.00,147.0,14.0,1,0,0,19.0
Status,1732146967000,29,16,3,16,1602000000,25.30,71.0,12.0,1,0,0,20.3
Status,1732146967000,29,17,3,11,1602000000,0.00,275.0,4.0,0,0,0,0.0
Status,1732146967000,29,18,3,17,1602000000,34.80,0.0,0.0,0,0,0,29.8
Status,1732146967000,29,19,6,21,1575420030,31.60,274.0,59.0,1,0,0,26.6
Status,1732146967000,29,20,6,29,1575420030,39.30,201.0,57.0,1,0,0,34.3
Status,1732146967000,29,21,6,27,1575420030,36.60,39.0,56.0,1,0,0,31.599998
Status,1732146967000,29,22,6,19,1575420030,25.80,293.0,52.0,1,0,0,20.8
Status,1732146967000,29,23,6,7,1575420030,0.00,161.0,13.0,0,0,0,0.0
Status,1732146967000,29,24,6,15,1575420030,0.00,92.0,13.0,0,0,0,0.0
Status,1732146967000,29,25,6,30,1575420030,0.00,60.0,8.0,0,0,0,0.0
Status,1732146967000,29,26,6,34,1575420030,0.00,44.0,6.0,0,0,0,0.0
Status,1732146967000,29,27,6,13,1575420030,0.00,140.0,4.0,0,0,0,0.0
Status,1732146967000,29,28,6,4,1575420030,0.00,325.0,3.0,0,0,0,0.0
Fix,GPS,37.4243783333,-122.1712500000,12.599999999999998,0.35309944,1.8,56.44,1732146968000,1.9,179.9,25852045000000,39.7,0,,,
Fix,FLP,37.4243776000,-122.1712499000,-0.7573910094495062,0.19778445,1.916,267.14883,1732146968197,1.9,179.9,25852045000000,1.035881,0,,,
Raw,1732146968000,16944000000,,106.60337895347708,-1416182169056999936,0.0,106.60337895347708,2138.7443472628825,0.0,0,30,0.0,16431,345385931930628,58,33.74599838256836,766.5057479952026,0.14999,16,0.0,0.0,1575420030,,,,0,20.942381789192474,1,6.0,33.74599838256836,0.0,0.0,0.0,66.7128,C,25852045000000,
Raw,1732146968000,16944000000,,106.60337895347708,-1416182169056999936,0.0,106.60337895347708,2138.7443472628825,0.0,0,15,0.0,16431,345385923253706,58,33.875999450683594,207.40802416200296,0.14999,16,0.0,0.0,1575420030,,,,0,21.089603782119855,1,6.0,33.875999450683594,0.0,0.0,0.0,66.7128,C,25852045000000,
Raw,1732146968000,16944000000,,106.60337895347708,-1416182169056999936,0.0,106.60337895347708,2138.7443472628825,0.0,0,13,0.0,16431,345385930641778,51,35.86899948120117,397.88502187073465,0.14999,17,6762.871166413448,0.00022499999613501132,1575420030,,,,0,23.31967356711461,1,6.0,35.86899948120117,0.0,0.0,0.0,66.7128,C,25852045000000,
Raw,1732146968000,16944000000,,106.60337895347708,-1416182169056999936,0.0,106.60337895347708,2138.7443472628825,0.0,0,14,0.0,16431,345385933005409,58,35.310001373291016,660.5748911083975,0.14999,16,0.0,0.0,1575420030,,,,0,22.695502823221215,1,6.0,35.310001373291016,0.0,0.0,0.0,66.7128,C,25852045000000,
Raw,1732146968000,16944000000,,106.60337895347708,-1416182169056999936,0.0,106.60337895347708,2138.7443472628825,0.0,0,22,0.0,16431,345385931047181,51,38.13800048828125,515.1120568254672,0.14999,17,10579.208878300544,0.00022499999613501132,1575420030,,,,0,25.799606882699347,1,6.0,38.13800048828125,0.0,0.0,0.0,66.7128,C,25852045000000,
Raw,1732146968000,16944000000,,106.60337895347708,-1416182169056999936,0.0,106.60337895347708,2138.7443472628825,0.0,0,21,0.0,16431,345385920219317,235,26.600000381469727,485.90318596973964,0.14999,16,0.0,0.0,1575420030,,,,0,12.989765944697966,6,6.0,26.600000381469727,0.0,0.0,2.5617689767095047,66.7128,C,25852045000000,
Raw,1732146968000,16944000000,,106.60337895347708,-1416182169056999936,0.0,106.60337895347708,2138.7443472628825,0.0,0,27,0.0,16431,345385919806099,58,31.600000381469727,900.5969557422794,0.14999,16,0.0,0.0,1575420030,,,,0,18.775386073264983,6,6.0,31.600000381469727,0.0,0.0,2.5617689767095047,66.7128,C,25852045000000,
Raw,1732146968000,16944000000,,106.60337895347708,-1416182169056999936,0.0,106.60337895347708,2138.7443472628825,0.0,0,19,0.0,16431,345385920614819,316,20.799999237060547,494.2267687348521,0.14999,16,0.0,0.0,1575420030,,,,0,5.453279692718875,6,6.0,20.799999237060547,0.0,0.0,2.5617689767095047,66.7128,C,25852045000000,
Raw,1732146968000,16944000000,,106.60337895347708,-1416182169056999936,0.0,106.60337895347708,2138.7443472628825,0.0,0,29,0.0,16431,345385920598274,58,34.29999923706055,967.2415537962967,0.14999,16,0.0,0.0,1575420030,,,,0,21.65473897338838,6,6.0,34.29999923706055,0.0,0.0,2.5617689767095047,66.7128,C,25852045000000,
Raw,1732146968000,16944000000,,106.60337895347708,-1416182169056999936,0.0,106.60337895347708,2138.7443472628825,0.0,0,9,0.0,17,636713,235,5.0,792.0950104555284,0.14999,16,0.0,0.0,1600875010,,,,0,15.109459878810528,3,6.0,29.0,0.0,0.0,35.85445133947339,66.7128,C,25852045000000,
Raw,1732146968000,16944000000,,106.60337895347708,-1416182169056999936,0.0,106.60337895347708,2138.7443472628825,0.0,0,8,0.0,17,750806,235,5.0,536.0155835730557,0.14999,16,0.0,0.0,1605374980,,,,0,12.812815398610764,3,6.0,27.0,0.0,0.0,35.85445133947339,66.7128,C,25852045000000,
Raw,1732146968000,16944000000,,106.60337895347708,-1416182169056999936,0.0,106.60337895347708,2138.7443472628825,0.0,0,20,0.0,17,544605,487,5.0,-137.87978538391144,0.14999,16,0.0,0.0,1603124990,,,,0,0.22235822169726482,3,6.0,18.0,0.0,0.0,35.85445133947339,66.7128,C,25852045000000,
Raw,1732146968000,16944000000,,106.60337895347708,-1416182169056999936,0.0,106.60337895347708,2138.7443472628825,0.0,0,16,0.0,17,589716,487,5.0,1128.0964718389423,0.14999,16,0.0,0.0,1601437440,,,,0,4.676264778134494,3,6.0,20.0,0.0,0.0,35.85445133947339,66.7128,C,25852045000000,
Raw,1732146968000,16944000000,,106.60337895347708,-1416182169056999936,0.0,106.60337895347708,2138.7443472628825,0.0,0,19,0.0,16431,345385922002141,51,37.82500076293945,-45.82379424510235,0.14999,16,0.0,0.0,1575420030,,,,0,25.460637498866664,1,6.0,37.82500076293945,0.0,0.0,0.0,66.7128,C,25852045000000,
Raw,1732146968000,16944000000,,106.60337895347708,-1416182169056999936,0.0,106.60337895347708,2138.7443472628825,0.0,0,17,0.0,16431,345385930226497,51,38.10100173950195,201.23425814861696,0.14999,17,10255.962423496878,0.00022499999613501132,1575420030,,,,0,25.764168687322076,1,6.0,38.10100173950195,0.0,0.0,0.0,66.7128,C,25852045000000,
Raw,1732146968000,16944000000,,106.60337895347708,-1416182169056999936,0.0,106.60337895347708,2138.7443472628825,0.0,0,7,0.0,16431,345385926242968,74,33.334999084472656,1025.4536705576038,0.14999,17,16801.519586957354,0.0006249999860301614,1575420030,,,,0,20.47207245265846,1,6.0,33.334999084472656,0.0,0.0,0.0,66.7128,C,25852045000000,
Fix,FLP,37.4243778000,-122.1712502000,-0.6739407089689511,0.19758435,1.931,267.18634,1732146968390,1.5,45.0,25852237000000,0.82883376,0,,,
Fix,NLP,37.4243347000,-122.1711322000,2.200000047683716,,24.369,,1732146968389,,,25852237000000,1.0,0,,,
Status,1732146968000,29,0,1,14,1575420030,43.90,336.0,73.0,1,0,0,38.9
Status,1732146968000,29,1,1,30,1575420030,47.60,85.0,68.0,1,0,0,42.6
Status,1732146968000,29,2,1,22,1575420030,38.50,278.0,62.0,1,0,0,33.5
Status,1732146968000,29,3,1,13,1575420030,38.50,298.0,51.0,1,0,0,33.5
Status,1732146968000,29,4,1,17,1575420030,38.00,174.0,49.0,1,0,0,33.0
Status,1732146968000,29,5,1,7,1575420030,38.50,107.0,34.0,1,0,0,33.5
Status,1732146968000,29,6,2,131,1575420030,33.00,3.0,23.0,0,0,0,28.0
Status,1732146968000,29,7,1,19,1575420030,38.90,193.0,22.0,1,0,0,33.9
Status,1732146968000,29,8,1,15,1575420030,44.60,313.0,20.0,1,0,0,39.6
Status,1732146968000,29,9,1,2,1575420030,0.00,83.0,18.0,0,0,0,0.0
Status,1732146968000,29,10,1,21,1575420030,0.00,64.0,14.0,0,0,0,0.0
Status,1732146968000,29,11,1,8,1575420030,0.00,38.0,5.0,0,0,0,0.0
Status,1732146968000,29,12,1,5,1575420030,0.00,259.0,4.0,0,0,0,0.0
Status,1732146968000,29,13,3,9,1602000000,33.20,25.0,52.0,1,0,0,28.2
Status,1732146968000,29,14,3,8,1602000000,35.00,297.0,40.0,1,0,0,30.0
Status,1732146968000,29,15,3,20,1602000000,23.90,147.0,14.0,1,0,0,18.9
Status,1732146968000,29,16,3,16,1602000000,25.30,71.0,12.0,1,0,0,20.3
Status,1732146968000,29,17,3,11,1602000000,0.00,275.0,4.0,0,0,0,0.0
Status,1732146968000,29,18,3,17,1602000000,36.60,0.0,0.0,0,0,0,31.599998
Status,1732146968000,29,19,6,21,1575420030,35.00,274.0,59.0,1,0,0,30.0
Status,1732146968000,29,20,6,29,1575420030,40.50,201.0,57.0,1,0,0,35.5
Status,1732146968000,29,21,6,27,1575420030,35.90,39.0,56.0,1,0,0,30.900002
Status,1732146968000,29,22,6,19,1575420030,28.60,293.0,52.0,1,0,0,23.6
Status,1732146968000,29,23,6,7,1575420030,0.00,161.0,13.0,0,0,0,0.0
Status,1732146968000,29,24,6,15,1575420030,0.00,92.0,13.0,0,0,0,0.0
Status,1732146968000,29,25,6,30,1575420030,0.00,60.0,8.0,0,0,0,0.0
Status,1732146968000,29,26,6,34,1575420030,0.00,44.0,6.0,0,0,0,0.0
Status,1732146968000,29,27,6,13,1575420030,0.00,140.0,4.0,0,0,0,0.0
Status,1732146968000,29,28,6,4,1575420030,0.00,325.0,3.0,0,0,0,0.0
Fix,GPS,37.4243850000,-122.1712433333,12.599999999999998,0.42052805,1.8,51.67,1732146969000,1.7,164.0,25853045000000,38.7,0,,,
Fix,FLP,37.4243808000,-122.1712481000,-0.5904895846672371,0.16566937,1.912,269.26028,1732146969197,1.7,164.0,25853045000000,0.83583665,0,,,
Raw,1732146969000,17944000000,,103.42780535133171,-1416182169056999936,0.0,103.42780535133171,2137.162376980422,0.0,0,30,0.0,16431,345386931928067,31,42.584999084472656,766.9673588186705,0.14999,16,0.0,0.0,1575420030,,,,0,30.53005670698461,1,6.0,42.584999084472656,0.0,0.0,0.0,66.7128,C,25853045000000,
Raw,1732146969000,17944000000,,103.42780535133171,-1416182169056999936,0.0,103.42780535133171,2137.162376980422,0.0,0,15,0.0,16431,345386923253019,42,39.56800079345703,206.9725229684454,0.14999,16,0.0,0.0,1575420030,,,,0,27.33831895269855,1,6.0,39.56800079345703,0.0,0.0,0.0,66.7128,C,25853045000000,
Raw,1732146969000,17944000000,,103.42780535133171,-1416182169056999936,0.0,103.42780535133171,2137.162376980422,0.0,0,13,0.0,16431,345386930640451,58,33.500999450683594,398.04679007597974,0.14999,16,0.0,0.0,1575420030,,,,0,20.665817800721094,1,6.0,33.500999450683594,0.0,0.0,0.0,66.7128,C,25853045000000,
Raw,1732146969000,17944000000,,103.42780535133171,-1416182169056999936,0.0,103.42780535133171,2137.162376980422,0.0,0,14,0.0,16431,345386933003209,42,38.948001861572266,660.0672864528811,0.14999,17,11842.646462447316,0.00022499999613501132,1575420030,,,,0,26.673634945486025,1,6.0,38.948001861572266,0.0,0.0,0.0,66.7128,C,25853045000000,
Raw,1732146969000,17944000000,,103.42780535133171,-1416182169056999936,0.0,103.42780535133171,2137.162376980422,0.0,0,21,0.0,16431,345386920217696,74,30.0,485.7067597860015,0.14999,16,0.0,0.0,1575420030,,,,0,17.021790009235097,6,6.0,30.0,0.0,0.0,2.7653985898808346,66.7128,C,25853045000000,
Raw,1732146969000,17944000000,,103.42780535133171,-1416182169056999936,0.0,103.42780535133171,2137.162376980422,0.0,0,27,0.0,16431,345386919803100,74,30.899999618530273,900.3870566178402,0.14999,16,0.0,0.0,1575420030,,,,0,17.960226401790717,6,6.0,30.899999618530273,0.0,0.0,2.7653985898808346,66.7128,C,25853045000000,
Raw,1732146969000,17944000000,,103.42780535133171,-1416182169056999936,0.0,103.42780535133171,2137.162376980422,0.0,0,19,0.0,16431,345386920613171,235,23.600000381469727,493.6333553845949,0.14999,16,0.0,0.0,1575420030,,,,0,9.264661341204956,6,6.0,23.600000381469727,0.0,0.0,2.7653985898808346,66.7128,C,25853045000000,
Raw,1732146969000,17944000000,,103.42780535133171,-1416182169056999936,0.0,103.42780535133171,2137.162376980422,0.0,0,29,0.0,16431,345386920595052,51,35.5,966.7799429728287,0.14999,16,0.0,0.0,1575420030,,,,0,22.983898862168388,6,6.0,35.5,0.0,0.0,2.7653985898808346,66.7128,C,25853045000000,
Raw,1732146969000,17944000000,,103.42780535133171,-1416182169056999936,0.0,103.42780535133171,2137.162376980422,0.0,0,9,0.0,17,634077,235,5.0,791.2471844160042,0.14999,16,0.0,0.0,1600875010,,,,0,14.913529248557523,3,6.0,28.0,0.0,0.0,35.957499798128445,66.7128,C,25853045000000,
Raw,1732146969000,17944000000,,103.42780535133171,-1416182169056999936,0.0,103.42780535133171,2137.162376980422,0.0,0,8,0.0,17,749012,74,5.0,535.8132027282707,0.14999,16,0.0,0.0,1605374980,,,,0,16.950247271544836,3,6.0,30.0,0.0,0.0,35.957499798128445,66.7128,C,25853045000000,
Raw,1732146969000,17944000000,,103.42780535133171,-1416182169056999936,0.0,103.42780535133171,2137.162376980422,0.0,0,20,0.0,17,545064,487,5.0,-138.95625141929216,0.14999,16,0.0,0.0,1603124990,,,,0,0.22235822169726482,3,6.0,19.0,0.0,0.0,35.957499798128445,66.7128,C,25853045000000,
Raw,1732146969000,17944000000,,103.42780535133171,-1416182169056999936,0.0,103.42780535133171,2137.162376980422,0.0,0,16,0.0,17,585947,487,5.0,1127.3965663429933,0.14999,16,0.0,0.0,1601437440,,,,0,4.177377185062286,3,6.0,20.0,0.0,0.0,35.957499798128445,66.7128,C,25853045000000,
Raw,1732146969000,17944000000,,103.42780535133171,-1416182169056999936,0.0,103.42780535133171,2137.162376980422,0.0,0,19,0.0,16431,345386922002293,58,33.85599899291992,-46.03178857447693,0.14999,16,0.0,0.0,1575420030,,,,0,21.065239419333494,1,6.0,33.85599899291992,0.0,0.0,0.0,66.7128,C,25853045000000,
Raw,1732146969000,17944000000,,103.42780535133171,-1416182169056999936,0.0,103.42780535133171,2137.162376980422,0.0,0,17,0.0,16431,345386930225830,58,33.01300048828125,200.73952247439092,0.14999,17,10456.615608812044,0.00039999998989515007,1575420030,,,,0,20.098428193303377,1,6.0,33.01300048828125,0.0,0.0,0.0,66.7128,C,25853045000000,
Raw,1732146969000,17944000000,,103.42780535133171,-1416182169056999936,0.0,103.42780535133171,2137.162376980422,0.0,0,22,0.0,16431,345386931045444,58,33.53200149536133,514.6424086959948,0.14999,16,0.0,0.0,1575420030,,,,0,20.691327039725948,1,6.0,33.53200149536133,0.0,0.0,0.0,66.7128,C,25853045000000,
Raw,1732146969000,17944000000,,103.42780535133171,-1416182169056999936,0.0,103.42780535133171,2137.162376980422,0.0,0,7,0.0,16431,345386926239549,58,33.512001037597656,1024.8269465229237,0.14999,16,0.0,0.0,1575420030,,,,0,20.67858178485207,1,6.0,33.512001037597656,0.0,0.0,0.0,66.7128,C,25853045000000,
Status,1732146969000,29,0,1,14,1575420030,48.50,336.0,73.0,1,0,0,43.5
Status,1732146969000,29,1,1,30,1575420030,43.10,85.0,68.0,1,0,0,38.1
Status,1732146969000,29,2,1,22,1575420030,39.00,279.0,62.0,1,0,0,34.0
Status,1732146969000,29,3,1,13,1575420030,35.10,298.0,51.0,1,0,0,30.099998
Status,1732146969000,29,4,1,17,1575420030,45.60,174.0,49.0,1,0,0,40.6
Status,1732146969000,29,5,1,7,1575420030,44.70,107.0,34.0,1,0,0,39.7
Status,1732146969000,29,6,2,131,1575420030,38.00,3.0,23.0,0,0,0,33.0
Status,1732146969000,29,7,1,19,1575420030,36.10,193.0,22.0,1,0,0,31.099998
Status,1732146969000,29,8,1,15,1575420030,36.80,313.0,20.0,1,0,0,31.8
Status,1732146969000,29,9,1,2,1575420030,30.50,83.0,18.0,0,0,0,25.5
Status,1732146969000,29,10,1,21,1575420030,0.00,64.0,14.0,0,0,0,0.0
Status,1732146969000,29,11,1,8,1575420030,0.00,38.0,5.0,0,0,0,0.0
Status,1732146969000,29,12,1,5,1575420030,0.00,259.0,4.0,0,0,0,0.0
Status,1732146969000,29,13,3,9,1602000000,38.30,25.0,52.0,1,0,0,33.3
Status,1732146969000,29,14,3,8,1602000000,34.40,297.0,40.0,1,0,0,29.400002
Status,1732146969000,29,15,3,20,1602000000,23.90,147.0,14.0,1,0,0,18.9
Status,1732146969000,29,16,3,16,1602000000,0.00,71.0,12.0,0,0,0,0.0
Status,1732146969000,29,17,3,11,1602000000,0.00,275.0,4.0,0,0,0,0.0
Status,1732146969000,29,18,3,17,1602000000,32.60,0.0,0.0,0,0,0,27.599998
Status,1732146969000,29,19,6,21,1575420030,27.70,274.0,59.0,1,0,0,22.7
Status,1732146969000,29,20,6,29,1575420030,29.10,201.0,57.0,1,0,0,24.1
Status,1732146969000,29,21,6,27,1575420030,41.50,39.0,56.0,1,0,0,36.5
Status,1732146969000,29,22,6,19,1575420030,27.20,293.0,52.0,1,0,0,22.2
Status,1732146969000,29,23,6,7,1575420030,0.00,161.0,13.0,0,0,0,0.0
Status,1732146969000,29,24,6,15,1575420030,0.00,92.0,13.0,0,0,0,0.0
Status,1732146969000,29,25,6,30,1575420030,0.00,60.0,8.0,0,0,0,0.0
Status,1732146969000,29,26,6,34,1575420030,0.00,44.0,6.0,0,0,0,0.0
Status,1732146969000,29,27,6,13,1575420030,0.00,140.0,4.0,0,0,0,0.0
Status,1732146969000,29,28,6,4,1575420030,0.00,325.0,3.0,0,0,0,0.0
Fix,GPS,37.4243833333,-122.1712350000,12.7,0.40611583,1.8,88.73,1732146970000,1.3,138.4,25854045000000,38.4,0,,,
Raw,1732146970000,18944000000,,102.26098505540371,-1416182169056999936,0.0,102.26098505540371,2134.2816429472714,0.0,0,30,0.0,16431,345387931925511,51,38.053001403808594,765.676604641093,0.14999,16,0.0,0.0,1575420030,,,,0,25.70716510528299,1,6.0,38.053001403808594,0.0,0.0,0.0,66.7128,C,25854045000000,
Raw,1732146970000,18944000000,,102.26098505540371,-1416182169056999936,0.0,102.26098505540371,2134.2816429472714,0.0,0,15,0.0,16431,345387923252321,74,31.808000564575195,206.40057340647743,0.14999,16,0.0,0.0,1575420030,,,,0,18.69562527736411,1,6.0,31.808000564575195,0.0,0.0,0.0,66.7128,C,25854045000000,
Raw,1732146970000,18944000000,,102.26098505540371,-1416182169056999936,0.0,102.26098505540371,2134.2816429472714,0.0,0,13,0.0,16431,345387930639128,74,30.086000442504883,396.3532878882732,0.14999,16,0.0,0.0,1575420030,,,,0,16.644514926859806,1,6.0,30.086000442504883,0.0,0.0,0.0,66.7128,C,25854045000000,
Raw,1732146970000,18944000000,,102.26098505540371,-1416182169056999936,0.0,102.26098505540371,2134.2816429472714,0.0,0,14,0.0,16431,345387933001009,31,43.486000061035156,658.9128877268818,0.14999,17,12501.772928224473,0.00022499999613501132,1575420030,,,,0,31.470198364308274,1,6.0,43.486000061035156,0.0,0.0,0.0,66.7128,C,25854045000000,
Raw,1732146970000,18944000000,,102.26098505540371,-1416182169056999936,0.0,102.26098505540371,2134.2816429472714,0.0,0,21,0.0,16431,345387920216076,316,22.700000762939453,485.0825909642129,0.14999,16,0.0,0.0,1575420030,,,,0,8.098039199714863,6,6.0,22.700000762939453,0.0,0.0,2.8255669393502596,66.7128,C,25854045000000,
Raw,1732146970000,18944000000,,102.26098505540371,-1416182169056999936,0.0,102.26098505540371,2134.2816429472714,0.0,0,27,0.0,16431,345387919800095,51,36.5,899.7064408203559,0.14999,16,0.0,0.0,1575420030,,,,0,24.06759916099454,6,6.0,36.5,0.0,0.0,2.8255669393502596,66.7128,C,25854045000000,
Raw,1732146970000,18944000000,,102.26098505540371,-1416182169056999936,0.0,102.26098505540371,2134.2816429472714,0.0,0,19,0.0,16431,345387920611524,396,22.200000762939453,493.5777911188071,0.14999,16,0.0,0.0,1575420030,,,,0,7.420873854495515,6,6.0,22.200000762939453,0.0,0.0,2.8255669393502596,66.7128,C,25854045000000,
Raw,1732146970000,18944000000,,102.26098505540371,-1416182169056999936,0.0,102.26098505540371,2134.2816429472714,0.0,0,29,0.0,16431,345387920591831,316,24.100000381469727,965.9600448435451,0.14999,16,0.0,0.0,1575420030,,,,0,9.904964069828226,6,6.0,24.100000381469727,0.0,0.0,2.8255669393502596,66.7128,C,25854045000000,
Raw,1732146970000,18944000000,,102.26098505540371,-1416182169056999936,0.0,102.26098505540371,2134.2816429472714,0.0,0,9,0.0,17,631438,58,5.0,790.3497982261971,0.14999,16,0.0,0.0,1600875010,,,,0,20.59742461555835,3,6.0,33.0,0.0,0.0,36.077750843360946,66.7128,C,25854045000000,
Raw,1732146970000,18944000000,,102.26098505540371,-1416182169056999936,0.0,102.26098505540371,2134.2816429472714,0.0,0,8,0.0,17,747222,74,5.0,535.243764397258,0.14999,16,0.0,0.0,1605374980,,,,0,16.35098280399597,3,6.0,30.0,0.0,0.0,36.077750843360946,66.7128,C,25854045000000,
Raw,1732146970000,18944000000,,102.26098505540371,-1416182169056999936,0.0,102.26098505540371,2134.2816429472714,0.0,0,20,0.0,17,545526,487,5.0,-137.98378867632798,0.14999,16,0.0,0.0,1603124990,,,,0,2.2756050596402195,3,6.0,19.0,0.0,0.0,36.077750843360946,66.7128,C,25854045000000,
Raw,1732146970000,18944000000,,102.26098505540371,-1416182169056999936,0.0,102.26098505540371,2134.2816429472714,0.0,0,2,0.0,17,690350,396,25.540000915527344,466.96682843915664,0.14999,16,0.0,0.0,1575420030,,,,0,10.784769418688464,1,6.0,25.540000915527344,0.0,0.0,0.0,66.7128,C,25854045000000,
Raw,1732146970000,18944000000,,102.26098505540371,-1416182169056999936,0.0,102.26098505540371,2134.2816429472714,0.0,0,19,0.0,16431,345387922002447,74,31.086000442504883,-47.51432309417142,0.14999,16,9786.8224358555,0.0006249999860301614,1575420030,,,,0,17.854941601943572,1,6.0,31.086000442504883,0.0,0.0,0.0,66.7128,C,25854045000000,
Raw,1732146970000,18944000000,,102.26098505540371,-1416182169056999936,0.0,102.26098505540371,2134.2816429472714,0.0,0,17,0.0,16431,345387930225162,42,40.55699920654297,199.9075451568926,0.14999,16,0.0,0.0,1575420030,,,,0,28.391599508831117,1,6.0,40.55699920654297,0.0,0.0,0.0,66.7128,C,25854045000000,
Raw,1732146970000,18944000000,,102.26098505540371,-1416182169056999936,0.0,102.26098505540371,2134.2816429472714,0.0,0,22,0.0,16431,345387931043734,58,34.012001037597656,513.4350009170992,0.14999,16,0.0,0.0,1575420030,,,,0,21.246327763777124,1,6.0,34.012001037597656,0.0,0.0,0.0,66.7128,C,25854045000000,
Raw,1732146970000,18944000000,,102.26098505540371,-1416182169056999936,0.0,102.26098505540371,2134.2816429472714,0.0,0,7,0.0,16431,345387926236133,42,39.67499923706055,1023.6366818996097,0.14999,16,0.0,0.0,1575420030,,,,0,27.450168619660992,1,6.0,39.67499923706055,0.0,0.0,0.0,66.7128,C,25854045000000,
Fix,FLP,37.4243820000,-122.1712425000,-0.5070376365271194,0.115656465,1.884,269.78214,1732146970197,1.3,138.4,25854045000000,0.83956194,0,,,
Status,1732146970000,29,0,1,14,1575420030,49.90,336.0,73.0,1,0,0,44.9
Status,1732146970000,29,1,1,30,1575420030,43.00,85.0,68.0,1,0,0,38.0
Status,1732146970000,29,2,1,22,1575420030,41.50,279.0,62.0,1,0,0,36.5
Status,1732146970000,29,3,1,13,1575420030,43.60,298.0,51.0,1,0,0,38.6
Status,1732146970000,29,4,1,17,1575420030,43.60,174.0,49.0,1,0,0,38.6
Status,1732146970000,29,5,1,7,1575420030,38.80,107.0,34.0,1,0,0,33.8
Status,1732146970000,29,6,2,131,1575420030,32.00,3.0,23.0,0,0,0,27.0
Status,1732146970000,29,7,1,19,1575420030,48.30,193.0,22.0,1,0,0,43.3
Status,1732146970000,29,8,1,15,1575420030,40.60,313.0,20.0,1,0,0,35.6
Status,1732146970000,29,9,1,2,1575420030,0.00,83.0,18.0,0,0,0,0.0
Status,1732146970000,29,10,1,21,1575420030,25.10,64.0,14.0,1,0,0,20.1
Status,1732146970000,29,11,1,8,1575420030,0.00,38.0,5.0,0,0,0,0.0
Status,1732146970000,29,12,1,5,1575420030,0.00,259.0,4.0,0,0,0,0.0
Status,1732146970000,29,13,3,9,1602000000,31.50,25.0,52.0,1,0,0,26.5
Status,1732146970000,29,14,3,8,1602000000,36.70,297.0,40.0,1,0,0,31.7
Status,1732146970000,29,15,3,20,1602000000,23.90,147.0,14.0,1,0,0,18.9
Status,1732146970000,29,16,3,16,1602000000,25.00,71.0,12.0,1,0,0,20.0
Status,1732146970000,29,17,3,11,1602000000,0.00,275.0,4.0,0,0,0,0.0
Status,1732146970000,29,18,3,17,1602000000,32.10,0.0,0.0,0,0,0,27.099998
Status,1732146970000,29,19,6,21,1575420030,37.70,274.0,59.0,1,0,0,32.7
Status,1732146970000,29,20,6,29,1575420030,39.80,201.0,57.0,1,0,0,34.8
Status,1732146970000,29,21,6,27,1575420030,35.10,39.0,56.0,1,0,0,30.099998
Status,1732146970000,29,22,6,19,1575420030,30.20,293.0,52.0,1,0,0,25.2
Status,1732146970000,29,23,6,7,1575420030,0.00,161.0,13.0,0,0,0,0.0
Status,1732146970000,29,24,6,15,1575420030,0.00,92.0,13.0,0,0,0,0.0
Status,1732146970000,29,25,6,30,1575420030,0.00,60.0,8.0,0,0,0,0.0
Status,1732146970000,29,26,6,34,1575420030,0.00,44.0,6.0,0,0,0,0.0
Status,1732146970000,29,27,6,13,1575420030,0.00,140.0,4.0,0,0,0,0.0
Status,1732146970000,29,28,6,4,1575420030,0.00,325.0,3.0,0,0,0,0.0
Fix,GPS,37.4243816667,-122.1712266667,12.900000000000002,0.4936186,1.7,93.16,1732146971000,1.1,98.0,25855045000000,36.9,0,,,
Fix,FLP,37.4243818000,-122.1712350000,-0.17373048119537948,0.046999812,1.855,,1732146971198,1.1,,25855045000000,0.85404646,0,,,
Raw,1732146971000,19944000000,,99.03792376697602,-1416182169056999936,0.0,99.03792376697602,2131.865314718233,0.0,0,30,0.0,16431,345388931922956,51,38.040000915527344,765.5624098540476,0.14999,17,15288.37937185805,0.00022499999613501132,1575420030,,,,0,25.69285556392783,1,6.0,38.040000915527344,0.0,0.0,0.0,66.7128,C,25855045000000,
Raw,1732146971000,19944000000,,99.03792376697602,-1416182169056999936,0.0,99.03792376697602,2131.865314718233,0.0,0,15,0.0,16431,345388923251633,51,35.63800048828125,205.5420683333229,0.14999,16,0.0,0.0,1575420030,,,,0,23.06179973983887,1,6.0,35.63800048828125,0.0,0.0,0.0,66.7128,C,25855045000000,
Raw,1732146971000,19944000000,,99.03792376697602,-1416182169056999936,0.0,99.03792376697602,2131.865314718233,0.0,0,13,0.0,16431,345388930637806,42,38.64099884033203,396.2022051187565,0.14999,16,0.0,0.0,1575420030,,,,0,26.34115129820725,1,6.0,38.64099884033203,0.0,0.0,0.0,66.7128,C,25855045000000,
Raw,1732146971000,19944000000,,99.03792376697602,-1416182169056999936,0.0,99.03792376697602,2131.865314718233,0.0,0,14,0.0,16431,345388932998812,28,44.94900131225586,658.5828935965383,0.14999,17,13159.648855390582,0.00022499999613501132,1575420030,,,,0,32.99285645874518,1,6.0,44.94900131225586,0.0,0.0,0.0,66.7128,C,25855045000000,
Raw,1732146971000,19944000000,,99.03792376697602,-1416182169056999936,0.0,99.03792376697602,2131.865314718233,0.0,0,21,0.0,16431,345388920214458,58,32.70000076293945,483.8928838418934,0.14999,16,0.0,0.0,1575420030,,,,0,19.974832421340288,6,6.0,32.70000076293945,0.0,0.0,3.184015598993333,66.7128,C,25855045000000,
Raw,1732146971000,19944000000,,99.03792376697602,-1416182169056999936,0.0,99.03792376697602,2131.865314718233,0.0,0,21,0.0,16431,345388920527717,487,20.118999481201172,679.423535149175,0.14999,16,0.0,0.0,1575420030,,,,0,2.397201394117846,1,6.0,20.118999481201172,0.0,0.0,0.0,66.7128,C,25855045000000,
Raw,1732146971000,19944000000,,99.03792376697602,-1416182169056999936,0.0,99.03792376697602,2131.865314718233,0.0,0,19,0.0,16431,345388922002594,31,43.28900146484375,-48.006921681251754,0.14999,16,0.0,0.0,1575420030,,,,0,31.26528904161986,1,6.0,43.28900146484375,0.0,0.0,0.0,66.7128,C,25855045000000,
Raw,1732146971000,19944000000,,99.03792376697602,-1416182169056999936,0.0,99.03792376697602,2131.865314718233,0.0,0,27,0.0,16431,345388919797092,74,30.100000381469727,898.5421929101198,0.14999,16,0.0,0.0,1575420030,,,,0,17.099170384155578,6,6.0,30.100000381469727,0.0,0.0,3.184015598993333,66.7128,C,25855045000000,
Raw,1732146971000,19944000000,,99.03792376697602,-1416182169056999936,0.0,99.03792376697602,2131.865314718233,0.0,0,19,0.0,16431,345388920609878,316,25.200000762939453,492.03467482437406,0.14999,16,0.0,0.0,1575420030,,,,0,11.325399244414363,6,6.0,25.200000762939453,0.0,0.0,3.184015598993333,66.7128,C,25855045000000,
Raw,1732146971000,19944000000,,99.03792376697602,-1416182169056999936,0.0,99.03792376697602,2131.865314718233,0.0,0,29,0.0,16431,345388920588609,51,34.79999923706055,965.0316198539938,0.14999,16,0.0,0.0,1575420030,,,,0,22.206760131419873,6,6.0,34.79999923706055,0.0,0.0,3.184015598993333,66.7128,C,25855045000000,
Raw,1732146971000,19944000000,,99.03792376697602,-1416182169056999936,0.0,99.03792376697602,2131.865314718233,0.0,0,9,0.0,17,628799,316,5.0,789.3183618882081,0.14999,16,0.0,0.0,1600875010,,,,0,12.875680978017598,3,6.0,24.0,0.0,0.0,36.45624557891435,66.7128,C,25855045000000,
Raw,1732146971000,19944000000,,99.03792376697602,-1416182169056999936,0.0,99.03792376697602,2131.865314718233,0.0,0,8,0.0,17,745430,74,5.0,534.7477284451829,0.14999,16,0.0,0.0,1605374980,,,,0,18.882350030832136,3,6.0,32.0,0.0,0.0,36.45624557891435,66.7128,C,25855045000000,
Raw,1732146971000,19944000000,,99.03792376697602,-1416182169056999936,0.0,99.03792376697602,2131.865314718233,0.0,0,20,0.0,17,545985,487,5.0,-139.0692031951651,0.14999,16,0.0,0.0,1603124990,,,,0,2.2756050596402195,3,6.0,18.0,0.0,0.0,36.45624557891435,66.7128,C,25855045000000,
Raw,1732146971000,19944000000,,99.03792376697602,-1416182169056999936,0.0,99.03792376697602,2131.865314718233,0.0,0,16,0.0,17,578433,487,5.0,1125.7235390095263,0.14999,16,0.0,0.0,1601437440,,,,0,4.291666855550874,3,6.0,19.0,0.0,0.0,36.45624557891435,66.7128,C,25855045000000,
Raw,1732146971000,19944000000,,99.03792376697602,-1416182169056999936,0.0,99.03792376697602,2131.865314718233,0.0,0,17,0.0,16431,345388930224494,42,38.60100173950195,199.42707221644324,0.14999,17,10855.388221628133,0.00022499999613501132,1575420030,,,,0,26.301185477828092,1,6.0,38.60100173950195,0.0,0.0,0.0,66.7128,C,25855045000000,
Raw,1732146971000,19944000000,,99.03792376697602,-1416182169056999936,0.0,99.03792376697602,2131.865314718233,0.0,0,22,0.0,16431,345388931042022,51,36.487998962402344,513.14259164547,0.14999,16,0.0,0.0,1575420030,,,,0,24.006949311116013,1,6.0,36.487998962402344,0.0,0.0,0.0,66.7128,C,25855045000000,
Raw,1732146971000,19944000000,,99.03792376697602,-1416182169056999936,0.0,99.03792376697602,2131.865314718233,0.0,0,7,0.0,16431,345388926232720,58,33.816001892089844,1023.9097644700953,0.14999,16,0.0,0.0,1575420030,,,,0,21.01630470039175,1,6.0,33.816001892089844,0.0,0.0,0.0,66.7128,C,25855045000000,
Status,1732146971000,29,0,1,14,1575420030,42.50,336.0,73.0,1,0,0,37.5
Status,1732146971000,29,1,1,30,1575420030,47.40,85.0,68.0,1,0,0,42.4
Status,1732146971000,29,2,1,22,1575420030,44.50,279.0,62.0,1,0,0,39.5
Status,1732146971000,29,3,1,13,1575420030,43.00,298.0,51.0,1,0,0,38.0
Status,1732146971000,29,4,1,17,1575420030,43.10,174.0,49.0,1,0,0,38.1
Status,1732146971000,29,5,1,7,1575420030,38.80,107.0,34.0,1,0,0,33.8
Status,1732146971000,29,6,2,131,1575420030,39.00,3.0,23.0,0,0,0,34.0
Status,1732146971000,29,7,1,19,1575420030,48.50,193.0,22.0,1,0,0,43.5
Status,1732146971000,29,8,1,15,1575420030,35.80,313.0,20.0,1,0,0,30.8
Status,1732146971000,29,9,1,2,1575420030,31.00,83.0,18.0,1,0,0,26.0
Status,1732146971000,29,10,1,21,1575420030,0.00,64.0,14.0,0,0,0,0.0
Status,1732146971000,29,11,1,8,1575420030,0.00,38.0,5.0,0,0,0,0.0
Status,1732146971000,29,12,1,5,1575420030,0.00,259.0,4.0,0,0,0,0.0
Status,1732146971000,29,13,3,9,1602000000,39.80,25.0,52.0,1,0,0,34.8
Status,1732146971000,29,14,3,8,1602000000,37.50,297.0,40.0,1,0,0,32.5
Status,1732146971000,29,15,3,20,1602000000,23.90,147.0,14.0,1,0,0,18.9
Status,1732146971000,29,16,3,16,1602000000,25.00,71.0,12.0,1,0,0,20.0
Status,1732146971000,29,17,3,11,1602000000,0.00,275.0,4.0,0,0,0,0.0
Status,1732146971000,29,18,3,17,1602000000,37.90,0.0,0.0,0,0,0,32.9
Status,1732146971000,29,19,6,21,1575420030,42.60,274.0,59.0,1,0,0,37.6
Status,1732146971000,29,20,6,29,1575420030,38.20,201.0,57.0,1,0,0,33.2
Status,1732146971000,29,21,6,27,1575420030,41.80,39.0,56.0,1,0,0,36.8
Status,1732146971000,29,22,6,19,1575420030,27.40,293.0,52.0,1,0,0,22.4
Status,1732146971000,29,23,6,7,1575420030,0.00,161.0,13.0,0,0,0,0.0
Status,1732146971000,29,24,6,15,1575420030,0.00,92.0,13.0,0,0,0,0.0
Status,1732146971000,29,25,6,30,1575420030,0.00,60.0,8.0,0,0,0,0.0
Status,1732146971000,29,26,6,34,1575420030,0.00,44.0,6.0,0,0,0,0.0
Status,1732146971000,29,27,6,13,1575420030,0.00,140.0,4.0,0,0,0,0.0
Status,1732146971000,29,28,6,4,1575420030,0.00,325.0,3.0,0,0,0,0.0
Fix,GPS,37.4243866667,-122.1712150000,12.900000000000002,0.6665653,1.7,83.09,1732146972000,1.1,71.9,25856045000000,38.5,0,,,
Raw,1732146972000,20944000000,,103.50660793470429,-1416182169056999936,0.0,103.50660793470429,2132.2417484205203,0.0,0,30,0.0,16431,345389931920406,31,42.391998291015625,766.1791917876586,0.14999,16,0.0,0.0,1575420030,,,,0,30.326650235034464,1,6.0,42.391998291015625,0.0,0.0,0.0,66.7128,C,25856045000000,
Raw,1732146972000,20944000000,,103.50660793470429,-1416182169056999936,0.0,103.50660793470429,2132.2417484205203,0.0,0,15,0.0,16431,345389923250941,74,30.795000076293945,205.95703490691542,0.14999,16,0.0,0.0,1575420030,,,,0,17.494479519278123,1,6.0,30.795000076293945,0.0,0.0,0.0,66.7128,C,25856045000000,
Raw,1732146972000,20944000000,,103.50660793470429,-1416182169056999936,0.0,103.50660793470429,2132.2417484205203,0.0,0,13,0.0,16431,345389930636483,51,38.01599884033203,396.72867189125435,0.14999,16,0.0,0.0,1575420030,,,,0,25.671346952925372,1,6.0,38.01599884033203,0.0,0.0,0.0,66.7128,C,25856045000000,
Raw,1732146972000,20944000000,,103.50660793470429,-1416182169056999936,0.0,103.50660793470429,2132.2417484205203,0.0,0,14,0.0,16431,345389932996613,51,37.459999084472656,659.2744735802484,0.14999,16,0.0,0.0,1575420030,,,,0,25.069518385095723,1,6.0,37.459999084472656,0.0,0.0,0.0,66.7128,C,25856045000000,
Raw,1732146972000,20944000000,,103.50660793470429,-1416182169056999936,0.0,103.50660793470429,2132.2417484205203,0.0,0,21,0.0,16431,345389920212842,42,37.599998474121094,484.90038105583517,0.14999,16,0.0,0.0,1575420030,,,,0,25.22204012036207,6,6.0,37.599998474121094,0.0,0.0,3.313710201273295,66.7128,C,25856045000000,
Raw,1732146972000,20944000000,,103.50660793470429,-1416182169056999936,0.0,103.50660793470429,2132.2417484205203,0.0,0,19,0.0,16431,345389922002760,31,43.512001037597656,-47.21907985915344,0.14999,16,0.0,0.0,1575420030,,,,0,31.499604705178022,1,6.0,43.512001037597656,0.0,0.0,0.0,66.7128,C,25856045000000,
Raw,1732146972000,20944000000,,103.50660793470429,-1416182169056999936,0.0,103.50660793470429,2132.2417484205203,0.0,0,2,0.0,16431,345389920687266,316,26.0049991607666,466.9389069310141,0.14999,16,0.0,0.0,1575420030,,,,0,11.399956694799226,1,6.0,26.0049991607666,0.0,0.0,0.0,66.7128,C,25856045000000,
Raw,1732146972000,20944000000,,103.50660793470429,-1416182169056999936,0.0,103.50660793470429,2132.2417484205203,0.0,0,27,0.0,16431,345389919794094,51,36.79999923706055,899.6485536337575,0.14999,16,0.0,0.0,1575420030,,,,0,24.347950497739916,6,6.0,36.79999923706055,0.0,0.0,3.313710201273295,66.7128,C,25856045000000,
Raw,1732146972000,20944000000,,103.50660793470429,-1416182169056999936,0.0,103.50660793470429,2132.2417484205203,0.0,0,19,0.0,16431,345389920608234,316,22.399999618530273,493.1734635225268,0.14999,16,0.0,0.0,1575420030,,,,0,7.652511305491819,6,6.0,22.399999618530273,0.0,0.0,3.313710201273295,66.7128,C,25856045000000,
Raw,1732146972000,20944000000,,103.50660793470429,-1416182169056999936,0.0,103.50660793470429,2132.2417484205203,0.0,0,29,0.0,16431,345389920585388,58,33.20000076293945,965.8494738129641,0.14999,16,0.0,0.0,1575420030,,,,0,20.45900113395672,6,6.0,33.20000076293945,0.0,0.0,3.313710201273295,66.7128,C,25856045000000,
Raw,1732146972000,20944000000,,103.50660793470429,-1416182169056999936,0.0,103.50660793470429,2132.2417484205203,0.0,0,17,0.0,16431,345389930223819,51,38.0890007019043,200.21551799795228,0.14999,16,0.0,0.0,1575420030,,,,0,25.749952825494017,1,6.0,38.0890007019043,0.0,0.0,0.0,66.7128,C,25856045000000,
Raw,1732146972000,20944000000,,103.50660793470429,-1416182169056999936,0.0,103.50660793470429,2132.2417484205203,0.0,0,9,0.0,17,626165,58,5.0,790.9666483623738,0.14999,16,0.0,0.0,1600875010,,,,0,22.192485864217065,3,6.0,35.0,0.0,0.0,36.60348427237413,66.7128,C,25856045000000,
Raw,1732146972000,20944000000,,103.50660793470429,-1416182169056999936,0.0,103.50660793470429,2132.2417484205203,0.0,0,8,0.0,17,743645,58,5.0,536.0859769103722,0.14999,16,0.0,0.0,1605374980,,,,0,19.696885219291964,3,6.0,33.0,0.0,0.0,36.60348427237413,66.7128,C,25856045000000,
Raw,1732146972000,20944000000,,103.50660793470429,-1416182169056999936,0.0,103.50660793470429,2132.2417484205203,0.0,0,20,0.0,17,546450,797,5.0,-139.7548579122466,0.14999,16,0.0,0.0,1603124990,,,,0,1.9653617360752698,3,6.0,17.0,0.0,0.0,36.60348427237413,66.7128,C,25856045000000,
Raw,1732146972000,20944000000,,103.50660793470429,-1416182169056999936,0.0,103.50660793470429,2132.2417484205203,0.0,0,16,0.0,17,574673,797,5.0,1127.4503138200232,0.14999,16,0.0,0.0,1601437440,,,,0,4.291666855550874,3,6.0,17.0,0.0,0.0,36.60348427237413,66.7128,C,25856045000000,
