# 
# Header Description:
# 
# Version: v3.1.0.3 Platform: 13 Manufacturer: samsung Model: SM-S135DL GNSS Hardware Model Name: MediaTek,MT6631,MTK_MNLD_default,MNL_VER_default
# 
# Raw,utcTimeMillis,TimeNanos,LeapSecond,TimeUncertaintyNanos,FullBiasNanos,BiasNanos,BiasUncertaintyNanos,DriftNanosPerSecond,DriftUncertaintyNanosPerSecond,HardwareClockDiscontinuityCount,Svid,TimeOffsetNanos,State,ReceivedSvTimeNanos,ReceivedSvTimeUncertaintyNanos,Cn0DbHz,PseudorangeRateMetersPerSecond,PseudorangeRateUncertaintyMetersPerSecond,AccumulatedDeltaRangeState,AccumulatedDeltaRangeMeters,AccumulatedDeltaRangeUncertaintyMeters,CarrierFrequencyHz,CarrierCycles,CarrierPhase,CarrierPhaseUncertainty,MultipathIndicator,SnrInDb,ConstellationType,AgcDb,BasebandCn0DbHz,FullInterSignalBiasNanos,FullInterSignalBiasUncertaintyNanos,SatelliteInterSignalBiasNanos,SatelliteInterSignalBiasUncertaintyNanos,CodeType,ChipsetElapsedRealtimeNanos,IsFullTracking
# 
# UncalAccel,utcTimeMillis,elapsedRealtimeNanos,UncalAccelXMps2,UncalAccelYMps2,UncalAccelZMps2,BiasXMps2,BiasYMps2,BiasZMps2
# 
# Accel,utcTimeMillis,elapsedRealtimeNanos,AccelXMps2,AccelYMps2,AccelZMps2
# 
# UncalGyro,utcTimeMillis,elapsedRealtimeNanos,UncalGyroXRadPerSec,UncalGyroYRadPerSec,UncalGyroZRadPerSec,DriftXRadPerSec,DriftYRadPerSec,DriftZRadPerSec
# 
# Gyro,utcTimeMillis,elapsedRealtimeNanos,GyroXRadPerSec,GyroYRadPerSec,GyroZRadPerSec
# 
# UncalMag,utcTimeMillis,elapsedRealtimeNanos,UncalMagXMicroT,UncalMagYMicroT,UncalMagZMicroT,BiasXMicroT,BiasYMicroT,BiasZMicroT
# 
# Mag,utcTimeMillis,elapsedRealtimeNanos,MagXMicroT,MagYMicroT,MagZMicroT
# 
# Pressure,utcTimeMillis,elapsedRealtimeNanos,PressureHpa
# 
# OrientationDeg,utcTimeMillis,elapsedRealtimeNanos,yawDeg,rollDeg,pitchDeg
# 
# Fix,Provider,LatitudeDegrees,LongitudeDegrees,AltitudeMeters,SpeedMps,AccuracyMeters,BearingDegrees,UnixTimeMillis,SpeedAccuracyMps,BearingAccuracyDegrees,elapsedRealtimeNanos,VerticalAccuracyMeters,MockLocation,NumberOfUsedSignals,VerticalSpeedAccuracyMps,SolutionType
# 
# Nav,Svid,Type,Status,MessageId,Sub-messageId,Data(Bytes)
# 
# Status,UnixTimeMillis,SignalCount,SignalIndex,ConstellationType,Svid,CarrierFrequencyHz,Cn0DbHz,AzimuthDegrees,ElevationDegrees,UsedInFix,HasAlmanacData,HasEphemerisData,BasebandCn0DbHz
# 
# Agc,utcTimeMillis,TimeNanos,LeapSecond,TimeUncertaintyNanos,FullBiasNanos,BiasNanos,BiasUncertaintyNanos,DriftNanosPerSecond,DriftUncertaintyNanosPerSecond,HardwareClockDiscontinuityCount,AgcDb,CarrierFrequencyHz,ConstellationType
# 
Raw,1732146248000,12348000000,,85.59576560735331,-1416181453652000000,0.0,85.59576560735331,1959.5331332307126,0.0,0,17,0.0,16431,344665928781517,51,36.542999267578125,82.36533630658776,0.14999,16,0.0,0.0,1575420030,,,,0,24.067285188588063,1,6.0,36.542999267578125,0.0,0.0,0.0,66.7128,C,25132043000000,
Raw,1732146248000,12348000000,,85.59576560735331,-1416181453652000000,0.0,85.59576560735331,1959.5331332307126,0.0,0,30,0.0,16431,344665931859472,31,42.560001373291016,659.9560650044732,0.14999,16,0.0,0.0,1575420030,,,,0,30.504132338712715,1,6.0,42.560001373291016,0.0,0.0,0.0,66.7128,C,25132043000000,
Raw,1732146248000,12348000000,,85.59576560735331,-1416181453652000000,0.0,85.59576560735331,1959.5331332307126,0.0,0,15,0.0,16431,344665921815466,74,30.607999801635742,82.06888515274832,0.14999,16,0.0,0.0,1575420030,,,,0,17.274914993063142,1,6.0,30.607999801635742,0.0,0.0,0.0,66.7128,C,25132043000000,
Raw,1732146248000,12348000000,,85.59576560735331,-1416181453652000000,0.0,85.59576560735331,1959.5331332307126,0.0,0,22,0.0,16431,344665930375648,31,41.38100051879883,410.8508689588527,0.14999,16,0.0,0.0,1575420030,,,,0,29.263107839014975,1,6.0,41.38100051879883,0.0,0.0,0.0,66.7128,C,25132043000000,
Raw,1732146248000,12348000000,,85.59576560735331,-1416181453652000000,0.0,85.59576560735331,1959.5331332307126,0.0,0,13,0.0,16431,344665929646497,51,38.14899826049805,259.89713769320696,0.14999,16,0.0,0.0,1575420030,,,,0,25.813484982537762,1,6.0,38.14899826049805,0.0,0.0,0.0,66.7128,C,25132043000000,
Raw,1732146248000,12348000000,,85.59576560735331,-1416181453652000000,0.0,85.59576560735331,1959.5331332307126,0.0,0,19,0.0,16431,344665920025928,51,36.61000061035156,-112.30183887700476,0.14999,16,0.0,0.0,1575420030,,,,0,24.137333065309473,1,6.0,36.61000061035156,0.0,0.0,0.0,66.7128,C,25132043000000,
Raw,1732146248000,12348000000,,85.59576560735331,-1416181453652000000,0.0,85.59576560735331,1959.5331332307126,0.0,0,21,0.0,16431,344665919501113,74,31.0,400.9633565288449,0.14999,16,0.0,0.0,1575420030,,,,0,18.11673315202985,6,6.0,31.0,0.0,0.0,9.207258773736031,66.7128,C,25132043000000,
Raw,1732146248000,12348000000,,85.59576560735331,-1416181453652000000,0.0,85.59576560735331,1959.5331332307126,0.0,0,19,0.0,16431,344665919880033,74,28.600000381469727,379.60874551767097,0.14999,16,0.0,0.0,1575420030,,,,0,15.370278797557749,6,6.0,28.600000381469727,0.0,0.0,9.207258773736031,66.7128,C,25132043000000,
Raw,1732146248000,12348000000,,85.59576560735331,-1416181453652000000,0.0,85.59576560735331,1959.5331332307126,0.0,0,7,0.0,16431,344665910055447,74,31.299999237060547,1172.0395441355915,0.14999,16,0.0,0.0,1575420030,,,,0,18.391408676741015,6,6.0,31.299999237060547,0.0,0.0,9.207258773736031,66.7128,C,25132043000000,
Raw,1732146248000,12348000000,,85.59576560735331,-1416181453652000000,0.0,85.59576560735331,1959.5331332307126,0.0,0,27,0.0,16431,344665920099448,235,25.0,828.3030142770608,0.14999,16,0.0,0.0,1575420030,,,,0,11.099205785848271,6,6.0,25.0,0.0,0.0,9.207258773736031,66.7128,C,25132043000000,
Raw,1732146248000,12348000000,,85.59576560735331,-1416181453652000000,0.0,85.59576560735331,1959.5331332307126,0.0,0,9,0.0,17,654296,316,5.0,707.6661855094546,0.14999,16,0.0,0.0,1600875010,,,,0,10.3769062458516,3,6.0,24.0,0.0,0.0,25.77968661907647,66.7128,C,25132043000000,
Raw,1732146248000,12348000000,,85.59576560735331,-1416181453652000000,0.0,85.59576560735331,1959.5331332307126,0.0,0,8,0.0,17,45437,235,5.0,362.33445346682635,0.14999,16,0.0,0.0,1605374980,,,,0,15.274707316809355,3,6.0,29.0,0.0,0.0,25.77968661907647,66.7128,C,25132043000000,
Raw,1732146248000,12348000000,,85.59576560735331,-1416181453652000000,0.0,85.59576560735331,1959.5331332307126,0.0,0,19,0.0,17,93419,487,5.0,266.63023947222104,0.14999,16,0.0,0.0,1603687550,,,,0,4.476945627970236,3,6.0,18.0,0.0,0.0,25.77968661907647,66.7128,C,25132043000000,
Raw,1732146248000,12348000000,,85.59576560735331,-1416181453652000000,0.0,85.59576560735331,1959.5331332307126,0.0,0,20,0.0,17,358107,797,5.0,-190.7247805024202,0.14999,16,0.0,0.0,1603124990,,,,0,0.0,3,6.0,15.0,0.0,0.0,25.77968661907647,66.7128,C,25132043000000,
Raw,1732146248000,12348000000,,85.59576560735331,-1416181453652000000,0.0,85.59576560735331,1959.5331332307126,0.0,0,16,0.0,17,450249,487,5.0,1072.4157309668803,0.14999,16,0.0,0.0,1601437440,,,,0,1.687483492449675,3,6.0,20.0,0.0,0.0,25.77968661907647,66.7128,C,25132043000000,
Raw,1732146248000,12348000000,,85.59576560735331,-1416181453652000000,0.0,85.59576560735331,1959.5331332307126,0.0,0,2,0.0,16431,344665919892388,487,22.315000534057617,351.86624165279665,0.14999,16,0.0,0.0,1575420030,,,,0,6.0405800000802,1,6.0,22.315000534057617,0.0,0.0,0.0,66.7128,C,25132043000000,
Raw,1732146248000,12348000000,,85.59576560735331,-1416181453652000000,0.0,85.59576560735331,1959.5331332307126,0.0,0,14,0.0,16431,344665932687293,42,38.74700164794922,559.7537166700923,0.14999,16,0.0,0.0,1575420030,,,,0,26.457692228067224,1,6.0,38.74700164794922,0.0,0.0,0.0,66.7128,C,25132043000000,
Raw,1732146248000,12348000000,,85.59576560735331,-1416181453652000000,0.0,85.59576560735331,1959.5331332307126,0.0,0,7,0.0,16431,344665926803643,58,34.6349983215332,928.0435659543089,0.14999,16,0.0,0.0,1575420030,,,,0,21.94696551049335,1,6.0,34.6349983215332,0.0,0.0,0.0,66.7128,C,25132043000000,
Fix,FLP,37.4243729000,-122.1712446000,2.200000047683716,0.8236896,1.7,248.38567,1732146248195,2.1,88.0,25132043000000,0.9982675,0,,,
Status,,28,0,1,14,1575420030,43.70,316.0,74.0,1,0,0,38.7
Status,,28,1,1,30,1575420030,50.00,71.0,70.0,1,0,0,45.0
Status,,28,2,1,22,1575420030,43.10,269.0,59.0,1,0,0,38.1
Status,,28,3,1,13,1575420030,41.00,304.0,47.0,1,0,0,36.0
Status,,28,4,1,17,1575420030,35.70,176.0,43.0,1,0,0,30.7
Status,,28,5,1,7,1575420030,48.20,102.0,38.0,1,0,0,43.2
Status,,28,6,2,131,1575420030,46.00,3.0,23.0,0,0,0,41.0
Status,,28,7,1,2,1575420030,29.10,88.0,16.0,1,0,0,24.1
Status,,28,8,1,19,1575420030,40.90,193.0,16.0,1,0,0,35.9
Status,,28,9,1,15,1575420030,39.20,316.0,16.0,1,0,0,34.2
Status,,28,10,1,21,1575420030,21.50,70.0,13.0,0,0,0,16.5
Status,,28,11,1,8,1575420030,0.00,39.0,10.0,0,0,0,0.0
Status,,28,12,1,5,1575420030,0.00,263.0,7.0,0,0,0,0.0
Status,,28,13,1,9,1575420030,0.00,159.0,2.0,0,0,0,0.0
Status,,28,14,3,9,1602000000,32.90,15.0,54.0,1,0,0,27.900002
Status,,28,15,3,8,1602000000,31.40,305.0,38.0,1,0,0,26.4
Status,,28,16,3,19,1602000000,35.00,88.0,31.0,1,0,0,30.0
Status,,28,17,3,16,1602000000,23.50,66.0,15.0,1,0,0,18.5
Status,,28,18,3,20,1602000000,0.00,150.0,9.0,0,0,0,0.0
Status,,28,19,3,17,1602000000,38.80,0.0,0.0,0,0,0,33.8
Status,,28,20,6,29,1575420030,0.00,205.0,62.0,0,0,0,0.0
Status,,28,21,6,27,1575420030,35.20,35.0,60.0,1,0,0,30.2
Status,,28,22,6,21,1575420030,43.40,267.0,56.0,1,0,0,38.4
Status,,28,23,6,19,1575420030,37.20,299.0,50.0,1,0,0,32.2
Status,,28,24,6,7,1575420030,30.70,161.0,17.0,1,0,0,25.7
Status,,28,25,6,30,1575420030,0.00,58.0,11.0,0,0,0,0.0
Status,,28,26,6,15,1575420030,0.00,96.0,10.0,0,0,0,0.0
Status,,28,27,6,34,1575420030,0.00,48.0,6.0,0,0,0,0.0
Fix,GPS,37.4243733333,-122.1712633333,14.2,0.7741422,1.8,265.12,1732146249000,2.2,124.2,25133043000000,32.5,0,,,
Raw,1732146249000,13348000000,,83.13784521058852,-1416181453652000000,0.0,83.13784521058852,1962.3434436247207,0.0,0,17,0.0,16431,344666928781241,235,30.739999771118164,82.65017285637458,0.14999,16,0.0,0.0,1575420030,,,,0,17.42730293046698,1,6.0,30.739999771118164,0.0,0.0,0.0,66.7128,C,25133043000000,
Raw,1732146249000,13348000000,,83.13784521058852,-1416181453652000000,0.0,83.13784521058852,1962.3434436247207,0.0,0,30,0.0,16431,344666931857267,28,45.0260009765625,660.2092169144044,0.14999,16,0.0,0.0,1575420030,,,,0,33.07176853859439,1,6.0,45.0260009765625,0.0,0.0,0.0,66.7128,C,25133043000000,
Raw,1732146249000,13348000000,,83.13784521058852,-1416181453652000000,0.0,83.13784521058852,1962.3434436247207,0.0,0,15,0.0,16431,344666921815190,58,34.22999954223633,83.99551567299935,0.14999,16,0.0,0.0,1575420030,,,,0,21.48606749515691,1,6.0,34.22999954223633,0.0,0.0,0.0,66.7128,C,25133043000000,
Raw,1732146249000,13348000000,,83.13784521058852,-1416181453652000000,0.0,83.13784521058852,1962.3434436247207,0.0,0,22,0.0,16431,344666930374274,51,38.125,412.31681782396004,0.14999,16,0.0,0.0,1575420030,,,,0,25.784676035271616,1,6.0,38.125,0.0,0.0,0.0,66.7128,C,25133043000000,
Raw,1732146249000,13348000000,,83.13784521058852,-1416181453652000000,0.0,83.13784521058852,1962.3434436247207,0.0,0,13,0.0,16431,344666929645629,51,35.994998931884766,261.4702893537201,0.14999,16,0.0,0.0,1575420030,,,,0,23.457338900772477,1,6.0,35.994998931884766,0.0,0.0,0.0,66.7128,C,25133043000000,
Raw,1732146249000,13348000000,,83.13784521058852,-1416181453652000000,0.0,83.13784521058852,1962.3434436247207,0.0,0,19,0.0,16431,344666920026299,51,35.92399978637695,-111.8872439707419,0.14999,16,0.0,0.0,1575420030,,,,0,23.38156184752148,1,6.0,35.92399978637695,0.0,0.0,0.0,66.7128,C,25133043000000,
Raw,1732146249000,13348000000,,83.13784521058852,-1416181453652000000,0.0,83.13784521058852,1962.3434436247207,0.0,0,21,0.0,16431,344666919499773,42,38.400001525878906,402.1157575429473,0.14999,16,0.0,0.0,1575420030,,,,0,26.054578213646728,6,6.0,38.400001525878906,0.0,0.0,9.443169065037909,66.7128,C,25133043000000,
Raw,1732146249000,13348000000,,83.13784521058852,-1416181453652000000,0.0,83.13784521058852,1962.3434436247207,0.0,0,19,0.0,16431,344666919878763,58,32.20000076293945,381.1173896672758,0.14999,16,0.0,0.0,1575420030,,,,0,19.395662559950125,6,6.0,32.20000076293945,0.0,0.0,9.443169065037909,66.7128,C,25133043000000,
Raw,1732146249000,13348000000,,83.13784521058852,-1416181453652000000,0.0,83.13784521058852,1962.3434436247207,0.0,0,7,0.0,16431,344666910051538,316,25.700000762939453,1171.770642822565,0.14999,16,0.0,0.0,1575420030,,,,0,11.955467984126148,6,6.0,25.700000762939453,0.0,0.0,9.443169065037909,66.7128,C,25133043000000,
Raw,1732146249000,13348000000,,83.13784521058852,-1416181453652000000,0.0,83.13784521058852,1962.3434436247207,0.0,0,27,0.0,16431,344666920096679,58,30.200000762939453,829.5951157487083,0.14999,16,0.0,0.0,1575420030,,,,0,17.217073116901965,6,6.0,30.200000762939453,0.0,0.0,9.443169065037909,66.7128,C,25133043000000,
Raw,1732146249000,13348000000,,83.13784521058852,-1416181453652000000,0.0,83.13784521058852,1962.3434436247207,0.0,0,9,0.0,17,651925,235,5.0,708.5199551094372,0.14999,16,0.0,0.0,1600875010,,,,0,14.611088611161128,3,6.0,27.0,0.0,0.0,25.63973813571895,66.7128,C,25133043000000,
Raw,1732146249000,13348000000,,83.13784521058852,-1416181453652000000,0.0,83.13784521058852,1962.3434436247207,0.0,0,8,0.0,17,44220,235,5.0,363.6360235383167,0.14999,16,0.0,0.0,1605374980,,,,0,12.812815398610764,3,6.0,27.0,0.0,0.0,25.63973813571895,66.7128,C,25133043000000,
Raw,1732146249000,13348000000,,83.13784521058852,-1416181453652000000,0.0,83.13784521058852,1962.3434436247207,0.0,0,19,0.0,17,92529,74,5.0,266.37401924077017,0.14999,16,0.0,0.0,1603687550,,,,0,17.027087898779072,3,6.0,30.0,0.0,0.0,25.63973813571895,66.7128,C,25133043000000,
Raw,1732146249000,13348000000,,83.13784521058852,-1416181453652000000,0.0,83.13784521058852,1962.3434436247207,0.0,0,16,0.0,17,446654,487,5.0,1073.9925064409722,0.14999,16,0.0,0.0,1601437440,,,,0,3.6256837526108026,3,6.0,19.0,0.0,0.0,25.63973813571895,66.7128,C,25133043000000,
Raw,1732146249000,13348000000,,83.13784521058852,-1416181453652000000,0.0,83.13784521058852,1962.3434436247207,0.0,0,21,0.0,17,223958,487,16.450000762939453,549.654911363159,0.14999,16,0.0,0.0,1575420030,,,,0,0.0,1,6.0,16.450000762939453,0.0,0.0,0.0,66.7128,C,25133043000000,
Raw,1732146249000,13348000000,,83.13784521058852,-1416181453652000000,0.0,83.13784521058852,1962.3434436247207,0.0,0,2,0.0,16431,344666919891211,487,24.06599998474121,351.40871916995525,0.14999,16,0.0,0.0,1575420030,,,,0,8.678331931352757,1,6.0,24.06599998474121,0.0,0.0,0.0,66.7128,C,25133043000000,
Raw,1732146249000,13348000000,,83.13784521058852,-1416181453652000000,0.0,83.13784521058852,1962.3434436247207,0.0,0,14,0.0,16431,344666932685422,42,38.7130012512207,560.8140371032655,0.14999,17,7465.711745783389,0.00022499999613501132,1575420030,,,,0,26.424246327526987,1,6.0,38.7130012512207,0.0,0.0,0.0,66.7128,C,25133043000000,
Raw,1732146249000,13348000000,,83.13784521058852,-1416181453652000000,0.0,83.13784521058852,1962.3434436247207,0.0,0,7,0.0,16431,344666926800550,31,43.18899917602539,927.8177780515256,0.14999,16,0.0,0.0,1575420030,,,,0,31.161582281123216,1,6.0,43.18899917602539,0.0,0.0,0.0,66.7128,C,25133043000000,
Fix,FLP,37.4243720000,-122.1712583000,2.200000047683716,0.8396746,1.716,256.09082,1732146249195,2.2,124.2,25133043000000,1.0085865,0,,,
Status,1732146249000,28,0,1,14,1575420030,47.10,316.0,74.0,1,0,0,42.1
Status,1732146249000,28,1,1,30,1575420030,50.20,71.0,70.0,1,0,0,45.2
Status,1732146249000,28,2,1,22,1575420030,44.20,269.0,59.0,1,0,0,39.2
Status,1732146249000,28,3,1,13,1575420030,40.90,304.0,47.0,1,0,0,35.9
Status,1732146249000,28,4,1,17,1575420030,41.80,176.0,43.0,1,0,0,36.8
Status,1732146249000,28,5,1,7,1575420030,44.30,102.0,38.0,1,0,0,39.3
Status,1732146249000,28,6,2,131,1575420030,47.00,3.0,23.0,0,0,0,42.0
Status,1732146249000,28,7,1,2,1575420030,29.10,88.0,16.0,1,0,0,24.1
Status,1732146249000,28,8,1,19,1575420030,33.40,193.0,16.0,1,0,0,28.400002
Status,1732146249000,28,9,1,15,1575420030,36.50,316.0,16.0,1,0,0,31.5
Status,1732146249000,28,10,1,21,1575420030,25.50,70.0,13.0,1,0,0,20.5
Status,1732146249000,28,11,1,8,1575420030,0.00,39.0,10.0,0,0,0,0.0
Status,1732146249000,28,12,1,5,1575420030,0.00,263.0,7.0,0,0,0,0.0
Status,1732146249000,28,13,1,9,1575420030,0.00,159.0,2.0,0,0,0,0.0
Status,1732146249000,28,14,3,9,1602000000,37.70,15.0,54.0,1,0,0,32.7
Status,1732146249000,28,15,3,8,1602000000,33.50,305.0,38.0,1,0,0,28.5
Status,1732146249000,28,16,3,19,1602000000,34.30,88.0,31.0,1,0,0,29.3
Status,1732146249000,28,17,3,16,1602000000,23.60,66.0,15.0,1,0,0,18.6
Status,1732146249000,28,18,3,20,1602000000,0.00,150.0,9.0,0,0,0,0.0
Status,1732146249000,28,19,3,17,1602000000,43.50,0.0,0.0,0,0,0,38.5
Status,1732146249000,28,20,6,29,1575420030,0.00,205.0,62.0,0,0,0,0.0
Status,1732146249000,28,21,6,27,1575420030,44.10,35.0,60.0,1,0,0,39.1
Status,1732146249000,28,22,6,21,1575420030,40.10,267.0,56.0,1,0,0,35.1
Status,1732146249000,28,23,6,19,1575420030,30.30,299.0,50.0,1,0,0,25.3
Status,1732146249000,28,24,6,7,1575420030,33.20,161.0,17.0,1,0,0,28.2
Status,1732146249000,28,25,6,30,1575420030,0.00,58.0,11.0,0,0,0,0.0
Status,1732146249000,28,26,6,15,1575420030,0.00,96.0,10.0,0,0,0,0.0
Status,1732146249000,28,27,6,34,1575420030,0.00,48.0,6.0,0,0,0,0.0
Fix,GPS,37.4243716667,-122.1712650000,14.3,0.07669361,1.8,250.9,1732146250000,2.1,179.9,25134043000000,31.9,0,,,
Raw,1732146250000,14348000000,,81.75617876272213,-1416181453652000000,0.0,81.75617876272213,1964.8001306659064,0.0,0,17,0.0,16431,344667928780959,51,36.82699966430664,84.61615365515593,0.14999,16,0.0,0.0,1575420030,,,,0,24.378145429631736,1,6.0,36.82699966430664,0.0,0.0,0.0,66.7128,C,25134043000000,
Raw,1732146250000,14348000000,,81.75617876272213,-1416181453652000000,0.0,81.75617876272213,1964.8001306659064,0.0,0,30,0.0,16431,344667931855062,28,45.20199966430664,661.5032231811165,0.14999,17,9404.301751236135,0.00022499999613501132,1575420030,,,,0,33.253791711457296,1,6.0,45.20199966430664,0.0,0.0,0.0,66.7128,C,25134043000000,
Raw,1732146250000,14348000000,,81.75617876272213,-1416181453652000000,0.0,81.75617876272213,1964.8001306659064,0.0,0,15,0.0,16431,344667921814909,74,31.48900032043457,84.81360192405072,0.14999,16,0.0,0.0,1575420030,,,,0,18.323549818794227,1,6.0,31.48900032043457,0.0,0.0,0.0,66.7128,C,25134043000000,
Raw,1732146250000,14348000000,,81.75617876272213,-1416181453652000000,0.0,81.75617876272213,1964.8001306659064,0.0,0,22,0.0,16431,344667930372899,42,39.22600173950195,413.50945182650077,0.14999,16,0.0,0.0,1575420030,,,,0,26.96972802486023,1,6.0,39.22600173950195,0.0,0.0,0.0,66.7128,C,25134043000000,
Raw,1732146250000,14348000000,,81.75617876272213,-1416181453652000000,0.0,81.75617876272213,1964.8001306659064,0.0,0,13,0.0,16431,344667929644754,51,35.939998626708984,263.02615848340287,0.14999,16,0.0,0.0,1575420030,,,,0,23.400568178164466,1,6.0,35.939998626708984,0.0,0.0,0.0,66.7128,C,25134043000000,
Raw,1732146250000,14348000000,,81.75617876272213,-1416181453652000000,0.0,81.75617876272213,1964.8001306659064,0.0,0,19,0.0,16431,344667920026667,235,28.437000274658203,-110.3495168525893,0.14999,16,0.0,0.0,1575420030,,,,0,14.594907970916225,1,6.0,28.437000274658203,0.0,0.0,0.0,66.7128,C,25134043000000,
Raw,1732146250000,14348000000,,81.75617876272213,-1416181453652000000,0.0,81.75617876272213,1964.8001306659064,0.0,0,21,0.0,16431,344667919498430,51,35.099998474121094,403.6919986881384,0.14999,16,0.0,0.0,1575420030,,,,0,22.511747243243143,6,6.0,35.099998474121094,0.0,0.0,9.90493691122059,66.7128,C,25134043000000,
Raw,1732146250000,14348000000,,81.75617876272213,-1416181453652000000,0.0,81.75617876272213,1964.8001306659064,0.0,0,19,0.0,16431,344667919877487,316,25.299999237060547,382.52881958096003,0.14999,16,0.0,0.0,1575420030,,,,0,11.481905994653491,6,6.0,25.299999237060547,0.0,0.0,9.90493691122059,66.7128,C,25134043000000,
Raw,1732146250000,14348000000,,81.75617876272213,-1416181453652000000,0.0,81.75617876272213,1964.8001306659064,0.0,0,7,0.0,16431,344667910047628,235,28.200000762939453,1172.7746091968747,0.14999,16,0.0,0.0,1575420030,,,,0,14.87802869769091,6,6.0,28.200000762939453,0.0,0.0,9.90493691122059,66.7128,C,25134043000000,
Raw,1732146250000,14348000000,,81.75617876272213,-1416181453652000000,0.0,81.75617876272213,1964.8001306659064,0.0,0,27,0.0,16431,344667920093914,42,39.099998474121094,830.2269502091716,0.14999,16,0.0,0.0,1575420030,,,,0,26.727196613494964,6,6.0,39.099998474121094,0.0,0.0,9.90493691122059,66.7128,C,25134043000000,
Raw,1732146250000,14348000000,,81.75617876272213,-1416181453652000000,0.0,81.75617876272213,1964.8001306659064,0.0,0,9,0.0,17,649567,58,5.0,710.3173335117139,0.14999,16,0.0,0.0,1600875010,,,,0,19.91933134024485,3,6.0,33.0,0.0,0.0,26.394478128444412,66.7128,C,25134043000000,
Raw,1732146250000,14348000000,,81.75617876272213,-1416181453652000000,0.0,81.75617876272213,1964.8001306659064,0.0,0,8,0.0,17,43001,235,5.0,365.3143165024537,0.14999,16,0.0,0.0,1605374980,,,,0,15.311590130776763,3,6.0,28.0,0.0,0.0,26.394478128444412,66.7128,C,25134043000000,
Raw,1732146250000,14348000000,,81.75617876272213,-1416181453652000000,0.0,81.75617876272213,1964.8001306659064,0.0,0,19,0.0,17,91633,235,5.0,267.0983639670538,0.14999,16,0.0,0.0,1603687550,,,,0,16.16668948674532,3,6.0,29.0,0.0,0.0,26.394478128444412,66.7128,C,25134043000000,
Raw,1732146250000,14348000000,,81.75617876272213,-1416181453652000000,0.0,81.75617876272213,1964.8001306659064,0.0,0,16,0.0,17,443043,487,5.0,1074.6855563913819,0.14999,16,0.0,0.0,1601437440,,,,0,5.155572331472369,3,6.0,20.0,0.0,0.0,26.394478128444412,66.7128,C,25134043000000,
Raw,1732146250000,14348000000,,81.75617876272213,-1416181453652000000,0.0,81.75617876272213,1964.8001306659064,0.0,0,21,0.0,16431,344667920221975,487,20.48699951171875,550.6541389790153,0.14999,16,0.0,0.0,1575420030,,,,0,3.061799739838872,1,6.0,20.48699951171875,0.0,0.0,0.0,66.7128,C,25134043000000,
Raw,1732146250000,14348000000,,81.75617876272213,-1416181453652000000,0.0,81.75617876272213,1964.8001306659064,0.0,0,2,0.0,16431,344667919890034,487,24.06599998474121,354.23887296866883,0.14999,16,0.0,0.0,1575420030,,,,0,8.678331931352757,1,6.0,24.06599998474121,0.0,0.0,0.0,66.7128,C,25134043000000,
Raw,1732146250000,14348000000,,81.75617876272213,-1416181453652000000,0.0,81.75617876272213,1964.8001306659064,0.0,0,14,0.0,16431,344667932683550,31,42.14099884033203,561.9434876597599,0.14999,16,0.0,0.0,1575420030,,,,0,30.06147082006736,1,6.0,42.14099884033203,0.0,0.0,0.0,66.7128,C,25134043000000,
Raw,1732146250000,14348000000,,81.75617876272213,-1416181453652000000,0.0,81.75617876272213,1964.8001306659064,0.0,0,7,0.0,16431,344667926797457,42,39.29100036621094,929.0866503150678,0.14999,17,12757.09540913632,0.00022499999613501132,1575420030,,,,0,27.038688896676426,1,6.0,39.29100036621094,0.0,0.0,0.0,66.7128,C,25134043000000,
Fix,FLP,37.4243714000,-122.1712649000,2.200000047683716,0.55631846,1.733,263.13782,1732146250195,2.1,179.9,25134043000000,1.0185874,0,,,
Status,1732146250000,28,0,1,14,1575420030,45.70,316.0,74.0,1,0,0,40.7
Status,1732146250000,28,1,1,30,1575420030,48.10,71.0,70.0,1,0,0,43.1
Status,1732146250000,28,2,1,22,1575420030,38.20,269.0,59.0,1,0,0,33.2
Status,1732146250000,28,3,1,13,1575420030,41.20,304.0,47.0,1,0,0,36.2
Status,1732146250000,28,4,1,17,1575420030,39.70,176.0,43.0,1,0,0,34.7
Status,1732146250000,28,5,1,7,1575420030,43.10,102.0,38.0,1,0,0,38.1
Status,1732146250000,28,6,2,131,1575420030,41.00,3.0,23.0,0,0,0,36.0
Status,1732146250000,28,7,1,2,1575420030,30.10,88.0,16.0,1,0,0,25.1
Status,1732146250000,28,8,1,19,1575420030,42.80,193.0,16.0,1,0,0,37.8
Status,1732146250000,28,9,1,15,1575420030,44.30,316.0,16.0,1,0,0,39.3
Status,1732146250000,28,10,1,21,1575420030,0.00,70.0,13.0,0,0,0,0.0
Status,1732146250000,28,11,1,8,1575420030,0.00,39.0,10.0,0,0,0,0.0
Status,1732146250000,28,12,1,5,1575420030,24.90,263.0,7.0,1,0,0,19.9
Status,1732146250000,28,13,1,9,1575420030,0.00,159.0,2.0,0,0,0,0.0
Status,1732146250000,28,14,3,9,1602000000,37.10,15.0,54.0,1,0,0,32.1
Status,1732146250000,28,15,3,8,1602000000,32.40,305.0,38.0,1,0,0,27.400002
Status,1732146250000,28,16,3,19,1602000000,30.20,88.0,31.0,1,0,0,25.2
Status,1732146250000,28,17,3,16,1602000000,22.20,66.0,15.0,1,0,0,17.2
Status,1732146250000,28,18,3,20,1602000000,0.00,150.0,9.0,0,0,0,0.0
Status,1732146250000,28,19,3,17,1602000000,42.90,0.0,0.0,0,0,0,37.9
Status,1732146250000,28,20,6,29,1575420030,0.00,205.0,62.0,0,0,0,0.0
Status,1732146250000,28,21,6,27,1575420030,43.30,35.0,60.0,1,0,0,38.3
Status,1732146250000,28,22,6,21,1575420030,37.60,267.0,56.0,1,0,0,32.6
Status,1732146250000,28,23,6,19,1575420030,27.20,299.0,50.0,1,0,0,22.2
Status,1732146250000,28,24,6,7,1575420030,27.60,161.0,17.0,1,0,0,22.6
Status,1732146250000,28,25,6,30,1575420030,0.00,58.0,11.0,0,0,0,0.0
Status,1732146250000,28,26,6,15,1575420030,0.00,96.0,10.0,0,0,0,0.0
Status,1732146250000,28,27,6,34,1575420030,0.00,48.0,6.0,0,0,0,0.0
Fix,GPS,37.4243750000,-122.1712566667,14.400000000000002,0.6006808,1.8,61.98,1732146251000,1.7,122.7,25135043000000,32.0,0,,,
Fix,FLP,37.4243731000,-122.1712614000,2.200000047683716,0.08406914,1.75,,1732146251195,1.7,,25135043000000,1.0288672,0,,,
Raw,1732146251000,15348000000,,82.02972921280185,-1416181453652000000,0.0,82.02972921280185,1968.5334429445377,0.0,0,17,0.0,16431,344668928780671,74,34.680999755859375,87.05587092403614,0.14999,16,0.0,0.0,1575420030,,,,0,21.991738236629278,1,6.0,34.680999755859375,0.0,0.0,0.0,66.7128,C,25135043000000,
Raw,1732146251000,15348000000,,82.02972921280185,-1416181453652000000,0.0,82.02972921280185,1968.5334429445377,0.0,0,30,0.0,16431,344668931852853,31,43.10599899291992,662.5692579994835,0.14999,17,10066.976170764363,0.00022499999613501132,1575420030,,,,0,31.07569862768958,1,6.0,43.10599899291992,0.0,0.0,0.0,66.7128,C,25135043000000,
Raw,1732146251000,15348000000,,82.02972921280185,-1416181453652000000,0.0,82.02972921280185,1968.5334429445377,0.0,0,15,0.0,16431,344668921814625,42,39.257999420166016,85.67071324471894,0.14999,16,0.0,0.0,1575420030,,,,0,27.00741090235126,1,6.0,39.257999420166016,0.0,0.0,0.0,66.7128,C,25135043000000,
Raw,1732146251000,15348000000,,82.02972921280185,-1416181453652000000,0.0,82.02972921280185,1968.5334429445377,0.0,0,22,0.0,16431,344668930371513,58,33.249000549316406,415.2284596847069,0.14999,16,0.0,0.0,1575420030,,,,0,20.37679665673718,1,6.0,33.249000549316406,0.0,0.0,0.0,66.7128,C,25135043000000,
Raw,1732146251000,15348000000,,82.02972921280185,-1416181453652000000,0.0,82.02972921280185,1968.5334429445377,0.0,0,13,0.0,16431,344668929643872,51,36.24300003051758,264.06396981392203,0.14999,16,0.0,0.0,1575420030,,,,0,23.735756635583776,1,6.0,36.24300003051758,0.0,0.0,0.0,66.7128,C,25135043000000,
Raw,1732146251000,15348000000,,82.02972921280185,-1416181453652000000,0.0,82.02972921280185,1968.5334429445377,0.0,0,19,0.0,16431,344668920027033,51,37.80500030517578,-108.54219154516694,0.14999,16,0.0,0.0,1575420030,,,,0,25.438813475870493,1,6.0,37.80500030517578,0.0,0.0,0.0,66.7128,C,25135043000000,
Raw,1732146251000,15348000000,,82.02972921280185,-1416181453652000000,0.0,82.02972921280185,1968.5334429445377,0.0,0,21,0.0,16431,344668919497084,58,32.599998474121094,405.1572042185864,0.14999,16,0.0,0.0,1575420030,,,,0,19.87874299705084,6,6.0,32.599998474121094,0.0,0.0,9.629449833626085,66.7128,C,25135043000000,
Raw,1732146251000,15348000000,,82.02972921280185,-1416181453652000000,0.0,82.02972921280185,1968.5334429445377,0.0,0,19,0.0,16431,344668919876206,316,22.200000762939453,383.9357430282719,0.14999,16,0.0,0.0,1575420030,,,,0,7.399506341534996,6,6.0,22.200000762939453,0.0,0.0,9.629449833626085,66.7128,C,25135043000000,
Raw,1732146251000,15348000000,,82.02972921280185,-1416181453652000000,0.0,82.02972921280185,1968.5334429445377,0.0,0,7,0.0,16431,344668910043713,316,22.600000381469727,1174.0248051771002,0.14999,16,0.0,0.0,1575420030,,,,0,7.978780260241329,6,6.0,22.600000381469727,0.0,0.0,9.629449833626085,66.7128,C,25135043000000,
Raw,1732146251000,15348000000,,82.02972921280185,-1416181453652000000,0.0,82.02972921280185,1968.5334429445377,0.0,0,27,0.0,16431,344668920091146,42,38.29999923706055,831.4385857039424,0.14999,16,0.0,0.0,1575420030,,,,0,25.95611363293848,6,6.0,38.29999923706055,0.0,0.0,9.629449833626085,66.7128,C,25135043000000,
Raw,1732146251000,15348000000,,82.02972921280185,-1416181453652000000,0.0,82.02972921280185,1968.5334429445377,0.0,0,9,0.0,17,647197,74,5.0,711.182121558392,0.14999,16,0.0,0.0,1600875010,,,,0,19.284199417855113,3,6.0,32.0,0.0,0.0,26.70581730510623,66.7128,C,25135043000000,
Raw,1732146251000,15348000000,,82.02972921280185,-1416181453652000000,0.0,82.02972921280185,1968.5334429445377,0.0,0,8,0.0,17,41784,316,5.0,366.33331021080426,0.14999,16,0.0,0.0,1605374980,,,,0,14.017120564742516,3,6.0,24.0,0.0,0.0,26.70581730510623,66.7128,C,25135043000000,
Raw,1732146251000,15348000000,,82.02972921280185,-1416181453652000000,0.0,82.02972921280185,1968.5334429445377,0.0,0,19,0.0,17,90740,316,5.0,269.3584326990533,0.14999,16,0.0,0.0,1603687550,,,,0,11.325399244414363,3,6.0,25.0,0.0,0.0,26.70581730510623,66.7128,C,25135043000000,
Raw,1732146251000,15348000000,,82.02972921280185,-1416181453652000000,0.0,82.02972921280185,1968.5334429445377,0.0,0,16,0.0,17,439443,797,5.0,1078.5239306353276,0.14999,16,0.0,0.0,1601437440,,,,0,0.0,3,6.0,15.0,0.0,0.0,26.70581730510623,66.7128,C,25135043000000,
Raw,1732146251000,15348000000,,82.02972921280185,-1416181453652000000,0.0,82.02972921280185,1968.5334429445377,0.0,0,5,0.0,16431,344668916810247,487,19.92799949645996,1018.3775891845768,0.14999,16,0.0,0.0,1575420030,,,,0,2.124688122644327,1,6.0,19.92799949645996,0.0,0.0,0.0,66.7128,C,25135043000000,
Raw,1732146251000,15348000000,,82.02972921280185,-1416181453652000000,0.0,82.02972921280185,1968.5334429445377,0.0,0,2,0.0,16431,344668919888835,396,25.104000091552734,355.64793350312635,0.14999,16,0.0,0.0,1575420030,,,,0,10.149207825029633,1,6.0,25.104000091552734,0.0,0.0,0.0,66.7128,C,25135043000000,
Raw,1732146251000,15348000000,,82.02972921280185,-1416181453652000000,0.0,82.02972921280185,1968.5334429445377,0.0,0,14,0.0,16431,344668932681673,42,40.70600128173828,563.3848600226918,0.14999,16,0.0,0.0,1575420030,,,,0,28.54810625907025,1,6.0,40.70600128173828,0.0,0.0,0.0,66.7128,C,25135043000000,
Raw,1732146251000,15348000000,,82.02972921280185,-1416181453652000000,0.0,82.02972921280185,1968.5334429445377,0.0,0,7,0.0,16431,344668926794357,51,38.055999755859375,930.1650430721469,0.14999,17,13687.275527964528,0.00022499999613501132,1575420030,,,,0,25.712232832702504,1,6.0,38.055999755859375,0.0,0.0,0.0,66.7128,C,25135043000000,
Fix,NLP,37.4242037000,-122.1710204000,2.200000047683716,,17.525,,1732146250529,,,25134377000000,1.0,0,,,
Status,1732146251000,28,0,1,14,1575420030,45.10,316.0,74.0,1,0,0,40.1
Status,1732146251000,28,1,1,30,1575420030,38.80,71.0,70.0,1,0,0,33.8
Status,1732146251000,28,2,1,22,1575420030,38.90,269.0,59.0,1,0,0,33.9
Status,1732146251000,28,3,1,13,1575420030,38.60,304.0,47.0,1,0,0,33.6
Status,1732146251000,28,4,1,17,1575420030,45.20,176.0,43.0,1,0,0,40.2
Status,1732146251000,28,5,1,7,1575420030,38.70,102.0,38.0,1,0,0,33.7
Status,1732146251000,28,6,2,131,1575420030,43.00,3.0,23.0,0,0,0,38.0
Status,1732146251000,28,7,1,19,1575420030,41.90,193.0,17.0,1,0,0,36.9
Status,1732146251000,28,8,1,2,1575420030,30.10,88.0,16.0,1,0,0,25.1
Status,1732146251000,28,9,1,15,1575420030,41.10,316.0,16.0,1,0,0,36.1
Status,1732146251000,28,10,1,21,1575420030,0.00,70.0,13.0,0,0,0,0.0
Status,1732146251000,28,11,1,8,1575420030,0.00,39.0,10.0,0,0,0,0.0
Status,1732146251000,28,12,1,5,1575420030,23.70,263.0,7.0,1,0,0,18.7
Status,1732146251000,28,13,1,9,1575420030,0.00,159.0,2.0,0,0,0,0.0
Status,1732146251000,28,14,3,9,1602000000,31.90,15.0,54.0,1,0,0,26.9
Status,1732146251000,28,15,3,8,1602000000,32.20,305.0,38.0,1,0,0,27.2
Status,1732146251000,28,16,3,19,1602000000,29.30,88.0,31.0,1,0,0,24.3
Status,1732146251000,28,17,3,16,1602000000,0.00,66.0,15.0,0,0,0,0.0
Status,1732146251000,28,18,3,20,1602000000,0.00,150.0,9.0,0,0,0,0.0
Status,1732146251000,28,19,3,17,1602000000,41.90,0.0,0.0,0,0,0,36.9
Status,1732146251000,28,20,6,29,1575420030,0.00,205.0,62.0,0,0,0,0.0
Status,1732146251000,28,21,6,27,1575420030,34.60,35.0,60.0,1,0,0,29.599998
Status,1732146251000,28,22,6,21,1575420030,36.80,267.0,56.0,1,0,0,31.8
Status,1732146251000,28,23,6,19,1575420030,29.00,299.0,50.0,1,0,0,24.0
Status,1732146251000,28,24,6,7,1575420030,35.00,161.0,17.0,1,0,0,30.0
Status,1732146251000,28,25,6,30,1575420030,0.00,58.0,11.0,0,0,0,0.0
Status,1732146251000,28,26,6,15,1575420030,0.00,96.0,10.0,0,0,0,0.0
Status,1732146251000,28,27,6,34,1575420030,0.00,48.0,6.0,0,0,0,0.0
Fix,GPS,37.4243816667,-122.1712466667,14.500000000000004,0.7525239,1.7,73.69,1732146252000,1.6,90.7,25136043000000,31.7,0,,,
Raw,1732146252000,16348000000,,81.27106507149205,-1416181453652000000,0.0,81.27106507149205,1971.7709303142608,0.0,0,17,0.0,16431,344669928780381,42,40.2130012512207,86.8961468891043,0.14999,16,0.0,0.0,1575420030,,,,0,28.02349536356641,1,6.0,40.2130012512207,0.0,0.0,0.0,66.7128,C,25136043000000,
Raw,1732146252000,16348000000,,81.27106507149205,-1416181453652000000,0.0,81.27106507149205,1971.7709303142608,0.0,0,30,0.0,16431,344669931850639,58,33.784000396728516,663.318957461873,0.14999,17,10730.681996168974,0.00039999998989515007,1575420030,,,,0,20.986810989071635,1,6.0,33.784000396728516,0.0,0.0,0.0,66.7128,C,25136043000000,
Raw,1732146252000,16348000000,,81.27106507149205,-1416181453652000000,0.0,81.27106507149205,1971.7709303142608,0.0,0,15,0.0,16431,344669921814340,51,36.0890007019043,87.33987122233115,0.14999,16,0.0,0.0,1575420030,,,,0,23.560464543915128,1,6.0,36.0890007019043,0.0,0.0,0.0,66.7128,C,25136043000000,
Raw,1732146252000,16348000000,,81.27106507149205,-1416181453652000000,0.0,81.27106507149205,1971.7709303142608,0.0,0,22,0.0,16431,344669930370129,58,33.875,415.34762552228693,0.14999,16,0.0,0.0,1575420030,,,,0,21.086506656168673,1,6.0,33.875,0.0,0.0,0.0,66.7128,C,25136043000000,
Raw,1732146252000,16348000000,,81.27106507149205,-1416181453652000000,0.0,81.27106507149205,1971.7709303142608,0.0,0,13,0.0,16431,344669929642986,58,33.5880012512207,265.4615551195755,0.14999,16,0.0,0.0,1575420030,,,,0,20.758221753456,1,6.0,33.5880012512207,0.0,0.0,0.0,66.7128,C,25136043000000,
Raw,1732146252000,16348000000,,81.27106507149205,-1416181453652000000,0.0,81.27106507149205,1971.7709303142608,0.0,0,19,0.0,16431,344669920027396,51,36.87699890136719,-108.37679958345743,0.14999,16,2039.848003221446,0.00022499999613501132,1575420030,,,,0,24.428890790938944,1,6.0,36.87699890136719,0.0,0.0,0.0,66.7128,C,25136043000000,
Raw,1732146252000,16348000000,,81.27106507149205,-1416181453652000000,0.0,81.27106507149205,1971.7709303142608,0.0,0,21,0.0,16431,344669919495729,58,31.799999237060547,405.9706446280167,0.14999,16,0.0,0.0,1575420030,,,,0,19.010927851419478,6,6.0,31.799999237060547,0.0,0.0,9.673888199807372,66.7128,C,25136043000000,
Raw,1732146252000,16348000000,,81.27106507149205,-1416181453652000000,0.0,81.27106507149205,1971.7709303142608,0.0,0,19,0.0,16431,344669919874923,235,24.0,385.2008986185173,0.14999,16,0.0,0.0,1575420030,,,,0,9.838170870906492,6,6.0,24.0,0.0,0.0,9.673888199807372,66.7128,C,25136043000000,
Raw,1732146252000,16348000000,,81.27106507149205,-1416181453652000000,0.0,81.27106507149205,1971.7709303142608,0.0,0,7,0.0,16431,344669910039791,74,30.0,1175.2841999237355,0.14999,16,0.0,0.0,1575420030,,,,0,17.00162850691749,6,6.0,30.0,0.0,0.0,9.673888199807372,66.7128,C,25136043000000,
Raw,1732146252000,16348000000,,81.27106507149205,-1416181453652000000,0.0,81.27106507149205,1971.7709303142608,0.0,0,27,0.0,16431,344669920088369,74,29.600000381469727,832.5464330968989,0.14999,16,0.0,0.0,1575420030,,,,0,16.49114732996352,6,6.0,29.600000381469727,0.0,0.0,9.673888199807372,66.7128,C,25136043000000,
Raw,1732146252000,16348000000,,81.27106507149205,-1416181453652000000,0.0,81.27106507149205,1971.7709303142608,0.0,0,9,0.0,17,644825,316,5.0,711.3630801144985,0.14999,16,0.0,0.0,1600875010,,,,0,13.40225975246458,3,6.0,24.0,0.0,0.0,26.699457821853724,66.7128,C,25136043000000,
Raw,1732146252000,16348000000,,81.27106507149205,-1416181453652000000,0.0,81.27106507149205,1971.7709303142608,0.0,0,8,0.0,17,40563,235,5.0,366.74429514554515,0.14999,16,0.0,0.0,1605374980,,,,0,13.753225138853026,3,6.0,28.0,0.0,0.0,26.699457821853724,66.7128,C,25136043000000,
Raw,1732146252000,16348000000,,81.27106507149205,-1416181453652000000,0.0,81.27106507149205,1971.7709303142608,0.0,0,19,0.0,17,89842,396,5.0,269.3917951837684,0.14999,16,0.0,0.0,1603687550,,,,0,10.161669648742691,3,6.0,21.0,0.0,0.0,26.699457821853724,66.7128,C,25136043000000,
Raw,1732146252000,16348000000,,81.27106507149205,-1416181453652000000,0.0,81.27106507149205,1971.7709303142608,0.0,0,5,0.0,16431,344669916806864,487,18.702999114990234,1021.5619419484794,0.14999,16,0.0,0.0,1575420030,,,,0,0.0,1,6.0,18.702999114990234,0.0,0.0,0.0,66.7128,C,25136043000000,
Raw,1732146252000,16348000000,,81.27106507149205,-1416181453652000000,0.0,81.27106507149205,1971.7709303142608,0.0,0,2,0.0,16431,344669919887648,487,25.104000091552734,356.05607068953594,0.14999,16,0.0,0.0,1575420030,,,,0,10.149207825029633,1,6.0,25.104000091552734,0.0,0.0,0.0,66.7128,C,25136043000000,
Raw,1732146252000,16348000000,,81.27106507149205,-1416181453652000000,0.0,81.27106507149205,1971.7709303142608,0.0,0,14,0.0,16431,344669932679792,42,40.130001068115234,564.4379794013523,0.14999,17,9155.869397914237,0.00022499999613501132,1575420030,,,,0,27.939464818098465,1,6.0,40.130001068115234,0.0,0.0,0.0,66.7128,C,25136043000000,
Raw,1732146252000,16348000000,,81.27106507149205,-1416181453652000000,0.0,81.27106507149205,1971.7709303142608,0.0,0,7,0.0,16431,344669926791251,58,33.6609992980957,931.2406483242532,0.14999,17,14618.519399341405,0.00039999998989515007,1575420030,,,,0,20.84783378996508,1,6.0,33.6609992980957,0.0,0.0,0.0,66.7128,C,25136043000000,
Fix,FLP,37.4243778000,-122.1712526000,2.200000047683716,0.3795954,1.766,63.724545,1732146252195,1.6,90.7,25136043000000,0.82385516,0,,,
Status,1732146252000,28,0,1,14,1575420030,40.60,316.0,74.0,1,0,0,35.6
Status,1732146252000,28,1,1,30,1575420030,44.50,71.0,70.0,1,0,0,39.5
Status,1732146252000,28,2,1,22,1575420030,45.10,269.0,59.0,1,0,0,40.1
Status,1732146252000,28,3,1,13,1575420030,32.30,304.0,47.0,1,0,0,27.3
Status,1732146252000,28,4,1,17,1575420030,35.10,176.0,43.0,1,0,0,30.099998
Status,1732146252000,28,5,1,7,1575420030,32.20,102.0,38.0,1,0,0,27.2
Status,1732146252000,28,6,2,131,1575420030,42.00,3.0,23.0,0,0,0,37.0
Status,1732146252000,28,7,1,19,1575420030,44.70,193.0,17.0,1,0,0,39.7
Status,1732146252000,28,8,1,2,1575420030,30.10,88.0,16.0,1,0,0,25.1
Status,1732146252000,28,9,1,15,1575420030,46.50,316.0,16.0,1,0,0,41.5
Status,1732146252000,28,10,1,21,1575420030,0.00,70.0,13.0,0,0,0,0.0
Status,1732146252000,28,11,1,8,1575420030,0.00,39.0,10.0,0,0,0,0.0
Status,1732146252000,28,12,1,5,1575420030,26.80,263.0,7.0,1,0,0,21.8
Status,1732146252000,28,13,1,9,1575420030,0.00,159.0,2.0,0,0,0,0.0
Status,1732146252000,28,14,3,9,1602000000,32.80,15.0,54.0,1,0,0,27.8
Status,1732146252000,28,15,3,8,1602000000,43.40,305.0,38.0,1,0,0,38.4
Status,1732146252000,28,16,3,19,1602000000,26.60,88.0,31.0,1,0,0,21.6
Status,1732146252000,28,17,3,16,1602000000,25.60,66.0,15.0,1,0,0,20.6
Status,1732146252000,28,18,3,20,1602000000,0.00,150.0,9.0,0,0,0,0.0
Status,1732146252000,28,19,3,17,1602000000,39.70,0.0,0.0,0,0,0,34.7
Status,1732146252000,28,20,6,29,1575420030,0.00,205.0,62.0,0,0,0,0.0
Status,1732146252000,28,21,6,27,1575420030,30.00,35.0,60.0,1,0,0,25.0
Status,1732146252000,28,22,6,21,1575420030,34.90,267.0,56.0,1,0,0,29.900002
Status,1732146252000,28,23,6,19,1575420030,34.60,299.0,50.0,1,0,0,29.599998
Status,1732146252000,28,24,6,7,1575420030,28.70,161.0,17.0,1,0,0,23.7
Status,1732146252000,28,25,6,30,1575420030,0.00,58.0,11.0,0,0,0,0.0
Status,1732146252000,28,26,6,15,1575420030,0.00,96.0,10.0,0,0,0,0.0
Status,1732146252000,28,27,6,34,1575420030,0.00,48.0,6.0,0,0,0,0.0
Fix,GPS,37.4243866667,-122.1712466667,14.500000000000004,0.3896447,1.7,44.12,1732146253000,1.9,179.9,25137043000000,31.4,0,,,
Fix,FLP,37.4243830000,-122.1712478000,2.200000047683716,0.3951968,1.766,53.82361,1732146253195,1.9,179.9,25137043000000,0.83453697,0,,,
Raw,1732146253000,17348000000,,80.0946632568688,-1416181453652000000,0.0,80.0946632568688,1971.703592359604,0.0,0,17,0.0,16431,344670928780093,74,30.091999053955078,87.28165882681935,0.14999,16,0.0,0.0,1575420030,,,,0,16.657788213548866,1,6.0,30.091999053955078,0.0,0.0,0.0,66.7128,C,25137043000000,
Raw,1732146253000,17348000000,,80.0946632568688,-1416181453652000000,0.0,80.0946632568688,1971.703592359604,0.0,0,30,0.0,16431,344670931848424,42,39.465999603271484,664.0692608836732,0.14999,16,0.0,0.0,1575420030,,,,0,27.23013822471045,1,6.0,39.465999603271484,0.0,0.0,0.0,66.7128,C,25137043000000,
Raw,1732146253000,17348000000,,80.0946632568688,-1416181453652000000,0.0,80.0946632568688,1971.703592359604,0.0,0,15,0.0,16431,344670921814051,31,41.47800064086914,86.95946971039928,0.14999,17,1914.8557488804784,0.00022499999613501132,1575420030,,,,0,29.36402387455447,1,6.0,41.47800064086914,0.0,0.0,0.0,66.7128,C,25137043000000,
Raw,1732146253000,17348000000,,80.0946632568688,-1416181453652000000,0.0,80.0946632568688,1971.703592359604,0.0,0,22,0.0,16431,344670930368740,42,40.09600067138672,415.83748306281086,0.14999,16,0.0,0.0,1575420030,,,,0,27.899970610745363,1,6.0,40.09600067138672,0.0,0.0,0.0,66.7128,C,25137043000000,
Raw,1732146253000,17348000000,,80.0946632568688,-1416181453652000000,0.0,80.0946632568688,1971.703592359604,0.0,0,13,0.0,16431,344670929642105,235,27.34000015258789,265.0600382574759,0.14999,16,0.0,0.0,1575420030,,,,0,13.17712846322272,1,6.0,27.34000015258789,0.0,0.0,0.0,66.7128,C,25137043000000,
Raw,1732146253000,17348000000,,80.0946632568688,-1416181453652000000,0.0,80.0946632568688,1971.703592359604,0.0,0,19,0.0,16431,344670920027756,42,39.73099899291992,-107.9199739768592,0.14999,17,1931.6709225619757,0.00022499999613501132,1575420030,,,,0,27.51258221264063,1,6.0,39.73099899291992,0.0,0.0,0.0,66.7128,C,25137043000000,
Raw,1732146253000,17348000000,,80.0946632568688,-1416181453652000000,0.0,80.0946632568688,1971.703592359604,0.0,0,21,0.0,16431,344670919494381,58,29.899999618530273,405.3131651218052,0.14999,16,0.0,0.0,1575420030,,,,0,16.84151540842723,6,6.0,29.899999618530273,0.0,0.0,9.531812279334488,66.7128,C,25137043000000,
Raw,1732146253000,17348000000,,80.0946632568688,-1416181453652000000,0.0,80.0946632568688,1971.703592359604,0.0,0,19,0.0,16431,344670919873640,74,29.600000381469727,384.61222402671353,0.14999,16,0.0,0.0,1575420030,,,,0,16.49114732996352,6,6.0,29.600000381469727,0.0,0.0,9.531812279334488,66.7128,C,25137043000000,
Raw,1732146253000,17348000000,,80.0946632568688,-1416181453652000000,0.0,80.0946632568688,1971.703592359604,0.0,0,7,0.0,16431,344670910035868,316,23.700000762939453,1175.6588405920572,0.14999,16,0.0,0.0,1575420030,,,,0,9.421168091444088,6,6.0,23.700000762939453,0.0,0.0,9.531812279334488,66.7128,C,25137043000000,
Raw,1732146253000,17348000000,,80.0946632568688,-1416181453652000000,0.0,80.0946632568688,1971.703592359604,0.0,0,27,0.0,16431,344670920085589,58,25.0,832.9243258543555,0.14999,16,0.0,0.0,1575420030,,,,0,11.138243557798713,6,6.0,25.0,0.0,0.0,9.531812279334488,66.7128,C,25137043000000,
Raw,1732146253000,17348000000,,80.0946632568688,-1416181453652000000,0.0,80.0946632568688,1971.703592359604,0.0,0,9,0.0,17,642444,235,5.0,711.8341758603601,0.14999,16,0.0,0.0,1600875010,,,,0,14.42238127355307,3,6.0,28.0,0.0,0.0,27.034527182999636,66.7128,C,25137043000000,
Raw,1732146253000,17348000000,,80.0946632568688,-1416181453652000000,0.0,80.0946632568688,1971.703592359604,0.0,0,8,0.0,17,39331,51,5.0,367.68457506058155,0.14999,16,0.0,0.0,1605374980,,,,0,25.987636705270504,3,6.0,38.0,0.0,0.0,27.034527182999636,66.7128,C,25137043000000,
Raw,1732146253000,17348000000,,80.0946632568688,-1416181453652000000,0.0,80.0946632568688,1971.703592359604,0.0,0,19,0.0,17,88943,487,5.0,269.8376932352958,0.14999,16,0.0,0.0,1603687550,,,,0,6.5645560008060455,3,6.0,20.0,0.0,0.0,27.034527182999636,66.7128,C,25137043000000,
Raw,1732146253000,17348000000,,80.0946632568688,-1416181453652000000,0.0,80.0946632568688,1971.703592359604,0.0,0,16,0.0,17,432264,487,5.0,1074.40658139156,0.14999,16,0.0,0.0,1601437440,,,,0,5.155572331472369,3,6.0,19.0,0.0,0.0,27.034527182999636,66.7128,C,25137043000000,
Raw,1732146253000,17348000000,,80.0946632568688,-1416181453652000000,0.0,80.0946632568688,1971.703592359604,0.0,0,5,0.0,16431,344670916803511,396,21.80299949645996,1018.2660889856714,0.14999,16,0.0,0.0,1575420030,,,,0,5.233715166503894,1,6.0,21.80299949645996,0.0,0.0,0.0,66.7128,C,25137043000000,
Raw,1732146253000,17348000000,,80.0946632568688,-1416181453652000000,0.0,80.0946632568688,1971.703592359604,0.0,0,2,0.0,16431,344670919886459,797,25.104000091552734,356.1516588808891,0.14999,16,0.0,0.0,1575420030,,,,0,10.149207825029633,1,6.0,25.104000091552734,0.0,0.0,0.0,66.7128,C,25137043000000,
Raw,1732146253000,17348000000,,80.0946632568688,-1416181453652000000,0.0,80.0946632568688,1971.703592359604,0.0,0,14,0.0,16431,344670932677913,51,35.56800079345703,564.1860354102425,0.14999,16,0.0,0.0,1575420030,,,,0,22.982475995486844,1,6.0,35.56800079345703,0.0,0.0,0.0,66.7128,C,25137043000000,
Raw,1732146253000,17348000000,,80.0946632568688,-1416181453652000000,0.0,80.0946632568688,1971.703592359604,0.0,0,7,0.0,16431,344670926788147,396,27.18600082397461,931.3876427531434,0.14999,16,0.0,0.0,1575420030,,,,0,12.990327938139854,1,6.0,27.18600082397461,0.0,0.0,0.0,66.7128,C,25137043000000,
Status,1732146253000,28,0,1,14,1575420030,41.20,316.0,74.0,1,0,0,36.2
Status,1732146253000,28,1,1,30,1575420030,42.60,71.0,70.0,1,0,0,37.6
Status,1732146253000,28,2,1,22,1575420030,43.80,269.0,59.0,1,0,0,38.8
Status,1732146253000,28,3,1,13,1575420030,43.00,304.0,47.0,1,0,0,38.0
Status,1732146253000,28,4,1,17,1575420030,44.30,176.0,43.0,1,0,0,39.3
Status,1732146253000,28,5,1,7,1575420030,41.30,102.0,38.0,1,0,0,36.3
Status,1732146253000,28,6,2,131,1575420030,37.00,3.0,23.0,0,0,0,32.0
Status,1732146253000,28,7,1,19,1575420030,36.00,193.0,17.0,1,0,0,31.0
Status,1732146253000,28,8,1,2,1575420030,22.60,88.0,16.0,1,0,0,17.6
Status,1732146253000,28,9,1,15,1575420030,41.20,316.0,16.0,1,0,0,36.2
Status,1732146253000,28,10,1,21,1575420030,0.00,70.0,13.0,0,0,0,0.0
Status,1732146253000,28,11,1,8,1575420030,0.00,39.0,10.0,0,0,0,0.0
Status,1732146253000,28,12,1,5,1575420030,27.20,263.0,7.0,1,0,0,22.2
Status,1732146253000,28,13,1,9,1575420030,0.00,159.0,2.0,0,0,0,0.0
Status,1732146253000,28,14,3,9,1602000000,32.60,15.0,54.0,1,0,0,27.599998
Status,1732146253000,28,15,3,8,1602000000,31.70,305.0,38.0,1,0,0,26.7
Status,1732146253000,28,16,3,19,1602000000,26.60,88.0,31.0,1,0,0,21.6
Status,1732146253000,28,17,3,16,1602000000,20.50,66.0,15.0,1,0,0,15.5
Status,1732146253000,28,18,3,20,1602000000,0.00,150.0,9.0,0,0,0,0.0
Status,1732146253000,28,19,3,17,1602000000,39.20,0.0,0.0,0,0,0,34.2
Status,1732146253000,28,20,6,29,1575420030,0.00,205.0,62.0,0,0,0,0.0
Status,1732146253000,28,21,6,27,1575420030,39.70,35.0,60.0,1,0,0,34.7
Status,1732146253000,28,22,6,21,1575420030,41.40,267.0,56.0,1,0,0,36.4
Status,1732146253000,28,23,6,19,1575420030,27.90,299.0,50.0,1,0,0,22.9
Status,1732146253000,28,24,6,7,1575420030,24.10,161.0,17.0,1,0,0,19.1
Status,1732146253000,28,25,6,30,1575420030,0.00,58.0,11.0,0,0,0,0.0
Status,1732146253000,28,26,6,15,1575420030,0.00,96.0,10.0,0,0,0,0.0
Status,1732146253000,28,27,6,34,1575420030,0.00,48.0,6.0,0,0,0,0.0
Fix,GPS,37.4243833333,-122.1712466667,14.599999999999998,0.21875694,1.8,85.94,1732146254000,2.1,179.9,25138043000000,31.5,0,,,
Raw,1732146254000,18348000000,,80.73689222311793,-1416181453652000000,0.0,80.73689222311793,1973.1256304732337,0.0,0,17,0.0,16431,344671928779802,42,39.323001861572266,88.01769951484292,0.14999,16,0.0,0.0,1575420030,,,,0,27.076074419119138,1,6.0,39.323001861572266,0.0,0.0,0.0,66.7128,C,25138043000000,
Raw,1732146254000,18348000000,,80.73689222311793,-1416181453652000000,0.0,80.73689222311793,1973.1256304732337,0.0,0,30,0.0,16431,344671931846209,51,37.61199951171875,664.373749343517,0.14999,17,12058.431864248209,0.00022499999613501132,1575420030,,,,0,25.233715166503895,1,6.0,37.61199951171875,0.0,0.0,0.0,66.7128,C,25138043000000,
Raw,1732146254000,18348000000,,80.73689222311793,-1416181453652000000,0.0,80.73689222311793,1973.1256304732337,0.0,0,15,0.0,16431,344671921813757,51,36.236000061035156,88.28571811796151,0.14999,17,2002.6542924314522,0.00022499999613501132,1575420030,,,,0,23.726618402612452,1,6.0,36.236000061035156,0.0,0.0,0.0,66.7128,C,25138043000000,
Raw,1732146254000,18348000000,,80.73689222311793,-1416181453652000000,0.0,80.73689222311793,1973.1256304732337,0.0,0,22,0.0,16431,344671930367354,42,38.792999267578125,416.62393113242285,0.14999,17,7537.050809998327,0.00022499999613501132,1575420030,,,,0,26.504301176600467,1,6.0,38.792999267578125,0.0,0.0,0.0,66.7128,C,25138043000000,
Raw,1732146254000,18348000000,,80.73689222311793,-1416181453652000000,0.0,80.73689222311793,1973.1256304732337,0.0,0,13,0.0,16431,344671929641218,51,38.01900100708008,266.12084650401926,0.14999,16,0.0,0.0,1575420030,,,,0,25.675783389209332,1,6.0,38.01900100708008,0.0,0.0,0.0,66.7128,C,25138043000000,
Raw,1732146254000,18348000000,,80.73689222311793,-1416181453652000000,0.0,80.73689222311793,1973.1256304732337,0.0,0,19,0.0,16431,344671920028120,74,30.982999801635742,-107.35062608619906,0.14999,16,0.0,0.0,1575420030,,,,0,17.724285351245364,1,6.0,30.982999801635742,0.0,0.0,0.0,66.7128,C,25138043000000,
Raw,1732146254000,18348000000,,80.73689222311793,-1416181453652000000,0.0,80.73689222311793,1973.1256304732337,0.0,0,21,0.0,16431,344671919493032,51,36.400001525878906,406.4031260245206,0.14999,16,0.0,0.0,1575420030,,,,0,23.92547159536099,6,6.0,36.400001525878906,0.0,0.0,8.23983431028104,66.7128,C,25138043000000,
Raw,1732146254000,18348000000,,80.73689222311793,-1416181453652000000,0.0,80.73689222311793,1973.1256304732337,0.0,0,19,0.0,16431,344671919872354,316,22.899999618530273,386.1805672411489,0.14999,16,0.0,0.0,1575420030,,,,0,8.308663817472492,6,6.0,22.899999618530273,0.0,0.0,8.23983431028104,66.7128,C,25138043000000,
Raw,1732146254000,18348000000,,80.73689222311793,-1416181453652000000,0.0,80.73689222311793,1973.1256304732337,0.0,0,7,0.0,16431,344671910031947,396,19.100000381469727,1175.6670172733104,0.14999,16,0.0,0.0,1575420030,,,,0,2.8621153217068542,6,6.0,19.100000381469727,0.0,0.0,8.23983431028104,66.7128,C,25138043000000,
Raw,1732146254000,18348000000,,80.73689222311793,-1416181453652000000,0.0,80.73689222311793,1973.1256304732337,0.0,0,27,0.0,16431,344671920082812,51,34.70000076293945,833.087952396249,0.14999,17,14778.822788145288,0.00022499999613501132,1575420030,,,,0,22.157610043187574,6,6.0,34.70000076293945,0.0,0.0,8.23983431028104,66.7128,C,25138043000000,
Raw,1732146254000,18348000000,,80.73689222311793,-1416181453652000000,0.0,80.73689222311793,1973.1256304732337,0.0,0,9,0.0,17,640063,316,5.0,713.3944976397435,0.14999,16,0.0,0.0,1600875010,,,,0,14.247959957979122,3,6.0,25.0,0.0,0.0,28.54090442816364,66.7128,C,25138043000000,
Raw,1732146254000,18348000000,,80.73689222311793,-1416181453652000000,0.0,80.73689222311793,1973.1256304732337,0.0,0,8,0.0,17,38099,316,5.0,368.29992407208493,0.14999,16,0.0,0.0,1605374980,,,,0,13.104377150452029,3,6.0,26.0,0.0,0.0,28.54090442816364,66.7128,C,25138043000000,
Raw,1732146254000,18348000000,,80.73689222311793,-1416181453652000000,0.0,80.73689222311793,1973.1256304732337,0.0,0,19,0.0,17,88043,797,5.0,270.9636428647948,0.14999,16,0.0,0.0,1603687550,,,,0,6.5645560008060455,3,6.0,17.0,0.0,0.0,28.54090442816364,66.7128,C,25138043000000,
Raw,1732146254000,18348000000,,80.73689222311793,-1416181453652000000,0.0,80.73689222311793,1973.1256304732337,0.0,0,16,0.0,17,428680,487,5.0,1075.5237610926818,0.14999,16,0.0,0.0,1601437440,,,,0,0.0,3,6.0,19.0,0.0,0.0,28.54090442816364,66.7128,C,25138043000000,
Raw,1732146254000,18348000000,,80.73689222311793,-1416181453652000000,0.0,80.73689222311793,1973.1256304732337,0.0,0,5,0.0,16431,344671916800092,396,22.23200035095215,1019.4688973813624,0.14999,16,0.0,0.0,1575420030,,,,0,5.899342910330464,1,6.0,22.23200035095215,0.0,0.0,0.0,66.7128,C,25138043000000,
Raw,1732146254000,18348000000,,80.73689222311793,-1416181453652000000,0.0,80.73689222311793,1973.1256304732337,0.0,0,2,0.0,16431,344671919885238,797,17.60099983215332,358.64120280115515,0.14999,16,0.0,0.0,1575420030,,,,0,0.0,1,6.0,17.60099983215332,0.0,0.0,0.0,66.7128,C,25138043000000,
Raw,1732146254000,18348000000,,80.73689222311793,-1416181453652000000,0.0,80.73689222311793,1973.1256304732337,0.0,0,14,0.0,16431,344671932676030,51,36.24300003051758,565.2135097431549,0.14999,17,10285.125601431719,0.00022499999613501132,1575420030,,,,0,23.735756635583776,1,6.0,36.24300003051758,0.0,0.0,0.0,66.7128,C,25138043000000,
Raw,1732146254000,18348000000,,80.73689222311793,-1416181453652000000,0.0,80.73689222311793,1973.1256304732337,0.0,0,7,0.0,16431,344671926785036,51,36.349998474121094,932.6081053469942,0.14999,16,0.0,0.0,1575420030,,,,0,23.853686974892113,1,6.0,36.349998474121094,0.0,0.0,0.0,66.7128,C,25138043000000,
Fix,FLP,37.4243837000,-122.1712456000,2.200000047683716,0.28791505,1.766,76.76811,1732146254196,2.1,179.9,25138043000000,0.8445298,0,,,
Status,1732146254000,28,0,1,14,1575420030,43.60,316.0,74.0,1,0,0,38.6
Status,1732146254000,28,1,1,30,1575420030,46.90,71.0,70.0,1,0,0,41.9
Status,1732146254000,28,2,1,22,1575420030,36.10,269.0,59.0,1,0,0,31.099998
Status,1732146254000,28,3,1,13,1575420030,37.10,304.0,47.0,1,0,0,32.1
Status,1732146254000,28,4,1,17,1575420030,37.30,176.0,43.0,1,0,0,32.3
Status,1732146254000,28,5,1,7,1575420030,36.50,102.0,38.0,1,0,0,31.5
Status,1732146254000,28,6,2,131,1575420030,36.00,3.0,23.0,0,0,0,31.0
Status,1732146254000,28,7,1,19,1575420030,42.30,193.0,17.0,1,0,0,37.3
Status,1732146254000,28,8,1,2,1575420030,22.60,88.0,16.0,1,0,0,17.6
Status,1732146254000,28,9,1,15,1575420030,37.00,316.0,16.0,1,0,0,32.0
Status,1732146254000,28,10,1,21,1575420030,25.70,70.0,13.0,1,0,0,20.7
Status,1732146254000,28,11,1,8,1575420030,0.00,39.0,10.0,0,0,0,0.0
Status,1732146254000,28,12,1,5,1575420030,23.50,263.0,7.0,1,0,0,18.5
Status,1732146254000,28,13,1,9,1575420030,0.00,159.0,2.0,0,0,0,0.0
Status,1732146254000,28,14,3,9,1602000000,34.50,15.0,54.0,1,0,0,29.5
Status,1732146254000,28,15,3,8,1602000000,35.10,305.0,38.0,1,0,0,30.099998
Status,1732146254000,28,16,3,19,1602000000,26.60,88.0,31.0,1,0,0,21.6
Status,1732146254000,28,17,3,16,1602000000,23.40,66.0,15.0,1,0,0,18.4
Status,1732146254000,28,18,3,20,1602000000,0.00,150.0,9.0,0,0,0,0.0
Status,1732146254000,28,19,3,17,1602000000,40.00,0.0,0.0,0,0,0,35.0
Status,1732146254000,28,20,6,29,1575420030,34.10,205.0,62.0,1,0,0,29.099998
Status,1732146254000,28,21,6,27,1575420030,41.50,35.0,60.0,1,0,0,36.5
Status,1732146254000,28,22,6,21,1575420030,41.30,267.0,56.0,1,0,0,36.3
Status,1732146254000,28,23,6,19,1575420030,32.90,299.0,50.0,1,0,0,27.900002
Status,1732146254000,28,24,6,7,1575420030,26.60,161.0,17.0,1,0,0,21.6
Status,1732146254000,28,25,6,30,1575420030,0.00,58.0,11.0,0,0,0,0.0
Status,1732146254000,28,26,6,15,1575420030,0.00,96.0,10.0,0,0,0,0.0
Status,1732146254000,28,27,6,34,1575420030,0.00,48.0,6.0,0,0,0,0.0
Fix,GPS,37.4243816667,-122.1712466667,14.8,0.44472,1.8,151.45,1732146255000,2.0,175.1,25139043000000,32.2,0,,,
Fix,FLP,37.4243828000,-122.1712447000,2.200000047683716,0.24129796,1.766,102.74347,1732146255195,2.0,175.1,25139043000000,0.85501057,0,,,
Raw,1732146255000,19348000000,,83.44138721387495,-1416181453652000000,0.0,83.44138721387495,1975.6692208823433,0.0,0,17,0.0,16431,344672928779502,74,32.3129997253418,87.94740793111637,0.14999,16,0.0,0.0,1575420030,,,,0,19.289643410285326,1,6.0,32.3129997253418,0.0,0.0,0.0,66.7128,C,25139043000000,
Raw,1732146255000,19348000000,,83.44138721387495,-1416181453652000000,0.0,83.44138721387495,1975.6692208823433,0.0,0,30,0.0,16431,344672931843993,31,41.92499923706055,665.5785089926887,0.14999,17,12723.585365842102,0.00022499999613501132,1575420030,,,,0,29.83817087090649,1,6.0,41.92499923706055,0.0,0.0,0.0,66.7128,C,25139043000000,
Raw,1732146255000,19348000000,,83.44138721387495,-1416181453652000000,0.0,83.44138721387495,1975.6692208823433,0.0,0,15,0.0,16431,344672921813462,74,31.966999053955078,88.92452134085642,0.14999,16,0.0,0.0,1575420030,,,,0,18.8841242907991,1,6.0,31.966999053955078,0.0,0.0,0.0,66.7128,C,25139043000000,
Raw,1732146255000,19348000000,,83.44138721387495,-1416181453652000000,0.0,83.44138721387495,1975.6692208823433,0.0,0,22,0.0,16431,344672930365965,74,31.05299949645996,417.4695207658708,0.14999,16,0.0,0.0,1575420030,,,,0,17.815047824312135,1,6.0,31.05299949645996,0.0,0.0,0.0,66.7128,C,25139043000000,
Raw,1732146255000,19348000000,,83.44138721387495,-1416181453652000000,0.0,83.44138721387495,1975.6692208823433,0.0,0,13,0.0,16431,344672929640329,51,32.12900161743164,267.6904440956923,0.14999,16,0.0,0.0,1575420030,,,,0,19.07364212847665,1,6.0,32.12900161743164,0.0,0.0,0.0,66.7128,C,25139043000000,
Raw,1732146255000,19348000000,,83.44138721387495,-1416181453652000000,0.0,83.44138721387495,1975.6692208823433,0.0,0,29,0.0,16431,344672920986344,74,29.100000381469727,863.5996101593524,0.14999,16,0.0,0.0,1575420030,,,,0,15.903892390270599,6,6.0,29.100000381469727,0.0,0.0,6.452655905015162,66.7128,C,25139043000000,
Raw,1732146255000,19348000000,,83.44138721387495,-1416181453652000000,0.0,83.44138721387495,1975.6692208823433,0.0,0,19,0.0,16431,344672920028475,51,37.31999969482422,-106.28538106090762,0.14999,16,1717.3951568907908,0.00022499999613501132,1575420030,,,,0,24.912703891950997,1,6.0,37.31999969482422,0.0,0.0,0.0,66.7128,C,25139043000000,
Raw,1732146255000,19348000000,,83.44138721387495,-1416181453652000000,0.0,83.44138721387495,1975.6692208823433,0.0,0,21,0.0,16431,344672919491676,51,36.29999923706055,407.73857319849253,0.14999,16,0.0,0.0,1575420030,,,,0,23.82661405020641,6,6.0,36.29999923706055,0.0,0.0,6.452655905015162,66.7128,C,25139043000000,
Raw,1732146255000,19348000000,,83.44138721387495,-1416181453652000000,0.0,83.44138721387495,1975.6692208823433,0.0,0,19,0.0,16431,344672919871066,74,27.899999618530273,387.1026971153037,0.14999,16,0.0,0.0,1575420030,,,,0,14.542425094393248,6,6.0,27.899999618530273,0.0,0.0,6.452655905015162,66.7128,C,25139043000000,
Raw,1732146255000,19348000000,,83.44138721387495,-1416181453652000000,0.0,83.44138721387495,1975.6692208823433,0.0,0,7,0.0,16431,344672910028023,316,21.600000381469727,1176.7914967792703,0.14999,16,0.0,0.0,1575420030,,,,0,6.649179116177214,6,6.0,21.600000381469727,0.0,0.0,6.452655905015162,66.7128,C,25139043000000,
Raw,1732146255000,19348000000,,83.44138721387495,-1416181453652000000,0.0,83.44138721387495,1975.6692208823433,0.0,0,27,0.0,16431,344672920080035,51,36.5,834.158633056237,0.14999,16,0.0,0.0,1575420030,,,,0,23.996667810685395,6,6.0,36.5,0.0,0.0,6.452655905015162,66.7128,C,25139043000000,
Raw,1732146255000,19348000000,,83.44138721387495,-1416181453652000000,0.0,83.44138721387495,1975.6692208823433,0.0,0,9,0.0,17,637687,74,5.0,714.2303451189596,0.14999,16,0.0,0.0,1600875010,,,,0,16.446496078274038,3,6.0,30.0,0.0,0.0,31.768163998856448,66.7128,C,25139043000000,
Raw,1732146255000,19348000000,,83.44138721387495,-1416181453652000000,0.0,83.44138721387495,1975.6692208823433,0.0,0,8,0.0,17,36866,74,5.0,369.36252608817074,0.14999,16,0.0,0.0,1605374980,,,,0,17.056478440240294,3,6.0,30.0,0.0,0.0,31.768163998856448,66.7128,C,25139043000000,
Raw,1732146255000,19348000000,,83.44138721387495,-1416181453652000000,0.0,83.44138721387495,1975.6692208823433,0.0,0,19,0.0,17,87136,396,5.0,272.18977122746713,0.14999,16,0.0,0.0,1603687550,,,,0,6.5645560008060455,3,6.0,22.0,0.0,0.0,31.768163998856448,66.7128,C,25139043000000,
Raw,1732146255000,19348000000,,83.44138721387495,-1416181453652000000,0.0,83.44138721387495,1975.6692208823433,0.0,0,16,0.0,17,425091,487,5.0,1077.3222906131589,0.14999,16,0.0,0.0,1601437440,,,,0,1.687483492449675,3,6.0,18.0,0.0,0.0,31.768163998856448,66.7128,C,25139043000000,
