# 
# Header Description:
# 
# Version: v3.1.0.3 Platform: 13 Manufacturer: samsung Model: SM-S135DL GNSS Hardware Model Name: MediaTek,MT6631,MTK_MNLD_default,MNL_VER_default
# 
# Raw,utcTimeMillis,TimeNanos,LeapSecond,TimeUncertaintyNanos,FullBiasNanos,BiasNanos,BiasUncertaintyNanos,DriftNanosPerSecond,DriftUncertaintyNanosPerSecond,HardwareClockDiscontinuityCount,Svid,TimeOffsetNanos,State,ReceivedSvTimeNanos,ReceivedSvTimeUncertaintyNanos,Cn0DbHz,PseudorangeRateMetersPerSecond,PseudorangeRateUncertaintyMetersPerSecond,AccumulatedDeltaRangeState,AccumulatedDeltaRangeMeters,AccumulatedDeltaRangeUncertaintyMeters,CarrierFrequencyHz,CarrierCycles,CarrierPhase,CarrierPhaseUncertainty,MultipathIndicator,SnrInDb,ConstellationType,AgcDb,BasebandCn0DbHz,FullInterSignalBiasNanos,FullInterSignalBiasUncertaintyNanos,SatelliteInterSignalBiasNanos,SatelliteInterSignalBiasUncertaintyNanos,CodeType,ChipsetElapsedRealtimeNanos,IsFullTracking
# 
# UncalAccel,utcTimeMillis,elapsedRealtimeNanos,UncalAccelXMps2,UncalAccelYMps2,UncalAccelZMps2,BiasXMps2,BiasYMps2,BiasZMps2
# 
# Accel,utcTimeMillis,elapsedRealtimeNanos,AccelXMps2,AccelYMps2,AccelZMps2
# 
# UncalGyro,utcTimeMillis,elapsedRealtimeNanos,UncalGyroXRadPerSec,UncalGyroYRadPerSec,UncalGyroZRadPerSec,DriftXRadPerSec,DriftYRadPerSec,DriftZRadPerSec
# 
# Gyro,utcTimeMillis,elapsedRealtimeNanos,GyroXRadPerSec,GyroYRadPerSec,GyroZRadPerSec
# 
# UncalMag,utcTimeMillis,elapsedRealtimeNanos,UncalMagXMicroT,UncalMagYMicroT,UncalMagZMicroT,BiasXMicroT,BiasYMicroT,BiasZMicroT
# 
# Mag,utcTimeMillis,elapsedRealtimeNanos,MagXMicroT,MagYMicroT,MagZMicroT
# 
# Pressure,utcTimeMillis,elapsedRealtimeNanos,PressureHpa
# 
# OrientationDeg,utcTimeMillis,elapsedRealtimeNanos,yawDeg,rollDeg,pitchDeg
# 
# Fix,Provider,LatitudeDegrees,LongitudeDegrees,AltitudeMeters,SpeedMps,AccuracyMeters,BearingDegrees,UnixTimeMillis,SpeedAccuracyMps,BearingAccuracyDegrees,elapsedRealtimeNanos,VerticalAccuracyMeters,MockLocation,NumberOfUsedSignals,VerticalSpeedAccuracyMps,SolutionType
# 
# Nav,Svid,Type,Status,MessageId,Sub-messageId,Data(Bytes)
# 
# Status,UnixTimeMillis,SignalCount,SignalIndex,ConstellationType,Svid,CarrierFrequencyHz,Cn0DbHz,AzimuthDegrees,ElevationDegrees,UsedInFix,HasAlmanacData,HasEphemerisData,BasebandCn0DbHz
# 
# Agc,utcTimeMillis,TimeNanos,LeapSecond,TimeUncertaintyNanos,FullBiasNanos,BiasNanos,BiasUncertaintyNanos,DriftNanosPerSecond,DriftUncertaintyNanosPerSecond,HardwareClockDiscontinuityCount,AgcDb,CarrierFrequencyHz,ConstellationType
# 
Fix,FLP,37.4243999000,-122.1712152000,2.299999952316284,0.5703091,1.65,265.75522,1732146217196,1.4,80.5,25101044000000,0.8798519,0,,,
Status,,28,0,1,14,1575420030,45.70,315.0,74.0,1,0,0,40.7
Status,,28,1,1,30,1575420030,42.10,70.0,71.0,1,0,0,37.1
Status,,28,2,1,22,1575420030,38.20,268.0,59.0,1,0,0,33.2
Status,,28,3,1,13,1575420030,48.50,304.0,47.0,1,0,0,43.5
Status,,28,4,1,17,1575420030,39.90,176.0,43.0,1,0,0,34.9
Status,,28,5,1,7,1575420030,43.60,102.0,39.0,1,0,0,38.6
Status,,28,6,2,131,1575420030,50.00,3.0,23.0,0,0,0,45.0
Status,,28,7,1,2,1575420030,0.00,89.0,16.0,0,0,0,0.0
Status,,28,8,1,19,1575420030,39.60,193.0,16.0,1,0,0,34.6
Status,,28,9,1,15,1575420030,40.10,316.0,16.0,1,0,0,35.1
Status,,28,10,1,21,1575420030,0.00,70.0,13.0,0,0,0,0.0
Status,,28,11,1,8,1575420030,24.70,39.0,10.0,1,0,0,19.7
Status,,28,12,1,5,1575420030,25.30,264.0,7.0,0,0,0,20.3
Status,,28,13,1,9,1575420030,0.00,159.0,2.0,0,0,0,0.0
Status,,28,14,3,9,1602000000,42.90,14.0,54.0,1,0,0,37.9
Status,,28,15,3,8,1602000000,33.50,305.0,38.0,1,0,0,28.5
Status,,28,16,3,19,1602000000,32.00,88.0,31.0,1,0,0,27.0
Status,,28,17,3,16,1602000000,22.10,66.0,15.0,1,0,0,17.1
Status,,28,18,3,20,1602000000,0.00,150.0,9.0,0,0,0,0.0
Status,,28,19,3,17,1602000000,36.50,0.0,0.0,0,0,0,31.5
Status,,28,20,6,29,1575420030,0.00,205.0,62.0,0,0,0,0.0
Status,,28,21,6,27,1575420030,43.30,35.0,60.0,1,0,0,38.3
Status,,28,22,6,21,1575420030,0.00,267.0,56.0,0,0,0,0.0
Status,,28,23,6,19,1575420030,31.10,299.0,50.0,1,0,0,26.1
Status,,28,24,6,7,1575420030,31.40,161.0,18.0,1,0,0,26.4
Status,,28,25,6,30,1575420030,0.00,58.0,11.0,0,0,0,0.0
Status,,28,26,6,15,1575420030,0.00,96.0,10.0,0,0,0,0.0
Status,,28,27,6,34,1575420030,0.00,48.0,6.0,0,0,0,0.0
Fix,GPS,37.4243883333,-122.1712300000,15.099999999999998,0.6454617,1.7,224.71,1732146218000,1.2,71.4,25102044000000,34.7,0,,,
Fix,FLP,37.4243935000,-122.1712254000,2.299999952316284,0.5942295,1.65,239.32224,1732146218196,1.2,71.4,25102044000000,0.88655466,0,,,
Raw,1732146218000,11680000000,,90.11228738402544,-1416181424320999936,0.0,90.11228738402544,1934.4838007102871,0.0,0,17,0.0,16431,344635929084771,58,34.87300109863281,72.42992524946689,0.14999,16,0.0,0.0,1575420030,,,,0,22.220002838113846,1,6.0,34.87300109863281,0.0,0.0,0.0,66.7128,C,25102044000000,
Raw,1732146218000,11680000000,,90.11228738402544,-1416181424320999936,0.0,90.11228738402544,1934.4838007102871,0.0,0,14,0.0,16431,344635933038350,42,40.69200134277344,550.515507065043,0.14999,16,0.0,0.0,1575420030,,,,0,28.53462678938239,1,6.0,40.69200134277344,0.0,0.0,0.0,66.7128,C,25102044000000,
Raw,1732146218000,11680000000,,90.11228738402544,-1416181424320999936,0.0,90.11228738402544,1934.4838007102871,0.0,0,13,0.0,16431,344635929967507,31,43.54399871826172,250.0310425930722,0.14999,16,0.0,0.0,1575420030,,,,0,31.533603447185627,1,6.0,43.54399871826172,0.0,0.0,0.0,66.7128,C,25102044000000,
Raw,1732146218000,11680000000,,90.11228738402544,-1416181424320999936,0.0,90.11228738402544,1934.4838007102871,0.0,0,22,0.0,16431,344635930711820,58,33.24700164794922,402.16319158589823,0.14999,16,0.0,0.0,1575420030,,,,0,20.375249674340694,1,6.0,33.24700164794922,0.0,0.0,0.0,66.7128,C,25102044000000,
Raw,1732146218000,11680000000,,90.11228738402544,-1416181424320999936,0.0,90.11228738402544,1934.4838007102871,0.0,0,19,0.0,16431,344635920309789,58,34.608001708984375,-120.34239697056262,0.14999,16,0.0,0.0,1575420030,,,,0,21.91841654812739,1,6.0,34.608001708984375,0.0,0.0,0.0,66.7128,C,25102044000000,
Raw,1732146218000,11680000000,,90.11228738402544,-1416181424320999936,0.0,90.11228738402544,1934.4838007102871,0.0,0,15,0.0,16431,344635922118694,58,35.08000183105469,73.00772857187735,0.14999,16,0.0,0.0,1575420030,,,,0,22.449829321199132,1,6.0,35.08000183105469,0.0,0.0,0.0,66.7128,C,25102044000000,
Raw,1732146218000,11680000000,,90.11228738402544,-1416181424320999936,0.0,90.11228738402544,1934.4838007102871,0.0,0,5,0.0,17,216927,487,20.34600067138672,1006.1597690558646,0.14999,16,0.0,0.0,1575420030,,,,0,2.877296544288114,1,6.0,20.34600067138672,0.0,0.0,0.0,66.7128,C,25102044000000,
Raw,1732146218000,11680000000,,90.11228738402544,-1416181424320999936,0.0,90.11228738402544,1934.4838007102871,0.0,0,7,0.0,16431,344635910467760,316,26.399999618530273,1163.1265899024322,0.14999,16,0.0,0.0,1575420030,,,,0,12.803690879505506,6,6.0,26.399999618530273,0.0,0.0,17.594885027006082,66.7128,C,25102044000000,
Raw,1732146218000,11680000000,,90.11228738402544,-1416181424320999936,0.0,90.11228738402544,1934.4838007102871,0.0,0,19,0.0,16431,344635920213090,235,26.100000381469727,370.95270632615586,0.14999,16,0.0,0.0,1575420030,,,,0,12.386944657755699,6,6.0,26.100000381469727,0.0,0.0,17.594885027006082,66.7128,C,25102044000000,
Raw,1732146218000,11680000000,,90.11228738402544,-1416181424320999936,0.0,90.11228738402544,1934.4838007102871,0.0,0,27,0.0,16431,344635920477427,42,38.29999923706055,820.4432723393943,0.14999,16,0.0,0.0,1575420030,,,,0,25.893985821117273,6,6.0,38.29999923706055,0.0,0.0,17.594885027006082,66.7128,C,25102044000000,
Raw,1732146218000,11680000000,,90.11228738402544,-1416181424320999936,0.0,90.11228738402544,1934.4838007102871,0.0,0,9,0.0,17,20227,51,5.0,699.5237819997999,0.14999,16,0.0,0.0,1600875010,,,,0,25.503155028348125,3,6.0,38.0,0.0,0.0,35.15245453167598,66.7128,C,25102044000000,
Raw,1732146218000,11680000000,,90.11228738402544,-1416181424320999936,0.0,90.11228738402544,1934.4838007102871,0.0,0,8,0.0,17,376582,235,5.0,350.59565780042874,0.14999,16,0.0,0.0,1605374980,,,,0,15.265852932697932,3,6.0,29.0,0.0,0.0,35.15245453167598,66.7128,C,25102044000000,
Raw,1732146218000,11680000000,,90.11228738402544,-1416181424320999936,0.0,90.11228738402544,1934.4838007102871,0.0,0,16,0.0,17,852777,487,5.0,1063.8347817259616,0.14999,16,0.0,0.0,1601437440,,,,0,0.0,3,6.0,19.0,0.0,0.0,35.15245453167598,66.7128,C,25102044000000,
Raw,1732146218000,11680000000,,90.11228738402544,-1416181424320999936,0.0,90.11228738402544,1934.4838007102871,0.0,0,19,0.0,17,414904,316,5.0,253.75396339469646,0.14999,16,0.0,0.0,1603687550,,,,0,13.477514855328748,3,6.0,25.0,0.0,0.0,35.15245453167598,66.7128,C,25102044000000,
Raw,1732146218000,11680000000,,90.11228738402544,-1416181424320999936,0.0,90.11228738402544,1934.4838007102871,0.0,0,7,0.0,16431,344635927191468,42,38.59199905395508,916.8592597526163,0.14999,16,0.0,0.0,1575420030,,,,0,26.293797028859053,1,6.0,38.59199905395508,0.0,0.0,0.0,66.7128,C,25102044000000,
Raw,1732146218000,11680000000,,90.11228738402544,-1416181424320999936,0.0,90.11228738402544,1934.4838007102871,0.0,0,30,0.0,16431,344635932220470,51,37.097999572753906,649.2914426465117,0.14999,16,0.0,0.0,1575420030,,,,0,24.67499979787387,1,6.0,37.097999572753906,0.0,0.0,0.0,66.7128,C,25102044000000,
Raw,1732146218000,11680000000,,90.11228738402544,-1416181424320999936,0.0,90.11228738402544,1934.4838007102871,0.0,0,8,0.0,16431,344635918979569,797,19.729999542236328,1248.7576276597074,0.14999,16,0.0,0.0,1575420030,,,,0,1.8358242652366559,1,6.0,19.729999542236328,0.0,0.0,0.0,66.7128,C,25102044000000,
Status,1732146218000,28,0,1,14,1575420030,42.30,315.0,74.0,1,0,0,37.3
Status,1732146218000,28,1,1,30,1575420030,42.10,70.0,71.0,1,0,0,37.1
Status,1732146218000,28,2,1,22,1575420030,45.30,268.0,59.0,1,0,0,40.3
Status,1732146218000,28,3,1,13,1575420030,45.10,304.0,47.0,1,0,0,40.1
Status,1732146218000,28,4,1,17,1575420030,43.30,176.0,43.0,1,0,0,38.3
Status,1732146218000,28,5,1,7,1575420030,44.30,102.0,39.0,1,0,0,39.3
Status,1732146218000,28,6,2,131,1575420030,35.00,3.0,23.0,0,0,0,30.0
Status,1732146218000,28,7,1,2,1575420030,0.00,89.0,16.0,0,0,0,0.0
Status,1732146218000,28,8,1,19,1575420030,41.60,193.0,16.0,1,0,0,36.6
Status,1732146218000,28,9,1,15,1575420030,45.20,316.0,16.0,1,0,0,40.2
Status,1732146218000,28,10,1,21,1575420030,0.00,70.0,13.0,0,0,0,0.0
Status,1732146218000,28,11,1,8,1575420030,24.70,39.0,10.0,1,0,0,19.7
Status,1732146218000,28,12,1,5,1575420030,27.80,264.0,7.0,1,0,0,22.8
Status,1732146218000,28,13,1,9,1575420030,0.00,159.0,2.0,0,0,0,0.0
Status,1732146218000,28,14,3,9,1602000000,36.60,14.0,54.0,1,0,0,31.599998
Status,1732146218000,28,15,3,8,1602000000,41.50,305.0,38.0,1,0,0,36.5
Status,1732146218000,28,16,3,19,1602000000,29.30,88.0,31.0,1,0,0,24.3
Status,1732146218000,28,17,3,16,1602000000,22.10,66.0,15.0,1,0,0,17.1
Status,1732146218000,28,18,3,20,1602000000,0.00,150.0,9.0,0,0,0,0.0
Status,1732146218000,28,19,3,17,1602000000,36.40,0.0,0.0,0,0,0,31.400002
Status,1732146218000,28,20,6,29,1575420030,0.00,205.0,62.0,0,0,0,0.0
Status,1732146218000,28,21,6,27,1575420030,42.60,35.0,60.0,1,0,0,37.6
Status,1732146218000,28,22,6,21,1575420030,0.00,267.0,56.0,0,0,0,0.0
Status,1732146218000,28,23,6,19,1575420030,33.20,299.0,50.0,1,0,0,28.2
Status,1732146218000,28,24,6,7,1575420030,28.10,161.0,18.0,1,0,0,23.1
Status,1732146218000,28,25,6,30,1575420030,0.00,58.0,11.0,0,0,0,0.0
Status,1732146218000,28,26,6,15,1575420030,0.00,96.0,10.0,0,0,0,0.0
Status,1732146218000,28,27,6,34,1575420030,0.00,48.0,6.0,0,0,0,0.0
Fix,GPS,37.4243883333,-122.1712333333,15.099999999999998,0.13485722,1.7,217.9,1732146219000,0.9,179.9,25103044000000,34.2,0,,,
Raw,1732146219000,12680000000,,89.18983398820701,-1416181424320999936,0.0,89.18983398820701,1930.5316889210465,0.0,0,17,0.0,16431,344636929084521,51,38.279998779296875,71.86726737074106,0.14999,16,0.0,0.0,1575420030,,,,0,25.956176227403475,1,6.0,38.279998779296875,0.0,0.0,0.0,66.7128,C,25103044000000,
Raw,1732146219000,12680000000,,89.18983398820701,-1416181424320999936,0.0,89.18983398820701,1930.5316889210465,0.0,0,14,0.0,16431,344636933036515,51,37.32400131225586,549.6822289118908,0.14999,17,6963.85566520829,0.00022499999613501132,1575420030,,,,0,24.918913088632586,1,6.0,37.32400131225586,0.0,0.0,0.0,66.7128,C,25103044000000,
Raw,1732146219000,12680000000,,89.18983398820701,-1416181424320999936,0.0,89.18983398820701,1930.5316889210465,0.0,0,13,0.0,16431,344636929966679,42,40.12099838256836,248.98990948579402,0.14999,16,0.0,0.0,1575420030,,,,0,27.93079248449022,1,6.0,40.12099838256836,0.0,0.0,0.0,66.7128,C,25103044000000,
Raw,1732146219000,12680000000,,89.18983398820701,-1416181424320999936,0.0,89.18983398820701,1930.5316889210465,0.0,0,22,0.0,16431,344636930710482,42,40.3380012512207,401.0534858562933,0.14999,16,0.0,0.0,1575420030,,,,0,28.158170606974515,1,6.0,40.3380012512207,0.0,0.0,0.0,66.7128,C,25103044000000,
Raw,1732146219000,12680000000,,89.18983398820701,-1416181424320999936,0.0,89.18983398820701,1930.5316889210465,0.0,0,19,0.0,16431,344636920310186,51,36.62699890136719,-120.84205723690695,0.14999,16,0.0,0.0,1575420030,,,,0,24.157144424419307,1,6.0,36.62699890136719,0.0,0.0,0.0,66.7128,C,25103044000000,
Raw,1732146219000,12680000000,,89.18983398820701,-1416181424320999936,0.0,89.18983398820701,1930.5316889210465,0.0,0,15,0.0,16431,344636922118454,42,40.16899871826172,71.22525851712763,0.14999,16,0.0,0.0,1575420030,,,,0,27.980019950479367,1,6.0,40.16899871826172,0.0,0.0,0.0,66.7128,C,25103044000000,
Raw,1732146219000,12680000000,,89.18983398820701,-1416181424320999936,0.0,89.18983398820701,1930.5316889210465,0.0,0,5,0.0,16431,344636917213570,487,22.788999557495117,1004.3768808753689,0.14999,16,0.0,0.0,1575420030,,,,0,6.767426598340953,1,6.0,22.788999557495117,0.0,0.0,0.0,66.7128,C,25103044000000,
Raw,1732146219000,12680000000,,89.18983398820701,-1416181424320999936,0.0,89.18983398820701,1930.5316889210465,0.0,0,7,0.0,16431,344636910463877,316,23.100000381469727,1162.885563639132,0.14999,16,0.0,0.0,1575420030,,,,0,8.674213118517464,6,6.0,23.100000381469727,0.0,0.0,16.568679017947854,66.7128,C,25103044000000,
Raw,1732146219000,12680000000,,89.18983398820701,-1416181424320999936,0.0,89.18983398820701,1930.5316889210465,0.0,0,19,0.0,16431,344636920211858,235,28.200000762939453,369.5350509846994,0.14999,16,0.0,0.0,1575420030,,,,0,14.955223231647308,6,6.0,28.200000762939453,0.0,0.0,16.568679017947854,66.7128,C,25103044000000,
Raw,1732146219000,12680000000,,89.18983398820701,-1416181424320999936,0.0,89.18983398820701,1930.5316889210465,0.0,0,27,0.0,16431,344636920474694,42,37.599998474121094,818.8661949427114,0.14999,16,0.0,0.0,1575420030,,,,0,25.193830126634168,6,6.0,37.599998474121094,0.0,0.0,16.568679017947854,66.7128,C,25103044000000,
Raw,1732146219000,12680000000,,89.18983398820701,-1416181424320999936,0.0,89.18983398820701,1930.5316889210465,0.0,0,9,0.0,17,17891,74,5.0,697.9053962067088,0.14999,16,0.0,0.0,1600875010,,,,0,18.77825532342202,3,6.0,32.0,0.0,0.0,35.216791969830794,66.7128,C,25103044000000,
Raw,1732146219000,12680000000,,89.18983398820701,-1416181424320999936,0.0,89.18983398820701,1930.5316889210465,0.0,0,8,0.0,17,375418,51,5.0,349.64329612736844,0.14999,16,0.0,0.0,1605374980,,,,0,24.01563954659637,3,6.0,37.0,0.0,0.0,35.216791969830794,66.7128,C,25103044000000,
Raw,1732146219000,12680000000,,89.18983398820701,-1416181424320999936,0.0,89.18983398820701,1930.5316889210465,0.0,0,16,0.0,17,849226,487,5.0,1063.8638492390492,0.14999,16,0.0,0.0,1601437440,,,,0,0.0,3,6.0,20.0,0.0,0.0,35.216791969830794,66.7128,C,25103044000000,
Raw,1732146219000,12680000000,,89.18983398820701,-1416181424320999936,0.0,89.18983398820701,1930.5316889210465,0.0,0,19,0.0,17,414070,396,5.0,252.83895959878586,0.14999,16,0.0,0.0,1603687550,,,,0,10.161669648742691,3,6.0,22.0,0.0,0.0,35.216791969830794,66.7128,C,25103044000000,
Raw,1732146219000,12680000000,,89.18983398820701,-1416181424320999936,0.0,89.18983398820701,1930.5316889210465,0.0,0,7,0.0,16431,344636927188402,42,39.26300048828125,917.2228433178799,0.14999,17,11136.726552490196,0.00022499999613501132,1575420030,,,,0,27.011680201841518,1,6.0,39.26300048828125,0.0,0.0,0.0,66.7128,C,25103044000000,
Raw,1732146219000,12680000000,,89.18983398820701,-1416181424320999936,0.0,89.18983398820701,1930.5316889210465,0.0,0,30,0.0,16431,344636932218303,51,37.14899826049805,648.9838414727817,0.14999,16,0.0,0.0,1575420030,,,,0,25.789335282443734,1,6.0,37.14899826049805,0.0,0.0,0.0,66.7128,C,25103044000000,
Raw,1732146219000,12680000000,,89.18983398820701,-1416181424320999936,0.0,89.18983398820701,1930.5316889210465,0.0,0,8,0.0,16431,344636918975404,797,19.729999542236328,1248.7823435371313,0.14999,16,0.0,0.0,1575420030,,,,0,1.8358242652366559,1,6.0,19.729999542236328,0.0,0.0,0.0,66.7128,C,25103044000000,
Fix,FLP,37.4243900000,-122.1712310000,2.299999952316284,0.24775909,1.666,226.92276,1732146219196,0.9,179.9,25103044000000,0.89655876,0,,,
Status,1732146219000,28,0,1,14,1575420030,43.00,315.0,74.0,1,0,0,38.0
Status,1732146219000,28,1,1,30,1575420030,46.10,70.0,71.0,1,0,0,41.1
Status,1732146219000,28,2,1,22,1575420030,47.00,268.0,59.0,1,0,0,42.0
Status,1732146219000,28,3,1,13,1575420030,44.40,304.0,47.0,1,0,0,39.4
Status,1732146219000,28,4,1,17,1575420030,43.70,176.0,43.0,1,0,0,38.7
Status,1732146219000,28,5,1,7,1575420030,45.70,102.0,39.0,1,0,0,40.7
Status,1732146219000,28,6,2,131,1575420030,37.00,3.0,23.0,0,0,0,32.0
Status,1732146219000,28,7,1,2,1575420030,0.00,89.0,16.0,0,0,0,0.0
Status,1732146219000,28,8,1,19,1575420030,39.00,193.0,16.0,1,0,0,34.0
Status,1732146219000,28,9,1,15,1575420030,45.80,316.0,16.0,1,0,0,40.8
Status,1732146219000,28,10,1,21,1575420030,0.00,70.0,13.0,0,0,0,0.0
Status,1732146219000,28,11,1,8,1575420030,24.70,39.0,10.0,1,0,0,19.7
Status,1732146219000,28,12,1,5,1575420030,23.80,264.0,7.0,0,0,0,18.8
Status,1732146219000,28,13,1,9,1575420030,0.00,159.0,2.0,0,0,0,0.0
Status,1732146219000,28,14,3,9,1602000000,35.70,14.0,54.0,1,0,0,30.7
Status,1732146219000,28,15,3,8,1602000000,39.90,305.0,38.0,1,0,0,34.9
Status,1732146219000,28,16,3,19,1602000000,29.30,88.0,31.0,1,0,0,24.3
Status,1732146219000,28,17,3,16,1602000000,25.00,66.0,15.0,1,0,0,20.0
Status,1732146219000,28,18,3,20,1602000000,0.00,150.0,9.0,0,0,0,0.0
Status,1732146219000,28,19,3,17,1602000000,47.10,0.0,0.0,0,0,0,42.1
Status,1732146219000,28,20,6,29,1575420030,0.00,205.0,62.0,0,0,0,0.0
Status,1732146219000,28,21,6,27,1575420030,40.20,35.0,60.0,1,0,0,35.2
Status,1732146219000,28,22,6,21,1575420030,0.00,267.0,56.0,0,0,0,0.0
Status,1732146219000,28,23,6,19,1575420030,42.30,299.0,50.0,1,0,0,37.3
Status,1732146219000,28,24,6,7,1575420030,31.80,161.0,18.0,1,0,0,26.8
Status,1732146219000,28,25,6,30,1575420030,0.00,58.0,11.0,0,0,0,0.0
Status,1732146219000,28,26,6,15,1575420030,0.00,96.0,10.0,0,0,0,0.0
Status,1732146219000,28,27,6,34,1575420030,0.00,48.0,6.0,0,0,0,0.0
Fix,GPS,37.4243916667,-122.1712316667,15.000000000000004,0.324275,1.6,74.73,1732146220000,0.8,101.8,25104044000000,33.6,0,,,
Raw,1732146220000,13680000000,,87.56075949419099,-1416181424320999936,0.0,87.56075949419099,1928.022474054649,0.0,0,17,0.0,16431,344637929084281,42,38.65999984741211,71.72389669831534,0.14999,16,0.0,0.0,1575420030,,,,0,26.366344744476073,1,6.0,38.65999984741211,0.0,0.0,0.0,66.7128,C,25104044000000,
Raw,1732146220000,13680000000,,87.56075949419099,-1416181424320999936,0.0,87.56075949419099,1928.022474054649,0.0,0,14,0.0,16431,344637933034682,51,37.9630012512207,549.4667547775064,0.14999,17,7513.345033619887,0.00022499999613501132,1575420030,,,,0,25.61206607581763,1,6.0,37.9630012512207,0.0,0.0,0.0,66.7128,C,25104044000000,
Raw,1732146220000,13680000000,,87.56075949419099,-1416181424320999936,0.0,87.56075949419099,1928.022474054649,0.0,0,13,0.0,16431,344637929965850,42,39.382999420166016,248.8126009403265,0.14999,17,3449.6679607252654,0.00022499999613501132,1575420030,,,,0,27.14479989001164,1,6.0,39.382999420166016,0.0,0.0,0.0,66.7128,C,25104044000000,
Raw,1732146220000,13680000000,,87.56075949419099,-1416181424320999936,0.0,87.56075949419099,1928.022474054649,0.0,0,22,0.0,16431,344637930709142,31,42.025001525878906,400.93984857024236,0.14999,17,5491.67242617998,0.00022499999613501132,1575420030,,,,0,29.943817420938732,1,6.0,42.025001525878906,0.0,0.0,0.0,66.7128,C,25104044000000,
Raw,1732146220000,13680000000,,87.56075949419099,-1416181424320999936,0.0,87.56075949419099,1928.022474054649,0.0,0,19,0.0,16431,344637920310587,58,33.9630012512207,-120.62649018569006,0.14999,17,-1564.7715782743242,0.00039999998989515007,1575420030,,,,0,21.187022252451786,1,6.0,33.9630012512207,0.0,0.0,0.0,66.7128,C,25104044000000,
Raw,1732146220000,13680000000,,87.56075949419099,-1416181424320999936,0.0,87.56075949419099,1928.022474054649,0.0,0,15,0.0,16431,344637922118217,42,40.83300018310547,71.46591311309822,0.14999,17,3770.3964535761993,0.00022499999613501132,1575420030,,,,0,28.686792251256325,1,6.0,40.83300018310547,0.0,0.0,0.0,66.7128,C,25104044000000,
Raw,1732146220000,13680000000,,87.56075949419099,-1416181424320999936,0.0,87.56075949419099,1928.022474054649,0.0,0,5,0.0,17,210243,487,18.844999313354492,1005.3478617741692,0.14999,16,0.0,0.0,1575420030,,,,0,0.2632571301672666,1,6.0,18.844999313354492,0.0,0.0,0.0,66.7128,C,25104044000000,
Raw,1732146220000,13680000000,,87.56075949419099,-1416181424320999936,0.0,87.56075949419099,1928.022474054649,0.0,0,7,0.0,16431,344637910459997,316,26.799999237060547,1161.7644291391393,0.14999,16,0.0,0.0,1575420030,,,,0,13.320137112794015,6,6.0,26.799999237060547,0.0,0.0,14.65015789819975,66.7128,C,25104044000000,
Raw,1732146220000,13680000000,,87.56075949419099,-1416181424320999936,0.0,87.56075949419099,1928.022474054649,0.0,0,19,0.0,16431,344637920210623,51,37.29999923706055,369.4296368383177,0.14999,16,0.0,0.0,1575420030,,,,0,24.918913088632586,6,6.0,37.29999923706055,0.0,0.0,14.65015789819975,66.7128,C,25104044000000,
Raw,1732146220000,13680000000,,87.56075949419099,-1416181424320999936,0.0,87.56075949419099,1928.022474054649,0.0,0,27,0.0,16431,344637920471962,51,35.20000076293945,818.4677675652898,0.14999,16,0.0,0.0,1575420030,,,,0,22.633448623603186,6,6.0,35.20000076293945,0.0,0.0,14.65015789819975,66.7128,C,25104044000000,
Raw,1732146220000,13680000000,,87.56075949419099,-1416181424320999936,0.0,87.56075949419099,1928.022474054649,0.0,0,9,0.0,17,15558,74,5.0,697.9948239317579,0.14999,16,0.0,0.0,1600875010,,,,0,17.80459837061877,3,6.0,31.0,0.0,0.0,34.82120215892209,66.7128,C,25104044000000,
Raw,1732146220000,13680000000,,87.56075949419099,-1416181424320999936,0.0,87.56075949419099,1928.022474054649,0.0,0,8,0.0,17,374252,58,5.0,349.7428452543313,0.14999,17,4786.039003721515,0.00039999998989515007,1605374980,,,,0,22.35103323225909,3,6.0,35.0,0.0,0.0,34.82120215892209,66.7128,C,25104044000000,
Raw,1732146220000,13680000000,,87.56075949419099,-1416181424320999936,0.0,87.56075949419099,1928.022474054649,0.0,0,16,0.0,17,845665,487,5.0,1064.3797518927172,0.14999,16,0.0,0.0,1601437440,,,,0,4.156046404110904,3,6.0,19.0,0.0,0.0,34.82120215892209,66.7128,C,25104044000000,
Raw,1732146220000,13680000000,,87.56075949419099,-1416181424320999936,0.0,87.56075949419099,1928.022474054649,0.0,0,19,0.0,17,413222,316,5.0,252.37161097569066,0.14999,16,0.0,0.0,1603687550,,,,0,10.763009349759331,3,6.0,25.0,0.0,0.0,34.82120215892209,66.7128,C,25104044000000,
Raw,1732146220000,13680000000,,87.56075949419099,-1416181424320999936,0.0,87.56075949419099,1928.022474054649,0.0,0,7,0.0,16431,344637927185344,42,40.72700119018555,916.2337436367576,0.14999,17,12053.428945400477,0.00022499999613501132,1575420030,,,,0,28.575465605199927,1,6.0,40.72700119018555,0.0,0.0,0.0,66.7128,C,25104044000000,
Raw,1732146220000,13680000000,,87.56075949419099,-1416181424320999936,0.0,87.56075949419099,1928.022474054649,0.0,0,30,0.0,16431,344637932216137,42,41.14699935913086,648.1721200247512,0.14999,17,8763.940948217769,0.00022499999613501132,1575420030,,,,0,29.01730038371678,1,6.0,41.14699935913086,0.0,0.0,0.0,66.7128,C,25104044000000,
Raw,1732146220000,13680000000,,87.56075949419099,-1416181424320999936,0.0,87.56075949419099,1928.022474054649,0.0,0,8,0.0,16431,344637918971244,797,19.652999877929688,1247.7446483526528,0.14999,16,0.0,0.0,1575420030,,,,0,0.0,1,6.0,19.652999877929688,0.0,0.0,0.0,66.7128,C,25104044000000,
Fix,FLP,37.4243904000,-122.1712317000,2.299999952316284,0.13914253,1.666,76.75275,1732146220197,0.8,101.8,25104044000000,0.9065643,0,,,
Status,1732146220000,28,0,1,14,1575420030,44.20,315.0,74.0,1,0,0,39.2
Status,1732146220000,28,1,1,30,1575420030,42.30,70.0,71.0,1,0,0,37.3
Status,1732146220000,28,2,1,22,1575420030,40.30,268.0,59.0,1,0,0,35.3
Status,1732146220000,28,3,1,13,1575420030,44.70,304.0,47.0,1,0,0,39.7
Status,1732146220000,28,4,1,17,1575420030,43.80,176.0,43.0,1,0,0,38.8
Status,1732146220000,28,5,1,7,1575420030,37.60,102.0,39.0,1,0,0,32.6
Status,1732146220000,28,6,2,131,1575420030,36.00,3.0,23.0,0,0,0,31.0
Status,1732146220000,28,7,1,2,1575420030,0.00,89.0,16.0,0,0,0,0.0
Status,1732146220000,28,8,1,19,1575420030,38.20,193.0,16.0,1,0,0,33.2
Status,1732146220000,28,9,1,15,1575420030,43.90,316.0,16.0,1,0,0,38.9
Status,1732146220000,28,10,1,21,1575420030,0.00,70.0,13.0,0,0,0,0.0
Status,1732146220000,28,11,1,8,1575420030,24.60,39.0,10.0,1,0,0,19.6
Status,1732146220000,28,12,1,5,1575420030,26.70,264.0,7.0,1,0,0,21.7
Status,1732146220000,28,13,1,9,1575420030,0.00,159.0,2.0,0,0,0,0.0
Status,1732146220000,28,14,3,9,1602000000,33.00,14.0,54.0,1,0,0,28.0
Status,1732146220000,28,15,3,8,1602000000,34.50,305.0,38.0,1,0,0,29.5
Status,1732146220000,28,16,3,19,1602000000,29.20,88.0,31.0,1,0,0,24.2
Status,1732146220000,28,17,3,16,1602000000,25.00,66.0,15.0,1,0,0,20.0
Status,1732146220000,28,18,3,20,1602000000,0.00,150.0,9.0,0,0,0,0.0
Status,1732146220000,28,19,3,17,1602000000,38.00,0.0,0.0,0,0,0,33.0
Status,1732146220000,28,20,6,29,1575420030,0.00,205.0,62.0,0,0,0,0.0
Status,1732146220000,28,21,6,27,1575420030,40.20,35.0,60.0,1,0,0,35.2
Status,1732146220000,28,22,6,21,1575420030,0.00,267.0,56.0,0,0,0,0.0
Status,1732146220000,28,23,6,19,1575420030,25.30,299.0,50.0,1,0,0,20.3
Status,1732146220000,28,24,6,7,1575420030,27.10,161.0,18.0,1,0,0,22.1
Status,1732146220000,28,25,6,30,1575420030,0.00,58.0,11.0,0,0,0,0.0
Status,1732146220000,28,26,6,15,1575420030,0.00,96.0,10.0,0,0,0,0.0
Status,1732146220000,28,27,6,34,1575420030,0.00,48.0,6.0,0,0,0,0.0
Fix,GPS,37.4243950000,-122.1712266667,14.900000000000002,0.4581028,1.6,78.22,1732146221000,0.8,67.5,25105044000000,33.6,0,,,
Fix,FLP,37.4243928000,-122.1712281000,2.299999952316284,0.35192648,1.666,76.39073,1732146221197,0.8,67.5,25105044000000,0.9165577,0,,,
Raw,1732146221000,14680000000,,87.79684913279826,-1416181424320999936,0.0,87.79684913279826,1928.0426733511176,0.0,0,17,0.0,16431,344638929084041,42,38.78799819946289,71.50972339958476,0.14999,16,0.0,0.0,1575420030,,,,0,26.50318454571535,1,6.0,38.78799819946289,0.0,0.0,0.0,66.7128,C,25105044000000,
Raw,1732146221000,14680000000,,87.79684913279826,-1416181424320999936,0.0,87.79684913279826,1928.0426733511176,0.0,0,14,0.0,16431,344638933032849,42,39.15700149536133,549.7203712715997,0.14999,17,8062.63466568559,0.00022499999613501132,1575420030,,,,0,26.901225860356,1,6.0,39.15700149536133,0.0,0.0,0.0,66.7128,C,25105044000000,
Raw,1732146221000,14680000000,,87.79684913279826,-1416181424320999936,0.0,87.79684913279826,1928.0426733511176,0.0,0,13,0.0,16431,344638929965014,42,39.7130012512207,249.05353428679433,0.14999,17,3698.5484954846956,0.00022499999613501132,1575420030,,,,0,27.497813850519126,1,6.0,39.7130012512207,0.0,0.0,0.0,66.7128,C,25105044000000,
Raw,1732146221000,14680000000,,87.79684913279826,-1416181424320999936,0.0,87.79684913279826,1928.0426733511176,0.0,0,22,0.0,16431,344638930707802,58,35.314998626708984,401.3690778776115,0.14999,16,0.0,0.0,1575420030,,,,0,22.713827585993954,1,6.0,35.314998626708984,0.0,0.0,0.0,66.7128,C,25105044000000,
Raw,1732146221000,14680000000,,87.79684913279826,-1416181424320999936,0.0,87.79684913279826,1928.0426733511176,0.0,0,19,0.0,16431,344638920310987,58,33.1510009765625,-121.67928435543706,0.14999,17,-1686.163499903593,0.00039999998989515007,1575420030,,,,0,20.269885050853667,1,6.0,33.1510009765625,0.0,0.0,0.0,66.7128,C,25105044000000,
Raw,1732146221000,14680000000,,87.79684913279826,-1416181424320999936,0.0,87.79684913279826,1928.0426733511176,0.0,0,15,0.0,16431,344638922117979,42,38.946998596191406,71.82610521397852,0.14999,16,0.0,0.0,1575420030,,,,0,26.67601192784195,1,6.0,38.946998596191406,0.0,0.0,0.0,66.7128,C,25105044000000,
Raw,1732146221000,14680000000,,87.79684913279826,-1416181424320999936,0.0,87.79684913279826,1928.0426733511176,0.0,0,5,0.0,16431,344638917206930,487,21.650999069213867,1004.6216238119661,0.14999,16,0.0,0.0,1575420030,,,,0,5.038348360914435,1,6.0,21.650999069213867,0.0,0.0,0.0,66.7128,C,25105044000000,
Raw,1732146221000,14680000000,,87.79684913279826,-1416181424320999936,0.0,87.79684913279826,1928.0426733511176,0.0,0,7,0.0,16431,344638910456121,396,22.100000381469727,1162.2117307704143,0.14999,16,0.0,0.0,1575420030,,,,0,7.255183624134171,6,6.0,22.100000381469727,0.0,0.0,13.424331901934776,66.7128,C,25105044000000,
Raw,1732146221000,14680000000,,87.79684913279826,-1416181424320999936,0.0,87.79684913279826,1928.0426733511176,0.0,0,19,0.0,16431,344638920209386,396,20.299999237060547,369.7544508552537,0.14999,16,0.0,0.0,1575420030,,,,0,4.647025894022573,6,6.0,20.299999237060547,0.0,0.0,13.424331901934776,66.7128,C,25105044000000,
Raw,1732146221000,14680000000,,87.79684913279826,-1416181424320999936,0.0,87.79684913279826,1928.0426733511176,0.0,0,27,0.0,16431,344638920469233,51,35.20500183105469,818.5592906452246,0.14999,16,0.0,0.0,1575420030,,,,0,22.72382285710623,6,6.0,35.20500183105469,0.0,0.0,13.424331901934776,66.7128,C,25105044000000,
Raw,1732146221000,14680000000,,87.79684913279826,-1416181424320999936,0.0,87.79684913279826,1928.0426733511176,0.0,0,9,0.0,17,13224,235,5.0,697.6485429555199,0.14999,16,0.0,0.0,1600875010,,,,0,14.663665801572126,3,6.0,29.0,0.0,0.0,34.86374318517932,66.7128,C,25105044000000,
Raw,1732146221000,14680000000,,87.79684913279826,-1416181424320999936,0.0,87.79684913279826,1928.0426733511176,0.0,0,8,0.0,17,373092,316,5.0,349.6140263588728,0.14999,16,0.0,0.0,1605374980,,,,0,16.370836274669525,3,6.0,24.0,0.0,0.0,34.86374318517932,66.7128,C,25105044000000,
Raw,1732146221000,14680000000,,87.79684913279826,-1416181424320999936,0.0,87.79684913279826,1928.0426733511176,0.0,0,16,0.0,17,842100,487,5.0,1063.4498656957355,0.14999,16,0.0,0.0,1601437440,,,,0,4.7855226921645375,3,6.0,18.0,0.0,0.0,34.86374318517932,66.7128,C,25105044000000,
Raw,1732146221000,14680000000,,87.79684913279826,-1416181424320999936,0.0,87.79684913279826,1928.0426733511176,0.0,0,19,0.0,17,412385,396,5.0,251.99515344467494,0.14999,16,0.0,0.0,1603687550,,,,0,7.470155630037024,3,6.0,23.0,0.0,0.0,34.86374318517932,66.7128,C,25105044000000,
Raw,1732146221000,14680000000,,87.79684913279826,-1416181424320999936,0.0,87.79684913279826,1928.0426733511176,0.0,0,7,0.0,16431,344638927182289,74,32.56700134277344,916.2175761079163,0.14999,17,12969.454012349872,0.0006249999860301614,1575420030,,,,0,19.59504723438344,1,6.0,32.56700134277344,0.0,0.0,0.0,66.7128,C,25105044000000,
Raw,1732146221000,14680000000,,87.79684913279826,-1416181424320999936,0.0,87.79684913279826,1928.0426733511176,0.0,0,30,0.0,16431,344638932213972,51,37.25199890136719,648.6033935024336,0.14999,17,9412.23059932458,0.00022499999613501132,1575420030,,,,0,24.840977261692146,1,6.0,37.25199890136719,0.0,0.0,0.0,66.7128,C,25105044000000,
Raw,1732146221000,14680000000,,87.79684913279826,-1416181424320999936,0.0,87.79684913279826,1928.0426733511176,0.0,0,8,0.0,16431,344638918967081,797,19.579999923706055,1248.190649148274,0.14999,16,0.0,0.0,1575420030,,,,0,0.0,1,6.0,19.579999923706055,0.0,0.0,0.0,66.7128,C,25105044000000,
Status,1732146221000,28,0,1,14,1575420030,44.10,315.0,74.0,1,0,0,39.1
Status,1732146221000,28,1,1,30,1575420030,45.70,70.0,71.0,1,0,0,40.7
Status,1732146221000,28,2,1,22,1575420030,42.90,268.0,59.0,1,0,0,37.9
Status,1732146221000,28,3,1,13,1575420030,40.60,304.0,47.0,1,0,0,35.6
Status,1732146221000,28,4,1,17,1575420030,40.20,176.0,43.0,1,0,0,35.2
Status,1732146221000,28,5,1,7,1575420030,35.20,102.0,39.0,1,0,0,30.2
Status,1732146221000,28,6,2,131,1575420030,39.00,3.0,23.0,0,0,0,34.0
Status,1732146221000,28,7,1,2,1575420030,0.00,89.0,16.0,0,0,0,0.0
Status,1732146221000,28,8,1,19,1575420030,40.20,193.0,16.0,1,0,0,35.2
Status,1732146221000,28,9,1,15,1575420030,42.20,316.0,16.0,1,0,0,37.2
Status,1732146221000,28,10,1,21,1575420030,0.00,70.0,13.0,0,0,0,0.0
Status,1732146221000,28,11,1,8,1575420030,24.50,39.0,10.0,1,0,0,19.5
Status,1732146221000,28,12,1,5,1575420030,26.60,264.0,7.0,1,0,0,21.6
Status,1732146221000,28,13,1,9,1575420030,0.00,159.0,2.0,0,0,0,0.0
Status,1732146221000,28,14,3,9,1602000000,33.30,14.0,54.0,1,0,0,28.3
Status,1732146221000,28,15,3,8,1602000000,33.50,305.0,38.0,1,0,0,28.5
Status,1732146221000,28,16,3,19,1602000000,32.40,88.0,31.0,1,0,0,27.400002
Status,1732146221000,28,17,3,16,1602000000,22.50,66.0,15.0,1,0,0,17.5
Status,1732146221000,28,18,3,20,1602000000,0.00,150.0,9.0,0,0,0,0.0
Status,1732146221000,28,19,3,17,1602000000,37.90,0.0,0.0,0,0,0,32.9
Status,1732146221000,28,20,6,29,1575420030,0.00,205.0,62.0,0,0,0,0.0
Status,1732146221000,28,21,6,27,1575420030,35.70,35.0,60.0,1,0,0,30.7
Status,1732146221000,28,22,6,21,1575420030,0.00,267.0,56.0,0,0,0,0.0
Status,1732146221000,28,23,6,19,1575420030,28.40,299.0,50.0,1,0,0,23.4
Status,1732146221000,28,24,6,7,1575420030,25.30,161.0,18.0,1,0,0,20.3
Status,1732146221000,28,25,6,30,1575420030,0.00,58.0,11.0,0,0,0,0.0
Status,1732146221000,28,26,6,15,1575420030,0.00,96.0,10.0,0,0,0,0.0
Status,1732146221000,28,27,6,34,1575420030,0.00,48.0,6.0,0,0,0,0.0
Fix,GPS,37.4243950000,-122.1712216667,14.900000000000002,0.49464807,1.6,78.74,1732146222000,0.8,65.7,25106044000000,33.6,0,,,
Raw,1732146222000,15680000000,,88.19392228239184,-1416181424320999936,0.0,88.19392228239184,1927.5233995855085,0.0,0,17,0.0,16431,344639929083806,58,35.17300033569336,71.47181333195697,0.14999,17,1183.0648872912095,0.00039999998989515007,1575420030,,,,0,22.552318883622313,1,6.0,35.17300033569336,0.0,0.0,0.0,66.7128,C,25106044000000,
Raw,1732146222000,15680000000,,88.19392228239184,-1416181424320999936,0.0,88.19392228239184,1927.5233995855085,0.0,0,14,0.0,16431,344639933031016,42,39.145999908447266,549.2128130744995,0.14999,17,8612.020637988258,0.00022499999613501132,1575420030,,,,0,26.67601192784195,1,6.0,39.145999908447266,0.0,0.0,0.0,66.7128,C,25106044000000,
Raw,1732146222000,15680000000,,88.19392228239184,-1416181424320999936,0.0,88.19392228239184,1927.5233995855085,0.0,0,13,0.0,16431,344639929964188,51,35.599998474121094,248.99007209025075,0.14999,17,3947.4973676707205,0.00022499999613501132,1575420030,,,,0,23.028105473442647,1,6.0,35.599998474121094,0.0,0.0,0.0,66.7128,C,25106044000000,
Raw,1732146222000,15680000000,,88.19392228239184,-1416181424320999936,0.0,88.19392228239184,1927.5233995855085,0.0,0,22,0.0,16431,344639930706463,51,37.90800094604492,400.7222838071284,0.14999,17,6293.324819711853,0.00022499999613501132,1575420030,,,,0,25.55456721701885,1,6.0,37.90800094604492,0.0,0.0,0.0,66.7128,C,25106044000000,
Raw,1732146222000,15680000000,,88.19392228239184,-1416181424320999936,0.0,88.19392228239184,1927.5233995855085,0.0,0,19,0.0,16431,344639920311398,58,35.17300033569336,-121.19518765852325,0.14999,16,0.0,0.0,1575420030,,,,0,22.552318883622313,1,6.0,35.17300033569336,0.0,0.0,0.0,66.7128,C,25106044000000,
Raw,1732146222000,15680000000,,88.19392228239184,-1416181424320999936,0.0,88.19392228239184,1927.5233995855085,0.0,0,15,0.0,16431,344639922117742,51,37.178001403808594,71.67395390088902,0.14999,17,3913.2702416259444,0.00022499999613501132,1575420030,,,,0,24.76233580426779,1,6.0,37.178001403808594,0.0,0.0,0.0,66.7128,C,25106044000000,
Raw,1732146222000,15680000000,,88.19392228239184,-1416181424320999936,0.0,88.19392228239184,1927.5233995855085,0.0,0,5,0.0,16431,344639917203592,487,21.58799934387207,1005.525240007261,0.14999,16,0.0,0.0,1575420030,,,,0,2.974891836649845,1,6.0,21.58799934387207,0.0,0.0,0.0,66.7128,C,25106044000000,
Raw,1732146222000,15680000000,,88.19392228239184,-1416181424320999936,0.0,88.19392228239184,1927.5233995855085,0.0,0,7,0.0,16431,344639910452244,316,20.299999237060547,1162.3907815064897,0.14999,16,0.0,0.0,1575420030,,,,0,4.726713513854348,6,6.0,20.299999237060547,0.0,0.0,13.287616540680629,66.7128,C,25106044000000,
Raw,1732146222000,15680000000,,88.19392228239184,-1416181424320999936,0.0,88.19392228239184,1927.5233995855085,0.0,0,19,0.0,16431,344639920208153,316,23.399999618530273,370.00829964142804,0.14999,16,0.0,0.0,1575420030,,,,0,9.019720188618365,6,6.0,23.399999618530273,0.0,0.0,13.287616540680629,66.7128,C,25106044000000,
Raw,1732146222000,15680000000,,88.19392228239184,-1416181424320999936,0.0,88.19392228239184,1927.5233995855085,0.0,0,27,0.0,16431,344639920466499,74,30.700000762939453,818.7450313932343,0.14999,16,0.0,0.0,1575420030,,,,0,17.768901573694695,6,6.0,30.700000762939453,0.0,0.0,13.287616540680629,66.7128,C,25106044000000,
Raw,1732146222000,15680000000,,88.19392228239184,-1416181424320999936,0.0,88.19392228239184,1927.5233995855085,0.0,0,9,0.0,17,10900,235,5.0,698.0339599913908,0.14999,16,0.0,0.0,1600875010,,,,0,15.012047011383707,3,6.0,28.0,0.0,0.0,32.466498116060336,66.7128,C,25106044000000,
Raw,1732146222000,15680000000,,88.19392228239184,-1416181424320999936,0.0,88.19392228239184,1927.5233995855085,0.0,0,8,0.0,17,371925,235,5.0,349.4827455202699,0.14999,16,0.0,0.0,1605374980,,,,0,15.247345092041733,3,6.0,29.0,0.0,0.0,32.466498116060336,66.7128,C,25106044000000,
Raw,1732146222000,15680000000,,88.19392228239184,-1416181424320999936,0.0,88.19392228239184,1927.5233995855085,0.0,0,16,0.0,17,838557,797,5.0,1063.4027909496974,0.14999,16,0.0,0.0,1601437440,,,,0,0.0,3,6.0,17.0,0.0,0.0,32.466498116060336,66.7128,C,25106044000000,
Raw,1732146222000,15680000000,,88.19392228239184,-1416181424320999936,0.0,88.19392228239184,1927.5233995855085,0.0,0,19,0.0,17,411539,235,5.0,252.60302613129653,0.14999,16,0.0,0.0,1603687550,,,,0,14.032497352696279,3,6.0,27.0,0.0,0.0,32.466498116060336,66.7128,C,25106044000000,
Raw,1732146222000,15680000000,,88.19392228239184,-1416181424320999936,0.0,88.19392228239184,1927.5233995855085,0.0,0,7,0.0,16431,344639927179225,74,30.235000610351562,917.2688371499283,0.14999,16,0.0,0.0,1575420030,,,,0,16.837045288603356,1,6.0,30.235000610351562,0.0,0.0,0.0,66.7128,C,25106044000000,
Raw,1732146222000,15680000000,,88.19392228239184,-1416181424320999936,0.0,88.19392228239184,1927.5233995855085,0.0,0,30,0.0,16431,344639932211810,42,40.709999084472656,648.9162444771954,0.14999,17,10060.662575789453,0.00022499999613501132,1575420030,,,,0,28.555070198968167,1,6.0,40.709999084472656,0.0,0.0,0.0,66.7128,C,25106044000000,
Raw,1732146222000,15680000000,,88.19392228239184,-1416181424320999936,0.0,88.19392228239184,1927.5233995855085,0.0,0,8,0.0,16431,344639918962921,797,19.510000228881836,1246.0587653452048,0.14999,16,0.0,0.0,1575420030,,,,0,0.0,1,6.0,19.510000228881836,0.0,0.0,0.0,66.7128,C,25106044000000,
Fix,FLP,37.4243942000,-122.1712228000,2.299999952316284,0.44767806,1.65,77.29413,1732146222197,0.8,65.7,25106044000000,0.92675203,0,,,
Status,1732146222000,28,0,1,14,1575420030,44.30,315.0,74.0,1,0,0,39.3
Status,1732146222000,28,1,1,30,1575420030,38.20,70.0,71.0,1,0,0,33.2
Status,1732146222000,28,2,1,22,1575420030,44.30,268.0,59.0,1,0,0,39.3
Status,1732146222000,28,3,1,13,1575420030,45.20,304.0,47.0,1,0,0,40.2
Status,1732146222000,28,4,1,17,1575420030,42.00,176.0,43.0,1,0,0,37.0
Status,1732146222000,28,5,1,7,1575420030,37.10,102.0,39.0,1,0,0,32.1
Status,1732146222000,28,6,2,131,1575420030,33.00,3.0,23.0,0,0,0,28.0
Status,1732146222000,28,7,1,2,1575420030,0.00,89.0,16.0,0,0,0,0.0
Status,1732146222000,28,8,1,19,1575420030,42.40,193.0,16.0,1,0,0,37.4
Status,1732146222000,28,9,1,15,1575420030,34.60,316.0,16.0,1,0,0,29.599998
Status,1732146222000,28,10,1,21,1575420030,28.30,70.0,13.0,1,0,0,23.3
Status,1732146222000,28,11,1,8,1575420030,19.50,39.0,10.0,1,0,0,14.5
Status,1732146222000,28,12,1,5,1575420030,0.00,264.0,7.0,0,0,0,0.0
Status,1732146222000,28,13,1,9,1575420030,0.00,159.0,2.0,0,0,0,0.0
Status,1732146222000,28,14,3,9,1602000000,35.20,14.0,54.0,1,0,0,30.2
Status,1732146222000,28,15,3,8,1602000000,39.00,305.0,38.0,1,0,0,34.0
Status,1732146222000,28,16,3,19,1602000000,31.90,88.0,31.0,1,0,0,26.9
Status,1732146222000,28,17,3,16,1602000000,22.50,66.0,15.0,1,0,0,17.5
Status,1732146222000,28,18,3,20,1602000000,0.00,150.0,9.0,0,0,0,0.0
Status,1732146222000,28,19,3,17,1602000000,39.50,0.0,0.0,0,0,0,34.5
Status,1732146222000,28,20,6,29,1575420030,0.00,205.0,62.0,0,0,0,0.0
Status,1732146222000,28,21,6,27,1575420030,41.60,35.0,60.0,1,0,0,36.6
Status,1732146222000,28,22,6,21,1575420030,0.00,267.0,56.0,0,0,0,0.0
Status,1732146222000,28,23,6,19,1575420030,35.00,299.0,50.0,1,0,0,30.0
Status,1732146222000,28,24,6,7,1575420030,28.50,161.0,18.0,1,0,0,23.5
Status,1732146222000,28,25,6,30,1575420030,0.00,58.0,11.0,0,0,0,0.0
Status,1732146222000,28,26,6,15,1575420030,0.00,96.0,10.0,0,0,0,0.0
Status,1732146222000,28,27,6,34,1575420030,0.00,48.0,6.0,0,0,0,0.0
Fix,GPS,37.4243983333,-122.1712183333,14.900000000000002,0.5121486,1.6,74.22,1732146223000,0.8,63.1,25107044000000,33.9,0,,,
Fix,FLP,37.4243966000,-122.1712180000,2.299999952316284,0.49105617,1.633,74.425156,1732146223197,0.8,63.1,25107044000000,0.9367512,0,,,
Raw,1732146223000,16680000000,,89.05410853115168,-1416181424320999936,0.0,89.05410853115168,1928.720683317366,0.0,0,17,0.0,16431,344640929083566,51,37.01599884033203,71.69769415157259,0.14999,17,1254.75945130699,0.00022499999613501132,1575420030,,,,0,24.58677670698699,1,6.0,37.01599884033203,0.0,0.0,0.0,66.7128,C,25107044000000,
Raw,1732146223000,16680000000,,89.05410853115168,-1416181424320999936,0.0,89.05410853115168,1928.720683317366,0.0,0,14,0.0,16431,344640933029180,31,39.26900100708008,549.7077345823905,0.14999,16,0.0,0.0,1575420030,,,,0,29.52035772528363,1,6.0,39.26900100708008,0.0,0.0,0.0,66.7128,C,25107044000000,
Raw,1732146223000,16680000000,,89.05410853115168,-1416181424320999936,0.0,89.05410853115168,1928.720683317366,0.0,0,13,0.0,16431,344640929963355,42,40.22100067138672,249.33170405385493,0.14999,16,0.0,0.0,1575420030,,,,0,28.034391894148705,1,6.0,40.22100067138672,0.0,0.0,0.0,66.7128,C,25107044000000,
Raw,1732146223000,16680000000,,89.05410853115168,-1416181424320999936,0.0,89.05410853115168,1928.720683317366,0.0,0,22,0.0,16431,344640930705126,42,39.284000396728516,401.26779853027256,0.14999,17,6694.378834032631,0.00022499999613501132,1575420030,,,,0,27.036036024706842,1,6.0,39.284000396728516,0.0,0.0,0.0,66.7128,C,25107044000000,
Raw,1732146223000,16680000000,,89.05410853115168,-1416181424320999936,0.0,89.05410853115168,1928.720683317366,0.0,0,19,0.0,16431,344640920311800,51,37.409000396728516,-121.14301485711883,0.14999,16,0.0,0.0,1575420030,,,,0,25.011522296146552,1,6.0,37.409000396728516,0.0,0.0,0.0,66.7128,C,25107044000000,
Raw,1732146223000,16680000000,,89.05410853115168,-1416181424320999936,0.0,89.05410853115168,1928.720683317366,0.0,0,15,0.0,16431,344640922117505,235,29.56399917602539,71.9503350189255,0.14999,16,0.0,0.0,1575420030,,,,0,16.0121421226256,1,6.0,29.56399917602539,0.0,0.0,0.0,66.7128,C,25107044000000,
Raw,1732146223000,16680000000,,89.05410853115168,-1416181424320999936,0.0,89.05410853115168,1928.720683317366,0.0,0,21,0.0,16431,344640920566298,487,23.33300018310547,536.8086017799507,0.14999,16,0.0,0.0,1575420030,,,,0,7.603828003987698,1,6.0,23.33300018310547,0.0,0.0,0.0,66.7128,C,25107044000000,
Raw,1732146223000,16680000000,,89.05410853115168,-1416181424320999936,0.0,89.05410853115168,1928.720683317366,0.0,0,7,0.0,16431,344640910448363,316,23.5,1162.2735204639744,0.14999,16,0.0,0.0,1575420030,,,,0,9.211152502093768,6,6.0,23.5,0.0,0.0,12.655865833377815,66.7128,C,25107044000000,
Raw,1732146223000,16680000000,,89.05410853115168,-1416181424320999936,0.0,89.05410853115168,1928.720683317366,0.0,0,19,0.0,16431,344640920206919,74,30.0,370.0886959306804,0.14999,16,0.0,0.0,1575420030,,,,0,16.95429192337022,6,6.0,30.0,0.0,0.0,12.655865833377815,66.7128,C,25107044000000,
Raw,1732146223000,16680000000,,89.05410853115168,-1416181424320999936,0.0,89.05410853115168,1928.720683317366,0.0,0,27,0.0,16431,344640920463769,51,36.599998474121094,818.8730707883105,0.14999,16,0.0,0.0,1575420030,,,,0,24.097651797055264,6,6.0,36.599998474121094,0.0,0.0,12.655865833377815,66.7128,C,25107044000000,
Raw,1732146223000,16680000000,,89.05410853115168,-1416181424320999936,0.0,89.05410853115168,1928.720683317366,0.0,0,9,0.0,17,8573,74,5.0,698.5007123661483,0.14999,16,0.0,0.0,1600875010,,,,0,17.220296679617775,3,6.0,30.0,0.0,0.0,31.22927901111666,66.7128,C,25107044000000,
Raw,1732146223000,16680000000,,89.05410853115168,-1416181424320999936,0.0,89.05410853115168,1928.720683317366,0.0,0,8,0.0,17,370758,58,5.0,350.19654946178304,0.14999,16,0.0,0.0,1605374980,,,,0,21.354564013177175,3,6.0,34.0,0.0,0.0,31.22927901111666,66.7128,C,25107044000000,
Raw,1732146223000,16680000000,,89.05410853115168,-1416181424320999936,0.0,89.05410853115168,1928.720683317366,0.0,0,16,0.0,17,835012,487,5.0,1062.5313140007122,0.14999,16,0.0,0.0,1601437440,,,,0,0.0,3,6.0,18.0,0.0,0.0,31.22927901111666,66.7128,C,25107044000000,
Raw,1732146223000,16680000000,,89.05410853115168,-1416181424320999936,0.0,89.05410853115168,1928.720683317366,0.0,0,19,0.0,17,410697,316,5.0,252.1214379798414,0.14999,16,0.0,0.0,1603687550,,,,0,13.44764930279395,3,6.0,24.0,0.0,0.0,31.22927901111666,66.7128,C,25107044000000,
Raw,1732146223000,16680000000,,89.05410853115168,-1416181424320999936,0.0,89.05410853115168,1928.720683317366,0.0,0,7,0.0,16431,344640927176166,74,32.12200164794922,916.8549855783249,0.14999,16,0.0,0.0,1575420030,,,,0,19.078755824957618,1,6.0,32.12200164794922,0.0,0.0,0.0,66.7128,C,25107044000000,
Raw,1732146223000,16680000000,,89.05410853115168,-1416181424320999936,0.0,89.05410853115168,1928.720683317366,0.0,0,30,0.0,16431,344640932209646,58,33.194000244140625,649.6011809073873,0.14999,17,10709.366598221397,0.00039999998989515007,1575420030,,,,0,20.30954671628766,1,6.0,33.194000244140625,0.0,0.0,0.0,66.7128,C,25107044000000,
Raw,1732146223000,16680000000,,89.05410853115168,-1416181424320999936,0.0,89.05410853115168,1928.720683317366,0.0,0,8,0.0,16431,344640918958724,797,14.5,1250.2260852792901,0.14999,16,0.0,0.0,1575420030,,,,0,0.0,1,6.0,14.5,0.0,0.0,0.0,66.7128,C,25107044000000,
Status,1732146223000,28,0,1,14,1575420030,47.50,315.0,74.0,1,0,0,42.5
Status,1732146223000,28,1,1,30,1575420030,45.80,70.0,71.0,1,0,0,40.8
Status,1732146223000,28,2,1,22,1575420030,41.60,268.0,59.0,1,0,0,36.6
Status,1732146223000,28,3,1,13,1575420030,41.10,304.0,47.0,1,0,0,36.1
Status,1732146223000,28,4,1,17,1575420030,45.10,176.0,43.0,1,0,0,40.1
Status,1732146223000,28,5,1,7,1575420030,41.40,102.0,39.0,1,0,0,36.4
Status,1732146223000,28,6,2,131,1575420030,47.00,3.0,23.0,0,0,0,42.0
Status,1732146223000,28,7,1,2,1575420030,24.50,89.0,16.0,1,0,0,19.5
Status,1732146223000,28,8,1,19,1575420030,31.90,193.0,16.0,1,0,0,26.9
Status,1732146223000,28,9,1,15,1575420030,41.60,316.0,16.0,1,0,0,36.6
Status,1732146223000,28,10,1,21,1575420030,25.70,70.0,13.0,1,0,0,20.7
Status,1732146223000,28,11,1,8,1575420030,19.50,39.0,10.0,1,0,0,14.5
Status,1732146223000,28,12,1,5,1575420030,0.00,264.0,7.0,0,0,0,0.0
Status,1732146223000,28,13,1,9,1575420030,0.00,159.0,2.0,0,0,0,0.0
Status,1732146223000,28,14,3,9,1602000000,39.80,14.0,54.0,1,0,0,34.8
Status,1732146223000,28,15,3,8,1602000000,35.90,305.0,38.0,1,0,0,30.900002
Status,1732146223000,28,16,3,19,1602000000,32.10,88.0,31.0,1,0,0,27.099998
Status,1732146223000,28,17,3,16,1602000000,22.60,66.0,15.0,1,0,0,17.6
Status,1732146223000,28,18,3,20,1602000000,0.00,150.0,9.0,0,0,0,0.0
Status,1732146223000,28,19,3,17,1602000000,43.90,0.0,0.0,0,0,0,38.9
Status,1732146223000,28,20,6,29,1575420030,0.00,205.0,62.0,0,0,0,0.0
Status,1732146223000,28,21,6,27,1575420030,41.60,35.0,60.0,1,0,0,36.6
Status,1732146223000,28,22,6,21,1575420030,0.00,267.0,56.0,0,0,0,0.0
Status,1732146223000,28,23,6,19,1575420030,34.70,299.0,50.0,1,0,0,29.7
Status,1732146223000,28,24,6,7,1575420030,29.70,161.0,18.0,1,0,0,24.7
Status,1732146223000,28,25,6,30,1575420030,0.00,58.0,11.0,0,0,0,0.0
Status,1732146223000,28,26,6,15,1575420030,0.00,96.0,10.0,0,0,0,0.0
Status,1732146223000,28,27,6,34,1575420030,0.00,48.0,6.0,0,0,0,0.0
Fix,GPS,37.4243983333,-122.1712150000,14.900000000000002,0.62435806,1.6,74.69,1732146224000,0.8,54.3,25108044000000,34.4,0,,,
Fix,FLP,37.4243981000,-122.1712135000,2.299999952316284,0.5779665,1.616,73.74874,1732146224196,0.8,54.3,25108044000000,0.94675463,0,,,
Raw,1732146224000,17680000000,,90.2953732827589,-1416181424320999936,0.0,90.2953732827589,1929.758441863129,0.0,0,17,0.0,16431,344641929083328,42,40.106998443603516,71.89100762142465,0.14999,17,1326.5228347554332,0.00022499999613501132,1575420030,,,,0,27.91432113384358,1,6.0,40.106998443603516,0.0,0.0,0.0,66.7128,C,25108044000000,
Raw,1732146224000,17680000000,,90.2953732827589,-1416181424320999936,0.0,90.2953732827589,1929.758441863129,0.0,0,14,0.0,16431,344641933027347,31,42.457000732421875,550.2787085176179,0.14999,17,9711.406170511094,0.00022499999613501132,1575420030,,,,0,30.397281457391912,1,6.0,42.457000732421875,0.0,0.0,0.0,66.7128,C,25108044000000,
Raw,1732146224000,17680000000,,90.2953732827589,-1416181424320999936,0.0,90.2953732827589,1929.758441863129,0.0,0,13,0.0,16431,344641929962527,51,36.10599899291992,250.1355740295459,0.14999,16,0.0,0.0,1575420030,,,,0,23.588378514285854,1,6.0,36.10599899291992,0.0,0.0,0.0,66.7128,C,25108044000000,
Raw,1732146224000,17680000000,,90.2953732827589,-1416181424320999936,0.0,90.2953732827589,1929.758441863129,0.0,0,22,0.0,16431,344641930703789,51,36.64099884033203,401.11587950926406,0.14999,16,0.0,0.0,1575420030,,,,0,24.17406774129374,1,6.0,36.64099884033203,0.0,0.0,0.0,66.7128,C,25108044000000,
Raw,1732146224000,17680000000,,90.2953732827589,-1416181424320999936,0.0,90.2953732827589,1929.758441863129,0.0,0,19,0.0,16431,344641920312204,316,26.850000381469727,-120.35206032113442,0.14999,16,0.0,0.0,1575420030,,,,0,12.549606520786757,1,6.0,26.850000381469727,0.0,0.0,0.0,66.7128,C,25108044000000,
Raw,1732146224000,17680000000,,90.2953732827589,-1416181424320999936,0.0,90.2953732827589,1929.758441863129,0.0,0,15,0.0,16431,344641922117260,51,36.5620002746582,72.11716719153755,0.14999,16,0.0,0.0,1575420030,,,,0,24.089119488276758,1,6.0,36.5620002746582,0.0,0.0,0.0,66.7128,C,25108044000000,
Raw,1732146224000,17680000000,,90.2953732827589,-1416181424320999936,0.0,90.2953732827589,1929.758441863129,0.0,0,21,0.0,16431,344641920564522,487,20.658000946044922,536.1456401806263,0.14999,16,0.0,0.0,1575420030,,,,0,3.3546633477819605,1,6.0,20.658000946044922,0.0,0.0,0.0,66.7128,C,25108044000000,
Raw,1732146224000,17680000000,,90.2953732827589,-1416181424320999936,0.0,90.2953732827589,1929.758441863129,0.0,0,7,0.0,16431,344641910444487,316,24.700000762939453,1162.1067347497785,0.14999,16,0.0,0.0,1575420030,,,,0,10.727459956460418,6,6.0,24.700000762939453,0.0,0.0,11.877728723075647,66.7128,C,25108044000000,
Raw,1732146224000,17680000000,,90.2953732827589,-1416181424320999936,0.0,90.2953732827589,1929.758441863129,0.0,0,19,0.0,16431,344641920205684,74,29.700000762939453,370.0317379124063,0.14999,16,0.0,0.0,1575420030,,,,0,16.597694493676826,6,6.0,29.700000762939453,0.0,0.0,11.877728723075647,66.7128,C,25108044000000,
Raw,1732146224000,17680000000,,90.2953732827589,-1416181424320999936,0.0,90.2953732827589,1929.758441863129,0.0,0,27,0.0,16431,344641920461038,51,36.63999938964844,818.9453600839341,0.14999,16,0.0,0.0,1575420030,,,,0,24.949892665434557,6,6.0,36.63999938964844,0.0,0.0,11.877728723075647,66.7128,C,25108044000000,
Raw,1732146224000,17680000000,,90.2953732827589,-1416181424320999936,0.0,90.2953732827589,1929.758441863129,0.0,0,9,0.0,17,6235,58,5.0,698.5144282748981,0.14999,16,0.0,0.0,1600875010,,,,0,22.206760131419873,3,6.0,35.0,0.0,0.0,31.787108182860067,66.7128,C,25108044000000,
Raw,1732146224000,17680000000,,90.2953732827589,-1416181424320999936,0.0,90.2953732827589,1929.758441863129,0.0,0,8,0.0,17,369586,235,5.0,349.9991152990568,0.14999,16,0.0,0.0,1605374980,,,,0,17.95162776234357,3,6.0,29.0,0.0,0.0,31.787108182860067,66.7128,C,25108044000000,
Raw,1732146224000,17680000000,,90.2953732827589,-1416181424320999936,0.0,90.2953732827589,1929.758441863129,0.0,0,16,0.0,17,831473,487,5.0,1063.2809450536415,0.14999,16,0.0,0.0,1601437440,,,,0,3.4581342442807994,3,6.0,18.0,0.0,0.0,31.787108182860067,66.7128,C,25108044000000,
Raw,1732146224000,17680000000,,90.2953732827589,-1416181424320999936,0.0,90.2953732827589,1929.758441863129,0.0,0,19,0.0,17,409855,235,5.0,253.0291622732731,0.14999,16,0.0,0.0,1603687550,,,,0,13.65230668274589,3,6.0,27.0,0.0,0.0,31.787108182860067,66.7128,C,25108044000000,
Raw,1732146224000,17680000000,,90.2953732827589,-1416181424320999936,0.0,90.2953732827589,1929.758441863129,0.0,0,2,0.0,16431,344641920215651,487,19.486000061035156,341.63621454927664,0.14999,16,0.0,0.0,1575420030,,,,0,1.3815565852974627,1,6.0,19.486000061035156,0.0,0.0,0.0,66.7128,C,25108044000000,
Raw,1732146224000,17680000000,,90.2953732827589,-1416181424320999936,0.0,90.2953732827589,1929.758441863129,0.0,0,7,0.0,16431,344641927173107,51,36.36000061035156,917.0131300271056,0.14999,16,0.0,0.0,1575420030,,,,0,23.864285501158037,1,6.0,36.36000061035156,0.0,0.0,0.0,66.7128,C,25108044000000,
Raw,1732146224000,17680000000,,90.2953732827589,-1416181424320999936,0.0,90.2953732827589,1929.758441863129,0.0,0,30,0.0,16431,344641932207482,42,40.75400161743164,649.0830766498074,0.14999,17,11358.301620609695,0.00022499999613501132,1575420030,,,,0,28.600892700753235,1,6.0,40.75400161743164,0.0,0.0,0.0,66.7128,C,25108044000000,
Raw,1732146224000,17680000000,,90.2953732827589,-1416181424320999936,0.0,90.2953732827589,1929.758441863129,0.0,0,8,0.0,16431,344641918954558,797,14.5,1250.2160502613885,0.14999,16,0.0,0.0,1575420030,,,,0,0.0,1,6.0,14.5,0.0,0.0,0.0,66.7128,C,25108044000000,
Status,1732146224000,28,0,1,14,1575420030,35.80,315.0,74.0,1,0,0,30.8
Status,1732146224000,28,1,1,30,1575420030,47.70,70.0,71.0,1,0,0,42.7
Status,1732146224000,28,2,1,22,1575420030,44.60,269.0,59.0,1,0,0,39.6
Status,1732146224000,28,3,1,13,1575420030,40.50,304.0,47.0,1,0,0,35.5
Status,1732146224000,28,4,1,17,1575420030,41.60,176.0,43.0,1,0,0,36.6
Status,1732146224000,28,5,1,7,1575420030,39.30,102.0,39.0,1,0,0,34.3
Status,1732146224000,28,6,2,131,1575420030,41.00,3.0,23.0,0,0,0,36.0
Status,1732146224000,28,7,1,2,1575420030,0.00,89.0,16.0,0,0,0,0.0
Status,1732146224000,28,8,1,19,1575420030,33.00,193.0,16.0,1,0,0,28.0
Status,1732146224000,28,9,1,15,1575420030,34.10,316.0,16.0,1,0,0,29.099998
Status,1732146224000,28,10,1,21,1575420030,23.80,70.0,13.0,1,0,0,18.8
Status,1732146224000,28,11,1,8,1575420030,19.40,39.0,10.0,1,0,0,14.4
Status,1732146224000,28,12,1,5,1575420030,0.00,264.0,7.0,0,0,0,0.0
Status,1732146224000,28,13,1,9,1575420030,0.00,159.0,2.0,0,0,0,0.0
Status,1732146224000,28,14,3,9,1602000000,42.60,14.0,54.0,1,0,0,37.6
Status,1732146224000,28,15,3,8,1602000000,31.70,305.0,38.0,1,0,0,26.7
Status,1732146224000,28,16,3,19,1602000000,32.20,88.0,31.0,1,0,0,27.2
Status,1732146224000,28,17,3,16,1602000000,22.60,66.0,15.0,1,0,0,17.6
Status,1732146224000,28,18,3,20,1602000000,0.00,150.0,9.0,0,0,0,0.0
Status,1732146224000,28,19,3,17,1602000000,42.60,0.0,0.0,0,0,0,37.6
Status,1732146224000,28,20,6,29,1575420030,0.00,205.0,62.0,0,0,0,0.0
Status,1732146224000,28,21,6,27,1575420030,44.20,35.0,60.0,1,0,0,39.2
Status,1732146224000,28,22,6,21,1575420030,0.00,267.0,56.0,0,0,0,0.0
Status,1732146224000,28,23,6,19,1575420030,25.70,299.0,50.0,1,0,0,20.7
Status,1732146224000,28,24,6,7,1575420030,27.90,161.0,18.0,1,0,0,22.9
Status,1732146224000,28,25,6,30,1575420030,0.00,58.0,11.0,0,0,0,0.0
Status,1732146224000,28,26,6,15,1575420030,0.00,96.0,10.0,0,0,0,0.0
Status,1732146224000,28,27,6,34,1575420030,0.00,48.0,6.0,0,0,0,0.0
Fix,GPS,37.4243983333,-122.1712133333,14.8,0.4287636,1.6,78.88,1732146225000,1.6,144.3,25109044000000,34.5,0,,,
Raw,1732146225000,18680000000,,90.62033055292989,-1416181424320999936,0.0,90.62033055292989,1930.556947877173,0.0,0,17,0.0,16431,344642929083085,51,36.55500030517578,72.37301368960898,0.14999,17,1399.0118841468302,0.00022499999613501132,1575420030,,,,0,24.080578789812755,1,6.0,36.55500030517578,0.0,0.0,0.0,66.7128,C,25109044000000,
Raw,1732146225000,18680000000,,90.62033055292989,-1416181424320999936,0.0,90.62033055292989,1930.556947877173,0.0,0,14,0.0,16431,344642933025511,74,30.757999420166016,550.5026845421689,0.14999,16,0.0,0.0,1575420030,,,,0,17.463155465597836,1,6.0,30.757999420166016,0.0,0.0,0.0,66.7128,C,25109044000000,
Raw,1732146225000,18680000000,,90.62033055292989,-1416181424320999936,0.0,90.62033055292989,1930.556947877173,0.0,0,13,0.0,16431,344642929961693,51,35.494998931884766,249.33363207812766,0.14999,16,0.0,0.0,1575420030,,,,0,22.911579773158014,1,6.0,35.494998931884766,0.0,0.0,0.0,66.7128,C,25109044000000,
Raw,1732146225000,18680000000,,90.62033055292989,-1416181424320999936,0.0,90.62033055292989,1930.556947877173,0.0,0,22,0.0,16431,344642930702447,42,39.64799880981445,401.7711754699137,0.14999,16,0.0,0.0,1575420030,,,,0,27.428349517837596,1,6.0,39.64799880981445,0.0,0.0,0.0,66.7128,C,25109044000000,
Raw,1732146225000,18680000000,,90.62033055292989,-1416181424320999936,0.0,90.62033055292989,1930.556947877173,0.0,0,19,0.0,16431,344642920312609,235,27.999000549316406,-120.71671242997093,0.14999,16,0.0,0.0,1575420030,,,,0,14.05499180742833,1,6.0,27.999000549316406,0.0,0.0,0.0,66.7128,C,25109044000000,
Raw,1732146225000,18680000000,,90.62033055292989,-1416181424320999936,0.0,90.62033055292989,1930.556947877173,0.0,0,15,0.0,16431,344642922117017,235,29.11400032043457,72.26601995707611,0.14999,16,0.0,0.0,1575420030,,,,0,15.453730741065995,1,6.0,29.11400032043457,0.0,0.0,0.0,66.7128,C,25109044000000,
Raw,1732146225000,18680000000,,90.62033055292989,-1416181424320999936,0.0,90.62033055292989,1930.556947877173,0.0,0,21,0.0,16431,344642920562750,797,18.777000427246094,536.8767098181153,0.14999,16,0.0,0.0,1575420030,,,,0,0.1296254230369609,1,6.0,18.777000427246094,0.0,0.0,0.0,66.7128,C,25109044000000,
Raw,1732146225000,18680000000,,90.62033055292989,-1416181424320999936,0.0,90.62033055292989,1930.556947877173,0.0,0,7,0.0,16431,344642910440610,316,22.899999618530273,1162.7541792380885,0.14999,16,0.0,0.0,1575420030,,,,0,8.314391092566357,6,6.0,22.899999618530273,0.0,0.0,11.546282075170238,66.7128,C,25109044000000,
Raw,1732146225000,18680000000,,90.62033055292989,-1416181424320999936,0.0,90.62033055292989,1930.556947877173,0.0,0,19,0.0,16431,344642920204446,74,20.700000762939453,371.1732908863235,0.14999,16,0.0,0.0,1575420030,,,,0,5.264949637572361,6,6.0,20.700000762939453,0.0,0.0,11.546282075170238,66.7128,C,25109044000000,
Raw,1732146225000,18680000000,,90.62033055292989,-1416181424320999936,0.0,90.62033055292989,1930.556947877173,0.0,0,27,0.0,16431,344642920458304,42,39.20000076293945,819.5534078352977,0.14999,16,0.0,0.0,1575420030,,,,0,26.901225860356,6,6.0,39.20000076293945,0.0,0.0,11.546282075170238,66.7128,C,25109044000000,
Raw,1732146225000,18680000000,,90.62033055292989,-1416181424320999936,0.0,90.62033055292989,1930.556947877173,0.0,0,9,0.0,17,3903,51,5.0,698.7218128151959,0.14999,16,0.0,0.0,1600875010,,,,0,25.143571692542466,3,6.0,38.0,0.0,0.0,33.017302240593125,66.7128,C,25109044000000,
Raw,1732146225000,18680000000,,90.62033055292989,-1416181424320999936,0.0,90.62033055292989,1930.556947877173,0.0,0,8,0.0,17,368414,235,5.0,350.85377430251265,0.14999,16,0.0,0.0,1605374980,,,,0,13.206985333077151,3,6.0,27.0,0.0,0.0,33.017302240593125,66.7128,C,25109044000000,
