# 
# Header Description:
# 
# Version: v3.1.0.3 Platform: 13 Manufacturer: samsung Model: SM-S135DL GNSS Hardware Model Name: MediaTek,MT6631,MTK_MNLD_default,MNL_VER_default
# 
# Raw,utcTimeMillis,TimeNanos,LeapSecond,TimeUncertaintyNanos,FullBiasNanos,BiasNanos,BiasUncertaintyNanos,DriftNanosPerSecond,DriftUncertaintyNanosPerSecond,HardwareClockDiscontinuityCount,Svid,TimeOffsetNanos,State,ReceivedSvTimeNanos,ReceivedSvTimeUncertaintyNanos,Cn0DbHz,PseudorangeRateMetersPerSecond,PseudorangeRateUncertaintyMetersPerSecond,AccumulatedDeltaRangeState,AccumulatedDeltaRangeMeters,AccumulatedDeltaRangeUncertaintyMeters,CarrierFrequencyHz,CarrierCycles,CarrierPhase,CarrierPhaseUncertainty,MultipathIndicator,SnrInDb,ConstellationType,AgcDb,BasebandCn0DbHz,FullInterSignalBiasNanos,FullInterSignalBiasUncertaintyNanos,SatelliteInterSignalBiasNanos,SatelliteInterSignalBiasUncertaintyNanos,CodeType,ChipsetElapsedRealtimeNanos,IsFullTracking
# 
# UncalAccel,utcTimeMillis,elapsedRealtimeNanos,UncalAccelXMps2,UncalAccelYMps2,UncalAccelZMps2,BiasXMps2,BiasYMps2,BiasZMps2
# 
# Accel,utcTimeMillis,elapsedRealtimeNanos,AccelXMps2,AccelYMps2,AccelZMps2
# 
# UncalGyro,utcTimeMillis,elapsedRealtimeNanos,UncalGyroXRadPerSec,UncalGyroYRadPerSec,UncalGyroZRadPerSec,DriftXRadPerSec,DriftYRadPerSec,DriftZRadPerSec
# 
# Gyro,utcTimeMillis,elapsedRealtimeNanos,GyroXRadPerSec,GyroYRadPerSec,GyroZRadPerSec
# 
# UncalMag,utcTimeMillis,elapsedRealtimeNanos,UncalMagXMicroT,UncalMagYMicroT,UncalMagZMicroT,BiasXMicroT,BiasYMicroT,BiasZMicroT
# 
# Mag,utcTimeMillis,elapsedRealtimeNanos,MagXMicroT,MagYMicroT,MagZMicroT
# 
# Pressure,utcTimeMillis,elapsedRealtimeNanos,PressureHpa
# 
# OrientationDeg,utcTimeMillis,elapsedRealtimeNanos,yawDeg,rollDeg,pitchDeg
# 
# Fix,Provider,LatitudeDegrees,LongitudeDegrees,AltitudeMeters,SpeedMps,AccuracyMeters,BearingDegrees,UnixTimeMillis,SpeedAccuracyMps,BearingAccuracyDegrees,elapsedRealtimeNanos,VerticalAccuracyMeters,MockLocation,NumberOfUsedSignals,VerticalSpeedAccuracyMps,SolutionType
# 
# Nav,Svid,Type,Status,MessageId,Sub-messageId,Data(Bytes)
# 
# Status,UnixTimeMillis,SignalCount,SignalIndex,ConstellationType,Svid,CarrierFrequencyHz,Cn0DbHz,AzimuthDegrees,ElevationDegrees,UsedInFix,HasAlmanacData,HasEphemerisData,BasebandCn0DbHz
# 
# Agc,utcTimeMillis,TimeNanos,LeapSecond,TimeUncertaintyNanos,FullBiasNanos,BiasNanos,BiasUncertaintyNanos,DriftNanosPerSecond,DriftUncertaintyNanosPerSecond,HardwareClockDiscontinuityCount,AgcDb,CarrierFrequencyHz,ConstellationType
# 
Status,,29,0,1,14,1575420030,43.40,326.0,74.0,1,0,0,38.4
Status,,29,1,1,30,1575420030,38.60,78.0,69.0,1,0,0,33.6
Status,,29,2,1,22,1575420030,47.20,274.0,61.0,1,0,0,42.2
Status,,29,3,1,13,1575420030,46.20,301.0,49.0,1,0,0,41.2
Status,,29,4,1,17,1575420030,42.00,175.0,46.0,1,0,0,37.0
Status,,29,5,1,7,1575420030,41.50,105.0,36.0,1,0,0,36.5
Status,,29,6,2,131,1575420030,38.00,3.0,23.0,0,0,0,33.0
Status,,29,7,1,19,1575420030,38.10,193.0,19.0,1,0,0,33.1
Status,,29,8,1,15,1575420030,36.30,315.0,18.0,1,0,0,31.3
Status,,29,9,1,2,1575420030,25.50,86.0,17.0,1,0,0,20.5
Status,,29,10,1,21,1575420030,0.00,67.0,14.0,0,0,0,0.0
Status,,29,11,1,8,1575420030,0.00,39.0,8.0,0,0,0,0.0
Status,,29,12,1,5,1575420030,0.00,261.0,6.0,0,0,0,0.0
Status,,29,13,3,9,1602000000,31.70,20.0,53.0,1,0,0,26.7
Status,,29,14,3,8,1602000000,38.40,301.0,39.0,1,0,0,33.4
Status,,29,15,3,16,1602000000,22.30,69.0,13.0,1,0,0,17.3
Status,,29,16,3,20,1602000000,22.90,149.0,12.0,1,0,0,17.9
Status,,29,17,3,11,1602000000,0.00,273.0,2.0,0,0,0,0.0
Status,,29,18,3,17,1602000000,41.20,0.0,0.0,0,0,0,36.2
Status,,29,19,6,29,1575420030,0.00,203.0,60.0,0,0,0,0.0
Status,,29,20,6,21,1575420030,40.40,271.0,58.0,1,0,0,35.4
Status,,29,21,6,27,1575420030,32.00,37.0,58.0,1,0,0,27.0
Status,,29,22,6,19,1575420030,36.90,296.0,51.0,1,0,0,31.900002
Status,,29,23,6,7,1575420030,26.90,161.0,15.0,1,0,0,21.9
Status,,29,24,6,15,1575420030,0.00,94.0,11.0,0,0,0,0.0
Status,,29,25,6,30,1575420030,0.00,59.0,10.0,0,0,0,0.0
Status,,29,26,6,34,1575420030,0.00,46.0,6.0,0,0,0,0.0
Status,,29,27,6,13,1575420030,0.00,141.0,2.0,0,0,0,0.0
Status,,29,28,6,4,1575420030,0.00,326.0,1.0,0,0,0,0.0
Fix,GPS,37.4243666667,-122.1712566667,14.900000000000002,0.7432589,1.7,109.53,1732146622000,2.0,154.1,25506045000000,34.0,0,,,
Fix,FLP,37.4243684000,-122.1712575000,-1.0592680523163462,0.22225085,1.683,255.26968,1732146622197,2.0,154.1,25506045000000,0.9885151,0,,,
Raw,1732146622000,25019000000,,87.87427111221541,-1416181814981999872,0.0,87.87427111221541,2196.8145110504884,0.0,0,22,0.0,16431,345039931092311,31,42.22700119018555,508.2965142505488,0.14999,17,12644.074562504278,0.00022499999613501132,1575420030,,,,0,30.151887532733582,1,6.0,42.22700119018555,0.0,0.0,0.0,66.7128,C,25506045000000,
Raw,1732146622000,25019000000,,87.87427111221541,-1416181814981999872,0.0,87.87427111221541,2196.8145110504884,0.0,0,13,0.0,16431,345039930541449,42,41.224998474121094,373.82209425735925,0.14999,17,9282.01671022613,0.00022499999613501132,1575420030,,,,0,29.096673920321305,1,6.0,41.224998474121094,0.0,0.0,0.0,66.7128,C,25506045000000,
Raw,1732146622000,25019000000,,87.87427111221541,-1416181814981999872,0.0,87.87427111221541,2196.8145110504884,0.0,0,14,0.0,16431,345039933219445,51,38.37799835205078,655.1911504626718,0.14999,17,16304.820677834008,0.00022499999613501132,1575420030,,,,0,26.060220233746413,1,6.0,38.37799835205078,0.0,0.0,0.0,66.7128,C,25506045000000,
Raw,1732146622000,25019000000,,87.87427111221541,-1416181814981999872,0.0,87.87427111221541,2196.8145110504884,0.0,0,7,0.0,16431,345039926878669,51,36.54999923706055,1020.9103162027105,0.14999,17,25214.453767230225,0.00022499999613501132,1575420030,,,,0,24.06790210606679,1,6.0,36.54999923706055,0.0,0.0,0.0,66.7128,C,25506045000000,
Raw,1732146622000,25019000000,,87.87427111221541,-1416181814981999872,0.0,87.87427111221541,2196.8145110504884,0.0,0,27,0.0,16431,345039920305655,235,27.0,908.8545675563729,0.14999,16,0.0,0.0,1575420030,,,,0,13.462041832413561,6,6.0,27.0,0.0,0.0,6.252631227085408,66.7128,C,25506045000000,
Raw,1732146622000,25019000000,,87.87427111221541,-1416181814981999872,0.0,87.87427111221541,2196.8145110504884,0.0,0,7,0.0,16431,345039909836521,396,21.899999618530273,1248.1642607678664,0.14999,16,0.0,0.0,1575420030,,,,0,6.968623722571784,6,6.0,21.899999618530273,0.0,0.0,6.252631227085408,66.7128,C,25506045000000,
Raw,1732146622000,25019000000,,87.87427111221541,-1416181814981999872,0.0,87.87427111221541,2196.8145110504884,0.0,0,19,0.0,16431,345039920632646,58,31.899999618530273,481.7226253870343,0.14999,16,0.0,0.0,1575420030,,,,0,19.04014082123002,6,6.0,31.899999618530273,0.0,0.0,6.252631227085408,66.7128,C,25506045000000,
Raw,1732146622000,25019000000,,87.87427111221541,-1416181814981999872,0.0,87.87427111221541,2196.8145110504884,0.0,0,21,0.0,16431,345039920236364,51,35.400001525878906,488.304760878911,0.14999,16,0.0,0.0,1575420030,,,,0,22.86920006079301,6,6.0,35.400001525878906,0.0,0.0,6.252631227085408,66.7128,C,25506045000000,
Raw,1732146622000,25019000000,,87.87427111221541,-1416181814981999872,0.0,87.87427111221541,2196.8145110504884,0.0,0,8,0.0,32995,10221930800766,58,5.0,495.35403941557627,0.14999,16,0.0,0.0,1605374980,,,,0,20.774517986450263,3,6.0,34.0,0.0,0.0,16.8974693980159,66.7128,C,25506045000000,
Raw,1732146622000,25019000000,,87.87427111221541,-1416181814981999872,0.0,87.87427111221541,2196.8145110504884,0.0,0,9,0.0,32995,10221934007179,235,5.0,794.785980312858,0.14999,16,0.0,0.0,1600875010,,,,0,13.163183477074472,3,6.0,27.0,0.0,0.0,16.8974693980159,66.7128,C,25506045000000,
Raw,1732146622000,25019000000,,87.87427111221541,-1416181814981999872,0.0,87.87427111221541,2196.8145110504884,0.0,0,16,0.0,17,356769,797,5.0,1147.399494303686,0.14999,16,0.0,0.0,1601437440,,,,0,0.0,3,6.0,17.0,0.0,0.0,16.8974693980159,66.7128,C,25506045000000,
Raw,1732146622000,25019000000,,87.87427111221541,-1416181814981999872,0.0,87.87427111221541,2196.8145110504884,0.0,0,20,0.0,17,848220,797,5.0,-123.41602285355751,0.14999,16,0.0,0.0,1603124990,,,,0,0.6388847880156545,3,6.0,17.0,0.0,0.0,16.8974693980159,66.7128,C,25506045000000,
Raw,1732146622000,25019000000,,87.87427111221541,-1416181814981999872,0.0,87.87427111221541,2196.8145110504884,0.0,0,19,0.0,16431,345039921409145,74,33.073001861572266,-35.95978977369707,0.14999,16,0.0,0.0,1575420030,,,,0,20.17345793975589,1,6.0,33.073001861572266,0.0,0.0,0.0,66.7128,C,25506045000000,
Raw,1732146622000,25019000000,,87.87427111221541,-1416181814981999872,0.0,87.87427111221541,2196.8145110504884,0.0,0,15,0.0,16431,345039922936872,74,31.25200080871582,189.25490907031346,0.14999,16,0.0,0.0,1575420030,,,,0,18.047302192787164,1,6.0,31.25200080871582,0.0,0.0,0.0,66.7128,C,25506045000000,
Raw,1732146622000,25019000000,,87.87427111221541,-1416181814981999872,0.0,87.87427111221541,2196.8145110504884,0.0,0,17,0.0,16431,345039929904530,51,37.04100036621094,185.96012465107827,0.14999,16,0.0,0.0,1575420030,,,,0,24.61043293208302,1,6.0,37.04100036621094,0.0,0.0,0.0,66.7128,C,25506045000000,
Raw,1732146622000,25019000000,,87.87427111221541,-1416181814981999872,0.0,87.87427111221541,2196.8145110504884,0.0,0,2,0.0,16431,345039920680384,797,20.5049991607666,457.6490355671387,0.14999,16,0.0,0.0,1575420030,,,,0,3.0427308196924203,1,6.0,20.5049991607666,0.0,0.0,0.0,66.7128,C,25506045000000,
Raw,1732146622000,25019000000,,87.87427111221541,-1416181814981999872,0.0,87.87427111221541,2196.8145110504884,0.0,0,30,0.0,16431,345039932265648,58,33.619998931884766,757.9788167423366,0.14999,16,0.0,0.0,1575420030,,,,0,20.801009473667026,1,6.0,33.619998931884766,0.0,0.0,0.0,66.7128,C,25506045000000,
Status,1732146622000,29,0,1,14,1575420030,45.00,326.0,74.0,1,0,0,40.0
Status,1732146622000,29,1,1,30,1575420030,42.50,78.0,69.0,1,0,0,37.5
Status,1732146622000,29,2,1,22,1575420030,42.20,274.0,61.0,1,0,0,37.2
Status,1732146622000,29,3,1,13,1575420030,42.00,301.0,49.0,1,0,0,37.0
Status,1732146622000,29,4,1,17,1575420030,43.20,175.0,46.0,1,0,0,38.2
Status,1732146622000,29,5,1,7,1575420030,46.40,105.0,36.0,1,0,0,41.4
Status,1732146622000,29,6,2,131,1575420030,36.00,3.0,23.0,0,0,0,31.0
Status,1732146622000,29,7,1,19,1575420030,43.90,193.0,19.0,1,0,0,38.9
Status,1732146622000,29,8,1,15,1575420030,0.00,315.0,18.0,0,0,0,0.0
Status,1732146622000,29,9,1,2,1575420030,25.50,86.0,17.0,0,0,0,20.5
Status,1732146622000,29,10,1,21,1575420030,0.00,67.0,14.0,0,0,0,0.0
Status,1732146622000,29,11,1,8,1575420030,0.00,39.0,8.0,0,0,0,0.0
Status,1732146622000,29,12,1,5,1575420030,0.00,261.0,6.0,0,0,0,0.0
Status,1732146622000,29,13,3,9,1602000000,29.10,20.0,53.0,1,0,0,24.1
Status,1732146622000,29,14,3,8,1602000000,45.10,301.0,39.0,1,0,0,40.1
Status,1732146622000,29,15,3,16,1602000000,22.20,69.0,13.0,1,0,0,17.2
Status,1732146622000,29,16,3,20,1602000000,22.80,149.0,12.0,1,0,0,17.8
Status,1732146622000,29,17,3,11,1602000000,0.00,273.0,2.0,0,0,0,0.0
Status,1732146622000,29,18,3,17,1602000000,45.40,0.0,0.0,0,0,0,40.4
Status,1732146622000,29,19,6,29,1575420030,0.00,203.0,60.0,0,0,0,0.0
Status,1732146622000,29,20,6,21,1575420030,42.00,271.0,58.0,1,0,0,37.0
Status,1732146622000,29,21,6,27,1575420030,36.80,37.0,58.0,1,0,0,31.8
Status,1732146622000,29,22,6,19,1575420030,35.90,296.0,51.0,1,0,0,30.900002
Status,1732146622000,29,23,6,7,1575420030,23.10,161.0,15.0,1,0,0,18.1
Status,1732146622000,29,24,6,15,1575420030,0.00,94.0,11.0,0,0,0,0.0
Status,1732146622000,29,25,6,30,1575420030,0.00,59.0,10.0,0,0,0,0.0
Status,1732146622000,29,26,6,34,1575420030,0.00,46.0,6.0,0,0,0,0.0
Status,1732146622000,29,27,6,13,1575420030,0.00,141.0,2.0,0,0,0,0.0
Status,1732146622000,29,28,6,4,1575420030,0.00,326.0,1.0,0,0,0,0.0
Fix,GPS,37.4243683333,-122.1712550000,15.2,0.7293614,1.7,87.98,1732146623000,1.7,179.9,25507045000000,33.2,0,,,
Raw,1732146623000,26019000000,,84.99615722127639,-1416181814981999872,0.0,84.99615722127639,2189.881761301432,0.0,0,22,0.0,16431,345040931090621,51,37.2140007019043,506.853190634136,0.14999,16,0.0,0.0,1575420030,,,,0,24.79960679002475,1,6.0,37.2140007019043,0.0,0.0,0.0,66.7128,C,25507045000000,
Raw,1732146623000,26019000000,,84.99615722127639,-1416181814981999872,0.0,84.99615722127639,2189.881761301432,0.0,0,13,0.0,16431,345040930540206,51,37.034000396728516,372.47728571252094,0.14999,17,9654.028691671092,0.00022499999613501132,1575420030,,,,0,24.602460568386046,1,6.0,37.034000396728516,0.0,0.0,0.0,66.7128,C,25507045000000,
Raw,1732146623000,26019000000,,84.99615722127639,-1416181814981999872,0.0,84.99615722127639,2189.881761301432,0.0,0,14,0.0,16431,345040933217264,42,39.98699951171875,653.7193942955381,0.14999,17,16958.296348374453,0.00022499999613501132,1575420030,,,,0,27.785426674070017,1,6.0,39.98699951171875,0.0,0.0,0.0,66.7128,C,25507045000000,
Raw,1732146623000,26019000000,,84.99615722127639,-1416181814981999872,0.0,84.99615722127639,2189.881761301432,0.0,0,7,0.0,16431,345040926875267,31,41.404998779296875,1019.4257839711189,0.14999,17,26233.34120559255,0.00022499999613501132,1575420030,,,,0,29.289440411152043,1,6.0,41.404998779296875,0.0,0.0,0.0,66.7128,C,25507045000000,
Raw,1732146623000,26019000000,,84.99615722127639,-1416181814981999872,0.0,84.99615722127639,2189.881761301432,0.0,0,19,0.0,16431,345040921409290,42,38.87099838256836,-37.722143334227624,0.14999,16,0.0,0.0,1575420030,,,,0,26.58997193595035,1,6.0,38.87099838256836,0.0,0.0,0.0,66.7128,C,25507045000000,
Raw,1732146623000,26019000000,,84.99615722127639,-1416181814981999872,0.0,84.99615722127639,2189.881761301432,0.0,0,27,0.0,16431,345040920302626,58,31.799999237060547,907.2529601159308,0.14999,16,0.0,0.0,1575420030,,,,0,19.00982354913103,6,6.0,31.799999237060547,0.0,0.0,5.613965440162565,66.7128,C,25507045000000,
Raw,1732146623000,26019000000,,84.99615722127639,-1416181814981999872,0.0,84.99615722127639,2189.881761301432,0.0,0,7,0.0,16431,345040909832361,487,18.100000381469727,1245.7729531686775,0.14999,16,0.0,0.0,1575420030,,,,0,1.0085529018959165,6,6.0,18.100000381469727,0.0,0.0,5.613965440162565,66.7128,C,25507045000000,
Raw,1732146623000,26019000000,,84.99615722127639,-1416181814981999872,0.0,84.99615722127639,2189.881761301432,0.0,0,19,0.0,16431,345040920631039,74,30.899999618530273,480.00213085950946,0.14999,16,0.0,0.0,1575420030,,,,0,17.996258620005722,6,6.0,30.899999618530273,0.0,0.0,5.613965440162565,66.7128,C,25507045000000,
Raw,1732146623000,26019000000,,84.99615722127639,-1416181814981999872,0.0,84.99615722127639,2189.881761301432,0.0,0,21,0.0,16431,345040920234742,51,37.0,486.51151247160044,0.14999,16,0.0,0.0,1575420030,,,,0,24.514278190284948,6,6.0,37.0,0.0,0.0,5.613965440162565,66.7128,C,25507045000000,
Raw,1732146623000,26019000000,,84.99615722127639,-1416181814981999872,0.0,84.99615722127639,2189.881761301432,0.0,0,8,0.0,32995,10222930799115,42,5.0,493.7982281228776,0.14999,17,12780.20339631605,0.00022499999613501132,1605374980,,,,0,27.82451474073017,3,6.0,40.0,0.0,0.0,16.96044935260072,66.7128,C,25507045000000,
Raw,1732146623000,26019000000,,84.99615722127639,-1416181814981999872,0.0,84.99615722127639,2189.881761301432,0.0,0,9,0.0,32995,10222934004532,316,5.0,792.8968424810448,0.14999,16,0.0,0.0,1600875010,,,,0,9.978139647007847,3,6.0,24.0,0.0,0.0,16.96044935260072,66.7128,C,25507045000000,
Raw,1732146623000,26019000000,,84.99615722127639,-1416181814981999872,0.0,84.99615722127639,2189.881761301432,0.0,0,16,0.0,17,352944,487,5.0,1143.663313391916,0.14999,16,0.0,0.0,1601437440,,,,0,0.0,3,6.0,20.0,0.0,0.0,16.96044935260072,66.7128,C,25507045000000,
Raw,1732146623000,26019000000,,84.99615722127639,-1416181814981999872,0.0,84.99615722127639,2189.881761301432,0.0,0,20,0.0,17,848626,797,5.0,-127.02637068398575,0.14999,16,0.0,0.0,1603124990,,,,0,0.0,3,6.0,16.0,0.0,0.0,16.96044935260072,66.7128,C,25507045000000,
Raw,1732146623000,26019000000,,84.99615722127639,-1416181814981999872,0.0,84.99615722127639,2189.881761301432,0.0,0,17,0.0,16431,345040929903908,51,38.22700119018555,184.42815837653578,0.14999,16,0.0,0.0,1575420030,,,,0,25.896844452197875,1,6.0,38.22700119018555,0.0,0.0,0.0,66.7128,C,25507045000000,
Raw,1732146623000,26019000000,,84.99615722127639,-1416181814981999872,0.0,84.99615722127639,2189.881761301432,0.0,0,2,0.0,16431,345040920678865,487,20.5049991607666,451.28822797008905,0.14999,16,0.0,0.0,1575420030,,,,0,3.0427308196924203,1,6.0,20.5049991607666,0.0,0.0,0.0,66.7128,C,25507045000000,
Raw,1732146623000,26019000000,,84.99615722127639,-1416181814981999872,0.0,84.99615722127639,2189.881761301432,0.0,0,30,0.0,16431,345040932263125,51,37.45399856567383,756.5127749603968,0.14999,16,0.0,0.0,1575420030,,,,0,25.060740734509643,1,6.0,37.45399856567383,0.0,0.0,0.0,66.7128,C,25507045000000,
Fix,FLP,37.4243681000,-122.1712572000,-1.0592680523163462,0.18769582,1.7,253.03998,1732146623198,1.7,179.9,25507045000000,0.9968508,0,,,
Status,1732146623000,29,0,1,14,1575420030,43.90,326.0,74.0,1,0,0,38.9
Status,1732146623000,29,1,1,30,1575420030,40.90,79.0,69.0,1,0,0,35.9
Status,1732146623000,29,2,1,22,1575420030,47.70,274.0,61.0,1,0,0,42.7
Status,1732146623000,29,3,1,13,1575420030,49.00,301.0,49.0,1,0,0,44.0
Status,1732146623000,29,4,1,17,1575420030,39.20,175.0,46.0,1,0,0,34.2
Status,1732146623000,29,5,1,7,1575420030,41.90,105.0,36.0,1,0,0,36.9
Status,1732146623000,29,6,2,131,1575420030,35.00,3.0,23.0,0,0,0,30.0
Status,1732146623000,29,7,1,19,1575420030,40.40,193.0,19.0,1,0,0,35.4
Status,1732146623000,29,8,1,15,1575420030,0.00,315.0,18.0,0,0,0,0.0
Status,1732146623000,29,9,1,2,1575420030,22.40,86.0,17.0,1,0,0,17.4
Status,1732146623000,29,10,1,21,1575420030,0.00,67.0,14.0,0,0,0,0.0
Status,1732146623000,29,11,1,8,1575420030,0.00,39.0,8.0,0,0,0,0.0
Status,1732146623000,29,12,1,5,1575420030,0.00,261.0,6.0,0,0,0,0.0
Status,1732146623000,29,13,3,9,1602000000,29.00,20.0,53.0,1,0,0,24.0
Status,1732146623000,29,14,3,8,1602000000,40.30,301.0,39.0,1,0,0,35.3
Status,1732146623000,29,15,3,16,1602000000,22.00,69.0,13.0,1,0,0,17.0
Status,1732146623000,29,16,3,20,1602000000,22.70,149.0,12.0,1,0,0,17.7
Status,1732146623000,29,17,3,11,1602000000,0.00,273.0,2.0,0,0,0,0.0
Status,1732146623000,29,18,3,17,1602000000,44.70,0.0,0.0,0,0,0,39.7
Status,1732146623000,29,19,6,29,1575420030,0.00,203.0,60.0,0,0,0,0.0
Status,1732146623000,29,20,6,21,1575420030,40.20,271.0,58.0,1,0,0,35.2
Status,1732146623000,29,21,6,27,1575420030,30.10,37.0,58.0,1,0,0,25.1
Status,1732146623000,29,22,6,19,1575420030,40.70,296.0,51.0,1,0,0,35.7
Status,1732146623000,29,23,6,7,1575420030,22.10,161.0,15.0,1,0,0,17.1
Status,1732146623000,29,24,6,15,1575420030,0.00,94.0,11.0,0,0,0,0.0
Status,1732146623000,29,25,6,30,1575420030,0.00,59.0,10.0,0,0,0,0.0
Status,1732146623000,29,26,6,34,1575420030,0.00,46.0,6.0,0,0,0,0.0
Status,1732146623000,29,27,6,13,1575420030,0.00,141.0,2.0,0,0,0,0.0
Status,1732146623000,29,28,6,4,1575420030,0.00,326.0,1.0,0,0,0,0.0
Fix,GPS,37.4243716667,-122.1712550000,15.2,0.6964192,1.7,73.94,1732146624000,1.6,179.9,25508045000000,32.4,0,,,
Raw,1732146624000,27019000000,,82.81926289508726,-1416181814981999872,0.0,82.81926289508726,2184.823802581764,0.0,0,22,0.0,16431,345041931088930,31,42.74700164794922,505.66046371476284,0.14999,17,13655.47283158219,0.00022499999613501132,1575420030,,,,0,30.698504111680755,1,6.0,42.74700164794922,0.0,0.0,0.0,66.7128,C,25508045000000,
Raw,1732146624000,27019000000,,82.81926289508726,-1416181814981999872,0.0,82.81926289508726,2184.823802581764,0.0,0,13,0.0,16431,345041930538969,31,44.04399871826172,371.03064031934906,0.14999,17,10024.362420903472,0.00022499999613501132,1575420030,,,,0,32.05380336120686,1,6.0,44.04399871826172,0.0,0.0,0.0,66.7128,C,25508045000000,
Raw,1732146624000,27019000000,,82.81926289508726,-1416181814981999872,0.0,82.81926289508726,2184.823802581764,0.0,0,14,0.0,16431,345041933215087,42,38.93600082397461,652.5011152472491,0.14999,17,17610.196076845765,0.00022499999613501132,1575420030,,,,0,26.65948470129528,1,6.0,38.93600082397461,0.0,0.0,0.0,66.7128,C,25508045000000,
Raw,1732146624000,27019000000,,82.81926289508726,-1416181814981999872,0.0,82.81926289508726,2184.823802581764,0.0,0,7,0.0,16431,345041926871872,51,36.89899826049805,1018.157190458074,0.14999,17,27250.95499808907,0.00022499999613501132,1575420030,,,,0,24.449578526974744,1,6.0,36.89899826049805,0.0,0.0,0.0,66.7128,C,25508045000000,
Raw,1732146624000,27019000000,,82.81926289508726,-1416181814981999872,0.0,82.81926289508726,2184.823802581764,0.0,0,19,0.0,16431,345041921409422,58,35.35300064086914,-38.829386767773386,0.14999,16,0.0,0.0,1575420030,,,,0,22.75155641627392,1,6.0,35.35300064086914,0.0,0.0,0.0,66.7128,C,25508045000000,
Raw,1732146624000,27019000000,,82.81926289508726,-1416181814981999872,0.0,82.81926289508726,2184.823802581764,0.0,0,27,0.0,16431,345041920299598,316,25.100000381469727,906.1143572514429,0.14999,16,0.0,0.0,1575420030,,,,0,11.209021393790927,6,6.0,25.100000381469727,0.0,0.0,5.5298830324594865,66.7128,C,25508045000000,
Raw,1732146624000,27019000000,,82.81926289508726,-1416181814981999872,0.0,82.81926289508726,2184.823802581764,0.0,0,7,0.0,16431,345041909828206,316,17.100000381469727,1244.7966760104293,0.14999,16,0.0,0.0,1575420030,,,,0,0.0,6,6.0,17.100000381469727,0.0,0.0,5.5298830324594865,66.7128,C,25508045000000,
Raw,1732146624000,27019000000,,82.81926289508726,-1416181814981999872,0.0,82.81926289508726,2184.823802581764,0.0,0,19,0.0,16431,345041920629436,51,35.70000076293945,478.6736059895529,0.14999,16,0.0,0.0,1575420030,,,,0,23.156521394343134,6,6.0,35.70000076293945,0.0,0.0,5.5298830324594865,66.7128,C,25508045000000,
Raw,1732146624000,27019000000,,82.81926289508726,-1416181814981999872,0.0,82.81926289508726,2184.823802581764,0.0,0,21,0.0,16431,345041920233120,51,35.20000076293945,485.26614816666074,0.14999,16,0.0,0.0,1575420030,,,,0,22.711985096632162,6,6.0,35.20000076293945,0.0,0.0,5.5298830324594865,66.7128,C,25508045000000,
Raw,1732146624000,27019000000,,82.81926289508726,-1416181814981999872,0.0,82.81926289508726,2184.823802581764,0.0,0,8,0.0,32995,10223930797465,58,5.0,493.01396245673834,0.14999,17,13272.179188123046,0.00039999998989515007,1605374980,,,,0,22.7940357914918,3,6.0,35.0,0.0,0.0,18.53977024888404,66.7128,C,25508045000000,
Raw,1732146624000,27019000000,,82.81926289508726,-1416181814981999872,0.0,82.81926289508726,2184.823802581764,0.0,0,9,0.0,32995,10223934001888,487,5.0,791.4826408495433,0.14999,16,0.0,0.0,1600875010,,,,0,8.24161089225733,3,6.0,20.0,0.0,0.0,18.53977024888404,66.7128,C,25508045000000,
Raw,1732146624000,27019000000,,82.81926289508726,-1416181814981999872,0.0,82.81926289508726,2184.823802581764,0.0,0,16,0.0,17,349120,487,5.0,1142.167159133369,0.14999,16,0.0,0.0,1601437440,,,,0,0.0,3,6.0,18.0,0.0,0.0,18.53977024888404,66.7128,C,25508045000000,
Raw,1732146624000,27019000000,,82.81926289508726,-1416181814981999872,0.0,82.81926289508726,2184.823802581764,0.0,0,20,0.0,17,849050,1797,5.0,-126.46133787145408,0.14999,16,0.0,0.0,1603124990,,,,0,0.0,3,6.0,14.0,0.0,0.0,18.53977024888404,66.7128,C,25508045000000,
Raw,1732146624000,27019000000,,82.81926289508726,-1416181814981999872,0.0,82.81926289508726,2184.823802581764,0.0,0,17,0.0,16431,345041929903294,58,34.18199920654297,183.1237454245925,0.14999,16,0.0,0.0,1575420030,,,,0,21.43233888329468,1,6.0,34.18199920654297,0.0,0.0,0.0,66.7128,C,25508045000000,
Raw,1732146624000,27019000000,,82.81926289508726,-1416181814981999872,0.0,82.81926289508726,2184.823802581764,0.0,0,2,0.0,16431,345041920677367,797,17.426000595092773,450.7422486627828,0.14999,16,0.0,0.0,1575420030,,,,0,0.0,1,6.0,17.426000595092773,0.0,0.0,0.0,66.7128,C,25508045000000,
Raw,1732146624000,27019000000,,82.81926289508726,-1416181814981999872,0.0,82.81926289508726,2184.823802581764,0.0,0,30,0.0,16431,345041932260599,51,35.86899948120117,755.1374200069,0.14999,16,0.0,0.0,1575420030,,,,0,23.324460045264523,1,6.0,35.86899948120117,0.0,0.0,0.0,66.7128,C,25508045000000,
Fix,FLP,37.4243696000,-122.1712569000,-1.0592680523163462,0.15220459,1.7,252.1213,1732146624197,1.6,179.9,25508045000000,1.0059732,0,,,
Status,1732146624000,29,0,1,14,1575420030,43.80,326.0,74.0,1,0,0,38.8
Status,1732146624000,29,1,1,30,1575420030,46.40,79.0,69.0,1,0,0,41.4
Status,1732146624000,29,2,1,22,1575420030,44.60,274.0,61.0,1,0,0,39.6
Status,1732146624000,29,3,1,13,1575420030,42.60,301.0,49.0,1,0,0,37.6
Status,1732146624000,29,4,1,17,1575420030,40.50,175.0,46.0,1,0,0,35.5
Status,1732146624000,29,5,1,7,1575420030,37.00,105.0,36.0,1,0,0,32.0
Status,1732146624000,29,6,2,131,1575420030,37.00,3.0,23.0,0,0,0,32.0
Status,1732146624000,29,7,1,19,1575420030,43.60,193.0,19.0,1,0,0,38.6
Status,1732146624000,29,8,1,15,1575420030,40.40,315.0,18.0,1,0,0,35.4
Status,1732146624000,29,9,1,2,1575420030,27.30,86.0,17.0,1,0,0,22.3
Status,1732146624000,29,10,1,21,1575420030,0.00,67.0,14.0,0,0,0,0.0
Status,1732146624000,29,11,1,8,1575420030,0.00,39.0,8.0,0,0,0,0.0
Status,1732146624000,29,12,1,5,1575420030,0.00,261.0,6.0,0,0,0,0.0
Status,1732146624000,29,13,3,9,1602000000,29.10,20.0,53.0,1,0,0,24.1
Status,1732146624000,29,14,3,8,1602000000,40.90,301.0,39.0,1,0,0,35.9
Status,1732146624000,29,15,3,16,1602000000,23.50,69.0,13.0,1,0,0,18.5
Status,1732146624000,29,16,3,20,1602000000,22.50,149.0,12.0,1,0,0,17.5
Status,1732146624000,29,17,3,11,1602000000,0.00,273.0,2.0,0,0,0,0.0
Status,1732146624000,29,18,3,17,1602000000,40.70,0.0,0.0,0,0,0,35.7
Status,1732146624000,29,19,6,29,1575420030,0.00,203.0,60.0,0,0,0,0.0
Status,1732146624000,29,20,6,21,1575420030,37.30,271.0,58.0,1,0,0,32.3
Status,1732146624000,29,21,6,27,1575420030,37.00,37.0,58.0,1,0,0,32.0
Status,1732146624000,29,22,6,19,1575420030,38.10,296.0,51.0,1,0,0,33.1
Status,1732146624000,29,23,6,7,1575420030,26.80,161.0,15.0,1,0,0,21.8
Status,1732146624000,29,24,6,15,1575420030,0.00,94.0,11.0,0,0,0,0.0
Status,1732146624000,29,25,6,30,1575420030,0.00,59.0,10.0,0,0,0,0.0
Status,1732146624000,29,26,6,34,1575420030,0.00,46.0,6.0,0,0,0,0.0
Status,1732146624000,29,27,6,13,1575420030,0.00,141.0,2.0,0,0,0,0.0
Status,1732146624000,29,28,6,4,1575420030,0.00,326.0,1.0,0,0,0,0.0
Fix,GPS,37.4243716667,-122.1712516667,15.3,0.6789186,1.7,123.54,1732146625000,1.3,179.9,25509045000000,29.7,0,,,
Fix,FLP,37.4243703000,-122.1712549000,-0.8928863249436549,0.1218007,1.7,244.27025,1732146625197,1.3,179.9,25509045000000,1.0157838,0,,,
Raw,1732146625000,28019000000,,76.71269890673327,-1416181814981999872,0.0,76.71269890673327,2181.830751097507,0.0,0,22,0.0,16431,345042931087242,42,39.625999450683594,505.1146702411214,0.14999,16,0.0,0.0,1575420030,,,,0,27.401082585008712,1,6.0,39.625999450683594,0.0,0.0,0.0,66.7128,C,25509045000000,
Raw,1732146625000,28019000000,,76.71269890673327,-1416181814981999872,0.0,76.71269890673327,2181.830751097507,0.0,0,13,0.0,16431,345042930537730,51,37.606998443603516,370.28196294211625,0.14999,17,10394.74094185638,0.00022499999613501132,1575420030,,,,0,25.22562020819378,1,6.0,37.606998443603516,0.0,0.0,0.0,66.7128,C,25509045000000,
Raw,1732146625000,28019000000,,76.71269890673327,-1416181814981999872,0.0,76.71269890673327,2181.830751097507,0.0,0,14,0.0,16431,345042933212912,51,38.83100128173828,651.8412199033946,0.14999,17,18261.910331704956,0.00022499999613501132,1575420030,,,,0,24.400735532451137,1,6.0,38.83100128173828,0.0,0.0,0.0,66.7128,C,25509045000000,
Raw,1732146625000,28019000000,,76.71269890673327,-1416181814981999872,0.0,76.71269890673327,2181.830751097507,0.0,0,7,0.0,16431,345042926868475,74,31.9950008392334,1017.406050784782,0.14999,16,0.0,0.0,1575420030,,,,0,18.918231597035977,1,6.0,31.9950008392334,0.0,0.0,0.0,66.7128,C,25509045000000,
Raw,1732146625000,28019000000,,76.71269890673327,-1416181814981999872,0.0,76.71269890673327,2181.830751097507,0.0,0,15,0.0,16431,345042922934965,58,35.402000427246094,186.3776928959786,0.14999,16,0.0,0.0,1575420030,,,,0,22.80076838722706,1,6.0,35.402000427246094,0.0,0.0,0.0,66.7128,C,25509045000000,
Raw,1732146625000,28019000000,,76.71269890673327,-1416181814981999872,0.0,76.71269890673327,2181.830751097507,0.0,0,19,0.0,16431,345042921409549,42,38.57699966430664,-39.32017347662151,0.14999,16,0.0,0.0,1575420030,,,,0,26.273381597387548,1,6.0,38.57699966430664,0.0,0.0,0.0,66.7128,C,25509045000000,
Raw,1732146625000,28019000000,,76.71269890673327,-1416181814981999872,0.0,76.71269890673327,2181.830751097507,0.0,0,27,0.0,16431,345042920296574,74,32.0,905.5137428466732,0.14999,16,0.0,0.0,1575420030,,,,0,19.16036266626832,6,6.0,32.0,0.0,0.0,5.618389373604365,66.7128,C,25509045000000,
Raw,1732146625000,28019000000,,76.71269890673327,-1416181814981999872,0.0,76.71269890673327,2181.830751097507,0.0,0,7,0.0,16431,345042909824054,396,21.799999237060547,1244.040425911354,0.14999,16,0.0,0.0,1575420030,,,,0,6.846285226378146,6,6.0,21.799999237060547,0.0,0.0,5.618389373604365,66.7128,C,25509045000000,
Raw,1732146625000,28019000000,,76.71269890673327,-1416181814981999872,0.0,76.71269890673327,2181.830751097507,0.0,0,19,0.0,16431,345042920627838,58,33.099998474121094,478.9035751497951,0.14999,16,0.0,0.0,1575420030,,,,0,20.383399027287076,6,6.0,33.099998474121094,0.0,0.0,5.618389373604365,66.7128,C,25509045000000,
Raw,1732146625000,28019000000,,76.71269890673327,-1416181814981999872,0.0,76.71269890673327,2181.830751097507,0.0,0,21,0.0,16431,345042920231501,58,32.29999923706055,485.251420848722,0.14999,16,0.0,0.0,1575420030,,,,0,19.582727178121633,6,6.0,32.29999923706055,0.0,0.0,5.618389373604365,66.7128,C,25509045000000,
Raw,1732146625000,28019000000,,76.71269890673327,-1416181814981999872,0.0,76.71269890673327,2181.830751097507,0.0,0,8,0.0,32995,10224930795821,51,5.0,492.10796737956593,0.14999,16,0.0,0.0,1605374980,,,,0,23.36659907097361,3,6.0,36.0,0.0,0.0,19.982729445457707,66.7128,C,25509045000000,
Raw,1732146625000,28019000000,,76.71269890673327,-1416181814981999872,0.0,76.71269890673327,2181.830751097507,0.0,0,9,0.0,32995,10224933999252,316,5.0,791.6275722853334,0.14999,16,0.0,0.0,1600875010,,,,0,11.123392706327845,3,6.0,24.0,0.0,0.0,19.982729445457707,66.7128,C,25509045000000,
Raw,1732146625000,28019000000,,76.71269890673327,-1416181814981999872,0.0,76.71269890673327,2181.830751097507,0.0,0,16,0.0,17,345326,487,5.0,1141.6715488944978,0.14999,16,0.0,0.0,1601437440,,,,0,1.8117950462711314,3,6.0,20.0,0.0,0.0,19.982729445457707,66.7128,C,25509045000000,
Raw,1732146625000,28019000000,,76.71269890673327,-1416181814981999872,0.0,76.71269890673327,2181.830751097507,0.0,0,20,0.0,17,849479,797,5.0,-130.62713085356788,0.14999,16,0.0,0.0,1603124990,,,,0,0.0,3,6.0,16.0,0.0,0.0,19.982729445457707,66.7128,C,25509045000000,
Raw,1732146625000,28019000000,,76.71269890673327,-1416181814981999872,0.0,76.71269890673327,2181.830751097507,0.0,0,17,0.0,16431,345042929902687,51,35.474998474121094,182.57158714793025,0.14999,16,0.0,0.0,1575420030,,,,0,22.878932151041475,1,6.0,35.474998474121094,0.0,0.0,0.0,66.7128,C,25509045000000,
Raw,1732146625000,28019000000,,76.71269890673327,-1416181814981999872,0.0,76.71269890673327,2181.830751097507,0.0,0,2,0.0,16431,345042920675756,487,22.273000717163086,451.0067828846856,0.14999,16,0.0,0.0,1575420030,,,,0,5.937977392389685,1,6.0,22.273000717163086,0.0,0.0,0.0,66.7128,C,25509045000000,
Raw,1732146625000,28019000000,,76.71269890673327,-1416181814981999872,0.0,76.71269890673327,2181.830751097507,0.0,0,30,0.0,16431,345042932258088,31,41.3849983215332,754.0048102781033,0.14999,16,0.0,0.0,1575420030,,,,0,29.2661600711954,1,6.0,41.3849983215332,0.0,0.0,0.0,66.7128,C,25509045000000,
Status,1732146625000,29,0,1,14,1575420030,41.50,326.0,74.0,1,0,0,36.5
Status,1732146625000,29,1,1,30,1575420030,44.60,79.0,69.0,1,0,0,39.6
Status,1732146625000,29,2,1,22,1575420030,41.80,274.0,61.0,1,0,0,36.8
Status,1732146625000,29,3,1,13,1575420030,34.20,301.0,49.0,1,0,0,29.2
Status,1732146625000,29,4,1,17,1575420030,35.40,175.0,46.0,1,0,0,30.400002
Status,1732146625000,29,5,1,7,1575420030,38.80,105.0,36.0,1,0,0,33.8
Status,1732146625000,29,6,2,131,1575420030,32.00,3.0,23.0,0,0,0,27.0
Status,1732146625000,29,7,1,19,1575420030,41.50,193.0,19.0,1,0,0,36.5
Status,1732146625000,29,8,1,15,1575420030,35.00,315.0,18.0,1,0,0,30.0
Status,1732146625000,29,9,1,2,1575420030,24.30,86.0,17.0,1,0,0,19.3
Status,1732146625000,29,10,1,21,1575420030,0.00,67.0,14.0,0,0,0,0.0
Status,1732146625000,29,11,1,8,1575420030,0.00,39.0,8.0,0,0,0,0.0
Status,1732146625000,29,12,1,5,1575420030,0.00,261.0,6.0,0,0,0,0.0
Status,1732146625000,29,13,3,9,1602000000,29.90,20.0,53.0,1,0,0,24.9
Status,1732146625000,29,14,3,8,1602000000,40.20,301.0,39.0,1,0,0,35.2
Status,1732146625000,29,15,3,16,1602000000,23.50,69.0,13.0,1,0,0,18.5
Status,1732146625000,29,16,3,20,1602000000,19.50,149.0,12.0,1,0,0,14.5
Status,1732146625000,29,17,3,11,1602000000,0.00,273.0,2.0,0,0,0,0.0
Status,1732146625000,29,18,3,17,1602000000,37.90,0.0,0.0,0,0,0,32.9
Status,1732146625000,29,19,6,29,1575420030,0.00,203.0,60.0,0,0,0,0.0
Status,1732146625000,29,20,6,21,1575420030,39.70,271.0,58.0,1,0,0,34.7
Status,1732146625000,29,21,6,27,1575420030,40.00,37.0,58.0,1,0,0,35.0
Status,1732146625000,29,22,6,19,1575420030,29.50,296.0,51.0,1,0,0,24.5
Status,1732146625000,29,23,6,7,1575420030,29.10,161.0,15.0,1,0,0,24.1
Status,1732146625000,29,24,6,15,1575420030,0.00,94.0,11.0,0,0,0,0.0
Status,1732146625000,29,25,6,30,1575420030,0.00,59.0,10.0,0,0,0,0.0
Status,1732146625000,29,26,6,34,1575420030,0.00,46.0,6.0,0,0,0,0.0
Status,1732146625000,29,27,6,13,1575420030,0.00,141.0,2.0,0,0,0,0.0
Status,1732146625000,29,28,6,4,1575420030,0.00,326.0,1.0,0,0,0,0.0
Fix,GPS,37.4243716667,-122.1712500000,15.400000000000002,0.64700586,1.7,106.44,1732146626000,1.1,179.9,25510045000000,30.4,0,,,
Fix,FLP,37.4243707000,-122.1712526000,-0.8928863249436549,0.07453985,1.7,,1732146626197,1.1,,25510045000000,1.0257837,0,,,
Raw,1732146626000,29019000000,,79.24618987392431,-1416181814981999872,0.0,79.24618987392431,2179.458571331132,0.0,0,22,0.0,16431,345043931085555,51,36.75400161743164,504.2520768273404,0.14999,17,14664.151735665795,0.00022499999613501132,1575420030,,,,0,24.29395729383539,1,6.0,36.75400161743164,0.0,0.0,0.0,66.7128,C,25510045000000,
Raw,1732146626000,29019000000,,79.24618987392431,-1416181814981999872,0.0,79.24618987392431,2179.458571331132,0.0,0,13,0.0,16431,345043930536495,235,29.204999923706055,369.96862415398425,0.14999,16,0.0,0.0,1575420030,,,,0,15.571117563440563,1,6.0,29.204999923706055,0.0,0.0,0.0,66.7128,C,25510045000000,
Raw,1732146626000,29019000000,,79.24618987392431,-1416181814981999872,0.0,79.24618987392431,2179.458571331132,0.0,0,14,0.0,16431,345043933210738,58,36.47800064086914,651.3646959283232,0.14999,17,18912.917962764543,0.00039999998989515007,1575420030,,,,0,23.991223818255182,1,6.0,36.47800064086914,0.0,0.0,0.0,66.7128,C,25510045000000,
Raw,1732146626000,29019000000,,79.24618987392431,-1416181814981999872,0.0,79.24618987392431,2179.458571331132,0.0,0,7,0.0,16431,345043926865077,58,33.79899978637695,1016.4610865990596,0.14999,16,0.0,0.0,1575420030,,,,0,20.9964807809282,1,6.0,33.79899978637695,0.0,0.0,0.0,66.7128,C,25510045000000,
Raw,1732146626000,29019000000,,79.24618987392431,-1416181814981999872,0.0,79.24618987392431,2179.458571331132,0.0,0,19,0.0,16431,345043921409682,51,36.499000549316406,-40.592065537217415,0.14999,16,0.0,0.0,1575420030,,,,0,24.016858533285344,1,6.0,36.499000549316406,0.0,0.0,0.0,66.7128,C,25510045000000,
Raw,1732146626000,29019000000,,79.24618987392431,-1416181814981999872,0.0,79.24618987392431,2179.458571331132,0.0,0,27,0.0,16431,345043920293555,51,35.0,905.3157370767839,0.14999,16,0.0,0.0,1575420030,,,,0,22.440056778149604,6,6.0,35.0,0.0,0.0,5.820099341777179,66.7128,C,25510045000000,
Raw,1732146626000,29019000000,,79.24618987392431,-1416181814981999872,0.0,79.24618987392431,2179.458571331132,0.0,0,7,0.0,16431,345043909819904,235,24.100000381469727,1242.9627764889344,0.14999,16,0.0,0.0,1575420030,,,,0,9.925824121680325,6,6.0,24.100000381469727,0.0,0.0,5.820099341777179,66.7128,C,25510045000000,
Raw,1732146626000,29019000000,,79.24618987392431,-1416181814981999872,0.0,79.24618987392431,2179.458571331132,0.0,0,19,0.0,16431,345043920626242,74,24.5,478.249719400048,0.14999,16,0.0,0.0,1575420030,,,,0,10.470178440254365,6,6.0,24.5,0.0,0.0,5.820099341777179,66.7128,C,25510045000000,
Raw,1732146626000,29019000000,,79.24618987392431,-1416181814981999872,0.0,79.24618987392431,2179.458571331132,0.0,0,21,0.0,16431,345043920229880,51,34.70000076293945,484.6616312549292,0.14999,16,0.0,0.0,1575420030,,,,0,22.095706148347773,6,6.0,34.70000076293945,0.0,0.0,5.820099341777179,66.7128,C,25510045000000,
Raw,1732146626000,29019000000,,79.24618987392431,-1416181814981999872,0.0,79.24618987392431,2179.458571331132,0.0,0,8,0.0,32995,10225930794179,58,5.0,492.192083770336,0.14999,16,0.0,0.0,1605374980,,,,0,22.616271845615827,3,6.0,35.0,0.0,0.0,20.978887823465968,66.7128,C,25510045000000,
Raw,1732146626000,29019000000,,79.24618987392431,-1416181814981999872,0.0,79.24618987392431,2179.458571331132,0.0,0,9,0.0,32995,10225933996602,316,5.0,790.4432492844794,0.14999,16,0.0,0.0,1600875010,,,,0,10.968743701714033,3,6.0,25.0,0.0,0.0,20.978887823465968,66.7128,C,25510045000000,
Raw,1732146626000,29019000000,,79.24618987392431,-1416181814981999872,0.0,79.24618987392431,2179.458571331132,0.0,0,16,0.0,17,341519,487,5.0,1139.8835312105145,0.14999,16,0.0,0.0,1601437440,,,,0,1.8117950462711314,3,6.0,18.0,0.0,0.0,20.978887823465968,66.7128,C,25510045000000,
Raw,1732146626000,29019000000,,79.24618987392431,-1416181814981999872,0.0,79.24618987392431,2179.458571331132,0.0,0,20,0.0,17,849926,797,5.0,-127.97847106153388,0.14999,16,0.0,0.0,1603124990,,,,0,0.0,3,6.0,17.0,0.0,0.0,20.978887823465968,66.7128,C,25510045000000,
Raw,1732146626000,29019000000,,79.24618987392431,-1416181814981999872,0.0,79.24618987392431,2179.458571331132,0.0,0,15,0.0,16431,345043922934385,235,30.018999099731445,185.63328969303714,0.14999,16,0.0,0.0,1575420030,,,,0,16.571577909568788,1,6.0,30.018999099731445,0.0,0.0,0.0,66.7128,C,25510045000000,
Raw,1732146626000,29019000000,,79.24618987392431,-1416181814981999872,0.0,79.24618987392431,2179.458571331132,0.0,0,17,0.0,16431,345043929902079,74,30.43600082397461,181.61412564824727,0.14999,16,0.0,0.0,1575420030,,,,0,17.060226974667554,1,6.0,30.43600082397461,0.0,0.0,0.0,66.7128,C,25510045000000,
Raw,1732146626000,29019000000,,79.24618987392431,-1416181814981999872,0.0,79.24618987392431,2179.458571331132,0.0,0,2,0.0,16431,345043920674248,487,19.31999969482422,449.9686231160449,0.14999,16,0.0,0.0,1575420030,,,,0,1.0085529018959165,1,6.0,19.31999969482422,0.0,0.0,0.0,66.7128,C,25510045000000,
Raw,1732146626000,29019000000,,79.24618987392431,-1416181814981999872,0.0,79.24618987392431,2179.458571331132,0.0,0,30,0.0,16431,345043932255571,42,39.63600158691406,753.936795156771,0.14999,17,21747.276782416953,0.00022499999613501132,1575420030,,,,0,27.412632971867794,1,6.0,39.63600158691406,0.0,0.0,0.0,66.7128,C,25510045000000,
Fix,FLP,37.4243710000,-122.1712517000,-0.7043880393447468,0.0724752,1.821,,1732146626683,1.5,,25510531000000,0.82282907,0,,,
Fix,NLP,37.4243279000,-122.1711468000,2.0,,23.105,,1732146626683,,,25510531000000,1.0,0,,,
Status,1732146626000,29,0,1,14,1575420030,44.70,326.0,74.0,1,0,0,39.7
Status,1732146626000,29,1,1,30,1575420030,45.40,79.0,69.0,1,0,0,40.4
Status,1732146626000,29,2,1,22,1575420030,44.60,274.0,61.0,1,0,0,39.6
Status,1732146626000,29,3,1,13,1575420030,38.00,301.0,49.0,1,0,0,33.0
Status,1732146626000,29,4,1,17,1575420030,34.00,175.0,46.0,1,0,0,29.0
Status,1732146626000,29,5,1,7,1575420030,38.00,105.0,36.0,1,0,0,33.0
Status,1732146626000,29,6,2,131,1575420030,34.00,3.0,23.0,0,0,0,29.0
Status,1732146626000,29,7,1,19,1575420030,37.10,193.0,19.0,1,0,0,32.1
Status,1732146626000,29,8,1,15,1575420030,40.90,315.0,18.0,1,0,0,35.9
Status,1732146626000,29,9,1,2,1575420030,24.30,86.0,17.0,1,0,0,19.3
Status,1732146626000,29,10,1,21,1575420030,0.00,67.0,14.0,0,0,0,0.0
Status,1732146626000,29,11,1,8,1575420030,0.00,39.0,8.0,0,0,0,0.0
Status,1732146626000,29,12,1,5,1575420030,0.00,261.0,6.0,0,0,0,0.0
Status,1732146626000,29,13,3,9,1602000000,35.90,20.0,53.0,1,0,0,30.900002
Status,1732146626000,29,14,3,8,1602000000,40.10,301.0,39.0,1,0,0,35.1
Status,1732146626000,29,15,3,16,1602000000,22.70,69.0,13.0,1,0,0,17.7
Status,1732146626000,29,16,3,20,1602000000,23.80,149.0,12.0,1,0,0,18.8
Status,1732146626000,29,17,3,11,1602000000,0.00,273.0,2.0,0,0,0,0.0
Status,1732146626000,29,18,3,17,1602000000,38.00,0.0,0.0,0,0,0,33.0
Status,1732146626000,29,19,6,29,1575420030,0.00,203.0,60.0,0,0,0,0.0
Status,1732146626000,29,20,6,21,1575420030,40.20,271.0,58.0,1,0,0,35.2
Status,1732146626000,29,21,6,27,1575420030,41.20,37.0,58.0,1,0,0,36.2
Status,1732146626000,29,22,6,19,1575420030,30.80,296.0,51.0,1,0,0,25.8
Status,1732146626000,29,23,6,7,1575420030,27.40,161.0,15.0,1,0,0,22.4
Status,1732146626000,29,24,6,15,1575420030,0.00,94.0,11.0,0,0,0,0.0
Status,1732146626000,29,25,6,30,1575420030,0.00,59.0,10.0,0,0,0,0.0
Status,1732146626000,29,26,6,34,1575420030,0.00,46.0,6.0,0,0,0,0.0
Status,1732146626000,29,27,6,13,1575420030,0.00,141.0,2.0,0,0,0,0.0
Status,1732146626000,29,28,6,4,1575420030,0.00,326.0,1.0,0,0,0,0.0
Fix,GPS,37.4243733333,-122.1712450000,15.3,0.5903864,1.7,107.98,1732146627000,1.0,119.1,25511045000000,29.1,0,,,
Raw,1732146627000,30019000000,,75.7506024544806,-1416181814981999872,0.0,75.7506024544806,2178.203128742444,0.0,0,22,0.0,16431,345044931083876,42,39.60599899291992,503.65680514043476,0.14999,16,0.0,0.0,1575420030,,,,0,27.377935630236138,1,6.0,39.60599899291992,0.0,0.0,0.0,66.7128,C,25511045000000,
Raw,1732146627000,30019000000,,75.7506024544806,-1416181814981999872,0.0,75.7506024544806,2178.203128742444,0.0,0,13,0.0,16431,345044930535259,58,32.99800109863281,369.7412566650499,0.14999,16,0.0,0.0,1575420030,,,,0,20.079988586644554,1,6.0,32.99800109863281,0.0,0.0,0.0,66.7128,C,25511045000000,
Raw,1732146627000,30019000000,,75.7506024544806,-1416181814981999872,0.0,75.7506024544806,2178.203128742444,0.0,0,14,0.0,16431,345044933208568,42,39.6510009765625,650.6447298523085,0.14999,16,0.0,0.0,1575420030,,,,0,27.424168019563183,1,6.0,39.6510009765625,0.0,0.0,0.0,66.7128,C,25511045000000,
Raw,1732146627000,30019000000,,75.7506024544806,-1416181814981999872,0.0,75.7506024544806,2178.203128742444,0.0,0,7,0.0,16431,345044926861690,74,33.04100036621094,1015.4178164046358,0.14999,17,30300.767673027283,0.0006249999860301614,1575420030,,,,0,20.133522744634387,1,6.0,33.04100036621094,0.0,0.0,0.0,66.7128,C,25511045000000,
Raw,1732146627000,30019000000,,75.7506024544806,-1416181814981999872,0.0,75.7506024544806,2178.203128742444,0.0,0,19,0.0,16431,345044921409818,74,32.06800079345703,-40.69306613405913,0.14999,16,16580.910475468,0.0006249999860301614,1575420030,,,,0,19.00982354913103,1,6.0,32.06800079345703,0.0,0.0,0.0,66.7128,C,25511045000000,
Raw,1732146627000,30019000000,,75.7506024544806,-1416181814981999872,0.0,75.7506024544806,2178.203128742444,0.0,0,27,0.0,16431,345044920290540,51,36.20000076293945,904.5816011838249,0.14999,16,0.0,0.0,1575420030,,,,0,23.71297332991326,6,6.0,36.20000076293945,0.0,0.0,6.092024074508145,66.7128,C,25511045000000,
Raw,1732146627000,30019000000,,75.7506024544806,-1416181814981999872,0.0,75.7506024544806,2178.203128742444,0.0,0,7,0.0,16431,345044909815756,396,22.399999618530273,1242.874412581302,0.14999,16,0.0,0.0,1575420030,,,,0,7.668536936676378,6,6.0,22.399999618530273,0.0,0.0,6.092024074508145,66.7128,C,25511045000000,
Raw,1732146627000,30019000000,,75.7506024544806,-1416181814981999872,0.0,75.7506024544806,2178.203128742444,0.0,0,19,0.0,16431,345044920624646,235,25.799999237060547,477.61384305737437,0.14999,16,0.0,0.0,1575420030,,,,0,12.06056543989644,6,6.0,25.799999237060547,0.0,0.0,6.092024074508145,66.7128,C,25511045000000,
Raw,1732146627000,30019000000,,75.7506024544806,-1416181814981999872,0.0,75.7506024544806,2178.203128742444,0.0,0,21,0.0,16431,345044920228263,51,35.20000076293945,483.91100262421554,0.14999,16,0.0,0.0,1575420030,,,,0,22.672232671921893,6,6.0,35.20000076293945,0.0,0.0,6.092024074508145,66.7128,C,25511045000000,
Raw,1732146627000,30019000000,,75.7506024544806,-1416181814981999872,0.0,75.7506024544806,2178.203128742444,0.0,0,8,0.0,32995,10226930792533,58,5.0,491.6697414998467,0.14999,16,0.0,0.0,1605374980,,,,0,20.35371633410957,3,6.0,33.0,0.0,0.0,22.611679836172797,66.7128,C,25511045000000,
Raw,1732146627000,30019000000,,75.7506024544806,-1416181814981999872,0.0,75.7506024544806,2178.203128742444,0.0,0,9,0.0,32995,10226933993970,74,5.0,789.6827478639958,0.14999,16,0.0,0.0,1600875010,,,,0,17.97184632277197,3,6.0,31.0,0.0,0.0,22.611679836172797,66.7128,C,25511045000000,
Raw,1732146627000,30019000000,,75.7506024544806,-1416181814981999872,0.0,75.7506024544806,2178.203128742444,0.0,0,16,0.0,17,337713,487,5.0,1139.7704604127493,0.14999,16,0.0,0.0,1601437440,,,,0,0.3332729245237962,3,6.0,18.0,0.0,0.0,22.611679836172797,66.7128,C,25511045000000,
Raw,1732146627000,30019000000,,75.7506024544806,-1416181814981999872,0.0,75.7506024544806,2178.203128742444,0.0,0,20,0.0,17,850328,487,5.0,-128.96335210807018,0.14999,16,0.0,0.0,1603124990,,,,0,2.347488694508181,3,6.0,18.0,0.0,0.0,22.611679836172797,66.7128,C,25511045000000,
Raw,1732146627000,30019000000,,75.7506024544806,-1416181814981999872,0.0,75.7506024544806,2178.203128742444,0.0,0,15,0.0,16431,345044922933725,51,35.94499969482422,184.92006008737295,0.14999,16,0.0,0.0,1575420030,,,,0,23.407227221816402,1,6.0,35.94499969482422,0.0,0.0,0.0,66.7128,C,25511045000000,
Raw,1732146627000,30019000000,,75.7506024544806,-1416181814981999872,0.0,75.7506024544806,2178.203128742444,0.0,0,17,0.0,16431,345044929901470,235,29.017000198364258,181.53389196345165,0.14999,16,0.0,0.0,1575420030,,,,0,15.319335017280151,1,6.0,29.017000198364258,0.0,0.0,0.0,66.7128,C,25511045000000,
Raw,1732146627000,30019000000,,75.7506024544806,-1416181814981999872,0.0,75.7506024544806,2178.203128742444,0.0,0,2,0.0,16431,345044920672748,797,19.31999969482422,449.7340081141817,0.14999,16,0.0,0.0,1575420030,,,,0,1.0085529018959165,1,6.0,19.31999969482422,0.0,0.0,0.0,66.7128,C,25511045000000,
Raw,1732146627000,30019000000,,75.7506024544806,-1416181814981999872,0.0,75.7506024544806,2178.203128742444,0.0,0,30,0.0,16431,345044932253056,42,40.35300064086914,753.222032423372,0.14999,16,0.0,0.0,1575420030,,,,0,28.17465424197178,1,6.0,40.35300064086914,0.0,0.0,0.0,66.7128,C,25511045000000,
Fix,FLP,37.4243717000,-122.1712487000,-0.7259924950503889,0.0617596,1.804,,1732146627198,1.0,,25511045000000,0.8302997,0,,,
Status,1732146627000,29,0,1,14,1575420030,43.90,326.0,74.0,1,0,0,38.9
Status,1732146627000,29,1,1,30,1575420030,47.70,79.0,69.0,1,0,0,42.7
Status,1732146627000,29,2,1,22,1575420030,42.00,274.0,61.0,1,0,0,37.0
Status,1732146627000,29,3,1,13,1575420030,45.20,301.0,49.0,1,0,0,40.2
Status,1732146627000,29,4,1,17,1575420030,38.30,175.0,46.0,1,0,0,33.3
Status,1732146627000,29,5,1,7,1575420030,34.60,105.0,36.0,1,0,0,29.599998
Status,1732146627000,29,6,2,131,1575420030,35.00,3.0,23.0,0,0,0,30.0
Status,1732146627000,29,7,1,19,1575420030,38.50,193.0,19.0,1,0,0,33.5
Status,1732146627000,29,8,1,15,1575420030,30.40,315.0,18.0,1,0,0,25.4
Status,1732146627000,29,9,1,2,1575420030,24.40,86.0,17.0,1,0,0,19.4
Status,1732146627000,29,10,1,21,1575420030,0.00,67.0,14.0,0,0,0,0.0
Status,1732146627000,29,11,1,8,1575420030,0.00,39.0,8.0,0,0,0,0.0
Status,1732146627000,29,12,1,5,1575420030,22.60,261.0,6.0,1,0,0,17.6
Status,1732146627000,29,13,3,9,1602000000,38.20,20.0,53.0,1,0,0,33.2
Status,1732146627000,29,14,3,8,1602000000,36.50,301.0,39.0,1,0,0,31.5
Status,1732146627000,29,15,3,16,1602000000,21.50,69.0,13.0,1,0,0,16.5
Status,1732146627000,29,16,3,20,1602000000,23.70,149.0,12.0,1,0,0,18.7
Status,1732146627000,29,17,3,11,1602000000,0.00,273.0,2.0,0,0,0,0.0
Status,1732146627000,29,18,3,17,1602000000,40.90,0.0,0.0,0,0,0,35.9
Status,1732146627000,29,19,6,29,1575420030,0.00,203.0,60.0,0,0,0,0.0
Status,1732146627000,29,20,6,21,1575420030,43.60,271.0,58.0,1,0,0,38.6
Status,1732146627000,29,21,6,27,1575420030,39.00,37.0,58.0,1,0,0,34.0
Status,1732146627000,29,22,6,19,1575420030,36.50,296.0,51.0,1,0,0,31.5
Status,1732146627000,29,23,6,7,1575420030,25.80,161.0,15.0,1,0,0,20.8
Status,1732146627000,29,24,6,15,1575420030,0.00,94.0,11.0,0,0,0,0.0
Status,1732146627000,29,25,6,30,1575420030,0.00,59.0,10.0,0,0,0,0.0
Status,1732146627000,29,26,6,34,1575420030,0.00,46.0,6.0,0,0,0,0.0
Status,1732146627000,29,27,6,13,1575420030,0.00,141.0,2.0,0,0,0,0.0
Status,1732146627000,29,28,6,4,1575420030,0.00,326.0,1.0,0,0,0,0.0
Fix,GPS,37.4243733333,-122.1712450000,15.3,0.53170806,1.7,106.54,1732146628000,0.9,144.2,25512045000000,30.1,0,,,
Fix,FLP,37.4243721000,-122.1712464000,-0.2876520152046709,0.09665969,1.804,,1732146628197,0.9,,25512045000000,0.83209,0,,,
Raw,1732146628000,31019000000,,78.51182945201408,-1416181814981999872,0.0,78.51182945201408,2172.3916936331175,0.0,0,22,0.0,16431,345045931082202,51,37.04100036621094,502.1705074890272,0.14999,16,0.0,0.0,1575420030,,,,0,24.61043293208302,1,6.0,37.04100036621094,0.0,0.0,0.0,66.7128,C,25512045000000,
Raw,1732146628000,31019000000,,78.51182945201408,-1416181814981999872,0.0,78.51182945201408,2172.3916936331175,0.0,0,13,0.0,16431,345045930534025,42,40.2140007019043,367.89973796329656,0.14999,16,0.0,0.0,1575420030,,,,0,28.02535350661298,1,6.0,40.2140007019043,0.0,0.0,0.0,66.7128,C,25512045000000,
Raw,1732146628000,31019000000,,78.51182945201408,-1416181814981999872,0.0,78.51182945201408,2172.3916936331175,0.0,0,14,0.0,16431,345045933206402,42,38.854000091552734,648.6585861008917,0.14999,16,0.0,0.0,1575420030,,,,0,26.57091696018082,1,6.0,38.854000091552734,0.0,0.0,0.0,66.7128,C,25512045000000,
Raw,1732146628000,31019000000,,78.51182945201408,-1416181814981999872,0.0,78.51182945201408,2172.3916936331175,0.0,0,7,0.0,16431,345045926858299,74,29.565000534057617,1014.7509522983497,0.14999,16,0.0,0.0,1575420030,,,,0,16.01100343756392,1,6.0,29.565000534057617,0.0,0.0,0.0,66.7128,C,25512045000000,
Raw,1732146628000,31019000000,,78.51182945201408,-1416181814981999872,0.0,78.51182945201408,2172.3916936331175,0.0,0,5,0.0,16431,345045916769411,797,17.594999313354492,1093.59190669279,0.14999,16,0.0,0.0,1575420030,,,,0,0.0,1,6.0,17.594999313354492,0.0,0.0,0.0,66.7128,C,25512045000000,
Raw,1732146628000,31019000000,,78.51182945201408,-1416181814981999872,0.0,78.51182945201408,2172.3916936331175,0.0,0,19,0.0,16431,345045921409950,58,33.54899978637695,-42.78690049425188,0.14999,16,0.0,0.0,1575420030,,,,0,20.71408776548179,1,6.0,33.54899978637695,0.0,0.0,0.0,66.7128,C,25512045000000,
Raw,1732146628000,31019000000,,78.51182945201408,-1416181814981999872,0.0,78.51182945201408,2172.3916936331175,0.0,0,27,0.0,16431,345045920287527,58,34.0,902.5653988371199,0.14999,16,0.0,0.0,1575420030,,,,0,21.39780249728456,6,6.0,34.0,0.0,0.0,6.332841246267534,66.7128,C,25512045000000,
Raw,1732146628000,31019000000,,78.51182945201408,-1416181814981999872,0.0,78.51182945201408,2172.3916936331175,0.0,0,7,0.0,16431,345045909811612,316,20.799999237060547,1241.1495974210695,0.14999,16,0.0,0.0,1575420030,,,,0,5.445527894223044,6,6.0,20.799999237060547,0.0,0.0,6.332841246267534,66.7128,C,25512045000000,
Raw,1732146628000,31019000000,,78.51182945201408,-1416181814981999872,0.0,78.51182945201408,2172.3916936331175,0.0,0,19,0.0,16431,345045920623055,58,31.5,475.757968705012,0.14999,16,0.0,0.0,1575420030,,,,0,18.605755827365293,6,6.0,31.5,0.0,0.0,6.332841246267534,66.7128,C,25512045000000,
Raw,1732146628000,31019000000,,78.51182945201408,-1416181814981999872,0.0,78.51182945201408,2172.3916936331175,0.0,0,21,0.0,16431,345045920226651,42,38.599998474121094,481.9342899312896,0.14999,16,0.0,0.0,1575420030,,,,0,26.266798884197854,6,6.0,38.599998474121094,0.0,0.0,6.332841246267534,66.7128,C,25512045000000,
Raw,1732146628000,31019000000,,78.51182945201408,-1416181814981999872,0.0,78.51182945201408,2172.3916936331175,0.0,0,8,0.0,32995,10227930790897,74,5.0,489.48362717061883,0.14999,16,0.0,0.0,1605374980,,,,0,18.676373205267957,3,6.0,32.0,0.0,0.0,24.100464154221683,66.7128,C,25512045000000,
Raw,1732146628000,31019000000,,78.51182945201408,-1416181814981999872,0.0,78.51182945201408,2172.3916936331175,0.0,0,9,0.0,32995,10227933991343,58,5.0,787.6762018532839,0.14999,16,0.0,0.0,1600875010,,,,0,20.51116879610728,3,6.0,33.0,0.0,0.0,24.100464154221683,66.7128,C,25512045000000,
Raw,1732146628000,31019000000,,78.51182945201408,-1416181814981999872,0.0,78.51182945201408,2172.3916936331175,0.0,0,16,0.0,17,333917,797,5.0,1138.6704652791134,0.14999,16,0.0,0.0,1601437440,,,,0,0.0,3,6.0,16.0,0.0,0.0,24.100464154221683,66.7128,C,25512045000000,
Raw,1732146628000,31019000000,,78.51182945201408,-1416181814981999872,0.0,78.51182945201408,2172.3916936331175,0.0,0,20,0.0,17,850793,487,5.0,-130.74747882495066,0.14999,16,0.0,0.0,1603124990,,,,0,0.0,3,6.0,18.0,0.0,0.0,24.100464154221683,66.7128,C,25512045000000,
Raw,1732146628000,31019000000,,78.51182945201408,-1416181814981999872,0.0,78.51182945201408,2172.3916936331175,0.0,0,15,0.0,16431,345045922933109,316,25.400999069213867,181.57579745487357,0.14999,16,0.0,0.0,1575420030,,,,0,10.591097650241139,1,6.0,25.400999069213867,0.0,0.0,0.0,66.7128,C,25512045000000,
Raw,1732146628000,31019000000,,78.51182945201408,-1416181814981999872,0.0,78.51182945201408,2172.3916936331175,0.0,0,17,0.0,16431,345045929900865,58,33.32600021362305,179.38816355235176,0.14999,16,0.0,0.0,1575420030,,,,0,20.460836892103266,1,6.0,33.32600021362305,0.0,0.0,0.0,66.7128,C,25512045000000,
Raw,1732146628000,31019000000,,78.51182945201408,-1416181814981999872,0.0,78.51182945201408,2172.3916936331175,0.0,0,2,0.0,16431,345045920671254,396,19.427000045776367,448.37918778064994,0.14999,16,0.0,0.0,1575420030,,,,0,4.689756676435049,1,6.0,19.427000045776367,0.0,0.0,0.0,66.7128,C,25512045000000,
Raw,1732146628000,31019000000,,78.51182945201408,-1416181814981999872,0.0,78.51182945201408,2172.3916936331175,0.0,0,30,0.0,16431,345045932250546,31,42.70100021362305,751.6360814691928,0.14999,17,23251.954887368607,0.00022499999613501132,1575420030,,,,0,30.650931799399363,1,6.0,42.70100021362305,0.0,0.0,0.0,66.7128,C,25512045000000,
Status,1732146628000,29,0,1,14,1575420030,43.30,326.0,74.0,1,0,0,38.3
Status,1732146628000,29,1,1,30,1575420030,47.70,79.0,69.0,1,0,0,42.7
Status,1732146628000,29,2,1,22,1575420030,41.80,274.0,61.0,1,0,0,36.8
Status,1732146628000,29,3,1,13,1575420030,39.70,301.0,49.0,1,0,0,34.7
Status,1732146628000,29,4,1,17,1575420030,40.80,175.0,46.0,1,0,0,35.8
Status,1732146628000,29,5,1,7,1575420030,33.10,105.0,36.0,1,0,0,28.099998
Status,1732146628000,29,6,2,131,1575420030,33.00,3.0,23.0,0,0,0,28.0
Status,1732146628000,29,7,1,19,1575420030,24.80,193.0,19.0,1,0,0,19.8
Status,1732146628000,29,8,1,15,1575420030,34.60,315.0,18.0,1,0,0,29.599998
Status,1732146628000,29,9,1,2,1575420030,28.80,86.0,17.0,1,0,0,23.8
Status,1732146628000,29,10,1,21,1575420030,0.00,67.0,14.0,0,0,0,0.0
Status,1732146628000,29,11,1,8,1575420030,0.00,39.0,8.0,0,0,0,0.0
Status,1732146628000,29,12,1,5,1575420030,0.00,261.0,6.0,0,0,0,0.0
Status,1732146628000,29,13,3,9,1602000000,35.40,20.0,53.0,1,0,0,30.400002
Status,1732146628000,29,14,3,8,1602000000,37.40,301.0,39.0,1,0,0,32.4
Status,1732146628000,29,15,3,16,1602000000,25.80,69.0,13.0,1,0,0,20.8
Status,1732146628000,29,16,3,20,1602000000,23.70,149.0,12.0,1,0,0,18.7
Status,1732146628000,29,17,3,11,1602000000,0.00,273.0,2.0,0,0,0,0.0
Status,1732146628000,29,18,3,17,1602000000,34.60,0.0,0.0,0,0,0,29.599998
Status,1732146628000,29,19,6,29,1575420030,0.00,203.0,60.0,0,0,0,0.0
Status,1732146628000,29,20,6,21,1575420030,37.60,271.0,58.0,1,0,0,32.6
Status,1732146628000,29,21,6,27,1575420030,41.00,37.0,58.0,1,0,0,36.0
Status,1732146628000,29,22,6,19,1575420030,33.30,296.0,51.0,1,0,0,28.3
Status,1732146628000,29,23,6,7,1575420030,25.70,161.0,15.0,1,0,0,20.7
Status,1732146628000,29,24,6,15,1575420030,0.00,94.0,11.0,0,0,0,0.0
Status,1732146628000,29,25,6,30,1575420030,0.00,59.0,10.0,0,0,0,0.0
Status,1732146628000,29,26,6,34,1575420030,0.00,46.0,6.0,0,0,0,0.0
Status,1732146628000,29,27,6,13,1575420030,0.00,141.0,2.0,0,0,0,0.0
Status,1732146628000,29,28,6,4,1575420030,0.00,326.0,1.0,0,0,0,0.0
Fix,GPS,37.4243733333,-122.1712400000,15.3,0.0,1.8,104.35,1732146629000,0.9,172.1,25513045000000,29.3,0,,,
Fix,FLP,37.4243727000,-122.1712430000,0.06939343220639582,0.07048984,1.818,,1732146629197,0.9,,25513045000000,0.84025556,0,,,
Raw,1732146629000,32019000000,,77.74059354381066,-1416181814981999872,0.0,77.74059354381066,2167.2959037308183,0.0,0,22,0.0,16431,345046931080527,51,36.803001403808594,500.90414397996034,0.14999,16,0.0,0.0,1575420030,,,,0,24.35161632725389,1,6.0,36.803001403808594,0.0,0.0,0.0,66.7128,C,25513045000000,
Raw,1732146629000,32019000000,,77.74059354381066,-1416181814981999872,0.0,77.74059354381066,2167.2959037308183,0.0,0,13,0.0,16431,345046930532802,58,34.691001892089844,366.08416628699683,0.14999,16,0.0,0.0,1575420030,,,,0,22.010130188762272,1,6.0,34.691001892089844,0.0,0.0,0.0,66.7128,C,25513045000000,
Raw,1732146629000,32019000000,,77.74059354381066,-1416181814981999872,0.0,77.74059354381066,2167.2959037308183,0.0,0,14,0.0,16431,345046933204236,51,38.3380012512207,647.4911790183534,0.14999,17,20859.201107370773,0.00022499999613501132,1575420030,,,,0,26.01966347692652,1,6.0,38.3380012512207,0.0,0.0,0.0,66.7128,C,25513045000000,
Raw,1732146629000,32019000000,,77.74059354381066,-1416181814981999872,0.0,77.74059354381066,2167.2959037308183,0.0,0,7,0.0,16431,345046926854911,235,28.113000869750977,1013.0051379339901,0.14999,16,0.0,0.0,1575420030,,,,0,14.17937984750413,1,6.0,28.113000869750977,0.0,0.0,0.0,66.7128,C,25513045000000,
Raw,1732146629000,32019000000,,77.74059354381066,-1416181814981999872,0.0,77.74059354381066,2167.2959037308183,0.0,0,27,0.0,16431,345046920284523,51,36.0,900.8816529168176,0.14999,16,0.0,0.0,1575420030,,,,0,23.48014172880742,6,6.0,36.0,0.0,0.0,6.222805751662668,66.7128,C,25513045000000,
Raw,1732146629000,32019000000,,77.74059354381066,-1416181814981999872,0.0,77.74059354381066,2167.2959037308183,0.0,0,7,0.0,16431,345046909807473,487,20.700000762939453,1239.421901839032,0.14999,16,0.0,0.0,1575420030,,,,0,5.299543119393057,6,6.0,20.700000762939453,0.0,0.0,6.222805751662668,66.7128,C,25513045000000,
Raw,1732146629000,32019000000,,77.74059354381066,-1416181814981999872,0.0,77.74059354381066,2167.2959037308183,0.0,0,19,0.0,16431,345046920621470,235,28.299999237060547,474.05261962117174,0.14999,16,0.0,0.0,1575420030,,,,0,15.036074383933862,6,6.0,28.299999237060547,0.0,0.0,6.222805751662668,66.7128,C,25513045000000,
Raw,1732146629000,32019000000,,77.74059354381066,-1416181814981999872,0.0,77.74059354381066,2167.2959037308183,0.0,0,21,0.0,16431,345046920225043,58,32.599998474121094,480.54104848755173,0.14999,16,0.0,0.0,1575420030,,,,0,19.862490158153236,6,6.0,32.599998474121094,0.0,0.0,6.222805751662668,66.7128,C,25513045000000,
Raw,1732146629000,32019000000,,77.74059354381066,-1416181814981999872,0.0,77.74059354381066,2167.2959037308183,0.0,0,8,0.0,32995,10228930789261,74,5.0,488.21057460721886,0.14999,16,0.0,0.0,1605374980,,,,0,19.64787519645937,3,6.0,31.0,0.0,0.0,24.945682771539694,66.7128,C,25513045000000,
Raw,1732146629000,32019000000,,77.74059354381066,-1416181814981999872,0.0,77.74059354381066,2167.2959037308183,0.0,0,9,0.0,32995,10228933988720,74,5.0,786.0397110606431,0.14999,16,0.0,0.0,1600875010,,,,0,17.39577516576788,3,6.0,31.0,0.0,0.0,24.945682771539694,66.7128,C,25513045000000,
Raw,1732146629000,32019000000,,77.74059354381066,-1416181814981999872,0.0,77.74059354381066,2167.2959037308183,0.0,0,16,0.0,17,330128,487,5.0,1136.222395670584,0.14999,16,0.0,0.0,1601437440,,,,0,5.458599212924787,3,6.0,20.0,0.0,0.0,24.945682771539694,66.7128,C,25513045000000,
Raw,1732146629000,32019000000,,77.74059354381066,-1416181814981999872,0.0,77.74059354381066,2167.2959037308183,0.0,0,20,0.0,17,851215,487,5.0,-132.6113200934375,0.14999,16,0.0,0.0,1603124990,,,,0,0.053097265975903696,3,6.0,18.0,0.0,0.0,24.945682771539694,66.7128,C,25513045000000,
Raw,1732146629000,32019000000,,77.74059354381066,-1416181814981999872,0.0,77.74059354381066,2167.2959037308183,0.0,0,15,0.0,16431,345046922932485,235,29.582000732421875,180.96082739949466,0.14999,16,0.0,0.0,1575420030,,,,0,16.03242364481443,1,6.0,29.582000732421875,0.0,0.0,0.0,66.7128,C,25513045000000,
