# 
# Header Description:
# 
# Version: v3.1.0.3 Platform: 13 Manufacturer: samsung Model: SM-S135DL GNSS Hardware Model Name: MediaTek,MT6631,MTK_MNLD_default,MNL_VER_default
# 
# Raw,utcTimeMillis,TimeNanos,LeapSecond,TimeUncertaintyNanos,FullBiasNanos,BiasNanos,BiasUncertaintyNanos,DriftNanosPerSecond,DriftUncertaintyNanosPerSecond,HardwareClockDiscontinuityCount,Svid,TimeOffsetNanos,State,ReceivedSvTimeNanos,ReceivedSvTimeUncertaintyNanos,Cn0DbHz,PseudorangeRateMetersPerSecond,PseudorangeRateUncertaintyMetersPerSecond,AccumulatedDeltaRangeState,AccumulatedDeltaRangeMeters,AccumulatedDeltaRangeUncertaintyMeters,CarrierFrequencyHz,CarrierCycles,CarrierPhase,CarrierPhaseUncertainty,MultipathIndicator,SnrInDb,ConstellationType,AgcDb,BasebandCn0DbHz,FullInterSignalBiasNanos,FullInterSignalBiasUncertaintyNanos,SatelliteInterSignalBiasNanos,SatelliteInterSignalBiasUncertaintyNanos,CodeType,ChipsetElapsedRealtimeNanos,IsFullTracking
# 
# UncalAccel,utcTimeMillis,elapsedRealtimeNanos,UncalAccelXMps2,UncalAccelYMps2,UncalAccelZMps2,BiasXMps2,BiasYMps2,BiasZMps2
# 
# Accel,utcTimeMillis,elapsedRealtimeNanos,AccelXMps2,AccelYMps2,AccelZMps2
# 
# UncalGyro,utcTimeMillis,elapsedRealtimeNanos,UncalGyroXRadPerSec,UncalGyroYRadPerSec,UncalGyroZRadPerSec,DriftXRadPerSec,DriftYRadPerSec,DriftZRadPerSec
# 
# Gyro,utcTimeMillis,elapsedRealtimeNanos,GyroXRadPerSec,GyroYRadPerSec,GyroZRadPerSec
# 
# UncalMag,utcTimeMillis,elapsedRealtimeNanos,UncalMagXMicroT,UncalMagYMicroT,UncalMagZMicroT,BiasXMicroT,BiasYMicroT,BiasZMicroT
# 
# Mag,utcTimeMillis,elapsedRealtimeNanos,MagXMicroT,MagYMicroT,MagZMicroT
# 
# Pressure,utcTimeMillis,elapsedRealtimeNanos,PressureHpa
# 
# OrientationDeg,utcTimeMillis,elapsedRealtimeNanos,yawDeg,rollDeg,pitchDeg
# 
# Fix,Provider,LatitudeDegrees,LongitudeDegrees,AltitudeMeters,SpeedMps,AccuracyMeters,BearingDegrees,UnixTimeMillis,SpeedAccuracyMps,BearingAccuracyDegrees,elapsedRealtimeNanos,VerticalAccuracyMeters,MockLocation,NumberOfUsedSignals,VerticalSpeedAccuracyMps,SolutionType
# 
# Nav,Svid,Type,Status,MessageId,Sub-messageId,Data(Bytes)
# 
# Status,UnixTimeMillis,SignalCount,SignalIndex,ConstellationType,Svid,CarrierFrequencyHz,Cn0DbHz,AzimuthDegrees,ElevationDegrees,UsedInFix,HasAlmanacData,HasEphemerisData,BasebandCn0DbHz
# 
# Agc,utcTimeMillis,TimeNanos,LeapSecond,TimeUncertaintyNanos,FullBiasNanos,BiasNanos,BiasUncertaintyNanos,DriftNanosPerSecond,DriftUncertaintyNanosPerSecond,HardwareClockDiscontinuityCount,AgcDb,CarrierFrequencyHz,ConstellationType
# 
Fix,FLP,37.4254081000,-122.1581581000,3.561094150407887,0.12608826,6.633,0.0000004877635,1732151772869,2.2,179.9,30656717000000,13.125622,0,,,
Status,,27,0,1,17,1575420030,0.00,89.0,79.0,0,0,0,0.0
Status,,27,1,1,22,1575420030,0.00,11.0,67.0,0,0,0,0.0
Status,,27,2,1,19,1575420030,0.00,200.0,60.0,0,0,0,0.0
Status,,27,3,1,14,1575420030,0.00,51.0,53.0,0,0,0,0.0
Status,,27,4,1,13,1575420030,32.80,236.0,48.0,1,0,0,27.8
Status,,27,5,2,133,1575420030,0.00,191.0,45.0,0,0,0,0.0
Status,,27,6,1,30,1575420030,25.50,130.0,37.0,1,0,0,20.5
Status,,27,7,1,15,1575420030,23.40,276.0,30.0,1,0,0,18.4
Status,,27,8,1,2,1575420030,0.00,48.0,17.0,0,0,0,0.0
Status,,27,9,1,24,1575420030,0.00,313.0,15.0,0,0,0,0.0
Status,,27,10,1,6,1575420030,0.00,162.0,11.0,0,0,0,0.0
Status,,27,11,1,21,1575420030,0.00,34.0,5.0,0,0,0,0.0
Status,,27,12,1,7,1575420030,0.00,131.0,5.0,0,0,0,0.0
Status,,27,13,3,20,1602000000,0.00,115.0,52.0,0,0,0,0.0
Status,,27,14,3,9,1602000000,0.00,79.0,34.0,0,0,0,0.0
Status,,27,15,3,11,1602000000,0.00,309.0,27.0,0,0,0,0.0
Status,,27,16,3,8,1602000000,0.00,248.0,24.0,0,0,0,0.0
Status,,27,17,3,19,1602000000,0.00,34.0,24.0,0,0,0,0.0
Status,,27,18,6,21,1575420030,0.00,341.0,68.0,0,0,0,0.0
Status,,27,19,6,19,1575420030,0.00,244.0,47.0,0,0,0,0.0
Status,,27,20,6,27,1575420030,0.00,64.0,34.0,0,0,0,0.0
Status,,27,21,6,13,1575420030,0.00,121.0,28.0,0,0,0,0.0
Status,,27,22,6,29,1575420030,0.00,191.0,26.0,0,0,0,0.0
Status,,27,23,6,15,1575420030,0.00,63.0,24.0,0,0,0,0.0
Status,,27,24,6,4,1575420030,0.00,312.0,23.0,0,0,0,0.0
Status,,27,25,6,26,1575420030,0.00,168.0,5.0,0,0,0,0.0
Status,,27,26,6,6,1575420030,0.00,328.0,4.0,0,0,0,0.0
Fix,GPS,37.4254050000,-122.1581300000,23.400000000000002,0.0,41.6,0.0,1732151773000,2.4,179.9,30657090000000,77.8,0,,,
Fix,FLP,37.4254084000,-122.1581577000,3.3320299651247334,0.12141282,15.375,0.000000016040886,1732151773242,2.4,179.9,30657090000000,12.311256,0,,,
Status,1732151773000,27,0,1,17,1575420030,0.00,89.0,79.0,0,0,0,0.0
Status,1732151773000,27,1,1,22,1575420030,0.00,11.0,67.0,0,0,0,0.0
Status,1732151773000,27,2,1,19,1575420030,0.00,200.0,60.0,0,0,0,0.0
Status,1732151773000,27,3,1,14,1575420030,0.00,51.0,53.0,0,0,0,0.0
Status,1732151773000,27,4,1,13,1575420030,35.40,236.0,48.0,1,0,0,30.400002
Status,1732151773000,27,5,2,133,1575420030,0.00,191.0,45.0,0,0,0,0.0
Status,1732151773000,27,6,1,30,1575420030,28.30,130.0,37.0,1,0,0,23.3
Status,1732151773000,27,7,1,15,1575420030,23.50,276.0,30.0,1,0,0,18.5
Status,1732151773000,27,8,1,2,1575420030,0.00,48.0,17.0,0,0,0,0.0
Status,1732151773000,27,9,1,24,1575420030,0.00,313.0,16.0,0,0,0,0.0
Status,1732151773000,27,10,1,6,1575420030,0.00,162.0,11.0,0,0,0,0.0
Status,1732151773000,27,11,1,21,1575420030,0.00,34.0,5.0,0,0,0,0.0
Status,1732151773000,27,12,1,7,1575420030,29.20,131.0,5.0,1,0,0,24.2
Status,1732151773000,27,13,3,20,1602000000,0.00,115.0,52.0,0,0,0,0.0
Status,1732151773000,27,14,3,9,1602000000,0.00,79.0,34.0,0,0,0,0.0
Status,1732151773000,27,15,3,11,1602000000,24.70,309.0,27.0,0,0,0,19.7
Status,1732151773000,27,16,3,8,1602000000,0.00,248.0,24.0,0,0,0,0.0
Status,1732151773000,27,17,3,19,1602000000,0.00,34.0,24.0,0,0,0,0.0
Status,1732151773000,27,18,6,21,1575420030,0.00,341.0,68.0,0,0,0,0.0
Status,1732151773000,27,19,6,19,1575420030,0.00,244.0,47.0,0,0,0,0.0
Status,1732151773000,27,20,6,27,1575420030,0.00,64.0,34.0,0,0,0,0.0
Status,1732151773000,27,21,6,13,1575420030,0.00,121.0,28.0,0,0,0,0.0
Status,1732151773000,27,22,6,29,1575420030,0.00,191.0,26.0,0,0,0,0.0
Status,1732151773000,27,23,6,15,1575420030,0.00,63.0,24.0,0,0,0,0.0
Status,1732151773000,27,24,6,4,1575420030,0.00,312.0,23.0,0,0,0,0.0
Status,1732151773000,27,25,6,26,1575420030,0.00,168.0,5.0,0,0,0,0.0
Status,1732151773000,27,26,6,6,1575420030,0.00,328.0,4.0,0,0,0,0.0
Fix,GPS,37.4254233333,-122.1581100000,23.400000000000002,0.0,6.4,0.0,1732151774000,2.3,179.9,30658090000000,61.5,0,,,
Fix,FLP,37.4254161000,-122.1581358000,3.467402148212817,0.14046155,13.58,0.00000050019275,1732151774242,2.3,179.9,30658090000000,12.631353,0,,,
Raw,1732151774000,21388000000,,705418.1692422696,-1416186970612000000,0.0,109.86096806525072,1197.7659590816897,0.0,0,13,0.0,16431,350191929348531,74,30.44700050354004,712.0757179807629,0.14999,16,0.0,0.0,1575420030,,,,0,17.08747532034228,1,6.0,30.44700050354004,0.0,0.0,0.0,66.7128,C,30658090000000,
Raw,1732151774000,21388000000,,705418.1692422696,-1416186970612000000,0.0,109.86096806525072,1197.7659590816897,0.0,0,15,0.0,16431,350191925270886,487,18.479000091552734,512.6142665363238,0.14999,16,0.0,0.0,1575420030,,,,0,0.9620295467606645,1,6.0,18.479000091552734,0.0,0.0,0.0,66.7128,C,30658090000000,
Raw,1732151774000,21388000000,,705418.1692422696,-1416186970612000000,0.0,109.86096806525072,1197.7659590816897,0.0,0,11,0.0,17,155292,396,22.0,-113.2275982618556,0.14999,16,0.0,0.0,1602000000,,,,0,3.715182074906235,3,6.0,22.0,0.0,0.0,108.67631620913818,66.7128,C,30658090000000,
Raw,1732151774000,21388000000,,705418.1692422696,-1416186970612000000,0.0,109.86096806525072,1197.7659590816897,0.0,0,7,0.0,16431,350191917602109,316,24.16200065612793,990.3176349617358,0.14999,16,0.0,0.0,1575420030,,,,0,8.861540140926637,1,6.0,24.16200065612793,0.0,0.0,0.0,66.7128,C,30658090000000,
Raw,1732151774000,21388000000,,705418.1692422696,-1416186970612000000,0.0,109.86096806525072,1197.7659590816897,0.0,0,30,0.0,16431,350191926532178,487,23.263999938964844,860.4129344746392,0.14999,16,0.0,0.0,1575420030,,,,0,7.526569602726113,1,6.0,23.263999938964844,0.0,0.0,0.0,66.7128,C,30658090000000,
Status,1732151774000,27,0,1,17,1575420030,0.00,89.0,79.0,0,0,0,0.0
Status,1732151774000,27,1,1,22,1575420030,0.00,11.0,67.0,0,0,0,0.0
Status,1732151774000,27,2,1,19,1575420030,0.00,200.0,60.0,0,0,0,0.0
Status,1732151774000,27,3,1,14,1575420030,0.00,51.0,53.0,0,0,0,0.0
Status,1732151774000,27,4,1,13,1575420030,34.70,236.0,48.0,1,0,0,29.7
Status,1732151774000,27,5,2,133,1575420030,0.00,191.0,45.0,0,0,0,0.0
Status,1732151774000,27,6,1,30,1575420030,26.30,130.0,37.0,1,0,0,21.3
Status,1732151774000,27,7,1,15,1575420030,26.40,276.0,30.0,1,0,0,21.4
Status,1732151774000,27,8,1,2,1575420030,0.00,48.0,17.0,0,0,0,0.0
Status,1732151774000,27,9,1,24,1575420030,0.00,313.0,16.0,0,0,0,0.0
Status,1732151774000,27,10,1,6,1575420030,0.00,162.0,11.0,0,0,0,0.0
Status,1732151774000,27,11,1,21,1575420030,0.00,34.0,5.0,0,0,0,0.0
Status,1732151774000,27,12,1,7,1575420030,31.80,131.0,5.0,1,0,0,26.8
Status,1732151774000,27,13,3,20,1602000000,0.00,115.0,52.0,0,0,0,0.0
Status,1732151774000,27,14,3,9,1602000000,0.00,79.0,34.0,0,0,0,0.0
Status,1732151774000,27,15,3,11,1602000000,28.40,309.0,27.0,0,0,0,23.4
Status,1732151774000,27,16,3,8,1602000000,0.00,248.0,24.0,0,0,0,0.0
Status,1732151774000,27,17,3,19,1602000000,0.00,34.0,24.0,0,0,0,0.0
Status,1732151774000,27,18,6,21,1575420030,0.00,341.0,68.0,0,0,0,0.0
Status,1732151774000,27,19,6,19,1575420030,0.00,244.0,47.0,0,0,0,0.0
Status,1732151774000,27,20,6,27,1575420030,0.00,64.0,34.0,0,0,0,0.0
Status,1732151774000,27,21,6,13,1575420030,0.00,121.0,28.0,0,0,0,0.0
Status,1732151774000,27,22,6,29,1575420030,0.00,191.0,26.0,0,0,0,0.0
Status,1732151774000,27,23,6,15,1575420030,0.00,63.0,24.0,0,0,0,0.0
Status,1732151774000,27,24,6,4,1575420030,0.00,312.0,23.0,0,0,0,0.0
Status,1732151774000,27,25,6,26,1575420030,0.00,168.0,5.0,0,0,0,0.0
Status,1732151774000,27,26,6,6,1575420030,0.00,328.0,4.0,0,0,0,0.0
Fix,GPS,37.4254383333,-122.1581033333,23.400000000000002,0.0,6.3,0.0,1732151775000,2.3,179.9,30659090000000,59.9,0,,,
Fix,FLP,37.4254267000,-122.1581219000,3.7488631988434014,0.16894363,12.366,0.0000003097854,1732151775242,2.3,179.9,30659090000000,12.783573,0,,,
Raw,1732151775000,22388000000,,705417.6480483708,-1416186970612000000,0.0,108.00072829880942,1197.73753966346,0.0,0,13,0.0,16431,350192929346152,74,29.72599983215332,712.375421223737,0.14999,16,0.0,0.0,1575420030,,,,0,16.2142740534889,1,6.0,29.72599983215332,0.0,0.0,0.0,66.7128,C,30659090000000,
Raw,1732151775000,22388000000,,705417.6480483708,-1416186970612000000,0.0,108.00072829880942,1197.73753966346,0.0,0,15,0.0,16431,350192925269177,487,21.3700008392334,512.489850897712,0.14999,16,0.0,0.0,1575420030,,,,0,4.581780112760356,1,6.0,21.3700008392334,0.0,0.0,0.0,66.7128,C,30659090000000,
Raw,1732151775000,22388000000,,705417.6480483708,-1416186970612000000,0.0,108.00072829880942,1197.73753966346,0.0,0,11,0.0,17,155657,396,23.0,-113.18734749567801,0.14999,16,0.0,0.0,1602000000,,,,0,9.082399653118497,3,6.0,23.0,0.0,0.0,108.67631620913818,66.7128,C,30659090000000,
Raw,1732151775000,22388000000,,705417.6480483708,-1416186970612000000,0.0,108.00072829880942,1197.73753966346,0.0,0,7,0.0,16431,350192917598816,316,26.750999450683594,990.4419576835153,0.14999,16,0.0,0.0,1575420030,,,,0,12.438714828832843,1,6.0,26.750999450683594,0.0,0.0,0.0,66.7128,C,30659090000000,
Raw,1732151775000,22388000000,,705417.6480483708,-1416186970612000000,0.0,108.00072829880942,1197.73753966346,0.0,0,30,0.0,16431,350192926529312,396,21.2810001373291,860.2483787644214,0.14999,16,0.0,0.0,1575420030,,,,0,4.42456514859951,1,6.0,21.2810001373291,0.0,0.0,0.0,66.7128,C,30659090000000,
Status,1732151775000,27,0,1,17,1575420030,0.00,89.0,79.0,0,0,0,0.0
Status,1732151775000,27,1,1,22,1575420030,0.00,11.0,67.0,0,0,0,0.0
Status,1732151775000,27,2,1,19,1575420030,0.00,200.0,60.0,0,0,0,0.0
Status,1732151775000,27,3,1,14,1575420030,0.00,51.0,53.0,0,0,0,0.0
Status,1732151775000,27,4,1,13,1575420030,31.10,236.0,48.0,1,0,0,26.1
Status,1732151775000,27,5,2,133,1575420030,0.00,191.0,45.0,0,0,0,0.0
Status,1732151775000,27,6,1,30,1575420030,27.50,130.0,37.0,1,0,0,22.5
Status,1732151775000,27,7,1,15,1575420030,26.40,276.0,30.0,1,0,0,21.4
Status,1732151775000,27,8,1,2,1575420030,0.00,48.0,17.0,0,0,0,0.0
Status,1732151775000,27,9,1,24,1575420030,0.00,313.0,16.0,0,0,0,0.0
Status,1732151775000,27,10,1,6,1575420030,0.00,162.0,11.0,0,0,0,0.0
Status,1732151775000,27,11,1,21,1575420030,0.00,34.0,5.0,0,0,0,0.0
Status,1732151775000,27,12,1,7,1575420030,0.00,131.0,5.0,0,0,0,0.0
Status,1732151775000,27,13,3,20,1602000000,0.00,115.0,52.0,0,0,0,0.0
Status,1732151775000,27,14,3,9,1602000000,0.00,79.0,34.0,0,0,0,0.0
Status,1732151775000,27,15,3,11,1602000000,25.10,309.0,27.0,0,0,0,20.1
Status,1732151775000,27,16,3,8,1602000000,0.00,248.0,24.0,0,0,0,0.0
Status,1732151775000,27,17,3,19,1602000000,0.00,34.0,24.0,0,0,0,0.0
Status,1732151775000,27,18,6,21,1575420030,0.00,341.0,68.0,0,0,0,0.0
Status,1732151775000,27,19,6,19,1575420030,0.00,244.0,47.0,0,0,0,0.0
Status,1732151775000,27,20,6,27,1575420030,0.00,64.0,34.0,0,0,0,0.0
Status,1732151775000,27,21,6,13,1575420030,0.00,121.0,28.0,0,0,0,0.0
Status,1732151775000,27,22,6,29,1575420030,0.00,191.0,26.0,0,0,0,0.0
Status,1732151775000,27,23,6,15,1575420030,0.00,63.0,24.0,0,0,0,0.0
Status,1732151775000,27,24,6,4,1575420030,0.00,312.0,23.0,0,0,0,0.0
Status,1732151775000,27,25,6,26,1575420030,0.00,168.0,5.0,0,0,0,0.0
Status,1732151775000,27,26,6,6,1575420030,0.00,328.0,4.0,0,0,0,0.0
Fix,GPS,37.4254450000,-122.1581000000,23.400000000000002,0.0,39.5,0.0,1732151776000,2.3,179.9,30660090000000,59.4,0,,,
Fix,FLP,37.4254284000,-122.1581215000,3.7172865712719236,0.16382086,17.8,0.000000009704967,1732151776243,2.3,179.9,30660090000000,12.592595,0,,,
Status,1732151776000,27,0,1,17,1575420030,0.00,89.0,79.0,0,0,0,0.0
Status,1732151776000,27,1,1,22,1575420030,0.00,11.0,67.0,0,0,0,0.0
Status,1732151776000,27,2,1,19,1575420030,0.00,200.0,60.0,0,0,0,0.0
Status,1732151776000,27,3,1,14,1575420030,0.00,51.0,53.0,0,0,0,0.0
Status,1732151776000,27,4,1,13,1575420030,31.20,236.0,48.0,1,0,0,26.2
Status,1732151776000,27,5,2,133,1575420030,0.00,191.0,45.0,0,0,0,0.0
Status,1732151776000,27,6,1,30,1575420030,30.20,130.0,37.0,1,0,0,25.2
Status,1732151776000,27,7,1,15,1575420030,22.50,276.0,30.0,1,0,0,17.5
Status,1732151776000,27,8,1,2,1575420030,0.00,48.0,17.0,0,0,0,0.0
Status,1732151776000,27,9,1,24,1575420030,0.00,313.0,16.0,0,0,0,0.0
Status,1732151776000,27,10,1,6,1575420030,0.00,162.0,11.0,0,0,0,0.0
Status,1732151776000,27,11,1,21,1575420030,0.00,34.0,5.0,0,0,0,0.0
Status,1732151776000,27,12,1,7,1575420030,31.30,131.0,5.0,1,0,0,26.3
Status,1732151776000,27,13,3,20,1602000000,0.00,115.0,52.0,0,0,0,0.0
Status,1732151776000,27,14,3,9,1602000000,0.00,79.0,34.0,0,0,0,0.0
Status,1732151776000,27,15,3,11,1602000000,24.80,309.0,27.0,0,0,0,19.8
Status,1732151776000,27,16,3,8,1602000000,23.30,248.0,24.0,1,0,0,18.3
Status,1732151776000,27,17,3,19,1602000000,0.00,34.0,24.0,0,0,0,0.0
Status,1732151776000,27,18,6,21,1575420030,0.00,341.0,68.0,0,0,0,0.0
Status,1732151776000,27,19,6,19,1575420030,0.00,244.0,47.0,0,0,0,0.0
Status,1732151776000,27,20,6,27,1575420030,0.00,64.0,34.0,0,0,0,0.0
Status,1732151776000,27,21,6,13,1575420030,0.00,121.0,28.0,0,0,0,0.0
Status,1732151776000,27,22,6,29,1575420030,0.00,191.0,26.0,0,0,0,0.0
Status,1732151776000,27,23,6,15,1575420030,0.00,63.0,24.0,0,0,0,0.0
Status,1732151776000,27,24,6,4,1575420030,0.00,312.0,23.0,0,0,0,0.0
Status,1732151776000,27,25,6,26,1575420030,0.00,168.0,5.0,0,0,0,0.0
Status,1732151776000,27,26,6,6,1575420030,0.00,328.0,4.0,0,0,0,0.0
Fix,GPS,37.4254500000,-122.1580950000,23.400000000000002,0.0,6.3,0.0,1732151777000,2.3,179.9,30661090000000,84.0,0,,,
Raw,1732151777000,24388000000,,705416.8141381328,-1416186970612000000,0.0,174.81396878006368,1197.9340294225792,0.0,0,13,0.0,16431,350194929341402,316,26.207000732421875,712.3207861262734,0.14999,16,0.0,0.0,1575420030,,,,0,11.715842038463862,1,6.0,26.207000732421875,0.0,0.0,0.0,66.7128,C,30661090000000,
Raw,1732151777000,24388000000,,705416.8141381328,-1416186970612000000,0.0,174.81396878006368,1197.9340294225792,0.0,0,15,0.0,16431,350194925265755,797,17.465999603271484,513.2726752108596,0.14999,16,0.0,0.0,1575420030,,,,0,0.0,1,6.0,17.465999603271484,0.0,0.0,0.0,66.7128,C,30661090000000,
Raw,1732151777000,24388000000,,705416.8141381328,-1416186970612000000,0.0,174.81396878006368,1197.9340294225792,0.0,0,11,0.0,17,156399,487,18.299999237060547,-113.13572051976351,0.14999,16,0.0,0.0,1602000000,,,,0,3.9633672345426336,3,6.0,18.299999237060547,0.0,0.0,108.67631620913818,66.7128,C,30661090000000,
Raw,1732151777000,24388000000,,705416.8141381328,-1416186970612000000,0.0,174.81396878006368,1197.9340294225792,0.0,0,8,0.0,17,117571,487,5.0,931.240480457548,0.14999,16,0.0,0.0,1605374980,,,,0,1.4781748188863748,3,6.0,19.0,0.0,0.0,108.67631620913818,66.7128,C,30661090000000,
Raw,1732151777000,24388000000,,705416.8141381328,-1416186970612000000,0.0,174.81396878006368,1197.9340294225792,0.0,0,7,0.0,16431,350194917592270,316,26.277000427246094,989.9498701390132,0.14999,16,0.0,0.0,1575420030,,,,0,11.784100854491397,1,6.0,26.277000427246094,0.0,0.0,0.0,66.7128,C,30661090000000,
Raw,1732151777000,24388000000,,705416.8141381328,-1416186970612000000,0.0,174.81396878006368,1197.9340294225792,0.0,0,30,0.0,16431,350194926523541,316,25.156999588012695,860.6694778489538,0.14999,16,0.0,0.0,1575420030,,,,0,10.264828695491628,1,6.0,25.156999588012695,0.0,0.0,0.0,66.7128,C,30661090000000,
Fix,FLP,37.4254403000,-122.1581085000,3.7488631988434014,0.194648,17.766,0.00000019481442,1732151777242,2.3,179.9,30661090000000,11.607161,0,,,
Fix,FLP,37.4254446000,-122.1581033000,5.400000095367432,0.2003569,16.128,0.00000011611198,1732151777752,2.3,179.9,30661600000000,13.918494,0,,,
Fix,NLP,37.4257249000,-122.1580846000,5.400000095367432,,19.362,,1732151777752,,,30661600000000,9.612125,0,,,
Status,1732151777000,27,0,1,17,1575420030,0.00,89.0,79.0,0,0,0,0.0
Status,1732151777000,27,1,1,22,1575420030,0.00,11.0,67.0,0,0,0,0.0
Status,1732151777000,27,2,1,19,1575420030,0.00,200.0,60.0,0,0,0,0.0
Status,1732151777000,27,3,1,14,1575420030,0.00,51.0,53.0,0,0,0,0.0
Status,1732151777000,27,4,1,13,1575420030,31.10,236.0,48.0,1,0,0,26.1
Status,1732151777000,27,5,2,133,1575420030,0.00,191.0,45.0,0,0,0,0.0
Status,1732151777000,27,6,1,30,1575420030,30.10,130.0,37.0,1,0,0,25.1
Status,1732151777000,27,7,1,15,1575420030,22.60,276.0,30.0,1,0,0,17.6
Status,1732151777000,27,8,1,2,1575420030,21.80,48.0,17.0,1,0,0,16.8
Status,1732151777000,27,9,1,24,1575420030,0.00,313.0,16.0,0,0,0,0.0
Status,1732151777000,27,10,1,6,1575420030,0.00,162.0,11.0,0,0,0,0.0
Status,1732151777000,27,11,1,21,1575420030,0.00,34.0,5.0,0,0,0,0.0
Status,1732151777000,27,12,1,7,1575420030,31.90,131.0,5.0,1,0,0,26.9
Status,1732151777000,27,13,3,20,1602000000,0.00,115.0,52.0,0,0,0,0.0
Status,1732151777000,27,14,3,9,1602000000,0.00,79.0,34.0,0,0,0,0.0
Status,1732151777000,27,15,3,11,1602000000,23.80,309.0,27.0,0,0,0,18.8
Status,1732151777000,27,16,3,8,1602000000,24.80,248.0,24.0,1,0,0,19.8
Status,1732151777000,27,17,3,19,1602000000,0.00,34.0,24.0,0,0,0,0.0
Status,1732151777000,27,18,6,21,1575420030,0.00,341.0,68.0,0,0,0,0.0
Status,1732151777000,27,19,6,19,1575420030,0.00,244.0,47.0,0,0,0,0.0
Status,1732151777000,27,20,6,27,1575420030,0.00,64.0,34.0,0,0,0,0.0
Status,1732151777000,27,21,6,13,1575420030,0.00,121.0,28.0,0,0,0,0.0
Status,1732151777000,27,22,6,29,1575420030,0.00,191.0,26.0,0,0,0,0.0
Status,1732151777000,27,23,6,15,1575420030,0.00,63.0,24.0,0,0,0,0.0
Status,1732151777000,27,24,6,4,1575420030,0.00,312.0,23.0,0,0,0,0.0
Status,1732151777000,27,25,6,26,1575420030,0.00,168.0,5.0,0,0,0,0.0
Status,1732151777000,27,26,6,6,1575420030,0.00,328.0,4.0,0,0,0,0.0
Fix,GPS,37.4254350000,-122.1581033333,23.400000000000002,0.0,6.2,0.0,1732151778000,2.2,179.9,30662090000000,64.0,0,,,
Raw,1732151778000,25388000000,,705416.1887054543,-1416186970612000000,0.0,131.63268525951324,1195.9551940742638,0.0,0,13,0.0,16431,350195929339033,316,26.06399917602539,712.4724728552009,0.14999,16,0.0,0.0,1575420030,,,,0,11.507786830468518,1,6.0,26.06399917602539,0.0,0.0,0.0,66.7128,C,30662090000000,
Raw,1732151778000,25388000000,,705416.1887054543,-1416186970612000000,0.0,131.63268525951324,1195.9551940742638,0.0,0,15,0.0,16431,350195925264063,487,17.575000762939453,512.1179048175304,0.14999,16,0.0,0.0,1575420030,,,,0,1.6436253382061734,1,6.0,17.575000762939453,0.0,0.0,0.0,66.7128,C,30662090000000,
Raw,1732151778000,25388000000,,705416.1887054543,-1416186970612000000,0.0,131.63268525951324,1195.9551940742638,0.0,0,11,0.0,17,156782,396,19.799999237060547,-113.53672049109237,0.14999,16,0.0,0.0,1602000000,,,,0,2.355240493004013,3,6.0,19.799999237060547,0.0,0.0,106.80045385479906,66.7128,C,30662090000000,
Raw,1732151778000,25388000000,,705416.1887054543,-1416186970612000000,0.0,131.63268525951324,1195.9551940742638,0.0,0,8,0.0,17,114455,487,5.0,928.2971818367703,0.14999,16,0.0,0.0,1605374980,,,,0,3.976949551052374,3,6.0,19.0,0.0,0.0,106.80045385479906,66.7128,C,30662090000000,
Raw,1732151778000,25388000000,,705416.1887054543,-1416186970612000000,0.0,131.63268525951324,1195.9551940742638,0.0,0,7,0.0,16431,350195917588916,316,26.94499969482422,989.9851785353333,0.14999,16,0.0,0.0,1575420030,,,,0,12.687344029655275,1,6.0,26.94499969482422,0.0,0.0,0.0,66.7128,C,30662090000000,
Raw,1732151778000,25388000000,,705416.1887054543,-1416186970612000000,0.0,131.63268525951324,1195.9551940742638,0.0,0,2,0.0,16431,350195919180335,797,16.759000778198242,683.614595333944,0.14999,16,0.0,0.0,1575420030,,,,0,0.0,1,6.0,16.759000778198242,0.0,0.0,0.0,66.7128,C,30662090000000,
Raw,1732151778000,25388000000,,705416.1887054543,-1416186970612000000,0.0,131.63268525951324,1195.9551940742638,0.0,0,30,0.0,16431,350195926520675,396,25.075000762939453,860.5457126281689,0.14999,16,0.0,0.0,1575420030,,,,0,7.906637905002864,1,6.0,25.075000762939453,0.0,0.0,0.0,66.7128,C,30662090000000,
Fix,FLP,37.4254416000,-122.1581033000,5.400000095367432,0.17988177,16.085,0.0,1732151778242,2.2,179.9,30662090000000,13.735138,0,,,
Status,1732151778000,27,0,1,17,1575420030,0.00,89.0,79.0,0,0,0,0.0
Status,1732151778000,27,1,1,22,1575420030,0.00,11.0,67.0,0,0,0,0.0
Status,1732151778000,27,2,1,19,1575420030,0.00,200.0,60.0,0,0,0,0.0
Status,1732151778000,27,3,1,14,1575420030,0.00,51.0,53.0,0,0,0,0.0
Status,1732151778000,27,4,1,13,1575420030,28.80,236.0,48.0,1,0,0,23.8
Status,1732151778000,27,5,2,133,1575420030,0.00,191.0,45.0,0,0,0,0.0
Status,1732151778000,27,6,1,30,1575420030,30.00,130.0,37.0,1,0,0,25.0
Status,1732151778000,27,7,1,15,1575420030,25.80,276.0,30.0,1,0,0,20.8
Status,1732151778000,27,8,1,2,1575420030,0.00,48.0,17.0,0,0,0,0.0
Status,1732151778000,27,9,1,24,1575420030,0.00,313.0,16.0,0,0,0,0.0
Status,1732151778000,27,10,1,6,1575420030,0.00,162.0,11.0,0,0,0,0.0
Status,1732151778000,27,11,1,21,1575420030,0.00,34.0,5.0,0,0,0,0.0
Status,1732151778000,27,12,1,7,1575420030,0.00,131.0,5.0,0,0,0,0.0
Status,1732151778000,27,13,3,20,1602000000,0.00,115.0,52.0,0,0,0,0.0
Status,1732151778000,27,14,3,9,1602000000,0.00,79.0,34.0,0,0,0,0.0
Status,1732151778000,27,15,3,11,1602000000,24.40,309.0,27.0,0,0,0,19.4
Status,1732151778000,27,16,3,8,1602000000,22.70,248.0,24.0,1,0,0,17.7
Status,1732151778000,27,17,3,19,1602000000,0.00,34.0,24.0,0,0,0,0.0
Status,1732151778000,27,18,6,21,1575420030,0.00,341.0,68.0,0,0,0,0.0
Status,1732151778000,27,19,6,19,1575420030,0.00,244.0,47.0,0,0,0,0.0
Status,1732151778000,27,20,6,27,1575420030,0.00,64.0,34.0,0,0,0,0.0
Status,1732151778000,27,21,6,13,1575420030,0.00,121.0,28.0,0,0,0,0.0
Status,1732151778000,27,22,6,29,1575420030,0.00,191.0,26.0,0,0,0,0.0
Status,1732151778000,27,23,6,15,1575420030,0.00,63.0,24.0,0,0,0,0.0
Status,1732151778000,27,24,6,4,1575420030,0.00,312.0,23.0,0,0,0,0.0
Status,1732151778000,27,25,6,26,1575420030,0.00,168.0,5.0,0,0,0,0.0
Status,1732151778000,27,26,6,6,1575420030,0.00,328.0,4.0,0,0,0,0.0
Fix,GPS,37.4254550000,-122.1581050000,23.400000000000002,0.0,6.2,0.0,1732151779000,2.2,179.9,30663090000000,64.3,0,,,
Fix,FLP,37.4254479000,-122.1581039000,5.400000095367432,0.18961866,11.028,0.0,1732151779242,2.2,179.9,30663090000000,15.674639,0,,,
Raw,1732151779000,26388000000,,705415.7717503353,-1416186970612000000,0.0,131.55011623585676,1196.698655229381,0.0,0,13,0.0,16431,350196929336654,396,23.791000366210938,713.1590353299601,0.14999,16,0.0,0.0,1575420030,,,,0,8.321565252652553,1,6.0,23.791000366210938,0.0,0.0,0.0,66.7128,C,30663090000000,
Raw,1732151779000,26388000000,,705415.7717503353,-1416186970612000000,0.0,131.55011623585676,1196.698655229381,0.0,0,15,0.0,16431,350196925262365,487,20.768999099731445,512.3451793896323,0.14999,16,0.0,0.0,1575420030,,,,0,3.592744379991276,1,6.0,20.768999099731445,0.0,0.0,0.0,66.7128,C,30663090000000,
Raw,1732151779000,26388000000,,705415.7717503353,-1416186970612000000,0.0,131.55011623585676,1196.698655229381,0.0,0,11,0.0,17,157161,487,17.700000762939453,-113.57299643700044,0.14999,16,0.0,0.0,1602000000,,,,0,3.329078970998501,3,6.0,17.700000762939453,0.0,0.0,106.80045385479906,66.7128,C,30663090000000,
Raw,1732151779000,26388000000,,705415.7717503353,-1416186970612000000,0.0,131.55011623585676,1196.698655229381,0.0,0,8,0.0,17,111337,797,5.0,931.1208482573417,0.14999,16,0.0,0.0,1605374980,,,,0,0.31833587933264074,3,6.0,17.0,0.0,0.0,106.80045385479906,66.7128,C,30663090000000,
Raw,1732151779000,26388000000,,705415.7717503353,-1416186970612000000,0.0,131.55011623585676,1196.698655229381,0.0,0,30,0.0,16431,350196926517804,487,24.975000381469727,861.6558829419359,0.14999,16,0.0,0.0,1575420030,,,,0,7.244535421843244,1,6.0,24.975000381469727,0.0,0.0,0.0,66.7128,C,30663090000000,
Status,1732151779000,27,0,1,17,1575420030,0.00,89.0,79.0,0,0,0,0.0
Status,1732151779000,27,1,1,22,1575420030,0.00,11.0,67.0,0,0,0,0.0
Status,1732151779000,27,2,1,19,1575420030,0.00,200.0,60.0,0,0,0,0.0
Status,1732151779000,27,3,1,14,1575420030,0.00,51.0,53.0,0,0,0,0.0
Status,1732151779000,27,4,1,13,1575420030,30.70,236.0,48.0,1,0,0,25.7
Status,1732151779000,27,5,2,133,1575420030,0.00,191.0,45.0,0,0,0,0.0
Status,1732151779000,27,6,1,30,1575420030,24.40,131.0,37.0,1,0,0,19.4
Status,1732151779000,27,7,1,15,1575420030,25.80,276.0,30.0,1,0,0,20.8
Status,1732151779000,27,8,1,2,1575420030,0.00,48.0,17.0,0,0,0,0.0
Status,1732151779000,27,9,1,24,1575420030,0.00,313.0,16.0,0,0,0,0.0
Status,1732151779000,27,10,1,6,1575420030,0.00,162.0,11.0,0,0,0,0.0
Status,1732151779000,27,11,1,21,1575420030,0.00,34.0,5.0,0,0,0,0.0
Status,1732151779000,27,12,1,7,1575420030,25.80,131.0,5.0,1,0,0,20.8
Status,1732151779000,27,13,3,20,1602000000,0.00,115.0,52.0,0,0,0,0.0
Status,1732151779000,27,14,3,9,1602000000,0.00,79.0,34.0,0,0,0,0.0
Status,1732151779000,27,15,3,11,1602000000,23.10,309.0,27.0,0,0,0,18.1
Status,1732151779000,27,16,3,8,1602000000,19.50,248.0,24.0,1,0,0,14.5
Status,1732151779000,27,17,3,19,1602000000,0.00,34.0,24.0,0,0,0,0.0
Status,1732151779000,27,18,6,21,1575420030,0.00,341.0,68.0,0,0,0,0.0
Status,1732151779000,27,19,6,19,1575420030,0.00,244.0,47.0,0,0,0,0.0
Status,1732151779000,27,20,6,27,1575420030,0.00,64.0,34.0,0,0,0,0.0
Status,1732151779000,27,21,6,13,1575420030,0.00,121.0,28.0,0,0,0,0.0
Status,1732151779000,27,22,6,29,1575420030,0.00,191.0,26.0,0,0,0,0.0
Status,1732151779000,27,23,6,15,1575420030,0.00,63.0,24.0,0,0,0,0.0
Status,1732151779000,27,24,6,4,1575420030,0.00,312.0,23.0,0,0,0,0.0
Status,1732151779000,27,25,6,26,1575420030,0.00,168.0,5.0,0,0,0,0.0
Status,1732151779000,27,26,6,6,1575420030,0.00,328.0,4.0,0,0,0,0.0
Fix,GPS,37.4254683333,-122.1581083333,23.400000000000002,0.0,6.2,0.0,1732151780000,2.2,179.9,30664090000000,62.4,0,,,
Raw,1732151780000,27388000000,,705415.1984370467,-1416186970612000000,0.0,127.26990041361901,1197.318320272248,0.0,0,13,0.0,16431,350197929334279,487,25.673999786376953,713.1946689351936,0.14999,16,0.0,0.0,1575420030,,,,0,10.96474190959622,1,6.0,25.673999786376953,0.0,0.0,0.0,66.7128,C,30664090000000,
Raw,1732151780000,27388000000,,705415.1984370467,-1416186970612000000,0.0,127.26990041361901,1197.318320272248,0.0,0,15,0.0,16431,350197925260654,487,20.768999099731445,513.3020369299046,0.14999,16,0.0,0.0,1575420030,,,,0,3.592744379991276,1,6.0,20.768999099731445,0.0,0.0,0.0,66.7128,C,30664090000000,
Raw,1732151780000,27388000000,,705415.1984370467,-1416186970612000000,0.0,127.26990041361901,1197.318320272248,0.0,0,7,0.0,16431,350197917582262,487,20.768999099731445,990.5653512369704,0.14999,16,0.0,0.0,1575420030,,,,0,3.592744379991276,1,6.0,20.768999099731445,0.0,0.0,0.0,66.7128,C,30664090000000,
Raw,1732151780000,27388000000,,705415.1984370467,-1416186970612000000,0.0,127.26990041361901,1197.318320272248,0.0,0,11,0.0,17,157544,797,14.5,-112.9453860227194,0.14999,16,0.0,0.0,1602000000,,,,0,1.089603782119855,3,6.0,14.5,0.0,0.0,106.80045385479906,66.7128,C,30664090000000,
Raw,1732151780000,27388000000,,705415.1984370467,-1416186970612000000,0.0,127.26990041361901,1197.318320272248,0.0,0,8,0.0,17,108244,487,5.0,929.8414584699216,0.14999,16,0.0,0.0,1605374980,,,,0,0.0,3,6.0,20.0,0.0,0.0,106.80045385479906,66.7128,C,30664090000000,
Raw,1732151780000,27388000000,,705415.1984370467,-1416186970612000000,0.0,127.26990041361901,1197.318320272248,0.0,0,30,0.0,16431,350197926514931,797,19.42799949645996,861.7108897067292,0.14999,16,0.0,0.0,1575420030,,,,0,1.3095114681491191,1,6.0,19.42799949645996,0.0,0.0,0.0,66.7128,C,30664090000000,
Fix,FLP,37.4254574000,-122.1581057000,5.400000095367432,0.20932092,11.0,0.0,1732151780242,2.2,179.9,30664090000000,17.975826,0,,,
Status,1732151780000,26,0,1,17,1575420030,0.00,89.0,79.0,0,0,0,0.0
Status,1732151780000,26,1,1,22,1575420030,0.00,11.0,67.0,0,0,0,0.0
Status,1732151780000,26,2,1,19,1575420030,19.40,200.0,60.0,1,0,0,14.4
Status,1732151780000,26,3,1,14,1575420030,0.00,51.0,53.0,0,0,0,0.0
Status,1732151780000,26,4,1,13,1575420030,30.70,236.0,48.0,1,0,0,25.7
Status,1732151780000,26,5,1,30,1575420030,0.00,131.0,37.0,0,0,0,0.0
Status,1732151780000,26,6,1,15,1575420030,25.70,276.0,30.0,1,0,0,20.7
Status,1732151780000,26,7,1,2,1575420030,0.00,48.0,17.0,0,0,0,0.0
Status,1732151780000,26,8,1,24,1575420030,0.00,313.0,16.0,0,0,0,0.0
Status,1732151780000,26,9,1,6,1575420030,0.00,162.0,11.0,0,0,0,0.0
Status,1732151780000,26,10,1,21,1575420030,0.00,34.0,5.0,0,0,0,0.0
Status,1732151780000,26,11,1,7,1575420030,30.10,131.0,5.0,1,0,0,25.1
Status,1732151780000,26,12,3,20,1602000000,0.00,115.0,52.0,0,0,0,0.0
Status,1732151780000,26,13,3,9,1602000000,0.00,79.0,34.0,0,0,0,0.0
Status,1732151780000,26,14,3,11,1602000000,23.30,309.0,27.0,0,0,0,18.3
Status,1732151780000,26,15,3,8,1602000000,24.30,248.0,24.0,1,0,0,19.3
Status,1732151780000,26,16,3,19,1602000000,0.00,34.0,24.0,0,0,0,0.0
Status,1732151780000,26,17,6,21,1575420030,0.00,341.0,68.0,0,0,0,0.0
Status,1732151780000,26,18,6,19,1575420030,0.00,244.0,47.0,0,0,0,0.0
Status,1732151780000,26,19,6,27,1575420030,0.00,64.0,34.0,0,0,0,0.0
Status,1732151780000,26,20,6,13,1575420030,0.00,121.0,28.0,0,0,0,0.0
Status,1732151780000,26,21,6,29,1575420030,0.00,191.0,26.0,0,0,0,0.0
Status,1732151780000,26,22,6,15,1575420030,0.00,63.0,24.0,0,0,0,0.0
Status,1732151780000,26,23,6,4,1575420030,0.00,312.0,23.0,0,0,0,0.0
Status,1732151780000,26,24,6,26,1575420030,0.00,168.0,5.0,0,0,0,0.0
Status,1732151780000,26,25,6,6,1575420030,0.00,328.0,4.0,0,0,0,0.0
Fix,GPS,37.4254866667,-122.1581083333,23.400000000000002,0.0,6.2,0.0,1732151781000,2.2,179.9,30665090000000,49.4,0,,,
Fix,FLP,37.4254708000,-122.1581068000,5.400000095367432,0.24090107,10.985,0.0,1732151781242,2.2,179.9,30665090000000,15.2374115,0,,,
Raw,1732151781000,28388000000,,705398.6765904565,-1416186970612000000,0.0,95.0126679581464,1197.805551487322,0.0,0,13,0.0,16431,350198929331900,797,25.673999786376953,713.5161611753706,0.14999,16,0.0,0.0,1575420030,,,,0,10.96474190959622,1,6.0,25.673999786376953,0.0,0.0,0.0,66.7128,C,30665090000000,
Raw,1732151781000,28388000000,,705398.6765904565,-1416186970612000000,0.0,95.0126679581464,1197.805551487322,0.0,0,15,0.0,16431,350198925258939,487,20.65999984741211,513.1396183068325,0.14999,16,0.0,0.0,1575420030,,,,0,0.0,1,6.0,20.65999984741211,0.0,0.0,0.0,66.7128,C,30665090000000,
Raw,1732151781000,28388000000,,705398.6765904565,-1416186970612000000,0.0,95.0126679581464,1197.805551487322,0.0,0,19,0.0,16431,350198930818135,797,14.399999618530273,-36.08439124597373,0.14999,16,0.0,0.0,1575420030,,,,0,0.0,1,6.0,14.399999618530273,0.0,0.0,0.0,66.7128,C,30665090000000,
Raw,1732151781000,28388000000,,705398.6765904565,-1416186970612000000,0.0,95.0126679581464,1197.805551487322,0.0,0,7,0.0,16431,350198917578992,316,25.075000762939453,991.4155402536232,0.14999,16,0.0,0.0,1575420030,,,,0,10.14249019929799,1,6.0,25.075000762939453,0.0,0.0,0.0,66.7128,C,30665090000000,
Raw,1732151781000,28388000000,,705398.6765904565,-1416186970612000000,0.0,95.0126679581464,1197.805551487322,0.0,0,11,0.0,17,157919,487,19.299999237060547,-112.84578707803477,0.14999,16,0.0,0.0,1602000000,,,,0,1.4237176521769088,3,6.0,19.299999237060547,0.0,0.0,106.80045385479906,66.7128,C,30665090000000,
Raw,1732151781000,28388000000,,705398.6765904565,-1416186970612000000,0.0,95.0126679581464,1197.805551487322,0.0,0,8,0.0,17,105145,487,5.0,930.3086805688981,0.14999,16,0.0,0.0,1605374980,,,,0,3.1681899194111045,3,6.0,20.0,0.0,0.0,106.80045385479906,66.7128,C,30665090000000,
Status,1732151781000,26,0,1,17,1575420030,0.00,89.0,79.0,0,0,0,0.0
Status,1732151781000,26,1,1,22,1575420030,0.00,11.0,67.0,0,0,0,0.0
Status,1732151781000,26,2,1,19,1575420030,19.40,200.0,60.0,1,0,0,14.4
Status,1732151781000,26,3,1,14,1575420030,0.00,51.0,53.0,0,0,0,0.0
Status,1732151781000,26,4,1,13,1575420030,22.90,236.0,48.0,1,0,0,17.9
Status,1732151781000,26,5,1,30,1575420030,29.70,131.0,37.0,1,0,0,24.7
Status,1732151781000,26,6,1,15,1575420030,25.60,276.0,30.0,1,0,0,20.6
Status,1732151781000,26,7,1,2,1575420030,0.00,48.0,17.0,0,0,0,0.0
Status,1732151781000,26,8,1,24,1575420030,0.00,313.0,16.0,0,0,0,0.0
Status,1732151781000,26,9,1,6,1575420030,0.00,162.0,11.0,0,0,0,0.0
Status,1732151781000,26,10,1,21,1575420030,0.00,34.0,5.0,0,0,0,0.0
Status,1732151781000,26,11,1,7,1575420030,29.70,131.0,5.0,1,0,0,24.7
Status,1732151781000,26,12,3,20,1602000000,0.00,115.0,52.0,0,0,0,0.0
Status,1732151781000,26,13,3,9,1602000000,0.00,79.0,34.0,0,0,0,0.0
Status,1732151781000,26,14,3,11,1602000000,0.00,309.0,27.0,0,0,0,0.0
Status,1732151781000,26,15,3,8,1602000000,0.00,248.0,24.0,0,0,0,0.0
Status,1732151781000,26,16,3,19,1602000000,0.00,34.0,24.0,0,0,0,0.0
Status,1732151781000,26,17,6,21,1575420030,0.00,341.0,68.0,0,0,0,0.0
Status,1732151781000,26,18,6,19,1575420030,0.00,244.0,47.0,0,0,0,0.0
Status,1732151781000,26,19,6,27,1575420030,0.00,64.0,34.0,0,0,0,0.0
Status,1732151781000,26,20,6,13,1575420030,0.00,121.0,28.0,0,0,0,0.0
Status,1732151781000,26,21,6,29,1575420030,0.00,191.0,26.0,0,0,0,0.0
Status,1732151781000,26,22,6,15,1575420030,0.00,63.0,24.0,0,0,0,0.0
Status,1732151781000,26,23,6,4,1575420030,0.00,312.0,23.0,0,0,0,0.0
Status,1732151781000,26,24,6,26,1575420030,0.00,168.0,5.0,0,0,0,0.0
Status,1732151781000,26,25,6,6,1575420030,0.00,328.0,4.0,0,0,0,0.0
Fix,GPS,37.4255100000,-122.1581050000,23.400000000000002,0.0,6.3,0.0,1732151782000,2.2,179.9,30666090000000,49.5,0,,,
Fix,FLP,37.4254884000,-122.1581061000,5.400000095367432,0.28378338,6.242,0.000000010407894,1732151782243,2.2,179.9,30666090000000,14.396398,0,,,
Raw,1732151782000,29388000000,,705384.0831612915,-1416186970612000000,0.0,95.1945513953703,1198.522964742491,0.0,0,13,0.0,16431,350199929329501,797,17.945999145507812,713.2281189948652,0.14999,16,0.0,0.0,1575420030,,,,0,0.0,1,6.0,17.945999145507812,0.0,0.0,0.0,66.7128,C,30666090000000,
Raw,1732151782000,29388000000,,705384.0831612915,-1416186970612000000,0.0,95.1945513953703,1198.522964742491,0.0,0,15,0.0,16431,350199925257225,797,20.555999755859375,514.183910586413,0.14999,16,0.0,0.0,1575420030,,,,0,0.0,1,6.0,20.555999755859375,0.0,0.0,0.0,66.7128,C,30666090000000,
Raw,1732151782000,29388000000,,705384.0831612915,-1416186970612000000,0.0,95.1945513953703,1198.522964742491,0.0,0,19,0.0,16431,350199930818255,797,14.399999618530273,-35.28646794755773,0.14999,16,0.0,0.0,1575420030,,,,0,0.0,1,6.0,14.399999618530273,0.0,0.0,0.0,66.7128,C,30666090000000,
Raw,1732151782000,29388000000,,705384.0831612915,-1416186970612000000,0.0,95.1945513953703,1198.522964742491,0.0,0,7,0.0,16431,350199917575630,316,24.660999298095703,991.1081713719743,0.14999,16,0.0,0.0,1575420030,,,,0,9.547624764326347,1,6.0,24.660999298095703,0.0,0.0,0.0,66.7128,C,30666090000000,
Raw,1732151782000,29388000000,,705384.0831612915,-1416186970612000000,0.0,95.1945513953703,1198.522964742491,0.0,0,30,0.0,16431,350199926509263,316,24.718000411987305,861.926642591611,0.14999,16,0.0,0.0,1575420030,,,,0,9.635140765532107,1,6.0,24.718000411987305,0.0,0.0,0.0,66.7128,C,30666090000000,
Fix,FLP,37.4254974000,-122.1581057000,5.400000095367432,0.27124074,6.233,0.000000000088953754,1732151782911,2.2,179.9,30666758000000,16.346546,0,,,
Fix,NLP,37.4257138000,-122.1580948000,5.400000095367432,,110.0,,1732151782910,,,30666758000000,23.401405,0,,,
Status,1732151782000,26,0,1,17,1575420030,0.00,89.0,79.0,0,0,0,0.0
Status,1732151782000,26,1,1,22,1575420030,0.00,11.0,67.0,0,0,0,0.0
Status,1732151782000,26,2,1,19,1575420030,19.70,200.0,60.0,1,0,0,14.700001
Status,1732151782000,26,3,1,14,1575420030,0.00,51.0,53.0,0,0,0,0.0
Status,1732151782000,26,4,1,13,1575420030,22.90,236.0,48.0,1,0,0,17.9
Status,1732151782000,26,5,1,30,1575420030,30.50,131.0,37.0,1,0,0,25.5
Status,1732151782000,26,6,1,15,1575420030,18.10,276.0,30.0,1,0,0,13.1
Status,1732151782000,26,7,1,2,1575420030,0.00,48.0,17.0,0,0,0,0.0
Status,1732151782000,26,8,1,24,1575420030,0.00,313.0,16.0,0,0,0,0.0
Status,1732151782000,26,9,1,6,1575420030,0.00,162.0,11.0,0,0,0,0.0
Status,1732151782000,26,10,1,21,1575420030,0.00,34.0,5.0,0,0,0,0.0
Status,1732151782000,26,11,1,7,1575420030,29.70,131.0,5.0,1,0,0,24.7
Status,1732151782000,26,12,3,20,1602000000,0.00,115.0,52.0,0,0,0,0.0
Status,1732151782000,26,13,3,9,1602000000,0.00,79.0,34.0,0,0,0,0.0
Status,1732151782000,26,14,3,11,1602000000,0.00,309.0,27.0,0,0,0,0.0
Status,1732151782000,26,15,3,8,1602000000,24.60,248.0,24.0,1,0,0,19.6
Status,1732151782000,26,16,3,19,1602000000,0.00,34.0,24.0,0,0,0,0.0
Status,1732151782000,26,17,6,21,1575420030,0.00,341.0,68.0,0,0,0,0.0
Status,1732151782000,26,18,6,19,1575420030,0.00,244.0,47.0,0,0,0,0.0
Status,1732151782000,26,19,6,27,1575420030,0.00,64.0,34.0,0,0,0,0.0
Status,1732151782000,26,20,6,13,1575420030,0.00,121.0,28.0,0,0,0,0.0
Status,1732151782000,26,21,6,29,1575420030,0.00,191.0,26.0,0,0,0,0.0
Status,1732151782000,26,22,6,15,1575420030,0.00,63.0,24.0,0,0,0,0.0
Status,1732151782000,26,23,6,4,1575420030,0.00,312.0,23.0,0,0,0,0.0
Status,1732151782000,26,24,6,26,1575420030,0.00,168.0,5.0,0,0,0,0.0
Status,1732151782000,26,25,6,6,1575420030,0.00,328.0,4.0,0,0,0,0.0
Fix,GPS,37.4255283333,-122.1581000000,23.400000000000002,0.0,6.4,0.0,1732151783000,2.2,179.9,30667090000000,52.2,0,,,
Fix,FLP,37.4255073000,-122.1581040000,5.400000095367432,0.27206016,6.257,0.0000000005072603,1732151783242,2.2,179.9,30667090000000,16.358305,0,,,
Raw,1732151783000,30388000000,,995893.027936013,-1416186970612000000,0.0,99.234064962099,1200.5286032143936,0.0,0,13,0.0,16431,350200929327120,487,17.945999145507812,714.143163960548,0.14999,16,0.0,0.0,1575420030,,,,0,0.0,1,6.0,17.945999145507812,0.0,0.0,0.0,66.7128,C,30667090000000,
Raw,1732151783000,30388000000,,995893.027936013,-1416186970612000000,0.0,99.234064962099,1200.5286032143936,0.0,0,15,0.0,16431,350200925255510,797,13.100000381469727,514.76445495538,0.14999,16,0.0,0.0,1575420030,,,,0,0.0,1,6.0,13.100000381469727,0.0,0.0,0.0,66.7128,C,30667090000000,
Raw,1732151783000,30388000000,,995893.027936013,-1416186970612000000,0.0,99.234064962099,1200.5286032143936,0.0,0,19,0.0,16431,350200930818410,797,14.699999809265137,-35.45980429843925,0.14999,16,0.0,0.0,1575420030,,,,0,0.0,1,6.0,14.699999809265137,0.0,0.0,0.0,66.7128,C,30667090000000,
Raw,1732151783000,30388000000,,995893.027936013,-1416186970612000000,0.0,99.234064962099,1200.5286032143936,0.0,0,7,0.0,16431,350200917572366,396,24.746000289916992,991.5745209538958,0.14999,16,0.0,0.0,1575420030,,,,0,9.67857030420079,1,6.0,24.746000289916992,0.0,0.0,0.0,66.7128,C,30667090000000,
Raw,1732151783000,30388000000,,995893.027936013,-1416186970612000000,0.0,99.234064962099,1200.5286032143936,0.0,0,30,0.0,16431,350200926506283,396,25.520000457763672,862.6041921336255,0.14999,16,0.0,0.0,1575420030,,,,0,10.775910784939391,1,6.0,25.520000457763672,0.0,0.0,0.0,66.7128,C,30667090000000,
Raw,1732151783000,30388000000,,995893.027936013,-1416186970612000000,0.0,99.234064962099,1200.5286032143936,0.0,0,8,0.0,17,98907,797,5.0,933.4782044097307,0.14999,16,0.0,0.0,1605374980,,,,0,3.6099405186678717,3,6.0,17.0,0.0,0.0,105.80374247470223,66.7128,C,30667090000000,
Status,1732151783000,26,0,1,17,1575420030,0.00,89.0,79.0,0,0,0,0.0
Status,1732151783000,26,1,1,22,1575420030,0.00,11.0,67.0,0,0,0,0.0
Status,1732151783000,26,2,1,19,1575420030,19.70,200.0,60.0,1,0,0,14.700001
Status,1732151783000,26,3,1,14,1575420030,0.00,51.0,53.0,0,0,0,0.0
Status,1732151783000,26,4,1,13,1575420030,31.40,236.0,48.0,1,0,0,26.4
Status,1732151783000,26,5,1,30,1575420030,27.10,131.0,37.0,1,0,0,22.1
Status,1732151783000,26,6,1,15,1575420030,18.10,276.0,30.0,1,0,0,13.1
Status,1732151783000,26,7,1,2,1575420030,0.00,48.0,17.0,0,0,0,0.0
Status,1732151783000,26,8,1,24,1575420030,0.00,313.0,16.0,0,0,0,0.0
Status,1732151783000,26,9,1,6,1575420030,0.00,162.0,11.0,0,0,0,0.0
Status,1732151783000,26,10,1,21,1575420030,0.00,34.0,5.0,0,0,0,0.0
Status,1732151783000,26,11,1,7,1575420030,28.60,131.0,5.0,1,0,0,23.6
Status,1732151783000,26,12,3,20,1602000000,0.00,115.0,52.0,0,0,0,0.0
Status,1732151783000,26,13,3,9,1602000000,0.00,79.0,34.0,0,0,0,0.0
Status,1732151783000,26,14,3,11,1602000000,0.00,309.0,27.0,0,0,0,0.0
Status,1732151783000,26,15,3,8,1602000000,23.90,248.0,24.0,1,0,0,18.9
Status,1732151783000,26,16,3,19,1602000000,0.00,34.0,24.0,0,0,0,0.0
Status,1732151783000,26,17,6,21,1575420030,0.00,341.0,68.0,0,0,0,0.0
Status,1732151783000,26,18,6,19,1575420030,0.00,244.0,47.0,0,0,0,0.0
Status,1732151783000,26,19,6,27,1575420030,0.00,64.0,34.0,0,0,0,0.0
Status,1732151783000,26,20,6,13,1575420030,0.00,121.0,28.0,0,0,0,0.0
Status,1732151783000,26,21,6,29,1575420030,0.00,191.0,26.0,0,0,0,0.0
Status,1732151783000,26,22,6,15,1575420030,0.00,63.0,24.0,0,0,0,0.0
Status,1732151783000,26,23,6,4,1575420030,0.00,312.0,23.0,0,0,0,0.0
Status,1732151783000,26,24,6,26,1575420030,0.00,168.0,5.0,0,0,0,0.0
Status,1732151783000,26,25,6,6,1575420030,0.00,328.0,4.0,0,0,0,0.0
Fix,GPS,37.4255316667,-122.1581033333,23.500000000000004,0.0,6.4,0.0,1732151784000,2.2,179.9,30668090000000,51.9,0,,,
Fix,FLP,37.4255177000,-122.1581038000,5.400000095367432,0.2701802,6.285,0.00000000005877665,1732151784242,2.2,179.9,30668090000000,12.917688,0,,,
Raw,1732151784000,31388000000,,705559.1521918807,-1416186970612000000,0.0,99.34359711738257,1201.125957577546,0.0,0,13,0.0,16431,350201929324775,396,26.368999481201172,714.1977990580116,0.14999,16,0.0,0.0,1575420030,,,,0,11.9190300087663,1,6.0,26.368999481201172,0.0,0.0,0.0,66.7128,C,30668090000000,
Raw,1732151784000,31388000000,,705559.1521918807,-1416186970612000000,0.0,99.34359711738257,1201.125957577546,0.0,0,15,0.0,16431,350201925253793,797,13.100000381469727,514.842783845111,0.14999,16,0.0,0.0,1575420030,,,,0,0.0,1,6.0,13.100000381469727,0.0,0.0,0.0,66.7128,C,30668090000000,
Raw,1732151784000,31388000000,,705559.1521918807,-1416186970612000000,0.0,99.34359711738257,1201.125957577546,0.0,0,19,0.0,16431,350201930818526,797,14.699999809265137,-34.827365878565196,0.14999,16,0.0,0.0,1575420030,,,,0,0.0,1,6.0,14.699999809265137,0.0,0.0,0.0,66.7128,C,30668090000000,
Raw,1732151784000,31388000000,,705559.1521918807,-1416186970612000000,0.0,99.34359711738257,1201.125957577546,0.0,0,7,0.0,16431,350201917569057,396,23.562000274658203,991.6176343641391,0.14999,16,0.0,0.0,1575420030,,,,0,7.959600810796628,1,6.0,23.562000274658203,0.0,0.0,0.0,66.7128,C,30668090000000,
Raw,1732151784000,31388000000,,705559.1521918807,-1416186970612000000,0.0,99.34359711738257,1201.125957577546,0.0,0,30,0.0,16431,350201926503406,487,22.08300018310547,862.6881889501341,0.14999,16,0.0,0.0,1575420030,,,,0,5.678093275313501,1,6.0,22.08300018310547,0.0,0.0,0.0,66.7128,C,30668090000000,
Raw,1732151784000,31388000000,,705559.1521918807,-1416186970612000000,0.0,99.34359711738257,1201.125957577546,0.0,0,8,0.0,17,95794,487,5.0,930.9702138101306,0.14999,16,0.0,0.0,1605374980,,,,0,2.378019093737632,3,6.0,19.0,0.0,0.0,105.09373064759251,66.7128,C,30668090000000,
Status,1732151784000,28,0,1,17,1575420030,0.00,89.0,79.0,0,0,0,0.0
Status,1732151784000,28,1,1,22,1575420030,0.00,11.0,67.0,0,0,0,0.0
Status,1732151784000,28,2,1,19,1575420030,19.70,200.0,60.0,1,0,0,14.700001
Status,1732151784000,28,3,1,14,1575420030,0.00,51.0,53.0,0,0,0,0.0
Status,1732151784000,28,4,1,13,1575420030,31.40,236.0,48.0,1,0,0,26.4
Status,1732151784000,28,5,2,135,1575420030,0.00,197.0,45.0,0,0,0,0.0
Status,1732151784000,28,6,1,30,1575420030,30.20,131.0,37.0,1,0,0,25.2
Status,1732151784000,28,7,1,15,1575420030,18.10,276.0,30.0,1,0,0,13.1
Status,1732151784000,28,8,1,2,1575420030,0.00,48.0,17.0,0,0,0,0.0
Status,1732151784000,28,9,1,24,1575420030,0.00,313.0,16.0,0,0,0,0.0
Status,1732151784000,28,10,1,6,1575420030,0.00,162.0,11.0,0,0,0,0.0
Status,1732151784000,28,11,1,21,1575420030,0.00,34.0,5.0,0,0,0,0.0
Status,1732151784000,28,12,1,7,1575420030,28.70,131.0,5.0,1,0,0,23.7
Status,1732151784000,28,13,3,20,1602000000,0.00,115.0,52.0,0,0,0,0.0
Status,1732151784000,28,14,3,9,1602000000,0.00,79.0,34.0,0,0,0,0.0
Status,1732151784000,28,15,3,11,1602000000,22.70,309.0,27.0,0,0,0,17.7
Status,1732151784000,28,16,3,8,1602000000,28.30,248.0,24.0,1,0,0,23.3
Status,1732151784000,28,17,3,19,1602000000,0.00,34.0,24.0,0,0,0,0.0
Status,1732151784000,28,18,3,17,1602000000,26.00,0.0,0.0,0,0,0,21.0
Status,1732151784000,28,19,6,21,1575420030,0.00,341.0,68.0,0,0,0,0.0
Status,1732151784000,28,20,6,19,1575420030,0.00,244.0,47.0,0,0,0,0.0
Status,1732151784000,28,21,6,27,1575420030,0.00,64.0,34.0,0,0,0,0.0
Status,1732151784000,28,22,6,13,1575420030,0.00,121.0,28.0,0,0,0,0.0
Status,1732151784000,28,23,6,29,1575420030,0.00,191.0,26.0,0,0,0,0.0
Status,1732151784000,28,24,6,15,1575420030,0.00,63.0,24.0,0,0,0,0.0
Status,1732151784000,28,25,6,4,1575420030,0.00,312.0,23.0,0,0,0,0.0
Status,1732151784000,28,26,6,26,1575420030,0.00,168.0,5.0,0,0,0,0.0
Status,1732151784000,28,27,6,6,1575420030,0.00,328.0,4.0,0,0,0,0.0
Fix,GPS,37.4255333333,-122.1581100000,23.500000000000004,0.0,6.4,0.0,1732151785000,2.2,179.9,30669090000000,49.2,0,,,
Raw,1732151785000,32388000000,,705429.1664335332,-1416186970612000000,0.0,96.07113311137955,1197.3711855787583,0.0,0,13,0.0,16431,350202929322389,235,26.40999984741211,713.1552721982471,0.14999,16,0.0,0.0,1575420030,,,,0,13.017988747539174,1,6.0,26.40999984741211,0.0,0.0,0.0,66.7128,C,30669090000000,
Raw,1732151785000,32388000000,,705429.1664335332,-1416186970612000000,0.0,96.07113311137955,1197.3711855787583,0.0,0,15,0.0,16431,350202925252078,797,13.100000381469727,513.1554141683441,0.14999,16,0.0,0.0,1575420030,,,,0,0.0,1,6.0,13.100000381469727,0.0,0.0,0.0,66.7128,C,30669090000000,
Raw,1732151785000,32388000000,,705429.1664335332,-1416186970612000000,0.0,96.07113311137955,1197.3711855787583,0.0,0,19,0.0,16431,350202930818644,1797,14.699999809265137,-35.923366375388,0.14999,16,0.0,0.0,1575420030,,,,0,0.0,1,6.0,14.699999809265137,0.0,0.0,0.0,66.7128,C,30669090000000,
Raw,1732151785000,32388000000,,705429.1664335332,-1416186970612000000,0.0,96.07113311137955,1197.3711855787583,0.0,0,7,0.0,16431,350202917565751,396,23.726999282836914,990.63057885333,0.14999,16,0.0,0.0,1575420030,,,,0,8.219676815858787,1,6.0,23.726999282836914,0.0,0.0,0.0,66.7128,C,30669090000000,
Raw,1732151785000,32388000000,,705429.1664335332,-1416186970612000000,0.0,96.07113311137955,1197.3711855787583,0.0,0,30,0.0,16431,350202926500536,396,25.23699951171875,861.7528881149835,0.14999,16,0.0,0.0,1575420030,,,,0,10.38546799088989,1,6.0,25.23699951171875,0.0,0.0,0.0,66.7128,C,30669090000000,
Raw,1732151785000,32388000000,,705429.1664335332,-1416186970612000000,0.0,96.07113311137955,1197.3711855787583,0.0,0,11,0.0,17,159420,487,23.299999237060547,-113.46499097588372,0.14999,16,0.0,0.0,1602000000,,,,0,0.38015741887547794,3,6.0,23.299999237060547,0.0,0.0,97.86510583775174,66.7128,C,30669090000000,
Raw,1732151785000,32388000000,,705429.1664335332,-1416186970612000000,0.0,96.07113311137955,1197.3711855787583,0.0,0,8,0.0,17,92693,396,5.0,929.3767894971689,0.14999,16,0.0,0.0,1605374980,,,,0,8.920330373302082,3,6.0,22.0,0.0,0.0,97.86510583775174,66.7128,C,30669090000000,
Fix,FLP,37.4255251000,-122.1581060000,5.400000095367432,0.25087053,6.314,0.0,1732151785242,2.2,179.9,30669090000000,15.362105,0,,,
Status,1732151785000,28,0,1,17,1575420030,0.00,89.0,79.0,0,0,0,0.0
Status,1732151785000,28,1,1,22,1575420030,0.00,11.0,67.0,0,0,0,0.0
Status,1732151785000,28,2,1,19,1575420030,20.90,200.0,60.0,1,0,0,15.9
Status,1732151785000,28,3,1,14,1575420030,0.00,51.0,53.0,0,0,0,0.0
Status,1732151785000,28,4,1,13,1575420030,32.00,236.0,48.0,1,0,0,27.0
Status,1732151785000,28,5,2,135,1575420030,0.00,197.0,45.0,0,0,0,0.0
Status,1732151785000,28,6,1,30,1575420030,0.00,131.0,37.0,0,0,0,0.0
Status,1732151785000,28,7,1,15,1575420030,23.90,276.0,30.0,1,0,0,18.9
Status,1732151785000,28,8,1,2,1575420030,0.00,48.0,17.0,0,0,0,0.0
Status,1732151785000,28,9,1,24,1575420030,0.00,313.0,16.0,0,0,0,0.0
Status,1732151785000,28,10,1,6,1575420030,0.00,162.0,11.0,0,0,0,0.0
Status,1732151785000,28,11,1,21,1575420030,0.00,34.0,5.0,0,0,0,0.0
Status,1732151785000,28,12,1,7,1575420030,28.60,131.0,5.0,1,0,0,23.6
Status,1732151785000,28,13,3,20,1602000000,0.00,115.0,52.0,0,0,0,0.0
Status,1732151785000,28,14,3,9,1602000000,0.00,79.0,34.0,0,0,0,0.0
Status,1732151785000,28,15,3,11,1602000000,22.30,309.0,27.0,0,0,0,17.3
Status,1732151785000,28,16,3,8,1602000000,23.20,248.0,24.0,1,0,0,18.2
Status,1732151785000,28,17,3,19,1602000000,0.00,34.0,24.0,0,0,0,0.0
Status,1732151785000,28,18,3,17,1602000000,25.40,0.0,0.0,0,0,0,20.4
Status,1732151785000,28,19,6,21,1575420030,0.00,341.0,68.0,0,0,0,0.0
Status,1732151785000,28,20,6,19,1575420030,0.00,244.0,47.0,0,0,0,0.0
Status,1732151785000,28,21,6,27,1575420030,0.00,64.0,34.0,0,0,0,0.0
Status,1732151785000,28,22,6,13,1575420030,0.00,121.0,28.0,0,0,0,0.0
Status,1732151785000,28,23,6,29,1575420030,0.00,191.0,26.0,0,0,0,0.0
Status,1732151785000,28,24,6,15,1575420030,0.00,63.0,24.0,0,0,0,0.0
Status,1732151785000,28,25,6,4,1575420030,0.00,312.0,23.0,0,0,0,0.0
Status,1732151785000,28,26,6,26,1575420030,0.00,168.0,5.0,0,0,0,0.0
Status,1732151785000,28,27,6,6,1575420030,0.00,328.0,4.0,0,0,0,0.0
Fix,GPS,37.4255416667,-122.1581150000,23.400000000000002,0.0,6.4,0.0,1732151786000,2.2,179.9,30670090000000,49.3,0,,,
Raw,1732151786000,33388000000,,705414.8336013176,-1416186970612000000,0.0,96.4515944778966,1191.8567916263587,0.0,0,13,0.0,16431,350203929320008,487,27.030000686645508,711.4059269942555,0.14999,16,0.0,0.0,1575420030,,,,0,12.809039745589754,1,6.0,27.030000686645508,0.0,0.0,0.0,66.7128,C,30670090000000,
Raw,1732151786000,33388000000,,705414.8336013176,-1416186970612000000,0.0,96.4515944778966,1191.8567916263587,0.0,0,15,0.0,16431,350203925250347,487,18.930999755859375,511.9992500225287,0.14999,16,0.0,0.0,1575420030,,,,0,0.35009419492527893,1,6.0,18.930999755859375,0.0,0.0,0.0,66.7128,C,30670090000000,
Raw,1732151786000,33388000000,,705414.8336013176,-1416186970612000000,0.0,96.4515944778966,1191.8567916263587,0.0,0,19,0.0,16431,350203930818826,797,15.937000274658203,-37.43619178245176,0.14999,16,0.0,0.0,1575420030,,,,0,0.0,1,6.0,15.937000274658203,0.0,0.0,0.0,66.7128,C,30670090000000,
Raw,1732151786000,33388000000,,705414.8336013176,-1416186970612000000,0.0,96.4515944778966,1191.8567916263587,0.0,0,7,0.0,16431,350203917562455,396,23.59600067138672,989.4618709351378,0.14999,16,0.0,0.0,1575420030,,,,0,8.012242727311518,1,6.0,23.59600067138672,0.0,0.0,0.0,66.7128,C,30670090000000,
Raw,1732151786000,33388000000,,705414.8336013176,-1416186970612000000,0.0,96.4515944778966,1191.8567916263587,0.0,0,11,0.0,17,159801,487,18.200000762939453,-115.14551757328486,0.14999,16,0.0,0.0,1602000000,,,,0,0.0,3,6.0,18.200000762939453,0.0,0.0,97.86510583775174,66.7128,C,30670090000000,
Raw,1732151786000,33388000000,,705414.8336013176,-1416186970612000000,0.0,96.4515944778966,1191.8567916263587,0.0,0,8,0.0,17,89594,487,5.0,927.5804828324854,0.14999,16,0.0,0.0,1605374980,,,,0,1.3238920834175727,3,6.0,18.0,0.0,0.0,97.86510583775174,66.7128,C,30670090000000,
Fix,FLP,37.4255331000,-122.1581093000,5.400000095367432,0.24838552,6.342,0.0,1732151786243,2.2,179.9,30670090000000,12.46158,0,,,
Status,1732151786000,28,0,1,17,1575420030,0.00,89.0,79.0,0,0,0,0.0
Status,1732151786000,28,1,1,22,1575420030,0.00,11.0,67.0,0,0,0,0.0
Status,1732151786000,28,2,1,19,1575420030,20.90,200.0,60.0,1,0,0,15.9
Status,1732151786000,28,3,1,14,1575420030,0.00,51.0,53.0,0,0,0,0.0
Status,1732151786000,28,4,1,13,1575420030,23.40,236.0,48.0,1,0,0,18.4
Status,1732151786000,28,5,2,135,1575420030,0.00,197.0,45.0,0,0,0,0.0
Status,1732151786000,28,6,1,30,1575420030,0.00,131.0,37.0,0,0,0,0.0
Status,1732151786000,28,7,1,15,1575420030,23.90,276.0,30.0,1,0,0,18.9
Status,1732151786000,28,8,1,2,1575420030,0.00,48.0,17.0,0,0,0,0.0
Status,1732151786000,28,9,1,24,1575420030,0.00,313.0,16.0,0,0,0,0.0
Status,1732151786000,28,10,1,6,1575420030,0.00,162.0,11.0,0,0,0,0.0
Status,1732151786000,28,11,1,21,1575420030,0.00,34.0,5.0,0,0,0,0.0
Status,1732151786000,28,12,1,7,1575420030,27.00,131.0,5.0,1,0,0,22.0
Status,1732151786000,28,13,3,20,1602000000,0.00,115.0,52.0,0,0,0,0.0
Status,1732151786000,28,14,3,9,1602000000,0.00,79.0,34.0,0,0,0,0.0
Status,1732151786000,28,15,3,11,1602000000,23.50,309.0,27.0,0,0,0,18.5
Status,1732151786000,28,16,3,8,1602000000,23.20,248.0,24.0,1,0,0,18.2
Status,1732151786000,28,17,3,19,1602000000,0.00,34.0,24.0,0,0,0,0.0
Status,1732151786000,28,18,3,17,1602000000,26.60,0.0,0.0,0,0,0,21.6
Status,1732151786000,28,19,6,21,1575420030,0.00,341.0,68.0,0,0,0,0.0
Status,1732151786000,28,20,6,19,1575420030,0.00,244.0,47.0,0,0,0,0.0
Status,1732151786000,28,21,6,27,1575420030,0.00,64.0,34.0,0,0,0,0.0
Status,1732151786000,28,22,6,13,1575420030,0.00,121.0,28.0,0,0,0,0.0
Status,1732151786000,28,23,6,29,1575420030,0.00,191.0,26.0,0,0,0,0.0
Status,1732151786000,28,24,6,15,1575420030,0.00,63.0,24.0,0,0,0,0.0
Status,1732151786000,28,25,6,4,1575420030,0.00,312.0,23.0,0,0,0,0.0
Status,1732151786000,28,26,6,26,1575420030,0.00,168.0,5.0,0,0,0,0.0
Status,1732151786000,28,27,6,6,1575420030,0.00,328.0,4.0,0,0,0,0.0
Fix,GPS,37.4255500000,-122.1581183333,23.400000000000002,0.0,6.4,0.0,1732151787000,2.2,179.9,30671090000000,49.4,0,,,
Fix,FLP,37.4255414000,-122.1581127000,5.400000095367432,0.25172567,6.371,0.0,1732151787243,2.2,179.9,30671090000000,10.4195175,0,,,
Raw,1732151787000,34388000000,,705399.9274558134,-1416186970612000000,0.0,97.06718478625933,1189.2146967516198,0.0,0,13,0.0,16431,350204929317634,797,18.389999389648438,711.1572815506967,0.14999,16,0.0,0.0,1575420030,,,,0,0.0,1,6.0,18.389999389648438,0.0,0.0,0.0,66.7128,C,30671090000000,
Raw,1732151787000,34388000000,,705399.9274558134,-1416186970612000000,0.0,97.06718478625933,1189.2146967516198,0.0,0,15,0.0,16431,350204925248640,797,18.930999755859375,511.41907732089146,0.14999,16,0.0,0.0,1575420030,,,,0,0.35009419492527893,1,6.0,18.930999755859375,0.0,0.0,0.0,66.7128,C,30671090000000,
Raw,1732151787000,34388000000,,705399.9274558134,-1416186970612000000,0.0,97.06718478625933,1189.2146967516198,0.0,0,19,0.0,16431,350204930818952,797,15.937000274658203,-38.715470731225146,0.14999,16,0.0,0.0,1575420030,,,,0,0.0,1,6.0,15.937000274658203,0.0,0.0,0.0,66.7128,C,30671090000000,
Raw,1732151787000,34388000000,,705399.9274558134,-1416186970612000000,0.0,97.06718478625933,1189.2146967516198,0.0,0,7,0.0,16431,350204917559154,396,22.000999450683594,989.0338960050062,0.14999,16,0.0,0.0,1575420030,,,,0,5.53966979371187,1,6.0,22.000999450683594,0.0,0.0,0.0,66.7128,C,30671090000000,
Raw,1732151787000,34388000000,,705399.9274558134,-1416186970612000000,0.0,97.06718478625933,1189.2146967516198,0.0,0,11,0.0,17,160185,487,18.200000762939453,-116.04172532508925,0.14999,16,0.0,0.0,1602000000,,,,0,1.7454540500460052,3,6.0,18.200000762939453,0.0,0.0,97.86510583775174,66.7128,C,30671090000000,
Raw,1732151787000,34388000000,,705399.9274558134,-1416186970612000000,0.0,97.06718478625933,1189.2146967516198,0.0,0,8,0.0,17,86500,487,5.0,928.041504482061,0.14999,16,0.0,0.0,1605374980,,,,0,1.3238920834175727,3,6.0,18.0,0.0,0.0,97.86510583775174,66.7128,C,30671090000000,
Fix,FLP,37.4255451000,-122.1581145000,5.400000095367432,0.21739209,6.385,0.0,1732151787793,2.2,179.9,30671641000000,13.345446,0,,,
Fix,NLP,37.4256505000,-122.1580632000,5.400000095367432,,110.0,,1732151787793,,,30671641000000,61.26025,0,,,
Status,1732151787000,28,0,1,17,1575420030,0.00,89.0,79.0,0,0,0,0.0
Status,1732151787000,28,1,1,22,1575420030,0.00,11.0,67.0,0,0,0,0.0
Status,1732151787000,28,2,1,19,1575420030,20.90,200.0,60.0,1,0,0,15.9
Status,1732151787000,28,3,1,14,1575420030,0.00,51.0,53.0,0,0,0,0.0
Status,1732151787000,28,4,1,13,1575420030,23.40,236.0,48.0,1,0,0,18.4
Status,1732151787000,28,5,2,135,1575420030,0.00,197.0,45.0,0,0,0,0.0
Status,1732151787000,28,6,1,30,1575420030,0.00,131.0,37.0,0,0,0,0.0
Status,1732151787000,28,7,1,15,1575420030,23.90,276.0,30.0,1,0,0,18.9
Status,1732151787000,28,8,1,2,1575420030,0.00,48.0,17.0,0,0,0,0.0
Status,1732151787000,28,9,1,24,1575420030,0.00,313.0,16.0,0,0,0,0.0
Status,1732151787000,28,10,1,6,1575420030,0.00,162.0,11.0,0,0,0,0.0
Status,1732151787000,28,11,1,21,1575420030,0.00,34.0,5.0,0,0,0,0.0
Status,1732151787000,28,12,1,7,1575420030,30.70,131.0,5.0,1,0,0,25.7
Status,1732151787000,28,13,3,20,1602000000,0.00,115.0,52.0,0,0,0,0.0
Status,1732151787000,28,14,3,9,1602000000,0.00,79.0,34.0,0,0,0,0.0
Status,1732151787000,28,15,3,11,1602000000,23.90,309.0,27.0,0,0,0,18.9
Status,1732151787000,28,16,3,8,1602000000,22.60,248.0,24.0,1,0,0,17.6
Status,1732151787000,28,17,3,19,1602000000,0.00,34.0,24.0,0,0,0,0.0
Status,1732151787000,28,18,3,17,1602000000,24.70,0.0,0.0,0,0,0,19.7
Status,1732151787000,28,19,6,21,1575420030,0.00,341.0,68.0,0,0,0,0.0
Status,1732151787000,28,20,6,19,1575420030,0.00,244.0,47.0,0,0,0,0.0
Status,1732151787000,28,21,6,27,1575420030,0.00,64.0,34.0,0,0,0,0.0
Status,1732151787000,28,22,6,13,1575420030,0.00,121.0,28.0,0,0,0,0.0
Status,1732151787000,28,23,6,29,1575420030,0.00,191.0,26.0,0,0,0,0.0
Status,1732151787000,28,24,6,15,1575420030,0.00,63.0,24.0,0,0,0,0.0
Status,1732151787000,28,25,6,4,1575420030,0.00,312.0,23.0,0,0,0,0.0
Status,1732151787000,28,26,6,26,1575420030,0.00,168.0,5.0,0,0,0,0.0
Status,1732151787000,28,27,6,6,1575420030,0.00,328.0,4.0,0,0,0,0.0
Fix,GPS,37.4255600000,-122.1581100000,23.400000000000002,0.0,6.4,0.0,1732151788000,2.2,179.9,30672090000000,47.1,0,,,
Raw,1732151788000,35388000000,,705342.3355300019,-1416186970612000000,0.0,95.17128471949484,1187.0061049644746,0.0,0,13,0.0,16431,350205929315262,487,18.389999389648438,711.3457168868466,0.14999,16,0.0,0.0,1575420030,,,,0,0.0,1,6.0,18.389999389648438,0.0,0.0,0.0,66.7128,C,30672090000000,
Raw,1732151788000,35388000000,,705342.3355300019,-1416186970612000000,0.0,95.17128471949484,1187.0061049644746,0.0,0,15,0.0,16431,350205925246923,487,18.930999755859375,511.304232116019,0.14999,16,0.0,0.0,1575420030,,,,0,0.35009419492527893,1,6.0,18.930999755859375,0.0,0.0,0.0,66.7128,C,30672090000000,
Raw,1732151788000,35388000000,,705342.3355300019,-1416186970612000000,0.0,95.17128471949484,1187.0061049644746,0.0,0,19,0.0,16431,350205930819086,797,15.880000114440918,-39.07264303505176,0.14999,16,0.0,0.0,1575420030,,,,0,0.0,1,6.0,15.880000114440918,0.0,0.0,0.0,66.7128,C,30672090000000,
