# 
# Header Description:
# 
# Version: v3.1.0.3 Platform: 13 Manufacturer: samsung Model: SM-S135DL GNSS Hardware Model Name: MediaTek,MT6631,MTK_MNLD_default,MNL_VER_default
# 
# Raw,utcTimeMillis,TimeNanos,LeapSecond,TimeUncertaintyNanos,FullBiasNanos,BiasNanos,BiasUncertaintyNanos,DriftNanosPerSecond,DriftUncertaintyNanosPerSecond,HardwareClockDiscontinuityCount,Svid,TimeOffsetNanos,State,ReceivedSvTimeNanos,ReceivedSvTimeUncertaintyNanos,Cn0DbHz,PseudorangeRateMetersPerSecond,PseudorangeRateUncertaintyMetersPerSecond,AccumulatedDeltaRangeState,AccumulatedDeltaRangeMeters,AccumulatedDeltaRangeUncertaintyMeters,CarrierFrequencyHz,CarrierCycles,CarrierPhase,CarrierPhaseUncertainty,MultipathIndicator,SnrInDb,ConstellationType,AgcDb,BasebandCn0DbHz,FullInterSignalBiasNanos,FullInterSignalBiasUncertaintyNanos,SatelliteInterSignalBiasNanos,SatelliteInterSignalBiasUncertaintyNanos,CodeType,ChipsetElapsedRealtimeNanos,IsFullTracking
# 
# UncalAccel,utcTimeMillis,elapsedRealtimeNanos,UncalAccelXMps2,UncalAccelYMps2,UncalAccelZMps2,BiasXMps2,BiasYMps2,BiasZMps2
# 
# Accel,utcTimeMillis,elapsedRealtimeNanos,AccelXMps2,AccelYMps2,AccelZMps2
# 
# UncalGyro,utcTimeMillis,elapsedRealtimeNanos,UncalGyroXRadPerSec,UncalGyroYRadPerSec,UncalGyroZRadPerSec,DriftXRadPerSec,DriftYRadPerSec,DriftZRadPerSec
# 
# Gyro,utcTimeMillis,elapsedRealtimeNanos,GyroXRadPerSec,GyroYRadPerSec,GyroZRadPerSec
# 
# UncalMag,utcTimeMillis,elapsedRealtimeNanos,UncalMagXMicroT,UncalMagYMicroT,UncalMagZMicroT,BiasXMicroT,BiasYMicroT,BiasZMicroT
# 
# Mag,utcTimeMillis,elapsedRealtimeNanos,MagXMicroT,MagYMicroT,MagZMicroT
# 
# Pressure,utcTimeMillis,elapsedRealtimeNanos,PressureHpa
# 
# OrientationDeg,utcTimeMillis,elapsedRealtimeNanos,yawDeg,rollDeg,pitchDeg
# 
# Fix,Provider,LatitudeDegrees,LongitudeDegrees,AltitudeMeters,SpeedMps,AccuracyMeters,BearingDegrees,UnixTimeMillis,SpeedAccuracyMps,BearingAccuracyDegrees,elapsedRealtimeNanos,VerticalAccuracyMeters,MockLocation,NumberOfUsedSignals,VerticalSpeedAccuracyMps,SolutionType
# 
# Nav,Svid,Type,Status,MessageId,Sub-messageId,Data(Bytes)
# 
# Status,UnixTimeMillis,SignalCount,SignalIndex,ConstellationType,Svid,CarrierFrequencyHz,Cn0DbHz,AzimuthDegrees,ElevationDegrees,UsedInFix,HasAlmanacData,HasEphemerisData,BasebandCn0DbHz
# 
# Agc,utcTimeMillis,TimeNanos,LeapSecond,TimeUncertaintyNanos,FullBiasNanos,BiasNanos,BiasUncertaintyNanos,DriftNanosPerSecond,DriftUncertaintyNanosPerSecond,HardwareClockDiscontinuityCount,AgcDb,CarrierFrequencyHz,ConstellationType
# 
Fix,FLP,37.4243867000,-122.1712633000,2.0999999046325684,0.000000000000000000000000000000000000000290402,1.516,,1732145885196,1.0,,24769044000000,0.9948147,0,,,
Status,,29,0,1,14,1575420030,46.50,304.0,73.0,1,0,0,41.5
Status,,29,1,1,30,1575420030,42.80,62.0,72.0,1,0,0,37.8
Status,,29,2,1,22,1575420030,42.90,264.0,57.0,1,0,0,37.9
Status,,29,3,1,13,1575420030,38.30,307.0,44.0,1,0,0,33.3
Status,,29,4,1,7,1575420030,40.10,99.0,41.0,1,0,0,35.1
Status,,29,5,1,17,1575420030,38.00,176.0,40.0,1,0,0,33.0
Status,,29,6,2,131,1575420030,31.00,3.0,23.0,0,0,0,26.0
Status,,29,7,1,2,1575420030,19.80,91.0,14.0,0,0,0,14.799999
Status,,29,8,1,19,1575420030,46.60,193.0,14.0,1,0,0,41.6
Status,,29,9,1,15,1575420030,47.30,318.0,14.0,1,0,0,42.3
Status,,29,10,1,21,1575420030,0.00,73.0,13.0,0,0,0,0.0
Status,,29,11,1,8,1575420030,0.00,40.0,12.0,0,0,0,0.0
Status,,29,12,1,5,1575420030,0.00,266.0,9.0,0,0,0,0.0
Status,,29,13,1,9,1575420030,0.00,159.0,4.0,0,0,0,0.0
Status,,29,14,3,9,1602000000,26.70,8.0,55.0,1,0,0,21.7
Status,,29,15,3,7,1602000000,41.40,237.0,48.0,1,0,0,36.4
Status,,29,16,3,8,1602000000,33.20,309.0,37.0,1,0,0,28.2
Status,,29,17,3,19,1602000000,30.90,92.0,30.0,1,0,0,25.9
Status,,29,18,3,16,1602000000,0.00,63.0,17.0,0,0,0,0.0
Status,,29,19,3,20,1602000000,0.00,152.0,6.0,0,0,0,0.0
Status,,29,20,3,17,1602000000,40.00,0.0,0.0,0,0,0,35.0
Status,,29,21,6,29,1575420030,37.50,207.0,64.0,1,0,0,32.5
Status,,29,22,6,27,1575420030,0.00,34.0,61.0,0,0,0,0.0
Status,,29,23,6,21,1575420030,31.40,263.0,55.0,1,0,0,26.4
Status,,29,24,6,19,1575420030,26.80,301.0,48.0,1,0,0,21.8
Status,,29,25,6,7,1575420030,0.00,160.0,20.0,0,0,0,0.0
Status,,29,26,6,30,1575420030,0.00,56.0,13.0,0,0,0,0.0
Status,,29,27,6,15,1575420030,0.00,97.0,9.0,0,0,0,0.0
Status,,29,28,6,34,1575420030,0.00,50.0,5.0,0,0,0,0.0
Fix,GPS,37.4243866667,-122.1712633333,15.000000000000004,0.0,1.5,286.75,1732145886000,0.7,179.9,24770044000000,29.6,0,,,
Raw,1732145886000,75242000000,,78.02137148740817,-1416181028758000128,0.0,78.02137148740817,1551.2770141469077,0.0,0,30,0.0,16431,344303931595716,51,37.790000915527344,511.8233584587556,0.14999,17,34811.213762907464,0.00022499999613501132,1575420030,,,,0,24.854015225170013,1,6.0,37.790000915527344,0.0,0.0,0.0,66.7128,C,24770044000000,
Raw,1732145886000,75242000000,,78.02137148740817,-1416181028758000128,0.0,78.02137148740817,1551.2770141469077,0.0,0,22,0.0,16431,344303929812561,51,37.91999816894531,263.91293350282155,0.14999,17,16227.33721464422,0.00022499999613501132,1575420030,,,,0,23.42848647720514,1,6.0,37.91999816894531,0.0,0.0,0.0,66.7128,C,24770044000000,
Raw,1732145886000,75242000000,,78.02137148740817,-1416181028758000128,0.0,78.02137148740817,1551.2770141469077,0.0,0,17,0.0,16431,344303927819007,58,32.99800109863281,-68.41879851068144,0.14999,17,-8649.064203051761,0.00039999998989515007,1575420030,,,,0,20.084358374537963,1,6.0,32.99800109863281,0.0,0.0,0.0,66.7128,C,24770044000000,
Raw,1732145886000,75242000000,,78.02137148740817,-1416181028758000128,0.0,78.02137148740817,1551.2770141469077,0.0,0,13,0.0,16431,344303928892967,74,33.275001525878906,99.93409743918114,0.14999,16,0.0,0.0,1575420030,,,,0,18.314963986418526,1,6.0,33.275001525878906,0.0,0.0,0.0,66.7128,C,24770044000000,
Raw,1732145886000,75242000000,,78.02137148740817,-1416181028758000128,0.0,78.02137148740817,1551.2770141469077,0.0,0,7,0.0,16431,344303926865799,58,35.064998626708984,783.6855592672813,0.14999,17,55077.50540691148,0.00039999998989515007,1575420030,,,,0,22.429105375444827,1,6.0,35.064998626708984,0.0,0.0,0.0,66.7128,C,24770044000000,
Raw,1732145886000,75242000000,,78.02137148740817,-1416181028758000128,0.0,78.02137148740817,1551.2770141469077,0.0,0,15,0.0,16431,344303920851057,31,42.25199890136719,-71.37657357872536,0.14999,17,4606.4729426909935,0.00022499999613501132,1575420030,,,,0,30.181797785211337,1,6.0,42.25199890136719,0.0,0.0,0.0,66.7128,C,24770044000000,
Raw,1732145886000,75242000000,,78.02137148740817,-1416181028758000128,0.0,78.02137148740817,1551.2770141469077,0.0,0,19,0.0,16431,344303919277799,396,21.799999237060547,230.44954026578154,0.14999,16,0.0,0.0,1575420030,,,,0,6.843419541879019,6,6.0,21.799999237060547,0.0,0.0,6.07075651695918,66.7128,C,24770044000000,
Raw,1732145886000,75242000000,,78.02137148740817,-1416181028758000128,0.0,78.02137148740817,1551.2770141469077,0.0,0,21,0.0,16431,344303918931959,235,26.399999618530273,263.9034095274984,0.14999,16,0.0,0.0,1575420030,,,,0,14.99075805553493,6,6.0,26.399999618530273,0.0,0.0,6.07075651695918,66.7128,C,24770044000000,
Raw,1732145886000,75242000000,,78.02137148740817,-1416181028758000128,0.0,78.02137148740817,1551.2770141469077,0.0,0,29,0.0,16431,344303920980798,58,32.5,707.5208883970654,0.14999,16,0.0,0.0,1575420030,,,,0,19.795002885684603,6,6.0,32.5,0.0,0.0,6.07075651695918,66.7128,C,24770044000000,
Raw,1732145886000,75242000000,,78.02137148740817,-1416181028758000128,0.0,78.02137148740817,1551.2770141469077,0.0,0,9,0.0,32995,9485933455687,396,5.0,571.909595400287,0.14999,16,0.0,0.0,1600875010,,,,0,6.710428481572876,3,6.0,22.0,0.0,0.0,31.603784911583176,66.7128,C,24770044000000,
Raw,1732145886000,75242000000,,78.02137148740817,-1416181028758000128,0.0,78.02137148740817,1551.2770141469077,0.0,0,7,0.0,32995,9485932082371,51,5.0,899.1639308067604,0.14999,17,63488.29595793939,0.00022499999613501132,1604812540,,,,0,23.908824577214144,3,6.0,36.0,0.0,0.0,31.603784911583176,66.7128,C,24770044000000,
Raw,1732145886000,75242000000,,78.02137148740817,-1416181028758000128,0.0,78.02137148740817,1551.2770141469077,0.0,0,8,0.0,32995,9485929403778,235,5.0,182.76807106946313,0.14999,16,0.0,0.0,1605374980,,,,0,14.891963675189903,3,6.0,28.0,0.0,0.0,31.603784911583176,66.7128,C,24770044000000,
Raw,1732145886000,75242000000,,78.02137148740817,-1416181028758000128,0.0,78.02137148740817,1551.2770141469077,0.0,0,19,0.0,32995,9485927339134,316,5.0,93.37666565004878,0.14999,16,0.0,0.0,1603687550,,,,0,12.184057219741785,3,6.0,26.0,0.0,0.0,31.603784911583176,66.7128,C,24770044000000,
Raw,1732145886000,75242000000,,78.02137148740817,-1416181028758000128,0.0,78.02137148740817,1551.2770141469077,0.0,0,14,0.0,16431,344303932304609,42,41.472999572753906,414.0475332030512,0.14999,17,29294.053944943316,0.00022499999613501132,1575420030,,,,0,27.661366326788944,1,6.0,41.472999572753906,0.0,0.0,0.0,66.7128,C,24770044000000,
Raw,1732145886000,75242000000,,78.02137148740817,-1416181028758000128,0.0,78.02137148740817,1551.2770141469077,0.0,0,2,0.0,17,255225,797,14.800000190734863,202.10772283179128,0.14999,16,0.0,0.0,1575420030,,,,0,0.0,1,6.0,14.800000190734863,0.0,0.0,0.0,66.7128,C,24770044000000,
Raw,1732145886000,75242000000,,78.02137148740817,-1416181028758000128,0.0,78.02137148740817,1551.2770141469077,0.0,0,19,0.0,16431,344303918844095,31,41.59600067138672,-236.74725733361728,0.14999,17,-3485.71507406328,0.00022499999613501132,1575420030,,,,0,30.062325251109495,1,6.0,41.59600067138672,0.0,0.0,0.0,66.7128,C,24770044000000,
Fix,FLP,37.4243867000,-122.1712633000,2.0999999046325684,0.000000000000000000000000000000000000000005947,1.516,,1732145886196,0.7,,24770044000000,1.0048052,0,,,
Status,1732145886000,29,0,1,14,1575420030,46.40,304.0,73.0,1,0,0,41.4
Status,1732145886000,29,1,1,30,1575420030,46.90,62.0,72.0,1,0,0,41.9
Status,1732145886000,29,2,1,22,1575420030,40.10,264.0,57.0,1,0,0,35.1
Status,1732145886000,29,3,1,13,1575420030,34.40,307.0,44.0,1,0,0,29.400002
Status,1732145886000,29,4,1,7,1575420030,38.10,99.0,41.0,1,0,0,33.1
Status,1732145886000,29,5,1,17,1575420030,39.60,176.0,40.0,1,0,0,34.6
Status,1732145886000,29,6,2,131,1575420030,37.00,3.0,23.0,0,0,0,32.0
Status,1732145886000,29,7,1,2,1575420030,19.80,91.0,14.0,0,0,0,14.799999
Status,1732145886000,29,8,1,19,1575420030,46.60,193.0,14.0,1,0,0,41.6
Status,1732145886000,29,9,1,15,1575420030,43.70,318.0,14.0,1,0,0,38.7
Status,1732145886000,29,10,1,21,1575420030,0.00,73.0,13.0,0,0,0,0.0
Status,1732145886000,29,11,1,8,1575420030,0.00,40.0,12.0,0,0,0,0.0
Status,1732145886000,29,12,1,5,1575420030,0.00,266.0,9.0,0,0,0,0.0
Status,1732145886000,29,13,1,9,1575420030,17.80,159.0,4.0,0,0,0,12.799999
Status,1732145886000,29,14,3,9,1602000000,27.90,8.0,55.0,1,0,0,22.9
Status,1732145886000,29,15,3,7,1602000000,41.40,237.0,48.0,1,0,0,36.4
Status,1732145886000,29,16,3,8,1602000000,31.20,309.0,37.0,1,0,0,26.2
Status,1732145886000,29,17,3,19,1602000000,32.10,92.0,30.0,1,0,0,27.099998
Status,1732145886000,29,18,3,16,1602000000,0.00,63.0,17.0,0,0,0,0.0
Status,1732145886000,29,19,3,20,1602000000,0.00,152.0,6.0,0,0,0,0.0
Status,1732145886000,29,20,3,17,1602000000,40.10,0.0,0.0,0,0,0,35.1
Status,1732145886000,29,21,6,29,1575420030,33.10,207.0,64.0,1,0,0,28.099998
Status,1732145886000,29,22,6,27,1575420030,0.00,34.0,61.0,0,0,0,0.0
Status,1732145886000,29,23,6,21,1575420030,32.40,263.0,55.0,1,0,0,27.400002
Status,1732145886000,29,24,6,19,1575420030,26.80,301.0,48.0,1,0,0,21.8
Status,1732145886000,29,25,6,7,1575420030,0.00,160.0,20.0,0,0,0,0.0
Status,1732145886000,29,26,6,30,1575420030,0.00,56.0,13.0,0,0,0,0.0
Status,1732145886000,29,27,6,15,1575420030,0.00,97.0,9.0,0,0,0,0.0
Status,1732145886000,29,28,6,34,1575420030,0.00,50.0,5.0,0,0,0,0.0
Fix,GPS,37.4243866667,-122.1712633333,15.000000000000004,0.0,1.5,286.75,1732145887000,0.6,179.9,24771044000000,29.8,0,,,
Raw,1732145887000,76242000000,,78.48615149088928,-1416181028758000128,0.0,78.48615149088928,1551.4368004574574,0.0,0,30,0.0,16431,344304931594005,31,41.93000030517578,511.88709940579645,0.14999,17,35323.2025684973,0.00022499999613501132,1575420030,,,,0,29.845357042154944,1,6.0,41.93000030517578,0.0,0.0,0.0,66.7128,C,24771044000000,
Raw,1732145887000,76242000000,,78.48615149088928,-1416181028758000128,0.0,78.48615149088928,1551.4368004574574,0.0,0,22,0.0,16431,344304929811679,58,35.11000061035156,264.1540526829542,0.14999,17,16491.461002572665,0.00039999998989515007,1575420030,,,,0,22.48325135632329,1,6.0,35.11000061035156,0.0,0.0,0.0,66.7128,C,24771044000000,
Raw,1732145887000,76242000000,,78.48615149088928,-1416181028758000128,0.0,78.48615149088928,1551.4368004574574,0.0,0,17,0.0,16431,344304927819229,58,34.63600158691406,-68.3679265449309,0.14999,17,-8717.302853246285,0.00039999998989515007,1575420030,,,,0,21.954704426896082,1,6.0,34.63600158691406,0.0,0.0,0.0,66.7128,C,24771044000000,
Raw,1732145887000,76242000000,,78.48615149088928,-1416181028758000128,0.0,78.48615149088928,1551.4368004574574,0.0,0,13,0.0,16431,344304928892637,316,29.38800048828125,99.79402531430637,0.14999,16,0.0,0.0,1575420030,,,,0,15.804066587053637,1,6.0,29.38800048828125,0.0,0.0,0.0,66.7128,C,24771044000000,
Raw,1732145887000,76242000000,,78.48615149088928,-1416181028758000128,0.0,78.48615149088928,1551.4368004574574,0.0,0,7,0.0,16431,344304926863183,58,33.09199905395508,783.7763390125567,0.14999,17,55861.35193297632,0.00039999998989515007,1575420030,,,,0,20.20213495380002,1,6.0,33.09199905395508,0.0,0.0,0.0,66.7128,C,24771044000000,
Raw,1732145887000,76242000000,,78.48615149088928,-1416181028758000128,0.0,78.48615149088928,1551.4368004574574,0.0,0,15,0.0,16431,344304920851295,42,38.6609992980957,-71.16082069384362,0.14999,17,4535.30498772661,0.00022499999613501132,1575420030,,,,0,26.370620386201008,1,6.0,38.6609992980957,0.0,0.0,0.0,66.7128,C,24771044000000,
Raw,1732145887000,76242000000,,78.48615149088928,-1416181028758000128,0.0,78.48615149088928,1551.4368004574574,0.0,0,19,0.0,16431,344304919277031,396,21.790000915527344,230.6636206476797,0.14999,16,0.0,0.0,1575420030,,,,0,6.622813661272146,6,6.0,21.790000915527344,0.0,0.0,5.610505207672561,66.7128,C,24771044000000,
Raw,1732145887000,76242000000,,78.48615149088928,-1416181028758000128,0.0,78.48615149088928,1551.4368004574574,0.0,0,21,0.0,16431,344304918931078,235,27.399999618530273,264.0330517379339,0.14999,16,0.0,0.0,1575420030,,,,0,14.045953419892607,6,6.0,27.399999618530273,0.0,0.0,5.610505207672561,66.7128,C,24771044000000,
Raw,1732145887000,76242000000,,78.48615149088928,-1416181028758000128,0.0,78.48615149088928,1551.4368004574574,0.0,0,29,0.0,16431,344304920978440,74,28.100000381469727,707.6115752255084,0.14999,16,0.0,0.0,1575420030,,,,0,14.753069627087473,6,6.0,28.100000381469727,0.0,0.0,5.610505207672561,66.7128,C,24771044000000,
Raw,1732145887000,76242000000,,78.48615149088928,-1416181028758000128,0.0,78.48615149088928,1551.4368004574574,0.0,0,9,0.0,32995,9486933453785,396,5.0,570.8216037985528,0.14999,16,0.0,0.0,1600875010,,,,0,8.384496002055286,3,6.0,22.0,0.0,0.0,31.04433775631483,66.7128,C,24771044000000,
Raw,1732145887000,76242000000,,78.48615149088928,-1416181028758000128,0.0,78.48615149088928,1551.4368004574574,0.0,0,7,0.0,32995,9486932079368,51,5.0,899.3632356688239,0.14999,17,64387.65333874284,0.00022499999613501132,1604812540,,,,0,23.2408965928974,3,6.0,36.0,0.0,0.0,31.04433775631483,66.7128,C,24771044000000,
Raw,1732145887000,76242000000,,78.48615149088928,-1416181028758000128,0.0,78.48615149088928,1551.4368004574574,0.0,0,8,0.0,32995,9486929403171,316,5.0,182.55903385988003,0.14999,16,0.0,0.0,1605374980,,,,0,12.598978147489644,3,6.0,25.0,0.0,0.0,31.04433775631483,66.7128,C,24771044000000,
Raw,1732145887000,76242000000,,78.48615149088928,-1416181028758000128,0.0,78.48615149088928,1551.4368004574574,0.0,0,19,0.0,32995,9486927338822,235,5.0,93.43020079994045,0.14999,16,0.0,0.0,1603687550,,,,0,13.584275741708563,3,6.0,27.0,0.0,0.0,31.04433775631483,66.7128,C,24771044000000,
Raw,1732145887000,76242000000,,78.48615149088928,-1416181028758000128,0.0,78.48615149088928,1551.4368004574574,0.0,0,9,0.0,16431,344304916047545,1797,12.800000190734863,1198.6653270500133,0.14999,16,0.0,0.0,1575420030,,,,0,0.0,1,6.0,12.800000190734863,0.0,0.0,0.0,66.7128,C,24771044000000,
Raw,1732145887000,76242000000,,78.48615149088928,-1416181028758000128,0.0,78.48615149088928,1551.4368004574574,0.0,0,14,0.0,16431,344304932303228,42,41.40700149536133,414.11080956592997,0.14999,17,29708.247656649324,0.00022499999613501132,1575420030,,,,0,27.96813085899324,1,6.0,41.40700149536133,0.0,0.0,0.0,66.7128,C,24771044000000,
Raw,1732145887000,76242000000,,78.48615149088928,-1416181028758000128,0.0,78.48615149088928,1551.4368004574574,0.0,0,2,0.0,17,254553,797,14.800000190734863,201.63256937999802,0.14999,16,0.0,0.0,1575420030,,,,0,0.0,1,6.0,14.800000190734863,0.0,0.0,0.0,66.7128,C,24771044000000,
Raw,1732145887000,76242000000,,78.48615149088928,-1416181028758000128,0.0,78.48615149088928,1551.4368004574574,0.0,0,19,0.0,16431,344304918844884,31,41.612998962402344,-236.64579215261347,0.14999,17,-3722.324959667465,0.00022499999613501132,1575420030,,,,0,29.86845270735943,1,6.0,41.612998962402344,0.0,0.0,0.0,66.7128,C,24771044000000,
Fix,FLP,37.4243867000,-122.1712633000,2.0999999046325684,0.000000000000000000000000000000000000000000091,1.516,,1732145887196,0.6,,24771044000000,1.014806,0,,,
Status,1732145887000,29,0,1,14,1575420030,43.70,304.0,73.0,1,0,0,38.7
Status,1732145887000,29,1,1,30,1575420030,47.00,62.0,72.0,1,0,0,42.0
Status,1732145887000,29,2,1,22,1575420030,40.20,264.0,57.0,1,0,0,35.2
Status,1732145887000,29,3,1,13,1575420030,34.40,307.0,44.0,1,0,0,29.400002
Status,1732145887000,29,4,1,7,1575420030,36.00,99.0,41.0,1,0,0,31.0
Status,1732145887000,29,5,1,17,1575420030,42.70,176.0,40.0,1,0,0,37.7
Status,1732145887000,29,6,2,131,1575420030,40.00,3.0,23.0,0,0,0,35.0
Status,1732145887000,29,7,1,2,1575420030,19.20,91.0,14.0,1,0,0,14.200001
Status,1732145887000,29,8,1,19,1575420030,46.60,193.0,14.0,1,0,0,41.6
Status,1732145887000,29,9,1,15,1575420030,43.70,318.0,14.0,1,0,0,38.7
Status,1732145887000,29,10,1,21,1575420030,0.00,73.0,13.0,0,0,0,0.0
Status,1732145887000,29,11,1,8,1575420030,0.00,40.0,12.0,0,0,0,0.0
Status,1732145887000,29,12,1,5,1575420030,0.00,266.0,9.0,0,0,0,0.0
Status,1732145887000,29,13,1,9,1575420030,0.00,159.0,4.0,0,0,0,0.0
Status,1732145887000,29,14,3,9,1602000000,29.90,8.0,55.0,1,0,0,24.9
Status,1732145887000,29,15,3,7,1602000000,41.40,237.0,48.0,1,0,0,36.4
Status,1732145887000,29,16,3,8,1602000000,33.70,309.0,37.0,1,0,0,28.7
Status,1732145887000,29,17,3,19,1602000000,26.80,92.0,30.0,1,0,0,21.8
Status,1732145887000,29,18,3,16,1602000000,0.00,63.0,17.0,0,0,0,0.0
Status,1732145887000,29,19,3,20,1602000000,0.00,152.0,6.0,0,0,0,0.0
Status,1732145887000,29,20,3,17,1602000000,43.30,0.0,0.0,0,0,0,38.3
Status,1732145887000,29,21,6,29,1575420030,33.00,207.0,64.0,1,0,0,28.0
Status,1732145887000,29,22,6,27,1575420030,0.00,34.0,61.0,0,0,0,0.0
Status,1732145887000,29,23,6,21,1575420030,35.80,263.0,55.0,1,0,0,30.8
Status,1732145887000,29,24,6,19,1575420030,26.80,301.0,48.0,1,0,0,21.8
Status,1732145887000,29,25,6,7,1575420030,0.00,160.0,20.0,0,0,0,0.0
Status,1732145887000,29,26,6,30,1575420030,0.00,56.0,13.0,0,0,0,0.0
Status,1732145887000,29,27,6,15,1575420030,0.00,97.0,9.0,0,0,0,0.0
Status,1732145887000,29,28,6,34,1575420030,0.00,50.0,5.0,0,0,0,0.0
Fix,GPS,37.4243866667,-122.1712633333,15.000000000000004,0.0,1.5,286.75,1732145888000,0.5,179.9,24772044000000,30.0,0,,,
Raw,1732145888000,77242000000,,78.89789594334555,-1416181028758000128,0.0,78.89789594334555,1552.0917659503873,0.0,0,30,0.0,16431,344305931592297,31,41.95399856567383,512.2168147856427,0.14999,17,35835.25461850985,0.00022499999613501132,1575420030,,,,0,30.361613498174677,1,6.0,41.95399856567383,0.0,0.0,0.0,66.7128,C,24772044000000,
Raw,1732145888000,77242000000,,78.89789594334555,-1416181028758000128,0.0,78.89789594334555,1552.0917659503873,0.0,0,22,0.0,16431,344305929810798,51,35.194000244140625,264.3190729773341,0.14999,17,16755.61646352636,0.00022499999613501132,1575420030,,,,0,24.339197403050893,1,6.0,35.194000244140625,0.0,0.0,0.0,66.7128,C,24772044000000,
Raw,1732145888000,77242000000,,78.89789594334555,-1416181028758000128,0.0,78.89789594334555,1552.0917659503873,0.0,0,17,0.0,16431,344305927819454,51,37.720001220703125,-67.84791749228634,0.14999,17,-8785.447152204786,0.00022499999613501132,1575420030,,,,0,25.352959209398765,1,6.0,37.720001220703125,0.0,0.0,0.0,66.7128,C,24772044000000,
Raw,1732145888000,77242000000,,78.89789594334555,-1416181028758000128,0.0,78.89789594334555,1552.0917659503873,0.0,0,13,0.0,16431,344305928892304,74,29.437999725341797,100.34911047118989,0.14999,16,0.0,0.0,1575420030,,,,0,17.03277918640573,1,6.0,29.437999725341797,0.0,0.0,0.0,66.7128,C,24772044000000,
Raw,1732145888000,77242000000,,78.89789594334555,-1416181028758000128,0.0,78.89789594334555,1552.0917659503873,0.0,0,7,0.0,16431,344305926860565,74,31.006000518798828,784.0779470505955,0.14999,16,0.0,0.0,1575420030,,,,0,17.75971813263486,1,6.0,31.006000518798828,0.0,0.0,0.0,66.7128,C,24772044000000,
Raw,1732145888000,77242000000,,78.89789594334555,-1416181028758000128,0.0,78.89789594334555,1552.0917659503873,0.0,0,15,0.0,16431,344305920851532,42,38.66400146484375,-70.95761158133872,0.14999,17,4464.208131560936,0.00022499999613501132,1575420030,,,,0,26.43935182011328,1,6.0,38.66400146484375,0.0,0.0,0.0,66.7128,C,24772044000000,
Raw,1732145888000,77242000000,,78.89789594334555,-1416181028758000128,0.0,78.89789594334555,1552.0917659503873,0.0,0,19,0.0,16431,344305919276260,396,21.7549991607666,230.53999480214347,0.14999,16,0.0,0.0,1575420030,,,,0,5.803334591221201,6,6.0,21.7549991607666,0.0,0.0,5.087921675669265,66.7128,C,24772044000000,
Raw,1732145888000,77242000000,,78.89789594334555,-1416181028758000128,0.0,78.89789594334555,1552.0917659503873,0.0,0,21,0.0,16431,344305918930198,74,30.799999237060547,264.01871931653295,0.14999,16,0.0,0.0,1575420030,,,,0,17.92853048864103,6,6.0,30.799999237060547,0.0,0.0,5.087921675669265,66.7128,C,24772044000000,
Raw,1732145888000,77242000000,,78.89789594334555,-1416181028758000128,0.0,78.89789594334555,1552.0917659503873,0.0,0,29,0.0,16431,344305920976080,235,27.979999542236328,707.74212337506,0.14999,16,0.0,0.0,1575420030,,,,0,11.900328045652358,6,6.0,27.979999542236328,0.0,0.0,5.087921675669265,66.7128,C,24772044000000,
Raw,1732145888000,77242000000,,78.89789594334555,-1416181028758000128,0.0,78.89789594334555,1552.0917659503873,0.0,0,9,0.0,32995,9487933451875,316,5.0,571.4868710926165,0.14999,16,0.0,0.0,1600875010,,,,0,10.995015536496165,3,6.0,25.0,0.0,0.0,30.300976938969114,66.7128,C,24772044000000,
Raw,1732145888000,77242000000,,78.89789594334555,-1416181028758000128,0.0,78.89789594334555,1552.0917659503873,0.0,0,7,0.0,32995,9487932076372,51,5.0,899.736852472033,0.14999,17,65287.1502557535,0.00022499999613501132,1604812540,,,,0,24.170361341599968,3,6.0,37.0,0.0,0.0,30.300976938969114,66.7128,C,24772044000000,
Raw,1732145888000,77242000000,,78.89789594334555,-1416181028758000128,0.0,78.89789594334555,1552.0917659503873,0.0,0,8,0.0,32995,9487929402561,235,5.0,183.26909929513675,0.14999,16,0.0,0.0,1605374980,,,,0,15.476436779768232,3,6.0,29.0,0.0,0.0,30.300976938969114,66.7128,C,24772044000000,
Raw,1732145888000,77242000000,,78.89789594334555,-1416181028758000128,0.0,78.89789594334555,1552.0917659503873,0.0,0,19,0.0,32995,9487927338507,396,5.0,93.70700445219362,0.14999,16,0.0,0.0,1603687550,,,,0,6.9150069496163535,3,6.0,22.0,0.0,0.0,30.300976938969114,66.7128,C,24772044000000,
Raw,1732145888000,77242000000,,78.89789594334555,-1416181028758000128,0.0,78.89789594334555,1552.0917659503873,0.0,0,14,0.0,16431,344305932301845,42,38.65599822998047,414.58031832015365,0.14999,17,30122.522133408263,0.00022499999613501132,1575420030,,,,0,26.364868141197352,1,6.0,38.65599822998047,0.0,0.0,0.0,66.7128,C,24772044000000,
Raw,1732145888000,77242000000,,78.89789594334555,-1416181028758000128,0.0,78.89789594334555,1552.0917659503873,0.0,0,2,0.0,16431,344305919253894,1797,14.199999809265137,202.64199461821246,0.14999,16,0.0,0.0,1575420030,,,,0,0.0,1,6.0,14.199999809265137,0.0,0.0,0.0,66.7128,C,24772044000000,
Raw,1732145888000,77242000000,,78.89789594334555,-1416181028758000128,0.0,78.89789594334555,1552.0917659503873,0.0,0,19,0.0,16431,344305918845672,31,41.60599899291992,-236.6076497929046,0.14999,17,-3958.9520087527885,0.00022499999613501132,1575420030,,,,0,29.374128976814333,1,6.0,41.60599899291992,0.0,0.0,0.0,66.7128,C,24772044000000,
Fix,FLP,37.4243867000,-122.1712633000,2.0999999046325684,0.0000000000000000000000000000000000000000000014,1.516,,1732145888197,0.5,,24772044000000,1.0281234,0,,,
Status,1732145888000,29,0,1,14,1575420030,43.80,304.0,73.0,1,0,0,38.8
Status,1732145888000,29,1,1,30,1575420030,47.00,62.0,72.0,1,0,0,42.0
Status,1732145888000,29,2,1,22,1575420030,40.30,264.0,57.0,1,0,0,35.3
Status,1732145888000,29,3,1,13,1575420030,37.70,307.0,44.0,1,0,0,32.7
Status,1732145888000,29,4,1,7,1575420030,36.10,99.0,41.0,1,0,0,31.099998
Status,1732145888000,29,5,1,17,1575420030,45.20,176.0,40.0,1,0,0,40.2
Status,1732145888000,29,6,2,131,1575420030,38.00,3.0,23.0,0,0,0,33.0
Status,1732145888000,29,7,1,2,1575420030,19.20,91.0,14.0,1,0,0,14.200001
Status,1732145888000,29,8,1,19,1575420030,46.60,193.0,14.0,1,0,0,41.6
Status,1732145888000,29,9,1,15,1575420030,46.80,318.0,14.0,1,0,0,41.8
Status,1732145888000,29,10,1,21,1575420030,0.00,73.0,13.0,0,0,0,0.0
Status,1732145888000,29,11,1,8,1575420030,0.00,40.0,12.0,0,0,0,0.0
Status,1732145888000,29,12,1,5,1575420030,0.00,266.0,9.0,0,0,0,0.0
Status,1732145888000,29,13,1,9,1575420030,0.00,159.0,4.0,0,0,0,0.0
Status,1732145888000,29,14,3,9,1602000000,33.50,8.0,55.0,1,0,0,28.5
Status,1732145888000,29,15,3,7,1602000000,41.40,237.0,48.0,1,0,0,36.4
Status,1732145888000,29,16,3,8,1602000000,34.80,309.0,37.0,1,0,0,29.8
Status,1732145888000,29,17,3,19,1602000000,29.90,92.0,30.0,1,0,0,24.9
Status,1732145888000,29,18,3,16,1602000000,0.00,63.0,17.0,0,0,0,0.0
Status,1732145888000,29,19,3,20,1602000000,0.00,152.0,6.0,0,0,0,0.0
Status,1732145888000,29,20,3,17,1602000000,43.20,0.0,0.0,0,0,0,38.2
Status,1732145888000,29,21,6,29,1575420030,26.10,207.0,64.0,1,0,0,21.1
Status,1732145888000,29,22,6,27,1575420030,0.00,34.0,61.0,0,0,0,0.0
Status,1732145888000,29,23,6,21,1575420030,27.20,263.0,55.0,1,0,0,22.2
Status,1732145888000,29,24,6,19,1575420030,30.40,301.0,48.0,1,0,0,25.4
Status,1732145888000,29,25,6,7,1575420030,0.00,160.0,20.0,0,0,0,0.0
Status,1732145888000,29,26,6,30,1575420030,0.00,56.0,13.0,0,0,0,0.0
Status,1732145888000,29,27,6,15,1575420030,0.00,97.0,9.0,0,0,0,0.0
Status,1732145888000,29,28,6,34,1575420030,0.00,50.0,5.0,0,0,0,0.0
Fix,GPS,37.4243866667,-122.1712633333,15.000000000000004,0.0,1.5,286.75,1732145889000,0.6,179.9,24773044000000,30.0,0,,,
Raw,1732145889000,78242000000,,78.87929278221351,-1416181028758000128,0.0,78.87929278221351,1552.8882132473896,0.0,0,30,0.0,16431,344306931590587,31,42.034000396728516,512.5212567870703,0.14999,17,36347.585474189036,0.00022499999613501132,1575420030,,,,0,31.557470496367696,1,6.0,42.034000396728516,0.0,0.0,0.0,66.7128,C,24773044000000,
Raw,1732145889000,78242000000,,78.87929278221351,-1416181028758000128,0.0,78.87929278221351,1552.8882132473896,0.0,0,22,0.0,16431,344306929809915,51,35.28200149536133,264.71225055372383,0.14999,17,17020.071134102356,0.00022499999613501132,1575420030,,,,0,24.52607522020413,1,6.0,35.28200149536133,0.0,0.0,0.0,66.7128,C,24773044000000,
Raw,1732145889000,78242000000,,78.87929278221351,-1416181028758000128,0.0,78.87929278221351,1552.8882132473896,0.0,0,17,0.0,16431,344306927819681,42,40.22200012207031,-67.58161785056754,0.14999,17,-8853.298797984973,0.00022499999613501132,1575420030,,,,0,28.034854070467546,1,6.0,40.22200012207031,0.0,0.0,0.0,66.7128,C,24773044000000,
Raw,1732145889000,78242000000,,78.87929278221351,-1416181028758000128,0.0,78.87929278221351,1552.8882132473896,0.0,0,13,0.0,16431,344306928891964,58,32.67900085449219,100.80352024014516,0.14999,16,0.0,0.0,1575420030,,,,0,19.72113236555737,1,6.0,32.67900085449219,0.0,0.0,0.0,66.7128,C,24773044000000,
Raw,1732145889000,78242000000,,78.87929278221351,-1416181028758000128,0.0,78.87929278221351,1552.8882132473896,0.0,0,7,0.0,16431,344306926857947,58,31.118000030517578,784.3570692151884,0.14999,17,57429.33786186546,0.00039999998989515007,1575420030,,,,0,20.37585853750187,1,6.0,31.118000030517578,0.0,0.0,0.0,66.7128,C,24773044000000,
Raw,1732145889000,78242000000,,78.87929278221351,-1416181028758000128,0.0,78.87929278221351,1552.8882132473896,0.0,0,15,0.0,16431,344306920851769,31,41.78799819946289,-70.5647127554462,0.14999,17,4393.404099888985,0.00022499999613501132,1575420030,,,,0,29.693719486430574,1,6.0,41.78799819946289,0.0,0.0,0.0,66.7128,C,24773044000000,
Raw,1732145889000,78242000000,,78.87929278221351,-1416181028758000128,0.0,78.87929278221351,1552.8882132473896,0.0,0,19,0.0,16431,344306919275488,316,25.399999618530273,230.9382363459002,0.14999,16,0.0,0.0,1575420030,,,,0,11.590637857771096,6,6.0,25.399999618530273,0.0,0.0,4.63244796136894,66.7128,C,24773044000000,
Raw,1732145889000,78242000000,,78.87929278221351,-1416181028758000128,0.0,78.87929278221351,1552.8882132473896,0.0,0,21,0.0,16431,344306918929319,316,22.200000762939453,264.32657601155205,0.14999,16,0.0,0.0,1575420030,,,,0,7.4734882815908055,6,6.0,22.200000762939453,0.0,0.0,4.63244796136894,66.7128,C,24773044000000,
Raw,1732145889000,78242000000,,78.87929278221351,-1416181028758000128,0.0,78.87929278221351,1552.8882132473896,0.0,0,29,0.0,16431,344306920973718,396,21.100000381469727,708.0735112578898,0.14999,16,0.0,0.0,1575420030,,,,0,5.925243815415243,6,6.0,21.100000381469727,0.0,0.0,4.63244796136894,66.7128,C,24773044000000,
Raw,1732145889000,78242000000,,78.87929278221351,-1416181028758000128,0.0,78.87929278221351,1552.8882132473896,0.0,0,9,0.0,32995,9488933449969,235,5.0,571.3274007935516,0.14999,16,0.0,0.0,1600875010,,,,0,15.276881234888046,3,6.0,29.0,0.0,0.0,29.58156490902104,66.7128,C,24773044000000,
Raw,1732145889000,78242000000,,78.87929278221351,-1416181028758000128,0.0,78.87929278221351,1552.8882132473896,0.0,0,7,0.0,32995,9488932073375,51,5.0,900.1351885510403,0.14999,17,66187.02251980265,0.00022499999613501132,1604812540,,,,0,24.728071681517438,3,6.0,37.0,0.0,0.0,29.58156490902104,66.7128,C,24773044000000,
Raw,1732145889000,78242000000,,78.87929278221351,-1416181028758000128,0.0,78.87929278221351,1552.8882132473896,0.0,0,8,0.0,32995,9488929401947,74,5.0,183.7436616320071,0.14999,16,0.0,0.0,1605374980,,,,0,16.801903985966383,3,6.0,30.0,0.0,0.0,29.58156490902104,66.7128,C,24773044000000,
Raw,1732145889000,78242000000,,78.87929278221351,-1416181028758000128,0.0,78.87929278221351,1552.8882132473896,0.0,0,19,0.0,32995,9488927338196,316,5.0,93.84711776009424,0.14999,16,0.0,0.0,1603687550,,,,0,10.933303805230622,3,6.0,25.0,0.0,0.0,29.58156490902104,66.7128,C,24773044000000,
Raw,1732145889000,78242000000,,78.87929278221351,-1416181028758000128,0.0,78.87929278221351,1552.8882132473896,0.0,0,14,0.0,16431,344306932300461,42,38.757999420166016,414.7960247466192,0.14999,17,30537.067593398002,0.00022499999613501132,1575420030,,,,0,28.559896693360724,1,6.0,38.757999420166016,0.0,0.0,0.0,66.7128,C,24773044000000,
Raw,1732145889000,78242000000,,78.87929278221351,-1416181028758000128,0.0,78.87929278221351,1552.8882132473896,0.0,0,2,0.0,16431,344306919253213,1797,14.199999809265137,203.25545477506452,0.14999,16,0.0,0.0,1575420030,,,,0,0.0,1,6.0,14.199999809265137,0.0,0.0,0.0,66.7128,C,24773044000000,
Raw,1732145889000,78242000000,,78.87929278221351,-1416181028758000128,0.0,78.87929278221351,1552.8882132473896,0.0,0,19,0.0,16431,344306918846460,31,41.63100051879883,-236.1636931675967,0.14999,17,-4195.330656301238,0.00022499999613501132,1575420030,,,,0,30.039740043225805,1,6.0,41.63100051879883,0.0,0.0,0.0,66.7128,C,24773044000000,
Fix,FLP,37.4243867000,-122.1712633000,2.0999999046325684,0.0,1.5,,1732145889196,0.6,,24773044000000,1.0381391,0,,,
Status,1732145889000,29,0,1,14,1575420030,43.70,304.0,73.0,1,0,0,38.7
Status,1732145889000,29,1,1,30,1575420030,47.10,62.0,72.0,1,0,0,42.1
Status,1732145889000,29,2,1,22,1575420030,40.40,264.0,57.0,1,0,0,35.4
Status,1732145889000,29,3,1,13,1575420030,34.80,307.0,44.0,1,0,0,29.8
Status,1732145889000,29,4,1,7,1575420030,36.10,99.0,41.0,1,0,0,31.099998
Status,1732145889000,29,5,1,17,1575420030,41.80,176.0,40.0,1,0,0,36.8
Status,1732145889000,29,6,2,131,1575420030,32.00,3.0,23.0,0,0,0,27.0
Status,1732145889000,29,7,1,2,1575420030,0.00,91.0,14.0,0,0,0,0.0
Status,1732145889000,29,8,1,19,1575420030,46.60,193.0,14.0,1,0,0,41.6
Status,1732145889000,29,9,1,15,1575420030,46.80,318.0,14.0,1,0,0,41.8
Status,1732145889000,29,10,1,21,1575420030,0.00,73.0,13.0,0,0,0,0.0
Status,1732145889000,29,11,1,8,1575420030,0.00,40.0,12.0,0,0,0,0.0
Status,1732145889000,29,12,1,5,1575420030,0.00,266.0,9.0,0,0,0,0.0
Status,1732145889000,29,13,1,9,1575420030,0.00,159.0,4.0,0,0,0,0.0
Status,1732145889000,29,14,3,9,1602000000,27.40,8.0,55.0,1,0,0,22.4
Status,1732145889000,29,15,3,7,1602000000,41.30,236.0,47.0,1,0,0,36.3
Status,1732145889000,29,16,3,8,1602000000,33.60,309.0,37.0,1,0,0,28.599998
Status,1732145889000,29,17,3,19,1602000000,29.80,92.0,30.0,1,0,0,24.8
Status,1732145889000,29,18,3,16,1602000000,0.00,63.0,17.0,0,0,0,0.0
Status,1732145889000,29,19,3,20,1602000000,0.00,152.0,6.0,0,0,0,0.0
Status,1732145889000,29,20,3,17,1602000000,39.70,0.0,0.0,0,0,0,34.7
Status,1732145889000,29,21,6,29,1575420030,22.50,207.0,64.0,1,0,0,17.5
Status,1732145889000,29,22,6,27,1575420030,0.00,34.0,61.0,0,0,0,0.0
Status,1732145889000,29,23,6,21,1575420030,30.80,263.0,55.0,1,0,0,25.8
Status,1732145889000,29,24,6,19,1575420030,30.40,301.0,48.0,1,0,0,25.4
Status,1732145889000,29,25,6,7,1575420030,0.00,160.0,20.0,0,0,0,0.0
Status,1732145889000,29,26,6,30,1575420030,0.00,56.0,13.0,0,0,0,0.0
Status,1732145889000,29,27,6,15,1575420030,0.00,97.0,9.0,0,0,0,0.0
Status,1732145889000,29,28,6,34,1575420030,0.00,50.0,5.0,0,0,0,0.0
Fix,GPS,37.4243866667,-122.1712633333,15.000000000000004,0.0,1.5,286.75,1732145890000,0.5,179.9,24774044000000,30.3,0,,,
Fix,FLP,37.4243867000,-122.1712633000,2.0999999046325684,0.0,1.5,,1732145890196,0.5,,24774044000000,1.0481325,0,,,
Raw,1732145890000,79242000000,,79.53447524916879,-1416181028758000128,0.0,79.53447524916879,1553.6844810518157,0.0,0,30,0.0,16431,344307931588876,31,42.064998626708984,512.8007041605767,0.14999,17,36860.60377795654,0.00022499999613501132,1575420030,,,,0,30.61573057740801,1,6.0,42.064998626708984,0.0,0.0,0.0,66.7128,C,24774044000000,
Raw,1732145890000,79242000000,,79.53447524916879,-1416181028758000128,0.0,79.53447524916879,1553.6844810518157,0.0,0,22,0.0,16431,344307929809032,51,35.39099884033203,264.9029623522681,0.14999,17,17285.20631304075,0.00022499999613501132,1575420030,,,,0,25.090426504101973,1,6.0,35.39099884033203,0.0,0.0,0.0,66.7128,C,24774044000000,
Raw,1732145890000,79242000000,,79.53447524916879,-1416181028758000128,0.0,79.53447524916879,1553.6844810518157,0.0,0,17,0.0,16431,344307927819906,51,36.81700134277344,-67.327954898058,0.14999,17,-8920.446802015142,0.00022499999613501132,1575420030,,,,0,24.368210840092008,1,6.0,36.81700134277344,0.0,0.0,0.0,66.7128,C,24774044000000,
Raw,1732145890000,79242000000,,79.53447524916879,-1416181028758000128,0.0,79.53447524916879,1553.6844810518157,0.0,0,13,0.0,16431,344307928891628,235,29.798999786376953,100.9977164199052,0.14999,17,4401.887691246829,0.0008999999845400453,1575420030,,,,0,16.294605460800863,1,6.0,29.798999786376953,0.0,0.0,0.0,66.7128,C,24774044000000,
Raw,1732145890000,79242000000,,79.53447524916879,-1416181028758000128,0.0,79.53447524916879,1553.6844810518157,0.0,0,7,0.0,16431,344307926855330,74,31.135000228881836,784.7504790836592,0.14999,17,58214.17045910342,0.0006249999860301614,1575420030,,,,0,18.314963986418526,1,6.0,31.135000228881836,0.0,0.0,0.0,66.7128,C,24774044000000,
Raw,1732145890000,79242000000,,79.53447524916879,-1416181028758000128,0.0,79.53447524916879,1553.6844810518157,0.0,0,15,0.0,16431,344307920852003,31,41.766998291015625,-70.29808790481393,0.14999,17,4323.302992765252,0.00022499999613501132,1575420030,,,,0,29.263557459950622,1,6.0,41.766998291015625,0.0,0.0,0.0,66.7128,C,24774044000000,
Raw,1732145890000,79242000000,,79.53447524916879,-1416181028758000128,0.0,79.53447524916879,1553.6844810518157,0.0,0,19,0.0,16431,344307919274717,235,25.434999465942383,231.5418240893075,0.14999,16,0.0,0.0,1575420030,,,,0,12.488430085586483,6,6.0,25.434999465942383,0.0,0.0,2.9250354166863994,66.7128,C,24774044000000,
Raw,1732145890000,79242000000,,79.53447524916879,-1416181028758000128,0.0,79.53447524916879,1553.6844810518157,0.0,0,21,0.0,16431,344307918928440,316,25.799999237060547,264.88495971598655,0.14999,16,0.0,0.0,1575420030,,,,0,12.051128528542012,6,6.0,25.799999237060547,0.0,0.0,2.9250354166863994,66.7128,C,24774044000000,
Raw,1732145890000,79242000000,,79.53447524916879,-1416181028758000128,0.0,79.53447524916879,1553.6844810518157,0.0,0,29,0.0,16431,344307920971356,396,17.5,708.4052708080493,0.14999,16,0.0,0.0,1575420030,,,,0,0.0,6,6.0,17.5,0.0,0.0,2.9250354166863994,66.7128,C,24774044000000,
Raw,1732145890000,79242000000,,79.53447524916879,-1416181028758000128,0.0,79.53447524916879,1553.6844810518157,0.0,0,9,0.0,32995,9489933448072,396,5.0,569.891573745921,0.14999,16,0.0,0.0,1600875010,,,,0,7.663261170277408,3,6.0,22.0,0.0,0.0,25.754236676901087,66.7128,C,24774044000000,
Raw,1732145890000,79242000000,,79.53447524916879,-1416181028758000128,0.0,79.53447524916879,1553.6844810518157,0.0,0,7,0.0,32995,9489932070375,58,5.0,900.4715896179922,0.14999,17,67087.62952384824,0.00039999998989515007,1604812540,,,,0,21.867424414275018,3,6.0,35.0,0.0,0.0,25.754236676901087,66.7128,C,24774044000000,
Raw,1732145890000,79242000000,,79.53447524916879,-1416181028758000128,0.0,79.53447524916879,1553.6844810518157,0.0,0,8,0.0,32995,9489929401326,235,5.0,184.19374131205166,0.14999,16,0.0,0.0,1605374980,,,,0,15.400742273372273,3,6.0,29.0,0.0,0.0,25.754236676901087,66.7128,C,24774044000000,
Raw,1732145890000,79242000000,,79.53447524916879,-1416181028758000128,0.0,79.53447524916879,1553.6844810518157,0.0,0,19,0.0,32995,9489927337882,396,5.0,95.1622659947731,0.14999,16,0.0,0.0,1603687550,,,,0,8.750414416729262,3,6.0,23.0,0.0,0.0,25.754236676901087,66.7128,C,24774044000000,
Raw,1732145890000,79242000000,,79.53447524916879,-1416181028758000128,0.0,79.53447524916879,1553.6844810518157,0.0,0,14,0.0,16431,344307932299078,51,38.7239990234375,414.986643628331,0.14999,17,30952.29523134947,0.00022499999613501132,1575420030,,,,0,25.74482279288421,1,6.0,38.7239990234375,0.0,0.0,0.0,66.7128,C,24774044000000,
Raw,1732145890000,79242000000,,79.53447524916879,-1416181028758000128,0.0,79.53447524916879,1553.6844810518157,0.0,0,19,0.0,16431,344307918847248,42,41.573001861572266,-235.99853349796822,0.14999,17,-4431.098982539581,0.00022499999613501132,1575420030,,,,0,28.3105455772859,1,6.0,41.573001861572266,0.0,0.0,0.0,66.7128,C,24774044000000,
Status,1732145890000,29,0,1,14,1575420030,43.70,304.0,73.0,1,0,0,38.7
Status,1732145890000,29,1,1,30,1575420030,47.10,62.0,72.0,1,0,0,42.1
Status,1732145890000,29,2,1,22,1575420030,43.30,264.0,57.0,1,0,0,38.3
Status,1732145890000,29,3,1,13,1575420030,35.70,307.0,44.0,1,0,0,30.7
Status,1732145890000,29,4,1,7,1575420030,36.20,99.0,41.0,1,0,0,31.2
Status,1732145890000,29,5,1,17,1575420030,44.40,176.0,40.0,1,0,0,39.4
Status,1732145890000,29,6,2,131,1575420030,34.00,3.0,23.0,0,0,0,29.0
Status,1732145890000,29,7,1,2,1575420030,0.00,91.0,14.0,0,0,0,0.0
Status,1732145890000,29,8,1,19,1575420030,46.60,193.0,14.0,1,0,0,41.6
Status,1732145890000,29,9,1,15,1575420030,46.80,318.0,14.0,1,0,0,41.8
Status,1732145890000,29,10,1,21,1575420030,0.00,73.0,13.0,0,0,0,0.0
Status,1732145890000,29,11,1,8,1575420030,0.00,40.0,12.0,0,0,0,0.0
Status,1732145890000,29,12,1,5,1575420030,0.00,266.0,9.0,0,0,0,0.0
Status,1732145890000,29,13,1,9,1575420030,0.00,159.0,4.0,0,0,0,0.0
Status,1732145890000,29,14,3,9,1602000000,31.20,8.0,55.0,1,0,0,26.2
Status,1732145890000,29,15,3,7,1602000000,41.30,236.0,47.0,1,0,0,36.3
Status,1732145890000,29,16,3,8,1602000000,33.00,308.0,37.0,1,0,0,28.0
Status,1732145890000,29,17,3,19,1602000000,26.70,92.0,30.0,1,0,0,21.7
Status,1732145890000,29,18,3,16,1602000000,0.00,63.0,17.0,0,0,0,0.0
Status,1732145890000,29,19,3,20,1602000000,0.00,152.0,6.0,0,0,0,0.0
Status,1732145890000,29,20,3,17,1602000000,39.80,0.0,0.0,0,0,0,34.8
Status,1732145890000,29,21,6,29,1575420030,24.30,207.0,64.0,1,0,0,19.3
Status,1732145890000,29,22,6,27,1575420030,0.00,34.0,61.0,0,0,0,0.0
Status,1732145890000,29,23,6,21,1575420030,30.10,263.0,55.0,1,0,0,25.1
Status,1732145890000,29,24,6,19,1575420030,30.40,301.0,48.0,1,0,0,25.4
Status,1732145890000,29,25,6,7,1575420030,0.00,160.0,20.0,0,0,0,0.0
Status,1732145890000,29,26,6,30,1575420030,0.00,56.0,13.0,0,0,0,0.0
Status,1732145890000,29,27,6,15,1575420030,0.00,97.0,9.0,0,0,0,0.0
Status,1732145890000,29,28,6,34,1575420030,0.00,50.0,5.0,0,0,0,0.0
Fix,GPS,37.4243866667,-122.1712633333,15.000000000000004,0.0,1.5,286.75,1732145891000,0.5,179.9,24775044000000,30.5,0,,,
Raw,1732145891000,80242000000,,79.96120275376799,-1416181028758000128,0.0,79.96120275376799,1553.6379947522616,0.0,0,30,0.0,16431,344308931587166,31,42.124000549316406,512.8896720276199,0.14999,17,37373.437470496276,0.00022499999613501132,1575420030,,,,0,31.221929230505296,1,6.0,42.124000549316406,0.0,0.0,0.0,66.7128,C,24775044000000,
Raw,1732145891000,80242000000,,79.96120275376799,-1416181028758000128,0.0,79.96120275376799,1553.6379947522616,0.0,0,22,0.0,16431,344308929808143,51,38.33000183105469,264.9412440872256,0.14999,17,17550.160188009886,0.00022499999613501132,1575420030,,,,0,26.012570187835347,1,6.0,38.33000183105469,0.0,0.0,0.0,66.7128,C,24775044000000,
Raw,1732145891000,80242000000,,79.96120275376799,-1416181028758000128,0.0,79.96120275376799,1553.6379947522616,0.0,0,17,0.0,16431,344308927820132,42,39.40700149536133,-67.28971962151672,0.14999,17,-8987.792036540379,0.00022499999613501132,1575420030,,,,0,27.166789495776765,1,6.0,39.40700149536133,0.0,0.0,0.0,66.7128,C,24775044000000,
Raw,1732145891000,80242000000,,79.96120275376799,-1416181028758000128,0.0,79.96120275376799,1553.6379947522616,0.0,0,13,0.0,16431,344308928891288,74,30.652000427246094,101.06350153725933,0.14999,16,0.0,0.0,1575420030,,,,0,17.330894269224792,1,6.0,30.652000427246094,0.0,0.0,0.0,66.7128,C,24775044000000,
Raw,1732145891000,80242000000,,79.96120275376799,-1416181028758000128,0.0,79.96120275376799,1553.6379947522616,0.0,0,7,0.0,16431,344308926852713,58,31.238000869750977,784.647155566007,0.14999,17,58998.83836125592,0.00039999998989515007,1575420030,,,,0,20.341390676247194,1,6.0,31.238000869750977,0.0,0.0,0.0,66.7128,C,24775044000000,
Raw,1732145891000,80242000000,,79.96120275376799,-1416181028758000128,0.0,79.96120275376799,1553.6379947522616,0.0,0,15,0.0,16431,344308920852236,31,41.777000427246094,-70.24726239747959,0.14999,17,4253.033979118034,0.00022499999613501132,1575420030,,,,0,29.88381577064044,1,6.0,41.777000427246094,0.0,0.0,0.0,66.7128,C,24775044000000,
Raw,1732145891000,80242000000,,79.96120275376799,-1416181028758000128,0.0,79.96120275376799,1553.6379947522616,0.0,0,19,0.0,16431,344308919273945,235,25.417999267578125,231.3869781880778,0.14999,16,0.0,0.0,1575420030,,,,0,11.236719321439113,6,6.0,25.417999267578125,0.0,0.0,-0.7740336343799176,66.7128,C,24775044000000,
Raw,1732145891000,80242000000,,79.96120275376799,-1416181028758000128,0.0,79.96120275376799,1553.6379947522616,0.0,0,21,0.0,16431,344308918927562,235,25.100000381469727,264.6916462461345,0.14999,16,0.0,0.0,1575420030,,,,0,11.170791948854536,6,6.0,25.100000381469727,0.0,0.0,-0.7740336343799176,66.7128,C,24775044000000,
Raw,1732145891000,80242000000,,79.96120275376799,-1416181028758000128,0.0,79.96120275376799,1553.6379947522616,0.0,0,29,0.0,16431,344308920968993,396,19.299999237060547,708.4909401275414,0.14999,16,0.0,0.0,1575420030,,,,0,3.087012789873752,6,6.0,19.299999237060547,0.0,0.0,-0.7740336343799176,66.7128,C,24775044000000,
Raw,1732145891000,80242000000,,79.96120275376799,-1416181028758000128,0.0,79.96120275376799,1553.6379947522616,0.0,0,9,0.0,32995,9490933446172,316,5.0,572.2903947468789,0.14999,16,0.0,0.0,1600875010,,,,0,12.582909756938921,3,6.0,26.0,0.0,0.0,22.202539740346538,66.7128,C,24775044000000,
Raw,1732145891000,80242000000,,79.96120275376799,-1416181028758000128,0.0,79.96120275376799,1553.6379947522616,0.0,0,7,0.0,32995,9490932067370,58,5.0,900.5960069323421,0.14999,17,67988.12782807102,0.00039999998989515007,1604812540,,,,0,22.453500479426758,3,6.0,35.0,0.0,0.0,22.202539740346538,66.7128,C,24775044000000,
Raw,1732145891000,80242000000,,79.96120275376799,-1416181028758000128,0.0,79.96120275376799,1553.6379947522616,0.0,0,8,0.0,32995,9490929400706,235,5.0,184.48675813778573,0.14999,16,0.0,0.0,1605374980,,,,0,14.688060188688635,3,6.0,28.0,0.0,0.0,22.202539740346538,66.7128,C,24775044000000,
Raw,1732145891000,80242000000,,79.96120275376799,-1416181028758000128,0.0,79.96120275376799,1553.6379947522616,0.0,0,19,0.0,32995,9490927337565,396,5.0,95.09900962840494,0.14999,16,0.0,0.0,1603687550,,,,0,6.727196613494964,3,6.0,22.0,0.0,0.0,22.202539740346538,66.7128,C,24775044000000,
Raw,1732145891000,80242000000,,79.96120275376799,-1416181028758000128,0.0,79.96120275376799,1553.6379947522616,0.0,0,14,0.0,16431,344308932297694,42,38.707000732421875,415.02478598803987,0.14999,17,31367.329050595814,0.00022499999613501132,1575420030,,,,0,26.09012328909938,1,6.0,38.707000732421875,0.0,0.0,0.0,66.7128,C,24775044000000,
Raw,1732145891000,80242000000,,79.96120275376799,-1416181028758000128,0.0,79.96120275376799,1553.6379947522616,0.0,0,19,0.0,16431,344308918848037,31,41.58399963378906,-236.01121664559372,0.14999,17,-4667.133405164072,0.00022499999613501132,1575420030,,,,0,29.717221344208916,1,6.0,41.58399963378906,0.0,0.0,0.0,66.7128,C,24775044000000,
Fix,FLP,37.4243867000,-122.1712633000,2.0999999046325684,0.0,1.5,,1732145891196,0.5,,24775044000000,1.0581342,0,,,
Status,1732145891000,29,0,1,14,1575420030,43.70,304.0,73.0,1,0,0,38.7
Status,1732145891000,29,1,1,30,1575420030,47.20,62.0,72.0,1,0,0,42.2
Status,1732145891000,29,2,1,22,1575420030,43.40,264.0,57.0,1,0,0,38.4
Status,1732145891000,29,3,1,13,1575420030,35.10,307.0,44.0,1,0,0,30.099998
Status,1732145891000,29,4,1,7,1575420030,39.50,99.0,41.0,1,0,0,34.5
Status,1732145891000,29,5,1,17,1575420030,44.40,176.0,40.0,1,0,0,39.4
Status,1732145891000,29,6,2,131,1575420030,35.00,3.0,23.0,0,0,0,30.0
Status,1732145891000,29,7,1,2,1575420030,0.00,91.0,14.0,0,0,0,0.0
Status,1732145891000,29,8,1,19,1575420030,46.60,193.0,14.0,1,0,0,41.6
Status,1732145891000,29,9,1,15,1575420030,46.80,318.0,14.0,1,0,0,41.8
Status,1732145891000,29,10,1,21,1575420030,0.00,73.0,13.0,0,0,0,0.0
Status,1732145891000,29,11,1,8,1575420030,0.00,40.0,12.0,0,0,0,0.0
Status,1732145891000,29,12,1,5,1575420030,0.00,266.0,9.0,0,0,0,0.0
Status,1732145891000,29,13,1,9,1575420030,0.00,159.0,4.0,0,0,0,0.0
Status,1732145891000,29,14,3,9,1602000000,30.10,9.0,55.0,1,0,0,25.1
Status,1732145891000,29,15,3,7,1602000000,41.30,236.0,47.0,1,0,0,36.3
Status,1732145891000,29,16,3,8,1602000000,36.30,308.0,37.0,1,0,0,31.3
Status,1732145891000,29,17,3,19,1602000000,26.80,92.0,30.0,1,0,0,21.8
Status,1732145891000,29,18,3,16,1602000000,0.00,63.0,17.0,0,0,0,0.0
Status,1732145891000,29,19,3,20,1602000000,0.00,152.0,6.0,0,0,0,0.0
Status,1732145891000,29,20,3,17,1602000000,39.70,0.0,0.0,0,0,0,34.7
Status,1732145891000,29,21,6,29,1575420030,23.30,207.0,64.0,1,0,0,18.3
Status,1732145891000,29,22,6,27,1575420030,0.00,34.0,61.0,0,0,0,0.0
Status,1732145891000,29,23,6,21,1575420030,29.50,263.0,55.0,1,0,0,24.5
Status,1732145891000,29,24,6,19,1575420030,30.30,301.0,48.0,1,0,0,25.3
Status,1732145891000,29,25,6,7,1575420030,0.00,160.0,20.0,0,0,0,0.0
Status,1732145891000,29,26,6,30,1575420030,0.00,56.0,13.0,0,0,0,0.0
Status,1732145891000,29,27,6,15,1575420030,0.00,97.0,9.0,0,0,0,0.0
Status,1732145891000,29,28,6,34,1575420030,0.00,50.0,5.0,0,0,0,0.0
Fix,GPS,37.4243866667,-122.1712633333,15.000000000000004,0.0,1.5,286.75,1732145892000,0.5,179.9,24776044000000,30.6,0,,,
Raw,1732145892000,81242000000,,80.33380040374634,-1416181028758000128,0.0,80.33380040374634,1554.7186651942834,0.0,0,30,0.0,16431,344309931585457,31,42.20800018310547,513.2449859947981,0.14999,17,37886.45004826398,0.00022499999613501132,1575420030,,,,0,31.81318558993777,1,6.0,42.20800018310547,0.0,0.0,0.0,66.7128,C,24776044000000,
Raw,1732145892000,81242000000,,80.33380040374634,-1416181028758000128,0.0,80.33380040374634,1554.7186651942834,0.0,0,22,0.0,16431,344309929807256,42,38.35100173950195,265.4486164506609,0.14999,17,17815.29407772723,0.00022499999613501132,1575420030,,,,0,26.48487247268209,1,6.0,38.35100173950195,0.0,0.0,0.0,66.7128,C,24776044000000,
Raw,1732145892000,81242000000,,80.33380040374634,-1416181028758000128,0.0,80.33380040374634,1554.7186651942834,0.0,0,17,0.0,16431,344309927820360,42,39.43899917602539,-66.85849260225051,0.14999,17,-9054.939224644613,0.00022499999613501132,1575420030,,,,0,27.857389080811778,1,6.0,39.43899917602539,0.0,0.0,0.0,66.7128,C,24776044000000,
Raw,1732145892000,81242000000,,80.33380040374634,-1416181028758000128,0.0,80.33380040374634,1554.7186651942834,0.0,0,13,0.0,16431,344309928890953,74,30.136999130249023,101.28176317661644,0.14999,16,0.0,0.0,1575420030,,,,0,16.70659085064302,1,6.0,30.136999130249023,0.0,0.0,0.0,66.7128,C,24776044000000,
Raw,1732145892000,81242000000,,80.33380040374634,-1416181028758000128,0.0,80.33380040374634,1554.7186651942834,0.0,0,7,0.0,16431,344309926850095,58,34.49300003051758,785.1421235323141,0.14999,17,59783.65370790321,0.00039999998989515007,1575420030,,,,0,21.790632744242487,1,6.0,34.49300003051758,0.0,0.0,0.0,66.7128,C,24776044000000,
Raw,1732145892000,81242000000,,80.33380040374634,-1416181028758000128,0.0,80.33380040374634,1554.7186651942834,0.0,0,15,0.0,16431,344309920852470,31,41.762001037597656,-69.7526660985022,0.14999,17,4182.965982326805,0.00022499999613501132,1575420030,,,,0,29.370058737921635,1,6.0,41.762001037597656,0.0,0.0,0.0,66.7128,C,24776044000000,
Raw,1732145892000,81242000000,,80.33380040374634,-1416181028758000128,0.0,80.33380040374634,1554.7186651942834,0.0,0,19,0.0,16431,344309919273173,316,25.347000122070312,231.53155677932497,0.14999,16,0.0,0.0,1575420030,,,,0,9.851136718294608,6,6.0,25.347000122070312,0.0,0.0,-3.875564666381421,66.7128,C,24776044000000,
Raw,1732145892000,81242000000,,80.33380040374634,-1416181028758000128,0.0,80.33380040374634,1554.7186651942834,0.0,0,21,0.0,16431,344309918926685,316,24.5,264.90535496070294,0.14999,16,0.0,0.0,1575420030,,,,0,10.48244065278067,6,6.0,24.5,0.0,0.0,-3.875564666381421,66.7128,C,24776044000000,
Raw,1732145892000,81242000000,,80.33380040374634,-1416181028758000128,0.0,80.33380040374634,1554.7186651942834,0.0,0,29,0.0,16431,344309920966630,487,18.299999237060547,708.3117035578013,0.14999,16,0.0,0.0,1575420030,,,,0,1.4275280885784731,6,6.0,18.299999237060547,0.0,0.0,-3.875564666381421,66.7128,C,24776044000000,
Raw,1732145892000,81242000000,,80.33380040374634,-1416181028758000128,0.0,80.33380040374634,1554.7186651942834,0.0,0,9,0.0,32995,9491933444262,316,5.0,571.8573377879501,0.14999,16,0.0,0.0,1600875010,,,,0,11.170791948854536,3,6.0,25.0,0.0,0.0,19.390288419641365,66.7128,C,24776044000000,
Raw,1732145892000,81242000000,,80.33380040374634,-1416181028758000128,0.0,80.33380040374634,1554.7186651942834,0.0,0,7,0.0,32995,9491932064367,51,5.0,901.1191251858588,0.14999,17,68888.86383298671,0.00022499999613501132,1604812540,,,,0,24.138301986013037,3,6.0,37.0,0.0,0.0,19.390288419641365,66.7128,C,24776044000000,
Raw,1732145892000,81242000000,,80.33380040374634,-1416181028758000128,0.0,80.33380040374634,1554.7186651942834,0.0,0,8,0.0,32995,9491929400087,74,5.0,184.64357023862783,0.14999,16,0.0,0.0,1605374980,,,,0,18.47403804333911,3,6.0,32.0,0.0,0.0,19.390288419641365,66.7128,C,24776044000000,
Raw,1732145892000,81242000000,,80.33380040374634,-1416181028758000128,0.0,80.33380040374634,1554.7186651942834,0.0,0,19,0.0,32995,9491927337247,396,5.0,95.19188603934232,0.14999,16,0.0,0.0,1603687550,,,,0,8.750414416729262,3,6.0,23.0,0.0,0.0,19.390288419641365,66.7128,C,24776044000000,
Raw,1732145892000,81242000000,,80.33380040374634,-1416181028758000128,0.0,80.33380040374634,1554.7186651942834,0.0,0,14,0.0,16431,344309932296310,42,38.72999954223633,415.50679205622424,0.14999,17,31782.556981816037,0.00022499999613501132,1575420030,,,,0,26.916627098774796,1,6.0,38.72999954223633,0.0,0.0,0.0,66.7128,C,24776044000000,
Raw,1732145892000,81242000000,,80.33380040374634,-1416181028758000128,0.0,80.33380040374634,1554.7186651942834,0.0,0,19,0.0,16431,344309918848824,42,41.55400085449219,-235.66872520128962,0.14999,17,-4903.045206606277,0.00022499999613501132,1575420030,,,,0,28.85860653216062,1,6.0,41.55400085449219,0.0,0.0,0.0,66.7128,C,24776044000000,
Fix,FLP,37.4243867000,-122.1712633000,2.0999999046325684,0.0,1.5,,1732145892196,0.5,,24776044000000,1.068132,0,,,
Fix,NLP,37.4243639000,-122.1711604000,2.0999999046325684,,22.097,,1732145892123,,,24775971000000,1.0,0,,,
Status,1732145892000,29,0,1,14,1575420030,43.70,304.0,73.0,1,0,0,38.7
Status,1732145892000,29,1,1,30,1575420030,47.30,62.0,72.0,1,0,0,42.3
Status,1732145892000,29,2,1,22,1575420030,43.40,264.0,57.0,1,0,0,38.4
Status,1732145892000,29,3,1,13,1575420030,31.00,307.0,44.0,1,0,0,26.0
Status,1732145892000,29,4,1,7,1575420030,39.50,99.0,41.0,1,0,0,34.5
Status,1732145892000,29,5,1,17,1575420030,44.50,176.0,40.0,1,0,0,39.5
Status,1732145892000,29,6,2,131,1575420030,33.00,3.0,23.0,0,0,0,28.0
Status,1732145892000,29,7,1,2,1575420030,0.00,91.0,14.0,0,0,0,0.0
Status,1732145892000,29,8,1,19,1575420030,46.50,193.0,14.0,1,0,0,41.5
Status,1732145892000,29,9,1,15,1575420030,46.80,318.0,14.0,1,0,0,41.8
Status,1732145892000,29,10,1,21,1575420030,0.00,73.0,13.0,0,0,0,0.0
Status,1732145892000,29,11,1,8,1575420030,0.00,40.0,12.0,0,0,0,0.0
Status,1732145892000,29,12,1,5,1575420030,0.00,266.0,9.0,0,0,0,0.0
Status,1732145892000,29,13,1,9,1575420030,0.00,159.0,4.0,0,0,0,0.0
Status,1732145892000,29,14,3,9,1602000000,29.70,9.0,55.0,1,0,0,24.7
Status,1732145892000,29,15,3,7,1602000000,41.30,236.0,47.0,1,0,0,36.3
Status,1732145892000,29,16,3,8,1602000000,36.40,308.0,37.0,1,0,0,31.400002
Status,1732145892000,29,17,3,19,1602000000,26.80,92.0,30.0,1,0,0,21.8
Status,1732145892000,29,18,3,16,1602000000,0.00,63.0,17.0,0,0,0,0.0
Status,1732145892000,29,19,3,20,1602000000,0.00,152.0,6.0,0,0,0,0.0
Status,1732145892000,29,20,3,17,1602000000,39.80,0.0,0.0,0,0,0,34.8
Status,1732145892000,29,21,6,29,1575420030,20.60,207.0,64.0,1,0,0,15.6
Status,1732145892000,29,22,6,27,1575420030,0.00,34.0,61.0,0,0,0,0.0
Status,1732145892000,29,23,6,21,1575420030,31.20,263.0,55.0,1,0,0,26.2
Status,1732145892000,29,24,6,19,1575420030,30.40,301.0,48.0,1,0,0,25.4
Status,1732145892000,29,25,6,7,1575420030,0.00,160.0,20.0,0,0,0,0.0
Status,1732145892000,29,26,6,30,1575420030,0.00,56.0,13.0,0,0,0,0.0
Status,1732145892000,29,27,6,15,1575420030,0.00,97.0,9.0,0,0,0,0.0
Status,1732145892000,29,28,6,34,1575420030,0.00,50.0,5.0,0,0,0,0.0
Fix,GPS,37.4243866667,-122.1712633333,15.000000000000004,0.0,1.4,286.75,1732145893000,0.4,179.9,24777044000000,30.8,0,,,
Raw,1732145893000,82242000000,,80.79992283780162,-1416181028758000128,0.0,80.79992283780162,1555.421521078888,0.0,0,30,0.0,16431,344310931583745,31,42.26599884033203,513.5749336667253,0.14999,17,38399.85990937061,0.00022499999613501132,1575420030,,,,0,31.355761819996758,1,6.0,42.26599884033203,0.0,0.0,0.0,66.7128,C,24777044000000,
Raw,1732145893000,82242000000,,80.79992283780162,-1416181028758000128,0.0,80.79992283780162,1555.421521078888,0.0,0,22,0.0,16431,344310929806368,42,38.448001861572266,265.71510192604455,0.14999,17,18080.826078324037,0.00022499999613501132,1575420030,,,,0,28.12929250704328,1,6.0,38.448001861572266,0.0,0.0,0.0,66.7128,C,24777044000000,
Raw,1732145893000,82242000000,,80.79992283780162,-1416181028758000128,0.0,80.79992283780162,1555.421521078888,0.0,0,17,0.0,16431,344310927820583,42,39.45800018310547,-66.61737342211781,0.14999,17,-9121.674712782644,0.00022499999613501132,1575420030,,,,0,27.616644828254927,1,6.0,39.45800018310547,0.0,0.0,0.0,66.7128,C,24777044000000,
Raw,1732145893000,82242000000,,80.79992283780162,-1416181028758000128,0.0,80.79992283780162,1555.421521078888,0.0,0,13,0.0,16431,344310928890618,316,26.018999099731445,101.63034067344411,0.14999,16,0.0,0.0,1575420030,,,,0,11.463602472512337,1,6.0,26.018999099731445,0.0,0.0,0.0,66.7128,C,24777044000000,
Raw,1732145893000,82242000000,,80.79992283780162,-1416181028758000128,0.0,80.79992283780162,1555.421521078888,0.0,0,7,0.0,16431,344310926847478,51,34.54499816894531,785.3072367435263,0.14999,17,60568.85668324981,0.00022499999613501132,1575420030,,,,0,22.964465975056807,1,6.0,34.54499816894531,0.0,0.0,0.0,66.7128,C,24777044000000,
Raw,1732145893000,82242000000,,80.79992283780162,-1416181028758000128,0.0,80.79992283780162,1555.421521078888,0.0,0,15,0.0,16431,344310920852700,31,41.78300094604492,-69.47363685074171,0.14999,17,4113.296833942393,0.00022499999613501132,1575420030,,,,0,30.122266931400745,1,6.0,41.78300094604492,0.0,0.0,0.0,66.7128,C,24777044000000,
Raw,1732145893000,82242000000,,80.79992283780162,-1416181028758000128,0.0,80.79992283780162,1555.421521078888,0.0,0,19,0.0,16431,344310919272398,235,25.41900062561035,232.04410925616776,0.14999,16,0.0,0.0,1575420030,,,,0,13.302056284115238,6,6.0,25.41900062561035,0.0,0.0,-6.800969917756389,66.7128,C,24777044000000,
Raw,1732145893000,82242000000,,80.79992283780162,-1416181028758000128,0.0,80.79992283780162,1555.421521078888,0.0,0,21,0.0,16431,344310918925804,235,26.200000762939453,265.3460130384599,0.14999,16,0.0,0.0,1575420030,,,,0,12.57330916140023,6,6.0,26.200000762939453,0.0,0.0,-6.800969917756389,66.7128,C,24777044000000,
Raw,1732145893000,82242000000,,80.79992283780162,-1416181028758000128,0.0,80.79992283780162,1555.421521078888,0.0,0,29,0.0,16431,344310920964268,797,15.600000381469727,709.312789510306,0.14999,16,0.0,0.0,1575420030,,,,0,0.0,6,6.0,15.600000381469727,0.0,0.0,-6.800969917756389,66.7128,C,24777044000000,
Raw,1732145893000,82242000000,,80.79992283780162,-1416181028758000128,0.0,80.79992283780162,1555.421521078888,0.0,0,9,0.0,32995,9492933442354,487,5.0,572.0994692970809,0.14999,16,0.0,0.0,1600875010,,,,0,10.681976625640242,3,6.0,19.0,0.0,0.0,18.373610566625075,66.7128,C,24777044000000,
Raw,1732145893000,82242000000,,80.79992283780162,-1416181028758000128,0.0,80.79992283780162,1555.421521078888,0.0,0,7,0.0,32995,9492932061360,51,5.0,901.4178544413544,0.14999,17,69790.07635097149,0.00022499999613501132,1604812540,,,,0,24.191426858887837,3,6.0,37.0,0.0,0.0,18.373610566625075,66.7128,C,24777044000000,
Raw,1732145893000,82242000000,,80.79992283780162,-1416181028758000128,0.0,80.79992283780162,1555.421521078888,0.0,0,8,0.0,32995,9492929399473,58,5.0,185.227210334261,0.14999,17,11365.906578315953,0.00039999998989515007,1605374980,,,,0,19.875646975047623,3,6.0,33.0,0.0,0.0,18.373610566625075,66.7128,C,24777044000000,
Raw,1732145893000,82242000000,,80.79992283780162,-1416181028758000128,0.0,80.79992283780162,1555.421521078888,0.0,0,19,0.0,32995,9492927336924,396,5.0,96.18532134001745,0.14999,16,0.0,0.0,1603687550,,,,0,8.045766887661129,3,6.0,23.0,0.0,0.0,18.373610566625075,66.7128,C,24777044000000,
Raw,1732145893000,82242000000,,80.79992283780162,-1416181028758000128,0.0,80.79992283780162,1555.421521078888,0.0,0,14,0.0,16431,344310932294924,51,38.70100021362305,415.83660035290285,0.14999,17,32198.164806409266,0.00022499999613501132,1575420030,,,,0,25.830913731252537,1,6.0,38.70100021362305,0.0,0.0,0.0,66.7128,C,24777044000000,
Raw,1732145893000,82242000000,,80.79992283780162,-1416181028758000128,0.0,80.79992283780162,1555.421521078888,0.0,0,19,0.0,16431,344310918849610,42,41.52799987792969,-235.51620222087044,0.14999,17,-5138.624084134267,0.00022499999613501132,1575420030,,,,0,28.914561416103663,1,6.0,41.52799987792969,0.0,0.0,0.0,66.7128,C,24777044000000,
